~VERSION INFORMATION
 VERS.                 2.0:   CWLS LOG ASCII STANDARD -VERSION 2.0
 WRAP.                  NO:   ONE LINE PER DEPTH STEP
~WELL INFORMATION BLOCK
#MNEM.UNIT           DATA                    DESCRIPTION OF MNEMONIC
#---------    -------------------            -------------------------------
# Generated from Intellog Unique Number	CW_76_78/WELL/1029
WELL.         PETROMK ET AL MARTENCK 11-32   : Well_name    - WELL
LOC .         00/11-32-077-05W5/0            : Location     - LOCATION
UWI .         00/11-32-077-05W5/0            : Uwi          - UNIQUE WELL ID
ENTR.         JAYE                           : Entered      - ENTERED BY
SRVC.         SCHLUMBERGER                   : Scn          - SERVICE COMPANY
DATE.         5 MAR 79                       : Date         - LOG DATE
STRT.M        385                            : top_depth    - START DEPTH
STOP.M        595                            : bot_depth    - STOP DEPTH
STEP.M        0.25                           : increment    - STEP LENGTH
 NULL. -999.2500:NULL Value
~CURVE INFORMATION BLOCK
#MNEM UNIT       ERCB CURVE CODE    CURVE DESCRIPTION
#-----------   ------------------   ----------------------------------
DEPT.M        00 001 00 00         : DEPTH        - DEPTH
ILD .OHMM     00 120 00 00         : RESD         - DEEP RESISTIVITY (DIL)
DPHI.V/V      00 890 00 00         : PHID         - DENSITY POROSITY (SANDSTONE)
NPHI.V/V      00 330 00 00         : PHIN         - NEUTRON POROSITY (SANDSTONE)
GR  .API      00 310 00 00         : GR           - GAMMA RAY
CALI.MM       00 280 01 00         : CAL          - CALIPER
~PARAMETER INFORMATION
#MNEM.UNIT           DATA             DESCRIPTION OF MNEMONIC
#---------         -----------     ------------------------------
GL  .M        684.5                : gl           - GROUND LEVEL ELEVATION
EREF.M        688.5                : kb           - ELEVATION OF DEPTH REFERENCE
DATM.M        684.5                : datum        - DATUM ELEVATION
TDD .M        1896                 : tdd          - TOTAL DEPTH DRILLER
RUN .         ONE                  : Run          - RUN NUMBER
BASE.         EDM                  : Branch       - HOME BASE OF LOGGING UNIT
MATR.         SANDSTONE            : Logunit      - NEUTRON MATRIX
TMAX.C        22.2                 : BHT          - MAXIMUM RECORDED TEMPERATURE
BHTD.M        1896.3               : BHTDEP       - MAXIMUM RECORDED TEMPERATURE
RMT .C        22.2                 : MDTP         - TEMPERATURE OF MUD
MUDD.KG/M     0                    : MWT          - MUD DENSITY
NEUT.         1                    : NEUTRON      - NEUTRON TYPE
RESI.         0                    : RESIST       - RESISTIVITY TYPE
RM  .OHMM     0.0791               : RM           - RESISTIVITY OF MUD
RMC .OHMM     0                    : RMC          - RESISTIVITY OF MUD CAKE
RMF .OHMM     0.0851               : RMF          - RESISTIVITY OF MUD FILTRATE
SUFT.C        4.5                  : SUFT         - SURFACE TEMPERATURE
~A  DEPTH     RESD     PHID     PHIN       GR      CAL
# ...
  494.500    3.498    0.219    1.073   84.435  264.654
  494.750    3.214    0.205    1.069   83.043  262.209
  495.000    3.444    0.215    1.058   80.165  258.939
  495.250    3.865    0.209    1.046   77.287  254.737
  495.500    3.810    0.247    1.033   76.205  247.029
  495.750    3.721    0.214    1.020   75.374  240.454
  496.000    4.017    0.227    1.009   75.225  237.491
  496.250    3.815    0.224    1.004   75.819  236.802
  496.500    3.768    0.231    0.997   74.056  236.422
  496.750    4.113    0.231    1.001   73.843  235.423
  497.000    4.465    0.231    1.017   74.376  235.357
  497.250    4.442    0.236    1.046   74.665  236.007
  497.500    4.395    0.239    1.062   73.767  236.558
  497.750    4.316    0.228    1.048   72.813  236.281
  498.000    4.247    0.223    1.029   72.226  235.184
  498.250    4.194    0.227    1.018   71.892  234.803
  498.500    4.150    0.226    1.022   72.487  234.836
  498.750    4.144    0.241    1.035   73.268  234.767
  499.000    4.216    0.251    1.047   74.297  234.288
  499.250    4.442    0.261    1.056   74.708  233.503
  499.500    4.612    0.269    1.050   73.934  233.529
  499.750    4.438    0.269    1.041   71.678  233.970
  500.000    4.192    0.265    1.033   70.904  235.147
  500.250    4.102    0.250    1.027   71.500  235.486
  500.500    4.142    0.239    1.021   71.598  235.420
  500.750    4.230    0.233    1.015   69.587  235.142
  501.000    4.193    0.249    1.014   69.999  234.977
  501.250    3.946    0.249    1.039   70.714  235.114
  501.500    3.734    0.246    1.056   70.567  235.243
  501.750    3.708    0.257    1.066   68.990  235.275
  502.000    3.808    0.257    1.054   68.221  235.314
  502.250    3.946    0.240    1.064   68.132  235.449
  502.500    4.022    0.236    1.065   68.974  236.204
  502.750    3.986    0.239    1.042   71.368  238.406
  503.000    3.944    0.253    1.018   71.899  238.751
  503.250    3.924    0.258    1.033   74.544  238.273
  503.500    3.926    0.253    1.035   78.672  237.781
  503.750    3.979    0.244    1.024   83.301  236.582
  504.000    4.063    0.254    1.041   84.205  235.788
  504.250    4.637    0.257    1.043   76.735  234.482
  504.500    5.742    0.252    1.036   72.558  233.274
  504.750    5.734    0.274    1.027   72.589  232.374
  505.000    4.401    0.282    1.031   71.323  230.239
  505.250    3.860    0.289    1.044   67.640  228.108
  505.500    4.128    0.304    1.036   65.813  225.980
  505.750    5.102    0.298    1.018   66.098  225.181
  506.000    5.268    0.274    1.038   68.987  224.908
  506.250    4.561    0.256    1.034   77.275  225.145
  506.500    4.098    0.255    0.988   77.186  226.113
  506.750    3.614    0.271    0.977   72.571  227.489
  507.000    3.795    0.210    0.976   68.265  228.242
  507.250    4.494    0.156    0.955   64.021  229.408
  507.500    4.997    0.100    0.809   61.018  234.400
  507.750    7.630    0.029    0.784   57.583  236.912
  508.000   17.778    0.036    0.765   54.452  239.115
  508.250   46.129    0.037    0.772   52.753  238.945
  508.500   42.143    0.041    0.805   52.477  239.182
  508.750   32.105    0.060    0.840   53.447  240.253
  509.000   20.738    0.090    0.888   56.396  241.837
  509.250   15.421    0.148    0.942   60.839  243.207
  509.500    9.906    0.224    0.977   62.921  245.307
  509.750    6.410    0.245    0.990   63.330  243.073
  510.000    4.965    0.257    0.999   63.679  237.111
  510.250    4.228    0.270    1.020   66.194  235.186
  510.500    3.994    0.265    1.043   71.193  236.872
  510.750    3.922    0.249    1.073   74.271  241.760
  511.000    3.781    0.275    1.086   76.476  248.399
  511.250    3.639    0.266    1.076   76.142  248.127
  511.500    3.527    0.256    1.090   72.641  247.851
  511.750    3.490    0.247    1.078   71.624  247.984
  512.000    3.492    0.266    1.054   71.599  246.472
  512.250    3.545    0.251    1.037   72.750  248.259
  512.500    3.681    0.228    1.028   76.944  251.597
  512.750    3.908    0.233    1.028   78.841  255.557
  513.000    4.812    0.230    1.030   78.944  256.106
  513.250    4.537    0.246    1.032   78.047  253.557
  513.500    3.899    0.236    1.039   78.520  244.814
  513.750    3.187    0.246    1.055   79.360  238.342
  514.000    2.901    0.264    1.056   79.211  236.622
  514.250    3.103    0.248    1.042   81.171  236.658
  514.500    3.221    0.231    1.010   82.259  239.273
  514.750    3.187    0.215    1.022   82.857  242.713
  515.000    3.101    0.198    1.038   79.419  243.984
  515.250    3.268    0.191    1.012   75.299  239.992
  515.500    3.534    0.238    1.042   71.301  237.959
  515.750    3.471    0.259    1.065   68.609  238.306
  516.000    2.917    0.256    1.086   69.017  241.332
  516.250    3.029    0.242    1.063   72.031  245.599
  516.500    3.222    0.265    1.058   77.653  246.051
  516.750    3.010    0.271    1.065   80.106  249.487
  517.000    2.967    0.289    1.076   80.576  268.005
  517.250    3.281    0.249    1.056   79.311  279.089
  517.500    3.668    0.250    1.021   76.244  259.192
  517.750    3.923    0.243    1.027   73.119  264.185
  518.000    4.059    0.239    1.035   73.651  262.666
  518.250    3.956    0.229    1.035   74.556  258.261
  518.500    3.710    0.259    1.033   74.345  255.506
  518.750    3.224    0.245    1.028   74.753  254.921
  519.000    2.972    0.239    1.015   77.705  258.677
  519.250    3.086    0.230    1.007   81.278  261.287
  519.500    3.270    0.216    1.011   82.306  259.256
  519.750    3.254    0.219    1.022   79.054  261.563
  520.000    3.166    0.218    1.014   79.152  266.864
  520.250    3.257    0.205    1.017   81.489  270.717
  520.500    3.490    0.206    1.020   81.771  276.636
  520.750    3.924    0.200    1.012   82.674  280.802
  521.000    4.037    0.191    1.000   84.265  283.420
  521.250    3.979    0.190    1.010   84.918  284.795
  521.500    3.952    0.196    1.045   84.831  280.798
  521.750    3.975    0.216    1.063   84.186  272.984
  522.000    3.955    0.226    1.075   80.932  274.366
  522.250    4.374    0.212    1.051   79.792  279.765
  522.500    4.873    0.213    1.023   79.827  288.166
  522.750    4.857    0.212    1.008   78.994  282.208
  523.000    4.850    0.232    1.008   75.993  268.714
  523.250    5.723    0.253    1.019   74.168  262.345
  523.500    6.741    0.238    1.016   76.251  258.873
  523.750    7.385    0.251    1.006   79.329  257.045
  524.000    6.722    0.251    1.016   80.044  256.769
  524.250    6.119    0.242    1.017   79.587  257.836
  524.500    6.009    0.246    1.019   75.281  259.004
  524.750    5.935    0.268    1.029   70.541  260.585
  525.000    5.872    0.251    1.040   68.963  262.691
  525.250    5.682    0.257    1.031   68.689  263.649
  525.500    5.447    0.272    0.998   69.473  264.514
  525.750    5.212    0.277    0.986   71.056  265.062
  526.000    4.718    0.269    0.987   68.366  265.818
  526.250    4.523    0.271    1.005   69.330  266.985
  526.500    4.467    0.272    1.020   72.409  269.504
  526.750    4.545    0.271    1.029   71.018  270.874
  527.000    4.589    0.292    1.034   68.572  272.250
  527.250    4.566    0.279    1.035   69.352  272.490
  527.500    4.410    0.283    1.036   71.684  272.637
  527.750    4.244    0.276    1.027   71.473  272.459
  528.000    4.253    0.294    1.019   69.154  272.703
  528.250    4.343    0.300    1.034   69.499  272.840
  528.500    4.451    0.295    1.046   71.521  274.007
  528.750    4.545    0.293    1.014   72.552  275.277
  529.000    4.641    0.290    1.023   70.909  276.547
  529.250    4.757    0.286    1.042   68.346  277.413
  529.500    4.830    0.279    1.054   67.634  277.647
  529.750    4.805    0.268    1.043   67.359  277.887
  530.000    4.728    0.267    1.036   69.073  278.755
  530.250    4.558    0.268    1.036   71.464  279.413
  530.500    4.468    0.264    1.044   72.123  279.436
  530.750    4.478    0.275    1.047   71.540  279.261
