~VERSION INFORMATION
 VERS.                 2.0:   CWLS LOG ASCII STANDARD -VERSION 2.0
 WRAP.                  NO:   ONE LINE PER DEPTH STEP
~WELL INFORMATION BLOCK
#MNEM.UNIT           DATA                    DESCRIPTION OF MNEMONIC
#---------    -------------------            -------------------------------
# Generated from Intellog Unique Number	CS_71_72/WELL/929
WELL.         AEC ET AL FOSTER CREEK         : Well_name    - WELL
LOC .         00/16-36-072-01W4/0            : Location     - LOCATION
UWI .         00/16-36-072-01W4/0            : Uwi          - UNIQUE WELL ID
ENTR.         SP                             : Entered      - ENTERED BY
SRVC.         SCHLUMBERGER                   : Scn          - SERVICE COMPANY
STRT.M        315                            : top_depth    - START DEPTH
STOP.M        585                            : bot_depth    - STOP DEPTH
STEP.M        0.25                           : increment    - STEP LENGTH
 NULL. -999.2500:NULL Value
~CURVE INFORMATION BLOCK
#MNEM UNIT       ERCB CURVE CODE    CURVE DESCRIPTION
#-----------   ------------------   ----------------------------------
DEPT.M        00 001 00 00         : DEPTH        - DEPTH
ILD .OHMM     00 120 00 00         : RESD         - DEEP RESISTIVITY (DIL)
DPHI.V/V      00 890 00 00         : PHID         - DENSITY POROSITY (LIMESTONE)
NPHI.V/V      00 330 00 00         : PHIN         - NEUTRON POROSITY (LIMESTONE)
GR  .API      00 310 00 00         : GR           - GAMMA RAY
~PARAMETER INFORMATION
#MNEM.UNIT           DATA             DESCRIPTION OF MNEMONIC
#---------         -----------     ------------------------------
GL  .M        676                  : gl           - GROUND LEVEL ELEVATION
EREF.M        680.3                : kb           - ELEVATION OF DEPTH REFERENCE
DATM.M        676                  : datum        - DATUM ELEVATION
TDD .M        775                  : tdd          - TOTAL DEPTH DRILLER
RUN .         ONE                  : Run          - RUN NUMBER
ENG .         BILL                 : Engineer     - RECORDING ENGINEER
WIT .         JIM                  : Witness      - WITNESSED BY
MUD .         GEL                  : Mud_type     - MUD TYPE
MATR.         LIMESTONE            : Logunit      - NEUTRON MATRIX
TMAX.C        19                   : BHT          - MAXIMUM RECORDED TEMPERATURE
BHTD.M        775                  : BHTDEP       - MAXIMUM RECORDED TEMPERATURE
MATR.         1                    : LOGUNIT      - NEUTRON MATRIX
RMT .C        25                   : MDTP         - TEMPERATURE OF MUD
NEUT.         1                    : NEUTRON      - NEUTRON TYPE
RESI.         0                    : RESIST       - RESISTIVITY TYPE
RMC .OHMM     0.25                 : RMC          - RESISTIVITY OF MUD CAKE
RMF .OHMM     0.25                 : RMF          - RESISTIVITY OF MUD FILTRATE
SUFT.C        15                   : SUFT         - SURFACE TEMPERATURE
~A  DEPTH     RESD     PHID     PHIN       GR
  315.000    2.915    0.290    0.517   80.177
  315.250    2.808    0.282    0.526   80.184
  315.500    2.756    0.271    0.534   85.070
  315.750    2.706    0.265    0.533   86.295
  316.000    2.655    0.269    0.532   86.309
  316.250    2.656    0.276    0.535   88.762
  316.500    2.706    0.283    0.555   90.599
  316.750    2.758    0.283    0.568   90.614
  317.000    2.864    0.277    0.583   90.635
  317.250    2.974    0.268    0.540   90.039
  317.500    3.031    0.264    0.513   87.634
  317.750    3.089    0.268    0.506   88.254
  318.000    3.031    0.273    0.504   88.271
  318.250    2.976    0.270    0.507   83.433
  318.500    2.921    0.255    0.541   87.706
  318.750    2.921    0.234    0.553   90.145
  319.000    2.867    0.228    0.571   90.161
  319.250    2.922    0.241    0.587   86.534
  319.500    2.977    0.253    0.545   82.912
  319.750    3.092    0.258    0.514   87.179
  320.000    3.151    0.252    0.518   89.020
  320.250    3.211    0.251    0.528   86.606
  320.500    3.334    0.240    0.496   84.805
  320.750    3.462    0.206    0.456   84.818
  321.000    3.663    0.220    0.442   86.047
  321.250    3.949    0.235    0.455   86.671
  321.500    4.025    0.243    0.467   84.867
  321.750    4.101    0.244    0.474   82.460
  322.000    4.102    0.237    0.501   81.864
  322.250    3.878    0.228    0.509   83.102
  322.500    3.735    0.219    0.526   84.939
  322.750    3.465    0.221    0.548   87.384
  323.000    3.276    0.230    0.576   92.877
  323.250    3.156    0.236    0.503   95.317
  323.500    3.156    0.248    0.494   96.543
  323.750    3.098    0.261    0.508   85.024
  324.000    3.098    0.256    0.508   82.610
  324.250    3.157    0.242    0.522   94.174
  324.500    3.279    0.234    0.525   96.612
  324.750    3.341    0.234    0.500   90.559
  325.000    3.469    0.252    0.471   85.721
  325.250    3.671    0.256    0.473   84.519
  325.500    3.812    0.255    0.503   88.788
  325.750    4.033    0.246    0.517   89.413
  326.000    4.110    0.243    0.512   91.863
  326.250    4.111    0.245    0.502   94.912
  326.500    3.960    0.246    0.502   91.287
  326.750    3.886    0.256    0.511   87.658
  327.000    3.606    0.259    0.519   86.462
  327.250    3.409    0.248    0.535   89.523
  327.500    3.346    0.247    0.546   91.962
  327.750    3.474    0.253    0.525   91.977
  328.000    3.676    0.285    0.489   81.063
  328.250    4.272    0.299    0.454   70.153
  328.500    5.253    0.314    0.443   70.773
  328.750    6.458    0.327    0.455   76.867
  329.000    9.055    0.309    0.455   78.100
  329.250   10.926    0.304    0.444   74.468
  329.500   12.003    0.297    0.421   69.021
  329.750   12.700    0.297    0.407   65.396
  330.000   13.437    0.284    0.405   62.984
  330.250   14.217    0.287    0.403   59.971
  330.500   15.043    0.306    0.401   58.769
  330.750   15.621    0.316    0.414   56.965
  331.000   15.622    0.300    0.396   58.190
  331.250   15.334    0.298    0.367   66.106
  331.500   15.051    0.324    0.464   70.373
  331.750   14.773    0.357    0.532   71.603
  332.000   15.055    0.419    0.555   72.228
  332.250   15.342    0.390    0.503   77.721
  332.500   15.931    0.347    0.458   80.163
  332.750   16.856    0.328    0.429   83.829
  333.000   17.503    0.322    0.416   84.443
  333.250   17.837    0.309    0.414   77.783
  333.500   18.521    0.303    0.446   73.548
  333.750   18.524    0.295    0.448   71.133
  334.000   18.527    0.317    0.424   73.582
  334.250   18.528    0.323    0.417   76.026
  334.500   18.530    0.328    0.439   76.047
  334.750   18.189    0.329    0.422   78.490
  335.000   18.191    0.329    0.408   80.938
  335.250   17.855    0.320    0.415   78.524
  335.500   17.857    0.308    0.427   73.076
  335.750   17.859    0.304    0.420   64.599
  336.000   18.200    0.305    0.406   60.362
  336.250   18.202    0.313    0.412   57.340
  336.500   18.205    0.302    0.394   55.534
  336.750   17.869    0.283    0.387   62.231
  337.000   17.212    0.269    0.393   69.544
  337.250   16.272    0.254    0.449   72.593
  337.500   15.383    0.251    0.498   75.648
  337.750   14.272    0.235    0.467   75.662
  338.000   13.492    0.206    0.464   76.290
  338.250   12.755    0.264    0.492   76.908
  338.500   12.519    0.295    0.508   76.930
  338.750   12.521    0.278    0.495   73.914
  339.000   12.760    0.270    0.476   73.317
  339.250   12.761    0.258    0.474   79.414
  339.500   12.525    0.261    0.464   83.069
  339.750   12.065    0.292    0.454   89.168
  340.000   10.986    0.302    0.421   91.608
  340.250   10.003    0.288    0.413   88.586
  340.500    9.281    0.273    0.417   83.745
  340.750    9.282    0.267    0.423   80.726
  341.000    9.110    0.261    0.413   87.428
  341.250    8.776    0.251    0.406   88.654
  341.500    8.142    0.235    0.418   86.249
  341.750    7.414    0.234    0.411   87.480
  342.000    7.009    0.232    0.405   88.708
  342.250    6.751    0.230    0.425   90.550
  342.500    6.752    0.235    0.455   88.743
  342.750    7.144    0.234    0.487   84.509
  343.000    7.848    0.244    0.453   79.672
  343.250    8.461    0.242    0.422   78.470
  343.500    8.786    0.235    0.422   76.668
  343.750    9.123    0.248    0.445   73.647
  344.000    9.124    0.261    0.438   72.446
  344.250    8.789    0.251    0.417   75.500
  344.500    8.466    0.237    0.400   71.877
  344.750    8.310    0.228    0.392   68.252
  345.000    8.469    0.225    0.403   67.050
  345.250    8.470    0.240    0.456   73.145
  345.500    8.631    0.242    0.473   76.197
  345.750    8.633    0.241    0.491   78.640
  346.000    8.633    0.227    0.479   78.656
  346.250    8.798    0.218    0.461   69.572
  346.500    8.966    0.210    0.450   68.975
  346.750    9.310    0.199    0.444   67.782
  347.000    9.488    0.247    0.429   65.973
  347.250    9.489    0.265    0.414   64.775
  347.500    9.314    0.284    0.402   72.080
  347.750    9.142    0.259    0.406   80.002
  348.000    9.013    0.252    0.423   80.009
  348.250    8.807    0.236    0.425   73.955
  348.500    8.975    0.243    0.418   75.195
  348.750    9.147    0.251    0.413   75.813
  349.000    9.321    0.264    0.436   75.837
  349.250    9.498    0.280    0.449   75.849
  349.500   10.050    0.267    0.421   76.474
  349.750   10.242    0.256    0.396   78.918
  350.000   10.635    0.257    0.396   80.754
  350.250   11.043    0.245    0.439   79.561
  350.500   11.044    0.227    0.422   77.764
  350.750   10.841    0.213    0.421   76.564
  351.000   10.248    0.234    0.421   76.577
  351.250   10.059    0.253    0.466   75.987
  351.500   10.251    0.250    0.454   74.181
  351.750   10.644    0.256    0.409   69.951
  352.000   11.053    0.287    0.398   68.140
  352.250   11.264    0.291    0.389   69.374
  352.500   11.265    0.264    0.388   76.687
  352.750   10.851    0.261    0.409   79.739
  353.000   10.651    0.256    0.398   80.964
  353.250   10.454    0.253    0.412   76.120
  353.500   10.456    0.247    0.432   77.353
  353.750   10.655    0.264    0.416   77.976
  354.000   11.487    0.268    0.407   75.566
  354.250   12.385    0.257    0.401   67.081
  354.500   13.605    0.246    0.394   60.415
  354.750   14.395    0.282    0.389   51.931
  355.000   15.231    0.309    0.368   51.341
  355.250   15.522    0.346    0.380   62.289
  355.500   15.524    0.327    0.401   68.987
  355.750   14.954    0.306    0.406   59.895
  356.000   14.404    0.286    0.417   60.518
  356.250   13.876    0.300    0.408   62.966
  356.500   13.877    0.300    0.401   56.910
  356.750   15.245    0.315    0.436   44.177
  357.000   16.435    0.333    0.412   36.902
  357.250   18.746    0.342    0.393   33.273
  357.500   19.834    0.338    0.387   31.475
  357.750   20.986    0.336    0.389   30.272
  358.000   21.386    0.346    0.418   29.074
  358.250   20.991    0.352    0.395   30.919
