~VERSION INFORMATION
 VERS.                 2.0:   CWLS LOG ASCII STANDARD -VERSION 2.0
 WRAP.                  NO:   ONE LINE PER DEPTH STEP
~WELL INFORMATION BLOCK
#MNEM.UNIT           DATA                    DESCRIPTION OF MNEMONIC
#---------    -------------------            -------------------------------
# Generated from Intellog Unique Number	CS_73_76/WELL/1968
WELL.         AMOCO                          : Well_name    - WELL
LOC .         00/10-18-073-04W4/0            : Location     - LOCATION
UWI .         00/10-18-073-04W4/0            : Uwi          - UNIQUE WELL ID
ENTR.         T                              : Entered      - ENTERED BY
SRVC.         SCHLUMBERGER                   : Scn          - SERVICE COMPANY
STRT.M        300                            : top_depth    - START DEPTH
STOP.M        515                            : bot_depth    - STOP DEPTH
STEP.M        0.25                           : increment    - STEP LENGTH
 NULL. -999.2500:NULL Value
~CURVE INFORMATION BLOCK
#MNEM UNIT       ERCB CURVE CODE    CURVE DESCRIPTION
#-----------   ------------------   ----------------------------------
DEPT.M        00 001 00 00         : DEPTH        - DEPTH
GR  .API      00 310 00 00         : GR           - GAMMA RAY
NPHI.V/V      00 330 00 00         : PHIN         - NEUTRON POROSITY (SANDSTONE)
DPHI.V/V      00 890 00 00         : PHID         - DENSITY POROSITY (SANDSTONE)
ILD .OHMM     00 120 00 00         : RESD         - DEEP RESISTIVITY (DIL)
~PARAMETER INFORMATION
#MNEM.UNIT           DATA             DESCRIPTION OF MNEMONIC
#---------         -----------     ------------------------------
GL  .M        695.3                : gl           - GROUND LEVEL ELEVATION
EREF.M        699.1                : kb           - ELEVATION OF DEPTH REFERENCE
DATM.M        699.1                : datum        - DATUM ELEVATION
TDD .M        530                  : tdd          - TOTAL DEPTH DRILLER
RUN .         ONE                  : Run          - RUN NUMBER
ENG .         BILL                 : Engineer     - RECORDING ENGINEER
WIT .         JIM                  : Witness      - WITNESSED BY
MUD .         GEL                  : Mud_type     - MUD TYPE
MATR.         SANDSTONE            : Logunit      - NEUTRON MATRIX
TMAX.C        23.8                 : BHT          - MAXIMUM RECORDED TEMPERATURE
BHTD.M        530                  : BHTDEP       - MAXIMUM RECORDED TEMPERATURE
MATR.         1                    : LOGUNIT      - NEUTRON MATRIX
RMT .C        25                   : MDTP         - TEMPERATURE OF MUD
NEUT.         1                    : NEUTRON      - NEUTRON TYPE
RESI.         0                    : RESIST       - RESISTIVITY TYPE
RMC .OHMM     5.7                  : RMC          - RESISTIVITY OF MUD CAKE
RMF .OHMM     6.6                  : RMF          - RESISTIVITY OF MUD FILTRATE
SUFT.C        15                   : SUFT         - SURFACE TEMPERATURE
~A  DEPTH       GR     PHIN     PHID     RESD
# ...
  474.000   61.009    0.443    0.312    2.257
  474.250   62.822    0.420    0.303    2.212
  474.500   62.791    0.425    0.310    2.252
  474.750   65.841    0.450    0.320    2.425
  475.000   68.901    0.444    0.328    3.398
  475.250   75.043    0.435    0.321    4.251
  475.500   76.227    0.428    0.308    3.795
  475.750   74.949    0.423    0.285    3.141
  476.000   74.897    0.431    0.303    2.698
  476.250   74.866    0.437    0.329    2.596
  476.500   76.050    0.431    0.339    2.497
  476.750   76.648    0.422    0.336    2.541
  477.000   77.843    0.410    0.307    2.637
  477.250   79.038    0.407    0.296    2.735
  477.500   80.851    0.410    0.284    2.890
  477.750   84.509    0.417    0.274    2.942
  478.000   85.714    0.425    0.265    2.883
  478.250   87.527    0.434    0.259    2.880
  478.500   86.867    0.442    0.256    2.986
  478.750   83.724    0.446    0.251    3.098
  479.000   78.735    0.445    0.245    3.213
  479.250   74.365    0.436    0.240    3.395
  479.500   72.469    0.430    0.234    3.520
  479.750   73.045    0.421    0.229    3.653
  480.000   71.148    0.414    0.262    4.008
  480.250   64.923    0.439    0.307    4.653
  480.500   58.698    0.471    0.325    8.643
  480.750   58.646    0.491    0.337   12.572
  481.000   61.707    0.496    0.334   17.611
  481.250   67.838    0.489    0.327   21.625
  481.500   71.516    0.476    0.326   23.287
  481.750   75.803    0.455    0.326   24.609
  482.000   78.235    0.429    0.321   26.007
  482.250   76.956    0.407    0.317   26.980
  482.500   63.919    0.406    0.315   29.605
  482.750   58.313    0.401    0.320   31.880
  483.000   48.996    0.398    0.326   36.321
  483.250   42.771    0.390    0.327   42.965
  483.500   37.772    0.389    0.327   48.025
  483.750   35.876    0.387    0.324   40.508
  484.000   36.452    0.386    0.317   36.158
  484.250   43.222    0.388    0.309   27.764
  484.500   51.837    0.393    0.307   26.205
  484.750   57.979    0.404    0.318   24.280
  485.000   64.121    0.411    0.329   22.930
  485.250   65.934    0.418    0.336   20.457
  485.500   67.737    0.426    0.335   18.255
  485.750   68.324    0.430    0.332   15.398
  486.000   70.745    0.436    0.328   13.230
  486.250   72.558    0.438    0.325   12.030
  486.500   74.979    0.440    0.321   11.361
  486.750   76.814    0.439    0.316    9.399
  487.000   81.090    0.436    0.309    8.549
  487.250   85.376    0.427    0.297    7.485
  487.500   88.437    0.412    0.290    6.435
  487.750   93.950    0.405    0.283    5.227
  488.000   97.010    0.405    0.275    4.493
  488.250   96.968    0.409    0.269    4.007
  488.500   95.690    0.409    0.260    3.930
  488.750   92.546    0.407    0.247    3.779
  489.000   90.021    0.399    0.236    3.704
  489.250   88.763    0.393    0.221    3.700
  489.500   86.248    0.385    0.209    3.696
  489.750   81.857    0.381    0.209    3.692
  490.000   79.981    0.377    0.215    3.688
  490.250   76.838    0.374    0.224    3.754
  490.500   74.930    0.372    0.226    3.749
  490.750   74.910    0.370    0.227    3.745
  491.000   74.868    0.370    0.227    3.811
  491.250   74.826    0.370    0.227    3.809
  491.500   76.011    0.371    0.227    3.809
  491.750   76.587    0.372    0.227    4.093
  492.000   75.917    0.374    0.226    4.091
  492.250   75.267    0.375    0.228    4.088
  492.500   74.607    0.375    0.233    4.081
  492.750   75.802    0.375    0.237    4.078
  493.000   78.234    0.375    0.238    4.073
  493.250   81.284    0.376    0.237    3.992
  493.500   82.458    0.378    0.233    3.988
  493.750   81.808    0.380    0.225    3.909
  494.000   81.148    0.384    0.214    3.830
  494.250   80.478    0.386    0.207    3.827
  494.500   79.839    0.389    0.206    3.824
  494.750   79.786    0.395    0.206    3.818
  495.000   79.745    0.399    0.207    3.814
  495.250   79.693    0.405    0.212    3.810
  495.500   79.661    0.406    0.215    3.805
  495.750   79.630    0.406    0.222    3.800
  496.000   80.196    0.406    0.231    3.798
  496.250   80.773    0.404    0.228    3.794
  496.500   81.957    0.402    0.226    3.788
  496.750   82.555    0.396    0.224    3.714
  497.000   83.132    0.393    0.221    3.711
  497.250   84.316    0.379    0.218    3.705
  497.500   84.882    0.379    0.214    3.632
  497.750   84.861    0.380    0.213    3.629
  498.000   85.438    0.381    0.214    3.625
  498.250   85.386    0.386    0.218    3.621
  498.500   85.334    0.386    0.220    3.617
  498.750   85.313    0.394    0.222    3.613
  499.000   85.889    0.404    0.223    3.608
  499.250   86.456    0.410    0.224    3.603
  499.500   87.032    0.416    0.222    3.598
  499.750   86.372    0.420    0.224    3.595
  500.000   85.702    0.423    0.223    3.659
  500.250   84.444    0.425    0.220    3.723
  500.500   83.774    0.427    0.214    3.721
  500.750   83.114    0.430    0.213    3.787
  501.000   82.454    0.436    0.214    3.928
  501.250   82.402    0.439    0.213    4.074
  501.500   80.505    0.446    0.208    4.729
  501.750   74.290    0.447    0.207    5.490
  502.000   64.974    0.449    0.218   25.609
  502.250   56.894    0.453    0.243   33.287
  502.500   38.292    0.456    0.270   43.255
  502.750   28.975    0.457    0.292   47.463
  503.000   28.923    0.457    0.309   44.811
  503.250   28.881    0.455    0.324   41.508
  503.500   29.458    0.450    0.338   38.460
  503.750   30.045    0.446    0.346   35.635
  504.000   30.621    0.439    0.347   33.634
  504.250   31.198    0.432    0.345   32.349
  504.500   30.538    0.425    0.340   32.321
  504.750   29.260    0.421    0.334   31.693
  505.000   28.600    0.418    0.325   31.051
  505.250   28.537    0.413    0.318   30.447
  505.500   28.495    0.410    0.316   30.422
  505.750   28.464    0.407    0.328   30.379
  506.000   27.794    0.406    0.337   30.336
  506.250   27.762    0.408    0.340   30.319
  506.500   28.339    0.410    0.337   29.168
  506.750   28.287    0.410    0.332   26.515
  507.000   28.256    0.407    0.324   24.104
  507.250   28.214    0.405    0.324   22.340
  507.500   28.162    0.398    0.330   21.092
  507.750   28.130    0.395    0.335   18.817
  508.000   28.078    0.392    0.340   16.791
  508.250   26.800    0.393    0.345   14.984
  508.500   26.140    0.393    0.348   13.123
  508.750   24.861    0.393    0.351   12.628
  509.000   23.583    0.393    0.353   11.923
  509.250   21.058    0.391    0.353   11.041
  509.500   20.419    0.385    0.353   10.427
  509.750   19.748    0.380    0.354    9.658
  510.000   19.078    0.377    0.354    9.292
  510.250   18.438    0.376    0.351    9.103
  510.500   18.397    0.378    0.348    9.098
  510.750   18.334    0.383    0.349    9.091
  511.000   20.147    0.385    0.350    8.911
  511.250   22.579    0.388    0.350    8.899
  511.500   23.795    0.393    0.350    8.891
  511.750   26.845    0.392    0.347    8.881
  512.000   28.658    0.403    0.341    9.383
  512.250   32.316    0.414    0.337    9.551
  512.500   34.748    0.410    0.331    9.908
  512.750   36.571    0.398    0.324   10.869
  513.000   36.519    0.390    0.313   12.386
  513.250   36.488    0.379    0.235   14.930
  513.500   36.446    0.360    0.008   17.996
  513.750   35.786    0.322    0.011   21.692
  514.000   35.116    0.139    0.020   24.706
  514.250   34.445    0.137    0.035   26.605
  514.500   34.404    0.136    0.042   28.116
  514.750   34.980    0.134    0.047   28.617
  515.000   35.567    0.135    0.052   29.127
