~VERSION INFORMATION
 VERS.                 2.0:   CWLS LOG ASCII STANDARD -VERSION 2.0
 WRAP.                  NO:   ONE LINE PER DEPTH STEP
~WELL INFORMATION BLOCK
#MNEM.UNIT           DATA                    DESCRIPTION OF MNEMONIC
#---------    -------------------            -------------------------------
# Generated from Intellog Unique Number	CW_70_72/WELL/1068
NULL.         -999.25                        : NULL_VALUE
WELL.         WESTMIN SMITH 14-35            : Well_name    - WELL              
LOC .         14-35-071-24W4                 : Location     - LOCATION          
UWI .         00/14-35-071-24W4/0            : Uwi          - UNIQUE WELL ID    
ENTR.         JAYE                           : Entered      - ENTERED BY        
SRVC.         WESTERN ATLAS                  : Scn          - SERVICE COMPANY   
DATE.         7 MAR 83                       : Date         - LOG DATE          
STRT.M        423                            : top_depth    - START DEPTH       
STOP.M        627                            : bot_depth    - STOP DEPTH        
STEP.M        0.25                           : increment    - STEP LENGTH       
~CURVE INFORMATION BLOCK
#MNEM UNIT       ERCB CURVE CODE    CURVE DESCRIPTION
#-----------   ------------------   ----------------------------------
DEPT.M        00 001 00 00         : DEPTH        - DEPTH                       
DPHI.V/V      00 890 00 00         : PHID         - DENSITY POROSITY (SANDSTONE)
NPHI.V/V      00 330 00 00         : PHIN         - NEUTRON POROSITY (SANDSTONE)
GR  .API      00 310 00 00         : GR           - GAMMA RAY                   
CALI.MM       00 280 01 00         : CAL          - CALIPER                     
ILD .OHMM     00 120 00 00         : RESD         - DEEP RESISTIVITY (DIL)      
~PARAMETER INFORMATION       
#MNEM.UNIT           DATA             DESCRIPTION OF MNEMONIC
#---------         -----------     ------------------------------
GL  .M        655.8                : gl           - GROUND LEVEL ELEVATION      
EREF.M        659                  : kb           - ELEVATION OF DEPTH REFERENCE
DATM.M        655.8                : datum        - DATUM ELEVATION             
TDD .M        651                  : tdd          - TOTAL DEPTH DRILLER         
RUN .         ONE                  : Run          - RUN NUMBER                  
ENG .         PETERSON             : Engineer     - RECORDING ENGINEER          
WIT .         OVERWATER            : Witness      - WITNESSED BY                
MUD .         GEL CHEM             : Mud_type     - MUD TYPE                    
MATR.         SANDSTONE            : Logunit      - NEUTRON MATRIX              
TMAX.C        22                   : BHT          - MAXIMUM RECORDED TEMPERATURE
BHTD.M        651.3                : BHTDEP       - MAXIMUM RECORDED TEMPERATURE
RMT .C        12                   : MDTP         - TEMPERATURE OF MUD          
MUDD.KG/M     1120                 : MWT          - MUD DENSITY                 
NEUT.         1                    : NEUTRON      - NEUTRON TYPE                
RESI.         0                    : RESIST       - RESISTIVITY TYPE            
RM  .OHMM     5                    : RM           - RESISTIVITY OF MUD          
RMC .OHMM     4.7                  : RMC          - RESISTIVITY OF MUD CAKE     
RMF .OHMM     4.5                  : RMF          - RESISTIVITY OF MUD FILTRATE 
SUFT.C        0                    : SUFT         - SURFACE TEMPERATURE         
~A  DEPTH     PHID     PHIN       GR      CAL     RESD
# ...
  532.500    0.288    0.397   79.770  151.857    3.817
  532.750    0.297    0.395   79.116  153.174    3.566
  533.000    0.289    0.389   77.032  158.080    3.325
  533.250    0.279    0.381   77.746  159.395    3.183
  533.500    0.263    0.378   77.400  159.019    3.122
  533.750    0.249    0.378   74.761  158.437    3.051
  534.000    0.259    0.378   72.861  158.278    3.049
  534.250    0.271    0.378   71.958  158.320    3.030
  534.500    0.301    0.376   71.739  158.053    3.057
  534.750    0.308    0.368   73.569  158.107    3.124
  535.000    0.305    0.359   75.770  158.150    3.316
  535.250    0.298    0.364   75.618  158.415    3.505
  535.500    0.281    0.370   75.765  158.569    3.671
  535.750    0.263    0.375   78.961  158.722    3.683
  536.000    0.252    0.374   80.046  159.085    3.639
  536.250    0.239    0.365   77.031  159.134    3.563
  536.500    0.221    0.354   73.770  159.603    3.495
  536.750    0.232    0.342   68.579  160.284    3.441
  537.000    0.248    0.351   70.036  160.127    3.400
  537.250    0.266    0.362   71.930  158.900    3.373
  537.500    0.279    0.376   72.950  152.722    3.321
  537.750    0.275    0.384   74.344  153.090    3.504
  538.000    0.285    0.376   75.056  155.674    3.782
  538.250    0.274    0.366   72.788  157.516    3.887
  538.500    0.298    0.356   69.960  157.982    3.799
  538.750    0.304    0.351   69.056  158.249    3.740
  539.000    0.295    0.349   71.195  158.396    3.648
  539.250    0.271    0.353   73.647  158.452    3.558
  539.500    0.256    0.363   74.918  158.071    3.596
  539.750    0.246    0.376   76.626  155.797    3.752
  540.000    0.240    0.387   78.579  156.903    4.049
  540.250    0.234    0.386   80.906  158.751    4.395
  540.500    0.228    0.379   83.728  159.745    4.655
  540.750    0.224    0.370   87.546  159.897    4.793
  541.000    0.213    0.358   90.927  160.373    4.955
  541.250    0.194    0.352   92.757  160.316    5.249
  541.500    0.181    0.350   94.154  160.254    5.517
  541.750    0.198    0.352   95.422  160.196    5.789
  542.000    0.197    0.357   96.507  159.829    5.951
  542.250    0.181    0.359   98.585  159.877    6.059
  542.500    0.152    0.358  101.534  160.348    6.241
  542.750    0.142    0.350  101.996  161.870    6.378
  543.000    0.137    0.346  100.660  163.822    6.532
  543.250    0.142    0.346   98.140  162.498    6.651
  543.500    0.152    0.347   97.485  159.694    6.735
  543.750    0.156    0.351   99.445  159.848    6.707
  544.000    0.156    0.351  100.960  160.531    6.614
  544.250    0.143    0.344  102.291  161.108    6.440
  544.500    0.150    0.351  104.000  161.258    6.119
  544.750    0.136    0.358  106.387  161.316    5.824
  545.000    0.136    0.366  107.533  161.159    5.596
  545.250    0.130    0.375  108.678  161.203    5.307
  545.500    0.146    0.384  110.946  160.930    5.166
  545.750    0.158    0.386  111.034  160.978    5.058
  546.000    0.157    0.384  109.013  160.916    5.008
  546.250    0.153    0.379  104.757  161.070    5.014
  546.500    0.146    0.375  102.737  161.028    5.078
  546.750    0.165    0.375  103.695  161.174    5.161
  547.000    0.191    0.380  106.146  161.328    5.206
  547.250    0.204    0.381  109.404  161.582    5.145
  547.500    0.210    0.379  105.210  161.742    4.972
  547.750    0.200    0.372   99.463  161.896    4.922
  548.000    0.190    0.363   92.595  162.155    4.928
  548.250    0.177    0.355   87.718  161.989    4.981
  548.500    0.153    0.348   84.765  161.087    5.091
  548.750    0.148    0.355   83.431  160.079    5.253
  549.000    0.169    0.363   81.468  159.284    5.522
  549.250    0.194    0.370   77.770  159.013    5.916
  549.500    0.200    0.365   75.068  159.279    6.254
  549.750    0.181    0.351   73.792  159.429    6.477
  550.000    0.162    0.344   75.684  158.103    6.388
  550.250    0.142    0.339   79.499  153.083    5.946
  550.500    0.136    0.337   83.067  155.139    5.670
  550.750    0.144    0.344   84.652  158.675    5.448
  551.000    0.151    0.355   85.610  159.358    5.314
  551.250    0.156    0.363   87.005  159.409    5.183
  551.500    0.150    0.374   90.883  159.456    5.037
  551.750    0.150    0.385   98.738  159.503    4.922
  552.000    0.157    0.387  104.730  159.557    4.829
  552.250    0.167    0.382  105.131  159.599    4.808
  552.500    0.182    0.376  102.798  159.654    4.813
  552.750    0.179    0.378   99.479  159.800    4.865
  553.000    0.183    0.383   98.075  159.747    4.935
  553.250    0.169    0.386   96.736  160.119    5.054
  553.500    0.160    0.385   98.131  160.366    5.137
  553.750    0.151    0.375   99.898  160.423    5.211
  554.000    0.154    0.359   99.433  160.472    5.287
  554.250    0.173    0.351   98.650  160.729    5.333
  554.500    0.168    0.354   98.742  160.989    5.400
  554.750    0.172    0.360  100.137  161.247    5.459
  555.000    0.180    0.365  104.140  161.502    5.476
  555.250    0.172    0.370  108.642  161.763    5.472
  555.500    0.175    0.372  109.228  162.028    5.439
  555.750    0.157    0.371  108.698  161.866    5.406
  556.000    0.143    0.369  103.384  161.593    5.331
  556.250    0.136    0.366  101.675  161.535    5.209
  556.500    0.144    0.361  101.268  161.274    5.110
  556.750    0.167    0.348   98.191  161.215    5.050
  557.000    0.183    0.349  100.641  161.264    4.981
  557.250    0.199    0.357  101.106  161.411    4.932
  557.500    0.190    0.365  101.137  161.353    4.865
  557.750    0.178    0.369  106.134  161.304    4.798
  558.000    0.168    0.369  105.167  161.345    4.716
  558.250    0.163    0.366  103.767  161.289    4.695
  558.500    0.159    0.363  101.558  161.127    4.683
  558.750    0.161    0.364  101.154  161.176    4.654
  559.000    0.161    0.364  103.230  160.908    4.625
  559.250    0.156    0.362  104.067  161.699    4.719
  559.500    0.168    0.360  104.035  163.116    5.102
  559.750    0.176    0.356  105.987  164.330    5.803
  560.000    0.183    0.350  103.904  163.739    6.477
  560.250    0.189    0.343   98.902  162.629    7.312
  560.500    0.176    0.329   91.354  161.942    8.115
  560.750    0.151    0.310   85.979  161.355    8.218
  561.000    0.131    0.299   82.777  161.611    7.764
  561.250    0.095    0.291   87.466  161.769    7.105
  561.500    0.096    0.302   89.045  161.813    6.527
  561.750    0.097    0.326   92.302  162.189    6.132
  562.000    0.112    0.349   96.431  162.659    5.622
  562.250    0.128    0.358  100.869  162.917    5.098
  562.500    0.139    0.354  103.443  162.963    4.709
  562.750    0.155    0.361  104.591  162.904    4.408
  563.000    0.145    0.373  106.544  162.745    4.072
  563.250    0.152    0.386  109.867  162.473    3.920
  563.500    0.168    0.396  112.998  162.309    3.888
  563.750    0.191    0.406  115.574  161.937    3.952
  564.000    0.205    0.388  113.863  161.878    4.032
  564.250    0.172    0.374  108.863  163.403    4.129
  564.500    0.145    0.365  105.101  163.455    4.357
  564.750    0.124    0.355  104.259  161.075    4.624
  565.000    0.123    0.360  104.727  160.173    4.761
  565.250    0.132    0.371  106.740  161.064    4.794
  565.500    0.150    0.376  109.503  162.169    4.615
  565.750    0.141    0.376  112.636  162.536    4.460
  566.000    0.133    0.372  112.292  162.272    4.448
  566.250    0.126    0.367  111.325  161.892    4.581
  566.500    0.116    0.361  109.801  161.526    4.762
  566.750    0.109    0.358  110.639  161.463    4.895
  567.000    0.124    0.367  115.201  161.305    5.003
  567.250    0.132    0.374  116.349  160.928    5.057
  567.500    0.131    0.379  113.271  160.764    5.073
  567.750    0.145    0.379  109.076  160.500    5.079
  568.000    0.147    0.376  105.190  160.438    5.114
  568.250    0.158    0.371  101.680  160.172    5.208
  568.500    0.176    0.365  101.396  160.117    5.354
  568.750    0.151    0.359  102.545  160.168    5.660
