~VERSION INFORMATION
 VERS.                 2.0:   CWLS LOG ASCII STANDARD -VERSION 2.0
 WRAP.                  NO:   ONE LINE PER DEPTH STEP
~WELL INFORMATION BLOCK
#MNEM.UNIT           DATA                    DESCRIPTION OF MNEMONIC
#---------    -------------------            -------------------------------
# Generated from Intellog Unique Number	CS_69_70/WELL/872
NULL.         -999.25                        : NULL_VALUE
WELL.         HB PITLOCHRIE                  : Well_name    - WELL              
LOC .         00/10-27-070-12W4/0            : Location     - LOCATION          
UWI .         00/10-27-070-12W4/0            : Uwi          - UNIQUE WELL ID    
ENTR.         SP                             : Entered      - ENTERED BY        
SRVC.         SCHLUMBERGER                   : Scn          - SERVICE COMPANY   
STRT.M        268.224                        : top_depth    - START DEPTH       
STOP.M        472.224                        : bot_depth    - STOP DEPTH        
STEP.M        0.25                           : increment    - STEP LENGTH       
~CURVE INFORMATION BLOCK
#MNEM UNIT       ERCB CURVE CODE    CURVE DESCRIPTION
#-----------   ------------------   ----------------------------------
DEPT.M        00 001 00 00         : DEPTH        - DEPTH                       
GR  .API      00 310 00 00         : GR           - GAMMA RAY                   
DPHI.V/V      00 890 00 00         : PHID         - DENSITY POROSITY (SANDSTONE)
NPHI.V/V      00 330 00 00         : PHIN         - NEUTRON POROSITY (SANDSTONE)
ILD .OHMM     00 120 00 00         : RESD         - DEEP RESISTIVITY (DIL)      
~PARAMETER INFORMATION       
#MNEM.UNIT           DATA             DESCRIPTION OF MNEMONIC
#---------         -----------     ------------------------------
GL  .M        589.818              : gl           - GROUND LEVEL ELEVATION      
EREF.M        592.866              : kb           - ELEVATION OF DEPTH REFERENCE
DATM.M        589.818              : datum        - DATUM ELEVATION             
TDD .M        482.498              : tdd          - TOTAL DEPTH DRILLER         
RUN .         ONE                  : Run          - RUN NUMBER                  
ENG .         BILL                 : Engineer     - RECORDING ENGINEER          
WIT .         JIM                  : Witness      - WITNESSED BY                
MUD .         GEL                  : Mud_type     - MUD TYPE                    
MATR.         SANDSTONE            : Logunit      - NEUTRON MATRIX              
TMAX.C        23.3333              : BHT          - MAXIMUM RECORDED TEMPERATURE
BHTD.M        482.498              : BHTDEP       - MAXIMUM RECORDED TEMPERATURE
MATR.         1                    : LOGUNIT      - NEUTRON MATRIX              
RMT .C        25                   : MDTP         - TEMPERATURE OF MUD          
NEUT.         1                    : NEUTRON      - NEUTRON TYPE                
RESI.         0                    : RESIST       - RESISTIVITY TYPE            
RMC .OHMM     0.25                 : RMC          - RESISTIVITY OF MUD CAKE     
RMF .OHMM     0.25                 : RMF          - RESISTIVITY OF MUD FILTRATE 
SUFT.C        15                   : SUFT         - SURFACE TEMPERATURE         
~A  DEPTH       GR     PHID     PHIN     RESD
# ...
  398.724   98.976    0.259    0.501    2.738
  398.974   96.463    0.278    0.489    2.924
  399.224   92.030    0.279    0.487    3.058
  399.474   88.576    0.264    0.493    3.191
  399.724   86.285    0.252    0.497    3.303
  399.974   85.430    0.244    0.472    3.384
  400.224   90.148    0.203    0.444    3.451
  400.474   94.837    0.151    0.406    3.490
  400.724   97.362    0.197    0.424    3.238
  400.974   93.666    0.235    0.447    3.050
  401.224   88.831    0.251    0.450    3.036
  401.474   84.833    0.238    0.457    3.362
  401.724   81.257    0.194    0.469    4.072
  401.974   75.272    0.150    0.455    4.771
  402.224   70.723    0.099    0.392    5.317
  402.474   63.680    0.074    0.297    5.549
  402.724   74.880    0.069    0.287    4.994
  402.974   87.704    0.114    0.383    4.295
  403.224   92.055    0.151    0.429    3.878
  403.474   93.860    0.202    0.486    3.567
  403.724   94.936    0.212    0.497    3.614
  403.974   95.497    0.204    0.484    3.648
  404.224   95.331    0.204    0.473    3.672
  404.474   94.678    0.199    0.467    3.702
  404.724   93.234    0.194    0.461    3.709
  404.974   94.568    0.188    0.456    3.721
  405.224   96.334    0.186    0.451    3.743
  405.474   98.666    0.184    0.463    3.801
  405.724   98.852    0.185    0.475    3.850
  405.974   97.962    0.194    0.472    3.892
  406.224   99.733    0.197    0.463    3.922
  406.474  101.295    0.184    0.472    3.962
  406.724  102.864    0.199    0.477    3.961
  406.974  103.629    0.205    0.464    3.957
  407.224  103.767    0.209    0.458    3.933
  407.474  103.197    0.214    0.452    3.891
  407.724  102.631    0.221    0.468    3.854
  407.974  102.350    0.224    0.468    3.837
  408.224  102.433    0.229    0.468    3.838
  408.474  103.458    0.229    0.472    3.840
  408.724  104.220    0.223    0.468    3.860
  408.974  104.203    0.220    0.465    3.879
  409.224  103.522    0.216    0.474    3.909
  409.474  105.440    0.211    0.480    3.927
  409.724  106.821    0.204    0.479    3.930
  409.974  108.149    0.197    0.480    3.929
  410.224  108.734    0.193    0.485    3.939
  410.474  108.954    0.207    0.475    3.983
  410.724  108.705    0.221    0.462    4.042
  410.974  107.103    0.221    0.445    4.161
  411.224  105.098    0.204    0.433    4.249
  411.474  104.718    0.191    0.425    4.339
  411.724  105.097    0.183    0.440    4.411
  411.974  106.169    0.178    0.446    4.440
  412.224  106.315    0.196    0.450    4.099
  412.474  103.770    0.187    0.452    3.641
  412.724  100.720    0.188    0.453    3.187
  412.974   97.838    0.166    0.475    2.789
  413.224   95.323    0.202    0.512    2.243
  413.474   93.430    0.245    0.547    1.916
  413.724   93.688    0.254    0.560    1.731
  413.974   95.243    0.274    0.573    1.815
  414.224   96.767    0.264    0.580    1.998
  414.474   97.459    0.253    0.585    2.320
  414.724   97.087    0.261    0.575    2.530
  414.974   96.517    0.259    0.542    2.659
  415.224   95.952    0.237    0.501    2.890
  415.474   95.227    0.223    0.520    3.244
  415.724   89.151    0.227    0.543    3.488
  415.974   85.076    0.242    0.565    3.465
  416.224   84.059    0.242    0.553    3.440
  416.474   86.916    0.221    0.523    3.520
  416.724   90.063    0.191    0.487    3.575
  416.974   92.824    0.199    0.459    3.366
  417.224   93.455    0.230    0.468    3.053
  417.474   91.164    0.234    0.481    2.880
  417.724   90.252    0.255    0.493    2.863
  417.974   87.969    0.261    0.499    3.138
  418.224   85.905    0.250    0.497    3.370
  418.474   83.582    0.239    0.493    3.676
  418.724   81.777    0.219    0.490    3.908
  418.974   80.294    0.182    0.476    4.170
  419.224   80.483    0.162    0.477    4.267
  419.474   83.277    0.166    0.439    4.138
  419.724   86.055    0.163    0.415    3.812
  419.974   88.683    0.222    0.449    3.489
  420.224   91.789    0.265    0.490    3.296
  420.474   94.768    0.289    0.524    3.178
  420.724   99.078    0.287    0.500    3.092
  420.974  102.665    0.236    0.474    2.919
  421.224  102.232    0.206    0.475    2.814
  421.474  105.172    0.203    0.487    2.597
  421.724  107.875    0.212    0.506    2.463
  421.974  109.928    0.206    0.519    2.428
  422.224  111.096    0.202    0.516    2.437
  422.474  111.072    0.192    0.540    2.460
  422.724  110.465    0.197    0.554    2.471
  422.974  108.104    0.201    0.535    2.472
  423.224  105.713    0.182    0.496    2.460
  423.474  110.103    0.175    0.493    2.432
  423.724  113.349    0.180    0.509    2.367
  423.974  114.423    0.195    0.522    2.311
  424.224  114.056    0.215    0.518    2.328
  424.474  111.686    0.216    0.511    2.392
  424.724  110.265    0.212    0.534    2.425
  424.974  110.221    0.196    0.544    2.479
  425.224  111.680    0.182    0.527    2.482
  425.474  111.603    0.171    0.504    2.444
  425.724  114.307    0.166    0.508    2.340
  425.974  116.494    0.220    0.544    2.184
  426.224  117.680    0.206    0.566    2.060
  426.474  117.575    0.197    0.545    2.011
  426.724  117.824    0.185    0.541    2.018
  426.974  118.530    0.191    0.542    2.210
  427.224  115.638    0.207    0.539    2.519
  427.474  109.391    0.205    0.535    2.839
  427.724  102.935    0.204    0.528    3.339
  427.974   96.890    0.199    0.523    3.905
  428.224   92.877    0.204    0.439    4.314
  428.474   87.697    0.218    0.406    4.700
  428.724   83.233    0.210    0.392    4.962
  428.974   75.830    0.209    0.385    5.157
  429.224   71.335    0.209    0.374    5.269
  429.474   66.889    0.230    0.362    5.477
  429.724   65.556    0.248    0.351    5.825
  429.974   68.078    0.241    0.345    6.189
  430.224   70.811    0.237    0.345    6.601
  430.474   72.584    0.239    0.348    6.721
  430.724   73.879    0.223    0.361    6.841
  430.974   73.967    0.207    0.371    7.036
  431.224   71.841    0.190    0.373    7.244
  431.474   70.408    0.166    0.360    7.669
  431.724   69.180    0.147    0.340    8.163
  431.974   68.724    0.132    0.320    8.591
  432.224   68.317    0.135    0.350    9.034
  432.474   69.042    0.176    0.355    9.171
  432.724   71.551    0.100    0.285    8.958
  432.974   78.665    0.036    0.271    7.460
  433.224   85.189    0.008    0.279    6.199
  433.474   92.629    0.035    0.324    5.184
  433.724   97.011    0.097    0.372    3.862
  433.974   98.273    0.166    0.395    3.170
  434.224   96.694    0.210    0.398    2.862
  434.474   96.512    0.247    0.395    2.780
  434.724  101.862    0.265    0.400    2.785
  434.974  106.227    0.246    0.418    2.832
  435.224  107.986    0.236    0.417    2.872
  435.474  109.254    0.230    0.409    2.907
  435.724  105.963    0.230    0.406    2.932
  435.974  103.700    0.233    0.412    2.960
  436.224  106.601    0.249    0.418    3.050
  436.474  112.095    0.249    0.407    3.163
  436.724  117.823    0.229    0.396    3.413
  436.974  121.438    0.215    0.391    3.867
  437.224  127.462    0.201    0.398    4.080
  437.474  132.661    0.194    0.410    4.369
  437.724  135.762    0.187    0.416    4.546
  437.974  132.255    0.182    0.422    4.662
  438.224  123.183    0.177    0.411    4.647
  438.474  116.270    0.171    0.384    4.458
  438.724  108.779    0.160    0.381    4.194
  438.974  102.311    0.222    0.380    3.927
  439.224   96.468    0.245    0.374    3.749
  439.474   94.968    0.231    0.376    3.722
  439.724   99.979    0.222    0.370    3.842
  439.974  102.919    0.211    0.365    4.153
  440.224  104.061    0.204    0.364    4.334
  440.474  103.484    0.198    0.363    4.653
  440.724  100.936    0.198    0.355    5.003
  440.974   95.154    0.209    0.347    5.199
  441.224   91.300    0.223    0.344    5.345
  441.474   87.640    0.231    0.338    5.368
  441.724   88.536    0.251    0.333    5.348
  441.974   91.462    0.263    0.331    5.248
