~VERSION INFORMATION
 VERS.                 2.0:   CWLS LOG ASCII STANDARD -VERSION 2.0
 WRAP.                  NO:   ONE LINE PER DEPTH STEP
~WELL INFORMATION BLOCK
#MNEM.UNIT           DATA                    DESCRIPTION OF MNEMONIC
#---------    -------------------            -------------------------------
# Generated from Intellog Unique Number	CS_67_68/WELL/2205
WELL.         GOEG et al HYLO                : Well_name    - WELL
LOC .         00/11-10-067-14W4/0            : Location     - LOCATION
UWI .         00/11-10-067-14W4/0            : Uwi          - UNIQUE WELL ID
ENTR.         SP                             : Entered      - ENTERED BY
SRVC.         SCHLUMBERGER                   : Scn          - SERVICE COMPANY
STRT.M        310                            : top_depth    - START DEPTH
STOP.M        505                            : bot_depth    - STOP DEPTH
STEP.M        0.25                           : increment    - STEP LENGTH
 NULL. -999.2500:NULL Value
~CURVE INFORMATION BLOCK
#MNEM UNIT       ERCB CURVE CODE    CURVE DESCRIPTION
#-----------   ------------------   ----------------------------------
DEPT.M        00 001 00 00         : DEPTH        - DEPTH
ILD .OHMM     00 120 00 00         : RESD         - DEEP RESISTIVITY (DIL)
DPHI.V/V      00 890 00 00         : PHID         - DENSITY POROSITY (LIMESTONE)
NPHI.V/V      00 330 00 00         : PHIN         - NEUTRON POROSITY (LIMESTONE)
GR  .API      00 310 00 00         : GR           - GAMMA RAY
CALI.MM       00 280 01 00         : CAL          - CALIPER
~PARAMETER INFORMATION
#MNEM.UNIT           DATA             DESCRIPTION OF MNEMONIC
#---------         -----------     ------------------------------
GL  .M        575.5                : gl           - GROUND LEVEL ELEVATION
EREF.M        578.5                : kb           - ELEVATION OF DEPTH REFERENCE
DATM.M        578.5                : datum        - DATUM ELEVATION
TDD .M        506                  : tdd          - TOTAL DEPTH DRILLER
RUN .         ONE                  : Run          - RUN NUMBER
ENG .         BILL                 : Engineer     - RECORDING ENGINEER
WIT .         JIM                  : Witness      - WITNESSED BY
MUD .         GEL                  : Mud_type     - MUD TYPE
MATR.         LIMESTONE            : Logunit      - NEUTRON MATRIX
TMAX.C        22                   : BHT          - MAXIMUM RECORDED TEMPERATURE
BHTD.M        506                  : BHTDEP       - MAXIMUM RECORDED TEMPERATURE
MATR.         1                    : LOGUNIT      - NEUTRON MATRIX
RMT .C        25                   : MDTP         - TEMPERATURE OF MUD
NEUT.         1                    : NEUTRON      - NEUTRON TYPE
RESI.         0                    : RESIST       - RESISTIVITY TYPE
RMC .OHMM     0.25                 : RMC          - RESISTIVITY OF MUD CAKE
RMF .OHMM     0.25                 : RMF          - RESISTIVITY OF MUD FILTRATE
SUFT.C        15                   : SUFT         - SURFACE TEMPERATURE
~A  DEPTH     RESD     PHID     PHIN       GR      CAL
# ...
  456.000    2.532    0.239    0.414  106.864  157.917
  456.250    2.221    0.226    0.451  108.563  159.023
  456.500    1.999    0.232    0.480  111.783  159.724
  456.750    1.856    0.228    0.506  114.090  160.119
  457.000    1.760    0.245    0.523  116.093  160.110
  457.250    1.737    0.220    0.498  120.348  160.100
  457.500    1.766    0.225    0.500  119.246  159.887
  457.750    1.813    0.231    0.495  116.258  159.368
  458.000    1.881    0.231    0.477  120.208  158.648
  458.250    1.966    0.235    0.456  123.734  157.218
  458.500    2.052    0.215    0.465  123.667  155.483
  458.750    2.141    0.203    0.465  119.094  154.460
  459.000    2.234    0.225    0.480  118.176  153.536
  459.250    2.327    0.222    0.489  119.752  152.816
  459.500    2.410    0.237    0.453  120.782  152.803
  459.750    2.543    0.223    0.451  121.019  153.506
  460.000    2.693    0.242    0.448  116.691  154.713
  460.250    2.836    0.223    0.443  111.449  156.226
  460.500    2.932    0.207    0.434  107.669  157.738
  460.750    2.821    0.215    0.421  107.481  158.844
  461.000    2.704    0.221    0.430  105.283  157.414
  461.250    2.684    0.234    0.448  107.164  153.751
  461.500    2.785    0.245    0.449  110.750  152.625
  461.750    2.890    0.235    0.467  111.292  154.339
  462.000    2.955    0.157    0.487  107.572  156.257
  462.250    2.917    0.091    0.462  105.496  158.073
  462.500    2.853    0.050    0.437  107.256  160.194
  462.750    2.750    0.130    0.423  113.945  162.213
  463.000    2.670    0.179    0.432  118.505  163.421
  463.250    2.602    0.207    0.443  123.248  164.222
  463.500    2.540    0.226    0.450  126.408  164.922
  463.750    2.489    0.221    0.471  128.959  165.623
  464.000    2.462    0.219    0.483  131.448  166.018
  464.250    2.453    0.216    0.478  133.330  165.096
  464.500    2.476    0.202    0.484  133.506  164.780
  464.750    2.550    0.199    0.474  131.918  166.293
  465.000    2.671    0.205    0.458  130.450  168.414
  465.250    2.829    0.206    0.458  129.592  169.926
  465.500    2.968    0.202    0.451  128.673  170.220
  465.750    3.057    0.193    0.442  126.962  167.268
  466.000    3.063    0.201    0.428  123.365  165.025
  466.250    2.941    0.189    0.413  117.149  163.087
  466.500    2.737    0.187    0.406  115.683  161.657
  466.750    2.599    0.186    0.410  121.216  160.430
  467.000    2.509    0.187    0.431  127.236  159.202
  467.250    2.455    0.204    0.466  130.944  158.685
  467.500    2.414    0.198    0.486  132.582  158.980
  467.750    2.392    0.164    0.471  125.818  159.071
  468.000    2.375    0.118    0.447  132.570  158.858
  468.250    2.362    0.179    0.450  142.973  157.833
  468.500    2.366    0.214    0.467  141.081  156.910
  468.750    2.379    0.208    0.484  135.170  155.784
  469.000    2.379    0.210    0.476  131.755  154.760
  469.250    2.366    0.202    0.503  130.409  153.735
  469.500    2.362    0.207    0.504  128.577  153.015
  469.750    2.406    0.187    0.490  129.606  152.802
  470.000    2.548    0.189    0.491  132.522  152.691
  470.250    2.724    0.192    0.481  134.586  152.680
  470.500    2.922    0.190    0.468  122.222  152.772
  470.750    3.164    0.184    0.440  112.902  152.762
  471.000    3.388    0.192    0.378  101.756  152.854
  471.250    3.588    0.191    0.351   92.801  153.045
  471.500    3.689    0.171    0.360  107.344  153.340
  471.750    3.943    0.175    0.389  118.418  153.636
  472.000    4.397    0.182    0.411  115.489  154.029
  472.250    5.051    0.172    0.352   98.682  154.122
  472.500    6.043    0.163    0.332   89.849  154.011
  472.750    7.177    0.166    0.327   85.277  154.001
  473.000    8.910    0.148    0.304   83.080  154.397
  473.250   10.254    0.077    0.274   75.343  154.995
  473.500   11.184    0.052    0.244   69.675  154.682
  473.750   10.899    0.033    0.234   69.791  150.917
  474.000    9.847    0.124    0.280   74.167  146.949
  474.250    8.494    0.150    0.307   80.432  143.491
  474.500    7.463    0.170    0.319   85.053  140.133
  474.750    6.631    0.186    0.326   88.760  138.600
  475.000    6.251    0.191    0.331   91.067  140.517
  475.250    6.047    0.185    0.338   92.947  143.045
  475.500    5.925    0.174    0.333   93.795  146.891
  475.750    5.700    0.137    0.329   90.927  150.735
  476.000    5.443    0.118    0.325   92.808  153.060
  476.250    4.020    0.148    0.333   94.933  150.411
  476.500    4.917    0.193    0.348   93.587  147.865
  476.750    4.739    0.221    0.357   90.598  146.638
  477.000    4.739    0.245    0.349   90.471  148.248
  477.250    5.189    0.231    0.343   94.603  150.371
  477.500    5.485    0.213    0.342   96.730  152.795
  477.750    6.083    0.207    0.354   94.532  154.612
  478.000    6.911    0.227    0.352   82.655  155.718
  478.250    7.779    0.243    0.304   72.057  155.709
  478.500    8.675    0.263    0.296   72.295  155.293
  478.750    9.463    0.246    0.323   79.106  155.282
  479.000    9.359    0.262    0.349   83.483  155.474
  479.250    8.725    0.272    0.363   86.886  155.974
  479.500    7.985    0.253    0.347   91.629  156.775
  479.750    7.254    0.231    0.329   94.667  158.084
  480.000    6.663    0.203    0.322   90.521  159.189
  480.250    6.109    0.174    0.298   89.602  159.991
  480.500    5.748    0.172    0.310   95.988  160.285
  480.750    5.448    0.179    0.332  102.678  160.276
  481.000    5.270    0.179    0.352  107.238  160.266
  481.250    5.117    0.183    0.366  110.397  160.459
  481.500    5.089    0.189    0.369  112.887  160.246
  481.750    5.261    0.175    0.369  115.499  159.830
  482.000    5.561    0.165    0.366  119.633  158.907
  482.250    5.988    0.156    0.364  122.061  157.475
  482.500    6.342    0.147    0.358  128.570  156.249
  482.750    6.508    0.141    0.351  134.225  153.093
  483.000    6.389    0.136    0.343  137.628  150.446
  483.250    6.215    0.123    0.355  124.108  148.813
  483.500    6.181    0.110    0.351  100.421  149.918
  483.750    6.239    0.097    0.326   89.457  150.619
  484.000    6.332    0.089    0.305   82.207  151.218
  484.250    6.522    0.144    0.323   82.810  152.019
  484.500    6.403    0.194    0.333   84.326  152.922
  484.750    6.182    0.208    0.335   92.233  153.823
  485.000    5.904    0.217    0.339  100.872  154.322
  485.250    5.669    0.225    0.348  115.598  154.615
  485.500    5.679    0.179    0.344  135.803  154.809
  485.750    5.680    0.151    0.339  151.564  154.900
  486.000    5.414    0.140    0.356  151.253  155.297
  486.250    5.010    0.133    0.377  150.820  156.708
  486.500    4.687    0.106    0.397  146.066  158.218
  486.750    4.509    0.085    0.426  138.999  159.326
  487.000    4.427    0.052    0.454  127.670  160.635
  487.250    4.560    0.063    0.315  116.889  160.320
  487.500    4.776    0.134    0.303  114.691  158.178
  487.750    5.171    0.178    0.304  123.207  155.935
  488.000    5.537    0.177    0.313  127.525  155.623
  488.250    5.940    0.163    0.321  127.701  156.324
  488.500    6.176    0.164    0.324  121.850  157.633
  488.750    6.268    0.161    0.330  123.367  158.738
  489.000    6.211    0.170    0.341  124.760  159.236
  489.250    6.030    0.171    0.349  123.354  159.934
  489.500    5.833    0.165    0.351  124.140  159.926
  489.750    5.642    0.172    0.344  118.046  159.511
  490.000    5.488    0.191    0.337  113.779  159.398
  490.250    5.388    0.191    0.345  126.984  160.200
  490.500    5.349    0.165    0.340  115.898  160.696
  490.750    5.319    0.172    0.330   93.246  160.891
  491.000    5.300    0.185    0.322   87.153  160.473
  491.250    5.350    0.224    0.342   90.677  159.856
  491.500    5.409    0.248    0.355   96.090  158.932
  491.750    5.521    0.245    0.345  102.901  158.720
  492.000    5.635    0.218    0.330  110.444  158.710
  492.250    5.635    0.199    0.314  116.891  158.902
