~VERSION INFORMATION
 VERS.                 2.0:   CWLS LOG ASCII STANDARD -VERSION 2.0
 WRAP.                  NO:   ONE LINE PER DEPTH STEP
~WELL INFORMATION BLOCK
#MNEM.UNIT           DATA                    DESCRIPTION OF MNEMONIC
#---------    -------------------            -------------------------------
# Generated from Intellog Unique Number	CS_77_79/WELL/931
WELL.         ASHLAND OIL CANADA LIMITED     : Well_name    - WELL
LOC .         00/10-05-077-18W4/0            : Location     - LOCATION
UWI .         00/10-05-077-18W4/0            : Uwi          - UNIQUE WELL ID
ENTR.         SP                             : Entered      - ENTERED BY
SRVC.         SCHLUMBERGER                   : Scn          - SERVICE COMPANY
STRT.M        207.264                        : top_depth    - START DEPTH
STOP.M        399.014                        : bot_depth    - STOP DEPTH
STEP.M        0.25                           : increment    - STEP LENGTH
 NULL. -999.2500:NULL Value
~CURVE INFORMATION BLOCK
#MNEM UNIT       ERCB CURVE CODE    CURVE DESCRIPTION
#-----------   ------------------   ----------------------------------
DEPT.M        00 001 00 00         : DEPTH        - DEPTH
GR  .API      00 310 00 00         : GR           - GAMMA RAY
DPHI.V/V      00 890 00 00         : PHID         - DENSITY POROSITY (SANDSTONE)
NPHI.V/V      00 330 00 00         : PHIN         - NEUTRON POROSITY (SANDSTONE)
ILD .OHMM     00 120 00 00         : RESD         - DEEP RESISTIVITY (DIL)
~PARAMETER INFORMATION
#MNEM.UNIT           DATA             DESCRIPTION OF MNEMONIC
#---------         -----------     ------------------------------
GL  .M        567.842              : gl           - GROUND LEVEL ELEVATION
EREF.M        572.11               : kb           - ELEVATION OF DEPTH REFERENCE
DATM.M        567.842              : datum        - DATUM ELEVATION
TDD .M        416.662              : tdd          - TOTAL DEPTH DRILLER
RUN .         ONE                  : Run          - RUN NUMBER
ENG .         BILL                 : Engineer     - RECORDING ENGINEER
WIT .         JIM                  : Witness      - WITNESSED BY
MUD .         GEL                  : Mud_type     - MUD TYPE
MATR.         SANDSTONE            : Logunit      - NEUTRON MATRIX
TMAX.C        22.2222              : BHT          - MAXIMUM RECORDED TEMPERATURE
BHTD.M        416.662              : BHTDEP       - MAXIMUM RECORDED TEMPERATURE
MATR.         1                    : LOGUNIT      - NEUTRON MATRIX
RMT .C        25                   : MDTP         - TEMPERATURE OF MUD
NEUT.         1                    : NEUTRON      - NEUTRON TYPE
RESI.         0                    : RESIST       - RESISTIVITY TYPE
RMC .OHMM     0.25                 : RMC          - RESISTIVITY OF MUD CAKE
RMF .OHMM     0.25                 : RMF          - RESISTIVITY OF MUD FILTRATE
SUFT.C        15                   : SUFT         - SURFACE TEMPERATURE
~A  DEPTH       GR     PHID     PHIN     RESD
# ...
  294.264   53.716    0.278    0.449   11.255
  294.514   51.989    0.264    0.462   11.283
  294.764   51.821    0.269    0.473   11.060
  295.014   55.403    0.284    0.469   11.085
  295.264   55.487    0.296    0.462   11.090
  295.514   53.495    0.284    0.456   11.098
  295.764   51.808    0.298    0.462   11.106
  296.014   53.785    0.286    0.461   11.116
  296.264   55.930    0.283    0.455   11.123
  296.514   56.237    0.284    0.467   11.004
  296.764   56.178    0.295    0.485   10.946
  297.014   57.727    0.287    0.503   10.947
  297.264   56.693    0.293    0.454   10.951
  297.514   58.192    0.291    0.447   10.943
  297.764   62.158    0.284    0.449   10.613
  298.014   67.166    0.272    0.452   10.329
  298.264   71.605    0.266    0.457    9.560
  298.514   75.927    0.243    0.476    9.278
  298.764   80.350    0.226    0.493    8.650
  299.014   83.411    0.207    0.499    8.226
  299.264   83.400    0.218    0.479    7.877
  299.514   83.445    0.225    0.471    7.748
  299.764   82.814    0.219    0.472    7.443
  300.014   81.870    0.213    0.469    7.681
  300.264   79.700    0.208    0.469    7.700
  300.514   80.826    0.222    0.465    8.050
  300.764   81.430    0.204    0.460    8.383
  301.014   78.770    0.218    0.457    8.718
  301.264   73.644    0.213    0.442    9.067
  301.514   73.707    0.183    0.441    9.098
  301.764   76.823    0.194    0.478    9.108
  302.014   76.504    0.220    0.501    8.760
  302.264   75.112    0.243    0.503    8.674
  302.514   78.557    0.222    0.493    8.540
  302.764   80.608    0.234    0.486    8.549
  303.014   80.956    0.231    0.476    8.554
  303.264   80.526    0.246    0.464    8.577
  303.514   78.856    0.255    0.489    8.355
  303.764   82.453    0.236    0.503    8.367
  304.014   84.796    0.241    0.477    7.856
  304.264   87.526    0.234    0.481    7.515
  304.514   89.410    0.236    0.499    7.189
  304.764   88.388    0.227    0.498    7.010
  305.014   88.204    0.208    0.494    6.956
  305.264   87.514    0.215    0.485    6.842
  305.514   86.539    0.207    0.482    6.845
  305.764   85.569    0.200    0.481    6.845
  306.014   84.028    0.218    0.486    7.053
  306.264   81.713    0.209    0.498    7.392
  306.514   80.866    0.189    0.500    7.753
  306.764   81.484    0.189    0.500    8.444
  307.014   81.502    0.195    0.494    8.806
  307.264   82.334    0.150    0.407    8.901
  307.514   85.671    0.103    0.402    8.754
  307.764   90.578    0.127    0.435    8.363
  308.014   91.542    0.166    0.485    7.701
  308.264   83.139    0.236    0.514    7.185
  308.514   80.472    0.254    0.543    6.882
  308.764   76.769    0.265    0.523    7.743
  309.014   75.825    0.273    0.500    8.490
  309.264   76.828    0.280    0.469    9.087
  309.514   75.669    0.266    0.442    9.554
  309.764   73.941    0.262    0.454    9.811
  310.014   73.843    0.250    0.453    9.547
  310.264   74.361    0.234    0.453    9.232
  310.514   74.472    0.219    0.462    8.912
  310.764   76.897    0.225    0.474    8.597
  311.014   79.048    0.223    0.474    8.260
  311.264   84.124    0.213    0.480    8.239
  311.514   87.531    0.220    0.485    8.244
  311.764   87.684    0.211    0.488    8.231
  312.014   87.805    0.178    0.498    8.481
  312.264   89.225    0.171    0.490    8.466
  312.514   91.177    0.176    0.484    8.497
  312.764   93.122    0.174    0.497    8.275
  313.014   95.094    0.191    0.510    8.124
  313.264   95.598    0.210    0.492    7.793
  313.514   94.546    0.205    0.496    7.437
  313.764   96.032    0.218    0.505    6.581
  314.014   98.045    0.188    0.506    6.195
  314.264  100.692    0.205    0.506    5.306
  314.514  101.256    0.207    0.518    4.789
  314.764   99.010    0.219    0.526    4.759
  315.014   94.612    0.206    0.536    4.972
  315.264   90.649    0.194    0.537    5.774
  315.514   87.625    0.189    0.528    6.550
  315.764   86.301    0.219    0.507    7.181
  316.014   84.392    0.224    0.499    7.624
  316.264   81.575    0.217    0.491    8.037
  316.514   78.130    0.227    0.484    8.379
  316.764   75.223    0.228    0.479    8.713
  317.014   72.320    0.223    0.481    9.056
  317.264   72.630    0.232    0.486    9.219
  317.514   76.140    0.235    0.490    9.454
  317.764   76.649    0.227    0.479    9.666
  318.014   74.787    0.264    0.477   10.023
  318.264   73.473    0.272    0.472   10.822
  318.514   73.062    0.269    0.460   11.445
  318.764   73.059    0.260    0.455   13.127
  319.014   71.939    0.245    0.445   15.001
  319.264   69.047    0.183    0.400   17.670
  319.514   63.829    0.105    0.357   20.362
  319.764   61.066    0.011    0.223   23.294
  320.014   63.739    0.024    0.243   23.637
  320.264   65.826    0.085    0.295   21.487
  320.514   70.270    0.157    0.342   19.790
  320.764   70.609    0.160    0.371   17.485
  321.014   69.167    0.129    0.341   15.600
  321.264   70.060    0.100    0.322   14.337
  321.514   72.770    0.108    0.357   13.450
  321.764   75.994    0.181    0.400   12.409
  322.014   77.759    0.199    0.439   11.800
  322.264   79.377    0.187    0.446   11.341
  322.514   81.190    0.191    0.442   11.170
  322.764   83.129    0.185    0.443   11.005
  323.014   84.132    0.181    0.438   11.117
  323.264   84.384    0.185    0.433   11.240
  323.514   83.878    0.180    0.426   11.440
  323.764   83.561    0.189    0.423   11.454
  324.014   83.189    0.199    0.440   11.236
  324.264   84.669    0.185    0.449   10.921
  324.514   84.904    0.189    0.453   10.604
  324.764   82.578    0.184    0.464   10.278
  325.014   83.810    0.190    0.471   10.293
  325.264   83.101    0.186    0.469   10.330
  325.514   81.175    0.198    0.439   10.679
  325.764   83.867    0.203    0.431   11.009
  326.014   84.913    0.199    0.431   11.319
  326.264   83.833    0.198    0.422   11.485
  326.514   84.206    0.201    0.426   11.429
  326.764   86.259    0.183    0.432   11.328
  327.014   87.809    0.170    0.430   11.152
  327.264   88.925    0.153    0.435   10.894
  327.514   90.935    0.167    0.436   10.361
  327.764   92.552    0.171    0.445    9.908
  328.014   92.410    0.161    0.452    9.481
  328.264   90.913    0.189    0.450    9.008
  328.514   90.870    0.193    0.448    8.675
  328.764   91.717    0.191    0.451    8.622
  329.014   93.759    0.203    0.455    8.628
  329.264   94.884    0.207    0.452    8.733
  329.514   93.602    0.194    0.463    8.838
  329.764   91.691    0.182    0.469    8.869
  330.014   89.519    0.207    0.469    8.655
  330.264   89.705    0.210    0.474    8.462
  330.514   90.679    0.179    0.484    8.375
  330.764   91.248    0.181    0.474    7.866
  331.014   89.089    0.189    0.465    7.699
  331.264   90.071    0.179    0.459    7.685
  331.514   92.110    0.193    0.471    7.921
  331.764   94.394    0.188    0.497    8.102
  332.014   95.774    0.194    0.515    8.120
  332.264   91.039    0.190    0.492    8.118
  332.514   89.699    0.181    0.480    7.604
  332.764   90.498    0.199    0.477    7.176
  333.014   92.919    0.189    0.479    6.749
  333.264   95.609    0.191    0.475    6.409
  333.514   95.562    0.198    0.465    6.374
  333.764   93.215    0.192    0.481    6.595
  334.014   91.102    0.189    0.496    7.226
  334.264   89.011    0.196    0.499    7.824
  334.514   89.023    0.193    0.499    8.596
  334.764   90.885    0.201    0.474    9.049
  335.014   93.419    0.184    0.456    9.023
  335.264   95.366    0.189    0.474    9.045
  335.514   98.837    0.179    0.452    8.835
  335.764  101.142    0.182    0.447    8.611
  336.014   94.273    0.185    0.450    8.473
  336.264   91.667    0.161    0.446    8.260
  336.514   91.507    0.170    0.443    8.059
  336.764   93.833    0.185    0.451    7.876
  337.014   91.775    0.180    0.460    7.895
  337.264   89.616    0.177    0.463    7.902
  337.514   91.952    0.183    0.471    8.049
