~VERSION INFORMATION
 VERS.                 2.0:   CWLS LOG ASCII STANDARD -VERSION 2.0
 WRAP.                  NO:   ONE LINE PER DEPTH STEP
~WELL INFORMATION BLOCK
#MNEM.UNIT           DATA                    DESCRIPTION OF MNEMONIC
#---------    -------------------            -------------------------------
# Generated from Intellog Unique Number	CC_80_83/WELL/2440
NULL.         -999.25                        : NULL_VALUE
WELL.         GULF RESDELN                   : Well_name    - WELL              
LOC .         15-19-083-06W4                 : Location     - LOCATION          
UWI .         00/15-19-083-06W4/0            : Uwi          - UNIQUE WELL ID    
ENTR.         RJA                            : Entered      - ENTERED BY        
SRVC.         SCHLUMBERGER                   : Scn          - SERVICE COMPANY   
DATE.         13 DEC 80                      : Date         - LOG DATE
STRT.M        125                            : top_depth    - START DEPTH       
STOP.M        374.896                        : bot_depth    - STOP DEPTH        
STEP.M        0.3                            : increment    - STEP LENGTH       
~CURVE INFORMATION BLOCK
#MNEM UNIT       ERCB CURVE CODE    CURVE DESCRIPTION
#-----------   ------------------   ----------------------------------
DEPT.M        00 001 00 00         : DEPTH        - DEPTH                       
DPHI.V/V      00 890 00 00         : PHID         - DENSITY POROSITY (LIMESTONE)
NPHI.V/V      00 330 00 00         : PHIN         - NEUTRON POROSITY (LIMESTONE)
GR  .API      00 310 00 00         : GR           - GAMMA RAY                   
ILD .OHMM     00 120 00 00         : RESD         - DEEP RESISTIVITY (DIL)      
~PARAMETER INFORMATION       
#MNEM.UNIT           DATA             DESCRIPTION OF MNEMONIC
#---------         -----------     ------------------------------
GL  .M        588.35               : gl           - GROUND LEVEL ELEVATION      
EREF.M        592.9                : kb           - ELEVATION OF DEPTH REFERENCE
DATM.M        592.9                : datum        - DATUM ELEVATION             
TDD .M        418                  : tdd          - TOTAL DEPTH DRILLER         
RUN .         ONE                  : Run          - RUN NUMBER                  
ENG .         BILL                 : Engineer     - RECORDING ENGINEER          
WIT .         JIM                  : Witness      - WITNESSED BY                
MUD .         GEL                  : Mud_type     - MUD TYPE                    
MATR.         LIMESTONE            : Logunit      - NEUTRON MATRIX              
TMAX.C        20                   : BHT          - MAXIMUM RECORDED TEMPERATURE
BHTD.M        418                  : BHTDEP       - MAXIMUM RECORDED TEMPERATURE
MATR.         1                    : LOGUNIT      - NEUTRON MATRIX              
RMT .C        25                   : MDTP         - TEMPERATURE OF MUD          
NEUT.         1                    : NEUTRON      - NEUTRON TYPE                
RESI.         0                    : RESIST       - RESISTIVITY TYPE            
RMC .OHMM     0.25                 : RMC          - RESISTIVITY OF MUD CAKE     
RMF .OHMM     0.25                 : RMF          - RESISTIVITY OF MUD FILTRATE 
SUFT.C        4                    : SUFT         - SURFACE TEMPERATURE         
~A  DEPTH     PHID     PHIN       GR     RESD
# ...
  281.600    0.265    0.404   71.264    4.299
  281.900    0.270    0.442   74.948    3.196
  282.200    0.280    0.427   79.881    3.260
  282.500    0.296    0.436   81.070    3.785
  282.800    0.295    0.501   73.445    5.290
  283.100    0.283    0.566   69.013    8.270
  283.400    0.296    0.612   62.656   10.341
  283.700    0.304    0.504   59.448   15.575
  284.000    0.324    0.450   56.247   18.767
  284.300    0.294    0.415   50.504   20.615
  284.600    0.067    0.362   48.577   18.122
  284.900    0.119    0.329   55.395   17.145
  285.200    0.186    0.259   59.699   12.058
  285.500    0.245    0.298   60.266   10.021
  285.800    0.256    0.407   59.552    8.974
  286.100    0.259    0.441   57.593    8.982
  286.400    0.267    0.457   58.748    8.989
  286.700    0.238    0.462   59.339    8.994
  287.000    0.269    0.435   59.883    9.003
  287.300    0.292    0.449   57.939    9.179
  287.600    0.285    0.471   54.093    9.358
  287.900    0.244    0.437   60.248    9.193
  288.200    0.252    0.429   63.963    8.543
  288.500    0.266    0.459   69.534    7.648
  288.800    0.254    0.485   76.986    6.476
  289.100    0.252    0.466   83.187    5.798
  289.400    0.252    0.439   83.703    6.136
  289.700    0.252    0.446   81.766    6.867
  290.000    0.256    0.477   78.578    7.400
  290.300    0.251    0.477   75.992    8.278
  290.600    0.234    0.477   77.168    8.443
  290.900    0.220    0.475   83.963    8.294
  291.200    0.231    0.441   83.896    7.705
  291.500    0.241    0.411   79.419    4.256
  291.800    0.212    0.420   77.498    2.994
  292.100    0.212    0.434   70.509    2.488
  292.400    0.241    0.439   69.814    2.399
  292.700    0.290    0.441   69.731    2.539
  293.000    0.310    0.494   68.425    3.118
  293.300    0.309    0.527   66.472    3.487
  293.600    0.261    0.588   67.642    4.362
  293.900    0.238    0.561   70.059    5.160
  294.200    0.247    0.552   71.860    5.773
  294.500    0.233    0.520   73.042    6.341
  294.800    0.237    0.475   73.606    6.584
  295.100    0.246    0.489   69.734    6.839
  295.400    0.229    0.465   67.188    6.123
  295.700    0.176    0.430   68.987    4.996
  296.000    0.178    0.448   72.692    4.230
  296.300    0.228    0.406   79.462    3.649
  296.600    0.251    0.418   81.307    3.391
  296.900    0.244    0.453   82.479    3.331
  297.200    0.238    0.483   79.908    3.335
  297.500    0.242    0.491   80.460    3.399
  297.800    0.253    0.497   79.139    3.402
  298.100    0.271    0.526   75.900    3.469
  298.400    0.273    0.523   78.318    3.537
  298.700    0.260    0.512   78.911    3.606
  299.000    0.249    0.517   78.804    3.678
  299.300    0.233    0.521   80.010    3.612
  299.600    0.248    0.520   81.177    3.548
  299.900    0.206    0.512   82.786    4.469
  300.200    0.168    0.491   80.217    4.724
  300.500    0.149    0.480   77.048    4.721
  300.799    0.191    0.457   70.099    5.083
  301.099    0.241    0.471   72.559    5.576
  301.399    0.272    0.464   70.625    6.232
  301.699    0.275    0.335   66.815    6.709
  301.999    0.152    0.368   63.642    6.831
  302.299    0.183    0.383   66.092    6.956
  302.599    0.226    0.384   61.663    6.335
  302.899    0.238    0.403   58.479    5.456
  303.199    0.245    0.451   67.834    4.969
  303.499    0.271    0.478   70.304    4.697
  303.799    0.311    0.401   63.977    4.523
  304.099    0.374    0.409   58.294    4.120
  304.399    0.377    0.455   58.241    3.548
  304.699    0.262    0.494   61.959    3.292
  304.999    0.286    0.529   65.677    3.112
  305.299    0.330    0.380   55.586    4.512
  305.599    0.337    0.340   47.395    8.647
  305.899    0.340    0.334   45.450   11.640
  306.199    0.346    0.341   47.922   14.817
  306.499    0.336    0.348   47.870   13.244
  306.799    0.319    0.354   45.325   13.997
  307.099    0.330    0.355   52.172   15.355
  307.399    0.345    0.333   54.642   15.635
  307.699    0.349    0.325   45.177   16.835
  307.999    0.294    0.335   47.018   18.811
  308.299    0.300    0.345   53.856   18.802
  308.599    0.328    0.299   51.931   21.012
  308.899    0.348    0.295   45.601   23.919
  309.199    0.355    0.299   43.071   23.906
  309.499    0.356    0.315   37.994   23.459
  309.799    0.342    0.324   36.064   20.203
  310.099    0.307    0.337   39.160   17.726
  310.399    0.297    0.344   49.766   17.391
  310.699    0.329    0.349   53.494   16.745
  310.999    0.339    0.294   45.911   16.430
  311.299    0.316    0.262   42.112   14.688
  311.599    0.315    0.274   41.430   11.964
  311.899    0.326    0.331   34.477    7.510
  312.199    0.311    0.347   30.032    6.117
  312.499    0.243    0.337   32.516    5.468
  312.799    0.243    0.362   53.780    4.980
  313.099    0.297    0.390   54.996    4.796
  313.399    0.269    0.369   44.915    4.450
  313.699    0.269    0.345   36.718    4.284
  313.999    0.274    0.330   37.917    4.125
  314.299    0.280    0.350   42.266    4.048
  314.599    0.282    0.375   44.716    4.046
  314.899    0.271    0.361   41.535    4.044
  315.199    0.273    0.396   44.000    4.195
  315.499    0.275    0.371   43.325    4.433
  315.799    0.254    0.361   43.901    4.599
  316.099    0.269    0.403   45.749    4.597
  316.399    0.293    0.414   40.042    4.595
  316.699    0.277    0.341   38.131    4.508
  316.999    0.267    0.371   48.741    4.421
  317.299    0.278    0.388   45.546    4.420
  317.599    0.296    0.358   36.728    4.335
  317.899    0.247    0.355   34.169    4.254
  318.199    0.288    0.368   41.030    4.252
  318.499    0.296    0.359   43.484    4.329
  318.799    0.301    0.351   38.407    4.491
  319.099    0.311    0.372   35.236    4.659
  319.399    0.306    0.405   31.430    4.924
  319.699    0.168    0.412   30.761    5.014
  319.999    0.273    0.400   31.340    5.501
  320.299    0.297    0.383   29.409    6.744
  320.599    0.308    0.377   31.860    7.263
  320.899    0.310    0.336   33.068    9.595
  321.199    0.314    0.329   32.392   12.444
  321.499    0.321    0.342   31.096   22.142
  321.799    0.324    0.367   29.793   35.898
  322.099    0.314    0.384   30.374   33.927
  322.399    0.323    0.390   31.577   32.073
  322.699    0.316    0.390   34.661   28.144
  322.999    0.263    0.357   39.022   20.123
  323.299    0.276    0.383   49.636   18.325
  323.599    0.293    0.422   45.202   18.662
  323.899    0.314    0.457   36.993   21.645
  324.199    0.280    0.403   40.088   23.743
  324.499    0.299    0.400   48.819   26.530
  324.799    0.325    0.414   42.503   29.648
  325.099    0.342    0.427   34.297   36.365
  325.398    0.342    0.364   31.112   50.804
  325.698    0.330    0.374   29.178   46.265
  325.998    0.331    0.389   28.506   42.132
  326.298    0.334    0.391   28.455   42.118
  326.598    0.326    0.388   29.048   41.319
  326.898    0.312    0.401   32.764   34.283
  327.198    0.322    0.405   32.698   26.410
  327.498    0.328    0.388   33.292   15.973
  327.798    0.289    0.381   47.671   12.078
  328.098    0.223    0.360   61.429   11.417
  328.398    0.234    0.399   57.613   11.410
  328.698    0.282    0.437   41.266   13.736
  328.998    0.343    0.449   31.800   17.164
  329.298    0.330    0.427   34.267   16.224
  329.598    0.295    0.401   50.532   13.715
  329.898    0.284    0.395   52.977   12.725
  330.198    0.284    0.400   49.807   13.960
  330.498    0.294    0.417   44.744   20.241
  330.798    0.319    0.434   39.682   22.201
  331.098    0.324    0.440   50.918   21.783
  331.398    0.248    0.427   56.519   23.894
  331.698    0.277    0.410   49.568   28.232
  331.998    0.326    0.416   38.858   32.146
  332.298    0.351    0.422   31.286   46.606
  332.598    0.360    0.405   28.733   74.174
  332.898    0.366    0.409   29.936  109.561
  333.198    0.372    0.426   29.269  120.175
  333.498    0.372    0.425   27.326  124.683
