~VERSION INFORMATION
 VERS.                 2.0:   CWLS LOG ASCII STANDARD -VERSION 2.0
 WRAP.                  NO:   ONE LINE PER DEPTH STEP
~WELL INFORMATION BLOCK
#MNEM.UNIT           DATA                    DESCRIPTION OF MNEMONIC
#---------    -------------------            -------------------------------
# Generated from Intellog Unique Number	CW_73_75/WELL/2741
WELL.         TRICENT ER AL MITSUE 10-17     : Well_name    - WELL
LOC .         00/10-17-073-04W5/0            : Location     - LOCATION
UWI .         00/10-17-073-04W5/0            : Uwi          - UNIQUE WELL ID
ENTR.         JAYE                           : Entered      - ENTERED BY
SRVC.         SCHLUMBERGER                   : Scn          - SERVICE COMPANY
DATE.         14 MAR 80                      : Date         - LOG DATE
STRT.M        365                            : top_depth    - START DEPTH
STOP.M        595                            : bot_depth    - STOP DEPTH
STEP.M        0.25                           : increment    - STEP LENGTH
 NULL. -999.2500:NULL Value
~CURVE INFORMATION BLOCK
#MNEM UNIT       ERCB CURVE CODE    CURVE DESCRIPTION
#-----------   ------------------   ----------------------------------
DEPT.M        00 001 00 00         : DEPTH        - DEPTH
DPHI.V/V      00 890 00 00         : PHID         - DENSITY POROSITY (SANDSTONE)
NPHI.V/V      00 330 00 00         : PHIN         - NEUTRON POROSITY (SANDSTONE)
GR  .API      00 310 00 00         : GR           - GAMMA RAY
CALI.MM       00 280 01 00         : CAL          - CALIPER
ILD .OHMM     00 120 00 00         : RESD         - DEEP RESISTIVITY (DIL)
~PARAMETER INFORMATION
#MNEM.UNIT           DATA             DESCRIPTION OF MNEMONIC
#---------         -----------     ------------------------------
GL  .M        580.4                : gl           - GROUND LEVEL ELEVATION
EREF.M        585                  : kb           - ELEVATION OF DEPTH REFERENCE
DATM.M        580.4                : datum        - DATUM ELEVATION
TDD .M        1650                 : tdd          - TOTAL DEPTH DRILLER
RUN .         ONE                  : Run          - RUN NUMBER
ENG .         HOOK                 : Engineer     - RECORDING ENGINEER
WIT .         ZBIOI                : Witness      - WITNESSED BY
BASE.         5720                 : Branch       - HOME BASE OF LOGGING UNIT
MUD .         GEL CHEM             : Mud_type     - MUD TYPE
MATR.         SANDSTONE            : Logunit      - NEUTRON MATRIX
TMAX.C        48                   : BHT          - MAXIMUM RECORDED TEMPERATURE
BHTD.M        1651                 : BHTDEP       - MAXIMUM RECORDED TEMPERATURE
RMT .C        20                   : MDTP         - TEMPERATURE OF MUD
MUDD.KG/M     1070                 : MWT          - MUD DENSITY
NEUT.         1                    : NEUTRON      - NEUTRON TYPE
RESI.         0                    : RESIST       - RESISTIVITY TYPE
RM  .OHMM     1.18                 : RM           - RESISTIVITY OF MUD
RMC .OHMM     0                    : RMC          - RESISTIVITY OF MUD CAKE
RMF .OHMM     0.616                : RMF          - RESISTIVITY OF MUD FILTRATE
SUFT.C        0                    : SUFT         - SURFACE TEMPERATURE
~A  DEPTH     PHID     PHIN       GR      CAL     RESD
# ...
  438.000    0.194    0.417   76.745  233.852    4.553
  438.250    0.198    0.424   74.190  235.573    4.616
  438.500    0.211    0.428   71.949  236.771    4.671
  438.750    0.217    0.422   71.681  237.977    4.709
  439.000    0.221    0.417   73.391  239.501    4.695
  439.250    0.223    0.411   75.165  240.594    4.663
  439.500    0.224    0.412   74.467  241.285    4.614
  439.750    0.230    0.430   72.962  241.148    4.548
  440.000    0.242    0.432   73.747  240.806    4.466
  440.250    0.244    0.425   76.511  238.415    4.370
  440.500    0.241    0.420   80.137  235.798    4.324
  440.750    0.233    0.425   83.702  231.026    4.310
  441.000    0.238    0.435   86.038  226.154    4.314
  441.250    0.230    0.431   87.868  224.575    4.308
  441.500    0.216    0.430   87.044  228.771    4.303
  441.750    0.201    0.445   84.616  232.030    4.346
  442.000    0.195    0.457   83.237  230.350    4.389
  442.250    0.198    0.452   82.354  230.318    4.441
  442.500    0.218    0.445   82.396  231.324    4.579
  442.750    0.219    0.437   83.734  232.525    4.704
  443.000    0.226    0.428   85.384  234.033    4.822
  443.250    0.242    0.421   81.595  236.378    4.898
  443.500    0.242    0.412   78.733  238.300    4.883
  443.750    0.229    0.402   75.879  242.598    4.832
  444.000    0.241    0.401   74.433  248.335    4.763
  444.250    0.255    0.415   72.932  250.152    4.686
  444.500    0.244    0.412   72.227  249.715    4.707
  444.750    0.232    0.415   73.445  249.262    4.701
  445.000    0.226    0.431   76.517  249.229    4.669
  445.250    0.228    0.421   79.710  249.308    4.637
  445.500    0.206    0.407   81.796  249.174    4.614
  445.750    0.213    0.408   83.383  247.493    4.600
  446.000    0.219    0.416   84.414  245.603    4.534
  446.250    0.221    0.414   86.746  243.509    4.445
  446.500    0.233    0.409   87.961  242.039    4.365
  446.750    0.240    0.405   88.376  239.843    4.279
  447.000    0.227    0.408   86.627  237.955    4.218
  447.250    0.231    0.412   82.278  234.527    4.189
  447.500    0.253    0.420   78.552  231.197    4.200
  447.750    0.250    0.430   75.257  227.462    4.258
  448.000    0.253    0.440   72.207  224.948    4.349
  448.250    0.270    0.450   70.519  222.649    4.417
  448.500    0.285    0.447   71.179  220.461    4.445
  448.750    0.299    0.431   71.903  218.883    4.489
  449.000    0.297    0.428   71.888  218.433    4.594
  449.250    0.288    0.434   71.562  218.920    4.701
  449.500    0.276    0.426   72.092  219.308    4.767
  449.750    0.276    0.414   73.002  219.472    4.823
  450.000    0.273    0.419   70.880  219.851    5.114
  450.250    0.267    0.412   69.192  220.130    5.535
  450.500    0.255    0.399   67.817  220.728    5.946
  450.750    0.238    0.376   67.672  221.199    6.235
  451.000    0.215    0.349   68.394  222.711    6.332
  451.250    0.183    0.323   68.126  223.713    6.254
  451.500    0.154    0.343   67.612  224.298    5.917
  451.750    0.249    0.369   68.645  221.484    5.392
  452.000    0.279    0.406   69.801  221.973    5.101
  452.250    0.287    0.434   71.454  223.080    5.086
  452.500    0.286    0.428   73.291  224.594    4.875
  452.750    0.282    0.426   74.503  226.208    4.672
  453.000    0.278    0.432   75.843  227.717    4.290
  453.250    0.276    0.431   75.887  229.738    3.998
  453.500    0.272    0.426   72.836  231.878    3.775
  453.750    0.271    0.423   69.789  232.868    3.632
  454.000    0.283    0.417   67.544  235.001    3.567
  454.250    0.298    0.408   68.454  236.515    3.590
  454.500    0.306    0.446   69.795  235.864    3.585
  454.750    0.305    0.450   71.816  236.053    3.594
  455.000    0.295    0.439   75.195  236.629    3.644
  455.250    0.278    0.420   77.215  238.045    3.708
  455.500    0.266    0.437   74.787  239.754    3.752
  455.750    0.251    0.443   71.429  241.784    3.775
  456.000    0.276    0.435   70.485  243.603    3.828
  456.250    0.272    0.438   70.525  244.506    3.881
  456.500    0.268    0.449   71.126  245.604    3.942
  456.750    0.269    0.455   71.541  245.981    4.003
  457.000    0.275    0.459   71.582  246.164    4.128
  457.250    0.281    0.461   71.375  246.225    4.272
  457.500    0.287    0.461   71.665  246.192    4.412
  457.750    0.296    0.459   72.326  246.783    4.541
  458.000    0.307    0.458   73.298  247.469    4.603
  458.250    0.288    0.455   75.198  251.262    4.658
  458.500    0.284    0.452   76.474  252.456    4.705
  458.750    0.302    0.450   77.013  252.326    4.734
  459.000    0.309    0.448   75.263  252.186    4.702
  459.250    0.304    0.448   74.442  251.844    4.652
  459.500    0.291    0.450   74.608  252.337    4.594
  459.750    0.280    0.457   75.141  252.913    4.538
  460.000    0.268    0.459   75.801  253.909    4.482
  460.250    0.252    0.449   76.528  255.954    4.443
  460.500    0.259    0.441   77.307  257.144    4.429
  460.750    0.276    0.454   78.344  257.731    4.423
  461.000    0.277    0.456   78.876  257.190    4.451
  461.250    0.280    0.444   78.735  257.255    4.462
  461.500    0.273    0.430   79.147  260.826    4.448
  461.750    0.253    0.442   79.623  265.740    4.426
  462.000    0.233    0.437   78.059  269.006    4.396
  462.250    0.221    0.426   75.629  271.651    4.390
  462.500    0.237    0.425   76.601  274.514    4.418
  462.750    0.237    0.423   77.939  276.439    4.446
  463.000    0.233    0.426   77.489  276.401    4.474
  463.250    0.232    0.436   77.656  271.325    4.476
  463.500    0.237    0.447   78.687  267.370    4.479
  463.750    0.237    0.439   79.905  265.899    4.473
  464.000    0.231    0.427   77.969  266.073    4.468
  464.250    0.242    0.450   77.887  270.161    4.462
  464.500    0.245    0.458   78.548  273.946    4.448
  464.750    0.247    0.462   78.035  271.743    4.451
  465.000    0.258    0.457   76.038  267.902    4.471
  465.250    0.251    0.442   75.091  268.705    4.499
  465.500    0.259    0.420   76.626  271.655    4.510
  465.750    0.261    0.406   78.768  274.814    4.538
  466.000    0.250    0.397   80.725  276.846    4.550
  466.250    0.238    0.427   82.369  276.503    4.569
  466.500    0.218    0.442   84.452  273.897    4.606
  466.750    0.208    0.459   85.612  270.886    4.627
  467.000    0.199    0.461   86.087  269.296    4.595
  467.250    0.208    0.460   85.630  266.795    4.547
  467.500    0.214    0.450   84.749  265.736    4.441
  467.750    0.200    0.441   83.308  264.057    4.328
  468.000    0.203    0.429   82.053  262.782    4.219
  468.250    0.211    0.425   80.179  260.077    4.167
  468.500    0.233    0.432   76.820  258.183    4.193
  468.750    0.255    0.451   72.847  254.237    4.267
  469.000    0.285    0.460   70.538  246.892    4.474
  469.250    0.312    0.465   68.850  243.670    4.726
  469.500    0.306    0.455   66.606  243.017    5.125
  469.750    0.292    0.435   64.367  242.055    5.475
  470.000    0.269    0.418   64.713  239.963    5.871
  470.250    0.258    0.421   66.308  237.359    6.213
  470.500    0.262    0.430   67.891  237.636    6.453
  470.750    0.273    0.431   68.738  238.120    6.605
  471.000    0.273    0.427   66.678  238.710    6.771
  471.250    0.272    0.418   62.701  239.302    6.942
  471.500    0.281    0.410   63.238  239.463    7.024
  471.750    0.276    0.421   64.519  240.153    7.043
  472.000    0.269    0.431   64.996  240.428    6.981
  472.250    0.290    0.438   62.995  241.230    6.895
  472.500    0.288    0.439   62.854  241.721    6.758
  472.750    0.290    0.442   64.257  242.094    6.576
  473.000    0.290    0.444   65.660  242.367    6.327
  473.250    0.281    0.440   65.518  242.961    6.121
  473.500    0.300    0.448   65.063  243.430    5.889
  473.750    0.305    0.455   65.603  244.017    5.708
  474.000    0.298    0.454   66.759  244.607    5.533
  474.250    0.283    0.438   66.304  244.881    5.373
