~VERSION INFORMATION
 VERS.                 2.0:   CWLS LOG ASCII STANDARD -VERSION 2.0
 WRAP.                  NO:   ONE LINE PER DEPTH STEP
~WELL INFORMATION BLOCK
#MNEM.UNIT           DATA                    DESCRIPTION OF MNEMONIC
#---------    -------------------            -------------------------------
# Generated from Intellog Unique Number	CS_77_79/WELL/963
WELL.         CDN OXY ET AL GRAHAM           : Well_name    - WELL
LOC .         00/10-26-079-04W4/0            : Location     - LOCATION
UWI .         00/10-26-079-04W4/0            : Uwi          - UNIQUE WELL ID
ENTR.         JHS                            : Entered      - ENTERED BY
SRVC.         SCHLUMBERGER                   : Scn          - SERVICE COMPANY
STRT.M        100                            : top_depth    - START DEPTH
STOP.M        325                            : bot_depth    - STOP DEPTH
STEP.M        0.25                           : increment    - STEP LENGTH
 NULL. -999.2500:NULL Value
~CURVE INFORMATION BLOCK
#MNEM UNIT       ERCB CURVE CODE    CURVE DESCRIPTION
#-----------   ------------------   ----------------------------------
DEPT.M        00 001 00 00         : DEPTH        - DEPTH
DPHI.V/V      00 890 00 00         : PHID         - DENSITY POROSITY (LIMESTONE)
NPHI.V/V      00 330 00 00         : PHIN         - NEUTRON POROSITY (LIMESTONE)
GR  .API      00 310 00 00         : GR           - GAMMA RAY
ILD .OHMM     00 120 00 00         : RESD         - DEEP RESISTIVITY (DIL)
~PARAMETER INFORMATION
#MNEM.UNIT           DATA             DESCRIPTION OF MNEMONIC
#---------         -----------     ------------------------------
GL  .M        474.32               : gl           - GROUND LEVEL ELEVATION
EREF.M        477.97               : kb           - ELEVATION OF DEPTH REFERENCE
DATM.M        477.97               : datum        - DATUM ELEVATION
TDD .M        335                  : tdd          - TOTAL DEPTH DRILLER
RUN .         ONE                  : Run          - RUN NUMBER
ENG .         BILL                 : Engineer     - RECORDING ENGINEER
WIT .         JIM                  : Witness      - WITNESSED BY
MUD .         GEL                  : Mud_type     - MUD TYPE
MATR.         LIMESTONE            : Logunit      - NEUTRON MATRIX
TMAX.C        19                   : BHT          - MAXIMUM RECORDED TEMPERATURE
BHTD.M        335                  : BHTDEP       - MAXIMUM RECORDED TEMPERATURE
MATR.         1                    : LOGUNIT      - NEUTRON MATRIX
RMT .C        25                   : MDTP         - TEMPERATURE OF MUD
NEUT.         1                    : NEUTRON      - NEUTRON TYPE
RESI.         0                    : RESIST       - RESISTIVITY TYPE
RMC .OHMM     0.25                 : RMC          - RESISTIVITY OF MUD CAKE
RMF .OHMM     0.25                 : RMF          - RESISTIVITY OF MUD FILTRATE
SUFT.C        15                   : SUFT         - SURFACE TEMPERATURE
~A  DEPTH     PHID     PHIN       GR     RESD
# ...
  143.500    0.223    0.439   92.689    6.604
  143.750    0.220    0.447   90.233    6.362
  144.000    0.228    0.431   93.308    6.129
  144.250    0.233    0.451   98.230    6.018
  144.500    0.228    0.418  100.077    5.907
  144.750    0.226    0.437  101.309    6.021
  145.000    0.225    0.455   98.238    6.138
  145.250    0.228    0.423  104.389    6.257
  145.500    0.234    0.426  106.235    6.260
  145.750    0.242    0.447  105.623    6.261
  146.000    0.244    0.438   98.864    6.263
  146.250    0.235    0.485   97.022    6.149
  146.500    0.233    0.459   95.795    6.151
  146.750    0.231    0.472   92.109    6.390
  147.000    0.241    0.448   91.497    6.637
  147.250    0.257    0.405   89.655    7.024
  147.500    0.262    0.407   87.200    7.577
  147.750    0.253    0.444   90.890    7.871
  148.000    0.247    0.465   99.500    8.176
  148.250    0.251    0.467   94.585    8.333
  148.500    0.240    0.419   93.973    8.181
  148.750    0.235    0.381   91.517    7.881
  149.000    0.229    0.391   93.363    7.451
  149.250    0.234    0.369   98.899    6.784
  149.500    0.225    0.381   97.057    5.729
  149.750    0.224    0.423   93.987    5.119
  150.000    0.230    0.456   96.448    4.661
  150.250    0.231    0.460   99.524    4.491
  150.500    0.209    0.432   95.225    4.408
  150.750    0.207    0.427   95.227    4.247
  151.000    0.223    0.481   99.533    4.169
  151.250    0.229    0.562  100.151    4.093
  151.500    0.219    0.445   98.309    4.172
  151.750    0.212    0.441  102.000    4.253
  152.000    0.220    0.456  103.847    4.587
  152.250    0.219    0.451   98.932    4.765
  152.500    0.231    0.456   94.016    4.949
  152.750    0.251    0.421   89.716    5.238
  153.000    0.252    0.379   86.030    5.867
  153.250    0.244    0.440   87.877    6.328
  153.500    0.252    0.462   87.265    6.955
  153.750    0.264    0.402   85.424    7.501
  154.000    0.272    0.360   83.582    7.941
  154.250    0.273    0.424   79.896    8.093
  154.500    0.268    0.461   79.284    8.251
  154.750    0.268    0.482   82.975    8.571
  155.000    0.271    0.429   79.290    8.902
  155.250    0.262    0.427   84.211    8.905
  155.500    0.266    0.422   85.442    9.078
  155.750    0.271    0.445   81.757    9.081
  156.000    0.268    0.414   82.374    9.084
  156.250    0.258    0.397   83.607    9.260
  156.500    0.256    0.403   84.224    9.801
  156.750    0.252    0.401   90.374    9.992
  157.000    0.258    0.396   87.918    9.995
  157.250    0.270    0.403   86.691    9.811
  157.500    0.262    0.403   89.768    9.277
  157.750    0.240    0.413   86.082    8.771
  158.000    0.227    0.448   83.010    8.450
  158.250    0.231    0.441   86.088    8.452
  158.500    0.240    0.439   88.549    8.455
  158.750    0.254    0.435   87.937    8.459
  159.000    0.262    0.445   87.940    8.462
  159.250    0.258    0.423   90.401    8.464
  159.500    0.252    0.391   89.789    8.467
  159.750    0.253    0.402   87.333    8.470
  160.000    0.248    0.425   86.106    8.473
  160.250    0.242    0.420   86.724    8.319
  160.500    0.251    0.384   87.342    8.321
  160.750    0.258    0.401   86.115    8.169
  161.000    0.248    0.422   85.502    8.172
  161.250    0.240    0.403   87.349    8.022
  161.500    0.233    0.440   83.664    8.026
  161.750    0.233    0.455   81.207    8.028
  162.000    0.240    0.401   80.595    8.031
  162.250    0.233    0.395   85.516    7.884
  162.500    0.229    0.451   91.052    7.740
  162.750    0.226    0.438   94.743    7.598
  163.000    0.217    0.454   92.902    7.184
  163.250    0.231    0.477   88.601    6.920
  163.500    0.251    0.474   92.292    6.667
  163.750    0.220    0.429   95.984    6.546
  164.000    0.208    0.410   94.141    6.672
  164.250    0.214    0.408   89.226    6.801
  164.500    0.232    0.413   89.230    7.065
  164.750    0.222    0.412   90.461    7.619
  165.000    0.235    0.449   88.620    8.065
  165.250    0.272    0.445   86.778    8.537
  165.500    0.283    0.449   85.552    9.382
  165.750    0.287    0.422   79.406   10.120
  166.000    0.290    0.401   80.639   10.123
  166.250    0.252    0.420   84.330    9.392
  166.500    0.231    0.465   91.710    8.082
  166.750    0.224    0.488   93.558    6.825
  167.000    0.222    0.496   94.789    5.551
  167.250    0.228    0.460  100.325    5.150
  167.500    0.231    0.426  105.860    4.690
  167.750    0.237    0.455  102.175    4.518
  168.000    0.248    0.457  103.407    4.435
  168.250    0.260    0.477  106.484    4.272
  168.500    0.274    0.503  104.027    3.818
  168.750    0.284    0.528  107.103    3.542
  169.000    0.267    0.557  108.336    3.165
  169.250    0.257    0.578  104.035    2.723
  169.500    0.259    0.527  102.809    2.527
  169.750    0.248    0.581  100.967    2.528
  170.000    0.243    0.549  103.429    2.626
  170.250    0.243    0.501  108.964    2.728
  170.500    0.237    0.512  106.508    2.833
  170.750    0.226    0.533  110.199    2.943
  171.000    0.222    0.522  108.973    2.999
  171.250    0.231    0.562  108.975    3.116
  171.500    0.246    0.507  108.363    3.117
  171.750    0.253    0.574  104.062    3.238
  172.000    0.254    0.611  102.836    3.427
  172.250    0.247    0.581  100.380    3.696
  172.500    0.233    0.472   95.464    3.987
  172.750    0.230    0.452   93.008    4.636
  173.000    0.239    0.478   91.781    5.192
  173.250    0.247    0.446   89.325    5.394
  173.500    0.255    0.419   92.401    5.603
  173.750    0.282    0.400   93.633    5.819
  174.000    0.292    0.407   88.718    6.277
  174.250    0.269    0.426   88.721    6.770
  174.500    0.271    0.404   89.953    7.302
  174.750    0.274    0.443   86.882    7.729
  175.000    0.269    0.434   84.425    8.180
  175.250    0.311    0.364   83.199    8.991
  175.500    0.355    0.324   81.972   10.069
  175.750    0.383    0.304   80.746   11.710
  176.000    0.329    0.309   81.363   13.617
  176.250    0.274    0.352   78.906   16.138
  176.500    0.282    0.382   77.065   17.081
  176.750    0.311    0.297   82.600   17.411
  177.000    0.276    0.280   78.915   18.429
  177.250    0.232    0.268   67.852   20.641
  177.500    0.268    0.252   77.691   22.262
  177.750    0.357    0.259   83.841   23.124
  178.000    0.352    0.284   83.229   21.456
  178.250    0.334    0.325   78.929   18.462
  178.500    0.323    0.354   77.702   16.189
  178.750    0.288    0.362   75.245   16.198
  179.000    0.147    0.345   69.100   16.201
  179.250    0.136    0.296   64.800   15.316
  179.500    0.218    0.284   78.942   13.686
  179.750    0.265    0.319   78.945   12.698
  180.000    0.279    0.366   73.415   12.007
  180.250    0.296    0.384   79.565   11.786
  180.500    0.105    0.365   74.650   11.790
  180.750    0.079    0.325   64.816   12.247
  181.000    0.136    0.295   72.196   12.484
  181.250    0.264    0.287   82.035   12.255
  181.500    0.282    0.372   83.882   11.806
  181.750    0.283    0.404   87.573   11.161
  182.000    0.274    0.374   85.732   10.163
  182.250    0.271    0.384   78.973    9.430
  182.500    0.260    0.398   83.278    9.256
  182.750    0.239    0.448   94.962    8.752
  183.000    0.226    0.480   96.195    7.968
  183.250    0.212    0.462   94.967    7.120
  183.500    0.207    0.404   95.584    6.989
  183.750    0.207    0.420   96.202    6.992
  184.000    0.213    0.437   95.589    7.127
  184.250    0.221    0.486   96.207    7.687
  184.500    0.233    0.483   98.054    7.985
  184.750    0.245    0.410   93.139    7.839
  185.000    0.250    0.422   88.224    7.273
  185.250    0.260    0.393   91.300    6.499
  185.500    0.274    0.438   95.606    5.917
  185.750    0.264    0.469  101.756    5.388
  186.000    0.255    0.512  102.374    5.094
  186.250    0.230    0.420   96.229    5.095
  186.500    0.218    0.400   92.544    5.393
  186.750    0.213    0.440   93.160    5.602
