~VERSION INFORMATION
 VERS.                 2.0:   CWLS LOG ASCII STANDARD -VERSION 2.0
 WRAP.                  NO:   ONE LINE PER DEPTH STEP
~WELL INFORMATION BLOCK
#MNEM.UNIT           DATA                    DESCRIPTION OF MNEMONIC
#---------    -------------------            -------------------------------
# Generated from Intellog Unique Number	CW_73_75/WELL/2738
WELL.         MANNVILLE ET AL FAWCETT 10-05  : Well_name    - WELL
LOC .         00/10-05-073-01W5/0            : Location     - LOCATION
UWI .         00/10-05-073-01W5/0            : Uwi          - UNIQUE WELL ID
ENTR.         JAYE                           : Entered      - ENTERED BY
SRVC.         SCHLUMBERGER                   : Scn          - SERVICE COMPANY
DATE.         20 NOV 77                      : Date         - LOG DATE
STRT.M        426.72                         : top_depth    - START DEPTH
STOP.M        685.72                         : bot_depth    - STOP DEPTH
STEP.M        0.25                           : increment    - STEP LENGTH
 NULL. -999.2500:NULL Value
~CURVE INFORMATION BLOCK
#MNEM UNIT       ERCB CURVE CODE    CURVE DESCRIPTION
#-----------   ------------------   ----------------------------------
DEPT.M        00 001 00 00         : DEPTH        - DEPTH
DPHI.V/V      00 890 00 00         : PHID         - DENSITY POROSITY (SANDSTONE)
NPHI.V/V      00 330 00 00         : PHIN         - NEUTRON POROSITY (SANDSTONE)
GR  .API      00 310 00 00         : GR           - GAMMA RAY
CALI.MM       00 280 01 00         : CAL          - CALIPER
ILD .OHMM     00 120 00 00         : RESD         - DEEP RESISTIVITY (DIL)
~PARAMETER INFORMATION
#MNEM.UNIT           DATA             DESCRIPTION OF MNEMONIC
#---------         -----------     ------------------------------
GL  .M        635.203              : gl           - GROUND LEVEL ELEVATION
EREF.M        638.251              : kb           - ELEVATION OF DEPTH REFERENCE
DATM.M        635.203              : datum        - DATUM ELEVATION
TDD .M        694.944              : tdd          - TOTAL DEPTH DRILLER
RUN .         ONE                  : Run          - RUN NUMBER
ENG .         KUBICA/RIVOLLIER     : Engineer     - RECORDING ENGINEER
WIT .         WOOLLEY              : Witness      - WITNESSED BY
BASE.         EDM                  : Branch       - HOME BASE OF LOGGING UNIT
MUD .         GEL                  : Mud_type     - MUD TYPE
MATR.         SANDSTONE            : Logunit      - NEUTRON MATRIX
TMAX.C        21.1111              : BHT          - MAXIMUM RECORDED TEMPERATURE
BHTD.M        694.944              : BHTDEP       - MAXIMUM RECORDED TEMPERATURE
RMT .C        11.1111              : MDTP         - TEMPERATURE OF MUD
MUDD.KG/M     1116                 : MWT          - MUD DENSITY
NEUT.         1                    : NEUTRON      - NEUTRON TYPE
RESI.         0                    : RESIST       - RESISTIVITY TYPE
RM  .OHMM     3.89                 : RM           - RESISTIVITY OF MUD
RMC .OHMM     0                    : RMC          - RESISTIVITY OF MUD CAKE
RMF .OHMM     5.51                 : RMF          - RESISTIVITY OF MUD FILTRATE
SUFT.C        -17.7778             : SUFT         - SURFACE TEMPERATURE
~A  DEPTH     PHID     PHIN       GR      CAL     RESD
# ...
  463.220    0.252    0.405   89.840  158.817    3.267
  463.470    0.234    0.390   95.244  159.184    3.368
  463.720    0.192    0.402   99.523  159.995    3.567
  463.970    0.196    0.413   99.071  160.599    3.762
  464.220    0.215    0.411   96.622  161.300    3.871
  464.470    0.224    0.398   93.422  161.376    3.923
  464.720    0.231    0.378   89.600  161.335    3.968
  464.970    0.243    0.380   87.203  160.883    4.060
  465.220    0.258    0.391   84.192  160.421    4.291
  465.470    0.275    0.404   82.617  159.968    4.407
  465.720    0.271    0.415   84.406  159.732    4.474
  465.970    0.254    0.426   86.566  159.590    4.491
  466.220    0.264    0.436   83.177  159.654    4.356
  466.470    0.275    0.426   76.238  159.834    4.290
  466.720    0.259    0.413   67.989  160.104    4.233
  466.970    0.258    0.397   60.548  160.708    4.145
  467.220    0.273    0.387   55.727  161.099    4.059
  467.470    0.275    0.384   53.341  161.381    3.967
  467.720    0.259    0.399   52.445  161.450    3.848
  467.970    0.266    0.408   52.735  161.623    3.732
  468.220    0.264    0.415   56.768  161.816    3.613
  468.470    0.270    0.424   59.930  161.974    3.490
  468.720    0.263    0.417   62.651  162.264    3.490
  468.970    0.244    0.417   63.940  162.664    3.626
  469.220    0.241    0.417   64.296  162.724    3.724
  469.470    0.214    0.396   60.406  162.908    3.796
  469.720    0.195    0.367   57.713  163.070    3.861
  469.970    0.191    0.346   58.249  163.153    3.861
  470.220    0.222    0.342   57.042  163.233    3.752
  470.470    0.259    0.388   53.594  163.281    3.612
  470.720    0.289    0.412   54.323  163.585    3.437
  470.970    0.306    0.411   54.924  163.768    3.283
  471.220    0.301    0.404   55.721  164.027    3.239
  471.470    0.295    0.412   57.751  164.528    3.301
  471.720    0.293    0.422   62.091  164.690    3.352
  471.970    0.288    0.428   63.694  164.977    3.333
  472.220    0.287    0.417   59.746  165.265    3.282
  472.470    0.295    0.411   60.164  165.447    3.220
  472.720    0.290    0.417   62.074  165.505    3.117
  472.970    0.284    0.427   63.173  165.480    3.047
  473.220    0.294    0.424   60.099  165.450    3.018
  473.470    0.281    0.414   64.442  165.733    3.035
  473.720    0.280    0.423   67.289  165.695    3.087
  473.970    0.264    0.433   68.141  165.542    3.220
  474.220    0.255    0.434   68.496  165.298    3.332
  474.470    0.268    0.414   67.605  165.160    3.442
  474.720    0.267    0.421   65.279  164.820    3.541
  474.970    0.270    0.437   64.258  164.773    3.596
  475.220    0.277    0.433   64.487  164.427    3.589
  475.470    0.274    0.413   68.706  164.491    3.534
  475.720    0.254    0.383   74.357  166.147    3.494
  475.970    0.234    0.389   79.512  169.700    3.454
  476.220    0.213    0.406   85.040  172.304    3.441
  476.470    0.205    0.426   89.321  173.324    3.467
  476.720    0.198    0.443   90.732  174.029    3.474
  476.970    0.229    0.447   88.844  174.738    3.473
  477.220    0.241    0.438   81.527  174.915    3.467
  477.470    0.230    0.429   80.137  175.190    3.467
  477.720    0.236    0.429   81.425  175.581    3.533
  477.970    0.291    0.457   79.099  175.759    3.657
  478.220    0.388    0.493   72.285  176.465    3.894
  478.470    0.423    0.556   59.670  177.797    4.375
  478.720    0.531    0.587   45.126  179.034    5.164
  478.970    0.583    0.736   38.373  180.579    5.823
  479.220    0.679    0.822   43.091  184.764    5.902
  479.470    0.509    0.767   68.131  192.757    5.253
  479.720    0.300    0.515   81.388  202.538    4.399
  479.970    0.282    0.494   86.667  199.030    3.798
  480.220    0.280    0.483   91.632  195.400    3.733
  480.470    0.339    0.490   83.761  192.839    3.762
  480.720    0.355    0.514   84.552  191.209    3.783
  480.970    0.333    0.475   86.771  189.389    3.769
  481.220    0.271    0.440   86.376  186.924    3.754
  481.470    0.311    0.437   86.546  183.944    3.733
  481.720    0.333    0.439   86.959  181.790    3.718
  481.970    0.320    0.431   87.997  179.858    3.725
  482.220    0.279    0.423   91.282  178.136    3.754
  482.470    0.290    0.426   90.578  176.507    3.833
  482.720    0.243    0.441   86.565  174.478    3.884
  482.970    0.261    0.440   79.938  172.952    3.884
  483.220    0.283    0.432   76.987  170.184    3.862
  483.470    0.293    0.418   77.902  167.504    3.862
  483.720    0.298    0.415   80.562  165.576    3.854
  483.970    0.307    0.410   81.418  164.273    3.832
  484.220    0.302    0.412   78.838  163.816    3.810
  484.470    0.292    0.416   72.894  163.773    3.774
  484.720    0.295    0.422   73.687  164.075    3.752
  484.970    0.304    0.430   74.666  164.559    3.731
  485.220    0.296    0.418   74.581  164.936    3.717
  485.470    0.303    0.408   74.002  165.220    3.688
  485.720    0.303    0.398   73.417  165.815    3.653
  485.970    0.292    0.408   73.151  167.158    3.646
  486.220    0.294    0.421   73.189  168.287    3.632
  486.470    0.303    0.421   71.241  169.832    3.625
  486.720    0.304    0.418   70.653  170.748    3.632
  486.970    0.290    0.424   71.260  171.350    3.653
  487.220    0.287    0.415   74.230  171.419    3.673
  487.470    0.289    0.398   76.703  171.179    3.694
  487.720    0.286    0.416   75.621  171.044    3.730
  487.970    0.277    0.429   77.662  170.902    3.838
  488.220    0.264    0.414   79.321  170.866    4.017
  488.470    0.265    0.401   76.377  170.721    4.311
  488.720    0.263    0.396   74.171  170.584    4.556
  488.970    0.260    0.400   70.161  170.657    4.724
  489.220    0.258    0.405   66.586  170.719    4.833
  489.470    0.240    0.401   66.944  170.788    4.889
  489.720    0.243    0.399   65.985  170.974    4.870
  489.970    0.248    0.399   66.338  171.142    4.815
  490.220    0.262    0.399   66.945  171.223    4.742
  490.470    0.261    0.401   67.169  171.287    4.679
  490.720    0.244    0.408   67.279  171.362    4.634
  490.970    0.228    0.427   67.127  171.216    4.634
  491.220    0.245    0.410   67.110  170.649    4.732
  491.470    0.253    0.401   67.588  170.205    4.925
  491.720    0.242    0.387   68.191  169.857    5.235
  491.970    0.235    0.350   69.103  169.385    5.575
  492.220    0.226    0.309   71.327  169.985    6.168
  492.470    0.184    0.271   68.132  173.445    7.036
  492.720    0.119    0.221   64.249  176.249    8.102
  492.970    0.078    0.180   60.857  175.686    9.880
  493.220    0.020    0.133   57.406  174.701   11.619
  493.470   -0.011    0.128   52.900  174.034   13.227
  493.720   -0.016    0.131   49.323  173.894   13.227
  493.970   -0.012    0.146   47.746  174.285   11.507
  494.220   -0.004    0.165   47.664  174.672    9.418
  494.470    0.022    0.186   50.634  174.001    7.621
  494.720    0.068    0.213   56.036  169.220    6.073
  494.970    0.109    0.260   60.568  165.805    5.095
  495.220    0.175    0.364   64.226  165.566    4.458
  495.470    0.195    0.387   66.451  165.956    4.242
  495.720    0.222    0.390   67.549  166.556    4.194
  495.970    0.241    0.384   68.277  167.359    4.202
  496.220    0.247    0.379   69.069  167.956    4.185
  496.470    0.250    0.373   70.731  168.145    4.169
  496.720    0.239    0.374   71.273  168.318    4.153
  496.970    0.240    0.385   67.199  168.383    4.114
  497.220    0.236    0.398   62.504  168.349    3.967
  497.470    0.236    0.407   61.987  168.211    3.907
  497.720    0.224    0.417   61.279  168.062    3.990
  497.970    0.225    0.422   61.132  167.605    4.177
  498.220    0.232    0.385   64.171  166.836    4.508
  498.470    0.176    0.352   59.410  171.450    4.997
  498.720    0.115    0.293   53.904  176.806    5.721
  498.970    0.070    0.257   56.252  179.823    6.664
  499.220    0.079    0.241   56.419  181.790    7.942
  499.470    0.071    0.229   52.470  182.195    8.787
