~VERSION INFORMATION
 VERS.                 2.0:   CWLS LOG ASCII STANDARD -VERSION 2.0
 WRAP.                  NO:   ONE LINE PER DEPTH STEP
~WELL INFORMATION BLOCK
#MNEM.UNIT           DATA                    DESCRIPTION OF MNEMONIC
#---------    -------------------            -------------------------------
# Generated from Intellog Unique Number	CS_69_70/WELL/870
WELL.         ET AL HEART LAKE               : Well_name    - WELL
LOC .         00/10-21-069-09W4/0            : Location     - LOCATION
UWI .         00/10-21-069-09W4/0            : Uwi          - UNIQUE WELL ID
ENTR.         SP                             : Entered      - ENTERED BY
SRVC.         SCHLUMBERGER                   : Scn          - SERVICE COMPANY
STRT.M        375                            : top_depth    - START DEPTH
STOP.M        590                            : bot_depth    - STOP DEPTH
STEP.M        0.25                           : increment    - STEP LENGTH
 NULL. -999.2500:NULL Value
~CURVE INFORMATION BLOCK
#MNEM UNIT       ERCB CURVE CODE    CURVE DESCRIPTION
#-----------   ------------------   ----------------------------------
DEPT.M        00 001 00 00         : DEPTH        - DEPTH
GR  .API      00 310 00 00         : GR           - GAMMA RAY
NPHI.V/V      00 330 00 00         : PHIN         - NEUTRON POROSITY (LIMESTONE)
DPHI.V/V      00 890 00 00         : PHID         - DENSITY POROSITY (LIMESTONE)
ILD .OHMM     00 120 00 00         : RESD         - DEEP RESISTIVITY (DIL)
~PARAMETER INFORMATION
#MNEM.UNIT           DATA             DESCRIPTION OF MNEMONIC
#---------         -----------     ------------------------------
GL  .M        706.23               : gl           - GROUND LEVEL ELEVATION
EREF.M        709                  : kb           - ELEVATION OF DEPTH REFERENCE
DATM.M        706.23               : datum        - DATUM ELEVATION
TDD .M        600                  : tdd          - TOTAL DEPTH DRILLER
RUN .         ONE                  : Run          - RUN NUMBER
ENG .         BILL                 : Engineer     - RECORDING ENGINEER
WIT .         JIM                  : Witness      - WITNESSED BY
MUD .         GEL                  : Mud_type     - MUD TYPE
MATR.         LIMESTONE            : Logunit      - NEUTRON MATRIX
TMAX.C        17.7                 : BHT          - MAXIMUM RECORDED TEMPERATURE
BHTD.M        600                  : BHTDEP       - MAXIMUM RECORDED TEMPERATURE
MATR.         1                    : LOGUNIT      - NEUTRON MATRIX
RMT .C        25                   : MDTP         - TEMPERATURE OF MUD
NEUT.         1                    : NEUTRON      - NEUTRON TYPE
RESI.         0                    : RESIST       - RESISTIVITY TYPE
RMC .OHMM     0.25                 : RMC          - RESISTIVITY OF MUD CAKE
RMF .OHMM     0.25                 : RMF          - RESISTIVITY OF MUD FILTRATE
SUFT.C        15                   : SUFT         - SURFACE TEMPERATURE
~A  DEPTH       GR     PHIN     PHID     RESD
# ...
  418.500  102.368    0.485    0.280    6.509
  418.750  106.862    0.493    0.284    6.634
  419.000  105.332    0.509    0.285    6.685
  419.250  102.265    0.494    0.284    6.710
  419.500  101.287    0.481    0.274    6.686
  419.750   94.041    0.477    0.267    6.550
  420.000   88.883    0.453    0.280    6.332
  420.250   85.630    0.432    0.281    6.309
  420.500   85.822    0.430    0.275    6.322
  420.750   91.853    0.434    0.275    6.322
  421.000   94.625    0.435    0.261    6.311
  421.250   93.279    0.434    0.253    6.159
  421.500   90.827    0.421    0.261    6.034
  421.750   89.849    0.402    0.267    5.888
  422.000   92.746    0.417    0.238    5.650
  422.250   95.887    0.445    0.211    5.442
  422.500  100.012    0.468    0.210    5.212
  422.750  100.817    0.488    0.234    5.106
  423.000   98.058    0.474    0.254    5.155
  423.250   95.667    0.460    0.240    5.383
  423.500   94.566    0.470    0.240    5.517
  423.750   88.426    0.458    0.260    5.751
  424.000   85.605    0.449    0.277    5.961
  424.250   90.098    0.464    0.278    6.120
  424.500   94.162    0.459    0.280    6.332
  424.750   96.197    0.434    0.283    6.588
  425.000   91.900    0.432    0.264    6.854
  425.250   90.739    0.489    0.251    7.104
  425.500   95.172    0.488    0.256    7.240
  425.750   98.067    0.469    0.261    7.227
  426.000   96.413    0.475    0.268    6.729
  426.250   92.609    0.498    0.273    6.384
  426.500   89.972    0.490    0.265    6.126
  426.750   88.871    0.481    0.249    5.967
  427.000   88.509    0.499    0.235    5.857
  427.250   89.130    0.508    0.226    5.803
  427.500   86.494    0.496    0.220    5.825
  427.750   80.907    0.476    0.241    5.892
  428.000   76.793    0.454    0.269    6.061
  428.250   73.111    0.440    0.285    6.247
  428.500   71.396    0.441    0.294    6.319
  428.750   69.804    0.437    0.295    6.355
  429.000   69.380    0.417    0.306    6.416
  429.250   72.216    0.406    0.302    6.428
  429.500   74.680    0.413    0.292    6.429
  429.750   78.559    0.443    0.283    6.418
  430.000   78.628    0.456    0.277    6.430
  430.250   74.269    0.459    0.288    6.443
  430.500   69.297    0.477    0.309    6.432
  430.750   67.888    0.467    0.313    6.433
  431.000   74.043    0.448    0.303    6.433
  431.250   80.012    0.440    0.302    6.495
  431.500   85.489    0.427    0.301    6.581
  431.750   89.860    0.419    0.300    6.733
  432.000   88.760    0.412    0.299    6.835
  432.250   82.374    0.430    0.301    6.913
  432.500   78.814    0.430    0.300    6.953
  432.750   77.591    0.438    0.288    7.033
  433.000   82.640    0.430    0.278    7.127
  433.250   86.641    0.427    0.269    7.209
  433.500   90.213    0.439    0.262    7.250
  433.750   93.724    0.451    0.269    7.278
  434.000   96.066    0.448    0.274    7.293
  434.250   93.859    0.439    0.263    7.266
  434.500   88.212    0.432    0.257    7.240
  434.750   86.435    0.427    0.264    7.227
  435.000   87.731    0.429    0.268    7.187
  435.250   93.271    0.432    0.269    7.134
  435.500   98.134    0.435    0.240    6.962
  435.750  101.705    0.442    0.218    6.756
  436.000  101.589    0.438    0.206    6.422
  436.250   94.772    0.445    0.225    6.232
  436.500   88.323    0.447    0.254    5.947
  436.750   83.042    0.454    0.271    5.792
  437.000   77.147    0.472    0.293    5.642
  437.250   70.453    0.482    0.317    5.643
  437.500   66.464    0.476    0.332    5.927
  437.750   64.564    0.470    0.337    6.391
  438.000   62.788    0.466    0.335    6.586
  438.250   60.889    0.464    0.332    6.983
  438.500   62.985    0.462    0.339    7.050
  438.750   65.020    0.456    0.345    7.090
  439.000   63.489    0.450    0.344    7.145
  439.250   60.730    0.447    0.332    7.119
  439.500   58.892    0.449    0.325    7.093
  439.750   58.468    0.438    0.320    7.107
  440.000   58.659    0.429    0.318    7.107
  440.250   59.344    0.437    0.321    7.095
  440.500   60.209    0.443    0.330    7.095
  440.750   61.753    0.462    0.336    7.030
  441.000   62.373    0.464    0.334    6.991
  441.250   59.614    0.452    0.324    6.939
  441.500   55.440    0.449    0.318    6.875
  441.750   51.573    0.437    0.321    6.863
  442.000   51.272    0.430    0.328    6.902
  442.250   54.107    0.425    0.324    6.942
  442.500   56.018    0.439    0.323    6.956
  442.750   56.147    0.450    0.334    6.970
  443.000   55.293    0.446    0.343    6.970
  443.250   55.300    0.444    0.353    6.984
  443.500   55.921    0.449    0.340    6.985
  443.750   57.157    0.456    0.331    6.999
  444.000   59.622    0.472    0.334    7.079
  444.250   61.413    0.471    0.339    7.255
  444.500   60.558    0.451    0.328    7.548
  444.750   59.334    0.429    0.323    7.809
  445.000   58.788    0.417    0.322    7.973
  445.250   57.748    0.410    0.319    8.080
  445.500   58.124    0.420    0.323    8.126
  445.750   60.343    0.428    0.331    8.142
  446.000   59.367    0.450    0.337    8.021
  446.250   57.037    0.470    0.342    7.873
  446.500   54.277    0.484    0.340    8.023
  446.750   52.747    0.378    0.278    8.426
  447.000   51.400    0.278    0.152    8.883
  447.250   46.551    0.161    0.006   10.583
  447.500   42.376    0.126   -0.014   13.826
  447.750   39.678    0.122   -0.017   19.256
  448.000   40.607    0.122   -0.014   28.217
  448.250   39.937    0.119   -0.011   38.495
  448.500   45.045    0.235    0.000   49.075
  448.750   51.753    0.383    0.022   45.694
  449.000   58.091    0.419    0.105   27.289
  449.250   63.077    0.440    0.286   14.974
  449.500   60.563    0.455    0.329   10.713
  449.750   58.295    0.456    0.340    9.011
  450.000   61.498    0.454    0.342    8.696
  450.250   62.918    0.449    0.343    8.696
  450.500   62.556    0.446    0.342    8.648
  450.750   61.456    0.444    0.337    8.601
  451.000   59.617    0.442    0.334    8.585
  451.250   58.763    0.450    0.336    8.522
  451.500   61.598    0.458    0.342    8.443
  451.750   64.064    0.457    0.337    8.412
  452.000   62.533    0.476    0.294    8.429
  452.250   55.839    0.461    0.055    8.461
  452.500   49.329    0.225    0.007    8.672
  452.750   42.695    0.165   -0.012    9.782
  453.000   47.128    0.375    0.044   12.056
  453.250   53.407    0.422    0.262   13.098
  453.500   56.793    0.445    0.305   12.977
  453.750   59.874    0.460    0.327   12.243
  454.000   62.277    0.445    0.339   10.733
  454.250   65.418    0.443    0.329    9.606
  454.500   66.163    0.460    0.322    9.029
  454.750   64.079    0.468    0.317    8.599
  455.000   63.286    0.460    0.322    8.392
  455.250   62.863    0.458    0.322    8.252
  455.500   60.963    0.457    0.319    8.175
  455.750   62.752    0.456    0.322    8.069
  456.000   65.033    0.463    0.329    7.994
  456.250   66.823    0.466    0.338    7.875
  456.500   67.136    0.446    0.336    7.701
  456.750   68.311    0.437    0.331    7.615
  457.000   70.162    0.437    0.321    7.559
  457.250   72.749    0.439    0.314    7.503
  457.500   76.690    0.444    0.323    7.391
  457.750   82.230    0.447    0.309    7.254
  458.000   87.277    0.444    0.276    6.908
  458.250   83.104    0.458    0.256    6.045
  458.500   78.930    0.485    0.283    5.725
  458.750   76.108    0.473    0.299    5.381
  459.000   75.930    0.463    0.309    5.124
  459.250   78.764    0.461    0.306    5.058
  459.500   81.783    0.450    0.298    5.058
  459.750   80.314    0.441    0.294    5.116
  460.000   78.968    0.449    0.289    5.204
  460.250   79.343    0.469    0.280    5.294
  460.500   84.329    0.458    0.273    5.324
  460.750   90.606    0.463    0.267    5.324
  461.000   95.223    0.481    0.256    5.325
  461.250   90.189    0.510    0.239    5.296
  461.500   87.367    0.496    0.222    5.267
  461.750   87.312    0.494    0.208    5.257
