~VERSION INFORMATION
 VERS.                 2.0:   CWLS LOG ASCII STANDARD -VERSION 2.0
 WRAP.                  NO:   ONE LINE PER DEPTH STEP
~WELL INFORMATION BLOCK
#MNEM.UNIT           DATA                    DESCRIPTION OF MNEMONIC
#---------    -------------------            -------------------------------
# Generated from Intellog Unique Number	CS_77_79/WELL/3303
WELL.         ATCOR LTD.                     : Well_name    - WELL
LOC .         00/11-23-077-13W4/0            : Location     - LOCATION
UWI .         00/11-23-077-13W4/0            : Uwi          - UNIQUE WELL ID
ENTR.         JO                             : Entered      - ENTERED BY
SRVC.         SCHLUMBERGER                   : Scn          - SERVICE COMPANY
DATE.         05/22/92                       : Date         - LOG DATE
STRT.M        285                            : top_depth    - START DEPTH
STOP.M        505                            : bot_depth    - STOP DEPTH
STEP.M        0.25                           : increment    - STEP LENGTH
 NULL. -999.2500:NULL Value
~CURVE INFORMATION BLOCK
#MNEM UNIT       ERCB CURVE CODE    CURVE DESCRIPTION
#-----------   ------------------   ----------------------------------
DEPT.M        00 001 00 00         : DEPTH        - DEPTH
GR  .API      00 310 00 00         : GR           - GAMMA RAY
NPHI.V/V      00 330 00 00         : PHIN         - NEUTRON POROSITY (SANDSTONE)
DPHI.V/V      00 890 00 00         : PHID         - DENSITY POROSITY (SANDSTONE)
ILD .OHMM     00 120 00 00         : RESD         - DEEP RESISTIVITY (DIL)
~PARAMETER INFORMATION
#MNEM.UNIT           DATA             DESCRIPTION OF MNEMONIC
#---------         -----------     ------------------------------
GL  .M        683.2                : gl           - GROUND LEVEL ELEVATION
EREF.M        686.7                : kb           - ELEVATION OF DEPTH REFERENCE
DATM.M        686.7                : datum        - DATUM ELEVATION
TDD .M        511                  : tdd          - TOTAL DEPTH DRILLER
RUN .         ONE                  : Run          - RUN NUMBER
ENG .         BILL                 : Engineer     - RECORDING ENGINEER
WIT .         JIM                  : Witness      - WITNESSED BY
MUD .         GEL                  : Mud_type     - MUD TYPE
MATR.         SANDSTONE            : Logunit      - NEUTRON MATRIX
TMAX.C        21                   : BHT          - MAXIMUM RECORDED TEMPERATURE
BHTD.M        511                  : BHTDEP       - MAXIMUM RECORDED TEMPERATURE
MATR.         1                    : LOGUNIT      - NEUTRON MATRIX
RMT .C        20                   : MDTP         - TEMPERATURE OF MUD
NEUT.         1                    : NEUTRON      - NEUTRON TYPE
RESI.         0                    : RESIST       - RESISTIVITY TYPE
RMC .OHMM     0                    : RMC          - RESISTIVITY OF MUD CAKE
RMF .OHMM     5.64                 : RMF          - RESISTIVITY OF MUD FILTRATE
SUFT.C        5                    : SUFT         - SURFACE TEMPERATURE
~A  DEPTH       GR     PHIN     PHID     RESD
  285.000  102.431    0.513    0.257    3.486
  285.250  102.538    0.514    0.253    3.311
  285.500  103.249    0.507    0.253    3.261
  285.750  105.170    0.513    0.257    3.206
  286.000  104.672    0.524    0.262    3.156
  286.250  102.386    0.534    0.258    3.050
  286.500  101.888    0.494    0.250    2.846
  286.750   97.761    0.480    0.250    2.798
  287.000   96.027    0.509    0.248    2.861
  287.250   99.816    0.520    0.251    2.973
  287.500   96.845    0.488    0.259    3.266
  287.750   92.745    0.460    0.254    3.861
  288.000   94.666    0.443    0.217    4.320
  288.250   97.192    0.447    0.206    4.578
  288.500   97.904    0.479    0.237    4.425
  288.750   96.169    0.494    0.247    3.973
  289.000   90.228    0.451    0.231    3.378
  289.250   86.679    0.442    0.199    3.035
  289.500   93.465    0.431    0.174    2.987
  289.750  101.435    0.424    0.163    3.663
  290.000  108.222    0.461    0.137    3.809
  290.250  110.170    0.509    0.215    3.123
  290.500  103.596    0.494    0.257    2.910
  290.750   99.469    0.459    0.278    3.439
  291.000   97.762    0.430    0.296    5.067
  291.250   94.817    0.396    0.364    9.298
  291.500   90.085    0.356    0.390   13.951
  291.750   83.512    0.289    0.407   18.744
  292.000   75.756    0.319    0.418   29.710
  292.250   74.049    0.382    0.395   28.196
  292.500   78.416    0.391    0.383   20.336
  292.750   74.262    0.396    0.369   17.925
  293.000   75.579    0.410    0.359   14.966
  293.250   78.736    0.387    0.309   12.269
  293.500   75.187    0.344    0.182   10.433
  293.750   77.108    0.372    0.147   14.018
  294.000   85.105    0.385    0.226   15.410
  294.250   89.445    0.414    0.271   13.843
  294.500   93.208    0.421    0.266   12.891
  294.750   96.339    0.424    0.279   11.794
  295.000  101.284    0.420    0.290   10.791
  295.250   98.367    0.439    0.284    9.530
  295.500   92.425    0.444    0.282    8.714
  295.750   87.667    0.434    0.288    8.417
  296.000   86.590    0.427    0.294    9.253
  296.250   85.461    0.418    0.289    9.108
  296.500   86.777    0.410    0.274    8.798
  296.750   93.564    0.407    0.261    7.619
  297.000   98.536    0.406    0.239    7.231
  297.250  102.245    0.407    0.233    6.989
  297.500  106.007    0.412    0.224    6.755
  297.750  106.719    0.423    0.226    6.411
  298.000  100.751    0.433    0.238    8.005
  298.250   89.971    0.435    0.275   12.689
  298.500   83.397    0.426    0.304   17.049
  298.750   84.740    0.410    0.300   19.113
  299.000   85.452    0.403    0.303   19.150
  299.250   83.744    0.413    0.323   19.187
  299.500   76.566    0.428    0.344   19.236
  299.750   70.598    0.431    0.339   18.948
  300.000   67.076    0.422    0.345   18.997
  300.250   76.282    0.414    0.351   19.033
  300.500   81.254    0.408    0.359   19.434
  300.750   83.175    0.415    0.343   19.509
  301.000   92.959    0.410    0.321   19.534
  301.250  101.560    0.408    0.317   18.881
  301.500   96.855    0.411    0.311   17.918
  301.750   98.172    0.402    0.305   16.107
  302.000   95.228    0.400    0.296   16.446
  302.250   88.050    0.412    0.287   16.489
  302.500   79.084    0.387    0.253   17.136
  302.750   72.511    0.330    0.238   20.256
  303.000   82.926    0.366    0.212   15.434
  303.250   79.404    0.385    0.218   12.886
  303.500   72.831    0.393    0.243   14.175
  303.750   66.311    0.368    0.255   13.936
  304.000   70.625    0.368    0.229   11.635
  304.250   84.670    0.380    0.197    9.708
  304.500   90.220    0.394    0.166    7.673
  304.750  100.031    0.412    0.176    6.768
  305.000  108.027    0.444    0.172    6.080
  305.250  108.134    0.453    0.170    6.679
  305.500  105.821    0.447    0.153    7.343
  305.750  110.189    0.466    0.134    6.968
  306.000  117.553    0.487    0.190    6.489
  306.250  121.921    0.500    0.231    6.272
  306.500  114.716    0.468    0.228    7.018
  306.750  104.541    0.438    0.229    7.437
  307.000  102.228    0.430    0.228    7.877
  307.250  108.988    0.444    0.200    7.614
  307.500  117.589    0.488    0.190    6.962
  307.750  121.930    0.505    0.203    6.029
  308.000  122.668    0.517    0.214    4.113
  308.250  120.934    0.505    0.223    3.695
  308.500  119.831    0.507    0.229    3.259
  308.750  120.542    0.533    0.231    3.093
  309.000  121.885    0.560    0.238    3.656
  309.250  122.597    0.563    0.250    6.240
  309.500  123.309    0.520    0.270    7.792
  309.750  119.760    0.463    0.281   12.127
  310.000  113.213    0.425    0.273   13.322
  310.250  110.901    0.408    0.259   12.197
  310.500  114.058    0.404    0.249   12.006
  310.750  115.979    0.410    0.251   13.191
  311.000  113.062    0.420    0.255   15.031
  311.250  105.857    0.419    0.293   15.920
  311.500   98.706    0.411    0.320   14.825
  311.750   94.606    0.432    0.310    9.237
  312.000  103.153    0.479    0.283    8.601
  312.250  117.803    0.500    0.252    7.051
  312.500  123.985    0.505    0.242    7.074
  312.750  123.487    0.488    0.230    7.766
  313.000  127.854    0.432    0.202    9.020
  313.250  124.910    0.414    0.228   10.475
  313.500  115.917    0.406    0.247   11.501
  313.750  109.976    0.412    0.246   13.603
  314.000  107.663    0.407    0.242   13.391
  314.250  105.956    0.409    0.246   12.486
  314.500  101.224    0.414    0.251   12.749
  314.750   96.465    0.404    0.260   13.997
  315.000   92.338    0.385    0.273   15.961
  315.250   97.888    0.393    0.287   15.712
  315.500  103.492    0.408    0.253   13.598
  315.750  106.596    0.403    0.242   11.571
  316.000  107.939    0.398    0.218   11.176
  316.250  109.860    0.407    0.238   12.736
  316.500  111.782    0.400    0.262   15.065
  316.750  109.442    0.396    0.274   16.540
  317.000   90.194    0.403    0.295   17.853
  317.250   81.780    0.395    0.319   15.461
  317.500   63.715    0.393    0.327   14.398
  317.750   69.897    0.400    0.317   12.942
  318.000   74.842    0.419    0.305   14.219
  318.250   78.578    0.407    0.298   15.621
  318.500   76.266    0.388    0.290   16.545
  318.750   75.794    0.387    0.293   16.598
  319.000   75.928    0.392    0.299   16.630
  319.250   75.403    0.404    0.314   16.672
  319.500   74.905    0.410    0.309   15.264
  319.750   77.431    0.393    0.288   13.965
  320.000   83.586    0.383    0.264   12.087
  320.250   94.002    0.391    0.246   10.461
  320.500  101.971    0.398    0.234    9.060
  320.750  108.758    0.406    0.203    8.144
  321.000  114.308    0.434    0.187    7.446
  321.250  117.466    0.467    0.173    6.100
  321.500  112.102    0.474    0.221    6.229
  321.750  104.951    0.478    0.249    9.346
  322.000  100.192    0.467    0.255   13.519
  322.250   92.436    0.446    0.281   11.083
  322.500   98.591    0.444    0.264    8.595
  322.750   99.303    0.456    0.245    7.726
  323.000  104.275    0.468    0.236    7.069
  323.250  111.667    0.475    0.222    6.118
  323.500  110.564    0.489    0.232    9.355
  323.750  107.041    0.481    0.260   10.085
  324.000  104.729    0.452    0.273    8.112
  324.250  109.674    0.439    0.262    7.559
  324.500  110.359    0.439    0.256   11.349
  324.750  101.998    0.439    0.259   12.460
  325.000   85.143    0.411    0.289   15.010
  325.250   77.965    0.423    0.320   14.786
  325.500   67.763    0.438    0.341   14.291
  325.750   67.291    0.451    0.326   13.553
  326.000   67.398    0.439    0.328   12.416
  326.250   69.924    0.439    0.311   11.986
  326.500   74.265    0.451    0.305   11.585
  326.750   78.001    0.454    0.318   11.404
  327.000   77.503    0.442    0.328   11.029
  327.250   82.475    0.451    0.334   10.271
  327.500   86.210    0.461    0.328    8.575
  327.750   86.949    0.456    0.315    7.427
  328.000   85.241    0.444    0.306    7.048
  328.250   88.372    0.448    0.288    6.933
