~VERSION INFORMATION
 VERS.                 2.0:   CWLS LOG ASCII STANDARD -VERSION 2.0
 WRAP.                  NO:   ONE LINE PER DEPTH STEP
~WELL INFORMATION BLOCK
#MNEM.UNIT           DATA                    DESCRIPTION OF MNEMONIC
#---------    -------------------            -------------------------------
# Generated from Intellog Unique Number	CS_67_68/WELL/856
WELL.         CHIEFTIAN DEVELOPMENT CO.      : Well_name    - WELL
LOC .         00/14-30-068-11W4/0            : Location     - LOCATION
UWI .         00/14-30-068-11W4/0            : Uwi          - UNIQUE WELL ID
ENTR.         SP                             : Entered      - ENTERED BY
SRVC.         SCHLUMBERGER                   : Scn          - SERVICE COMPANY
STRT.M        280                            : top_depth    - START DEPTH
STOP.M        480                            : bot_depth    - STOP DEPTH
STEP.M        0.25                           : increment    - STEP LENGTH
 NULL. -999.2500:NULL Value
~CURVE INFORMATION BLOCK
#MNEM UNIT       ERCB CURVE CODE    CURVE DESCRIPTION
#-----------   ------------------   ----------------------------------
DEPT.M        00 001 00 00         : DEPTH        - DEPTH
ILD .OHMM     00 120 00 00         : RESD         - DEEP RESISTIVITY (DIL)
DPHI.V/V      00 890 00 00         : PHID         - DENSITY POROSITY (LIMESTONE)
NPHI.V/V      00 330 00 00         : PHIN         - NEUTRON POROSITY (LIMESTONE)
GR  .API      00 310 00 00         : GR           - GAMMA RAY
~PARAMETER INFORMATION
#MNEM.UNIT           DATA             DESCRIPTION OF MNEMONIC
#---------         -----------     ------------------------------
GL  .M        592.5                : gl           - GROUND LEVEL ELEVATION
EREF.M        599.5                : kb           - ELEVATION OF DEPTH REFERENCE
DATM.M        592.5                : datum        - DATUM ELEVATION
TDD .M        486                  : tdd          - TOTAL DEPTH DRILLER
RUN .         ONE                  : Run          - RUN NUMBER
ENG .         BILL                 : Engineer     - RECORDING ENGINEER
WIT .         JIM                  : Witness      - WITNESSED BY
MUD .         GEL                  : Mud_type     - MUD TYPE
MATR.         LIMESTONE            : Logunit      - NEUTRON MATRIX
TMAX.C        22                   : BHT          - MAXIMUM RECORDED TEMPERATURE
BHTD.M        486                  : BHTDEP       - MAXIMUM RECORDED TEMPERATURE
MATR.         1                    : LOGUNIT      - NEUTRON MATRIX
RMT .C        25                   : MDTP         - TEMPERATURE OF MUD
NEUT.         1                    : NEUTRON      - NEUTRON TYPE
RESI.         0                    : RESIST       - RESISTIVITY TYPE
RMC .OHMM     0.25                 : RMC          - RESISTIVITY OF MUD CAKE
RMF .OHMM     0.25                 : RMF          - RESISTIVITY OF MUD FILTRATE
SUFT.C        15                   : SUFT         - SURFACE TEMPERATURE
~A  DEPTH     RESD     PHID     PHIN       GR
# ...
  454.000    3.756    0.195    0.333   65.362
  454.250    3.653    0.186    0.332   63.742
  454.500    3.513    0.190    0.331   60.672
  454.750    3.398    0.223    0.328   60.746
  455.000    3.329    0.185    0.327   61.608
  455.250    3.330    0.181    0.327   61.083
  455.500    3.381    0.189    0.329   60.792
  455.750    3.477    0.194    0.331   60.079
  456.000    3.604    0.196    0.331   58.825
  456.250    3.784    0.199    0.325   57.025
  456.500    3.996    0.210    0.320   54.317
  456.750    4.203    0.219    0.316   52.031
  457.000    4.633    0.237    0.323   48.840
  457.250    5.312    0.255    0.330   45.948
  457.500    5.944    0.284    0.333   41.426
  457.750    6.625    0.317    0.336   37.082
  458.000    7.929    0.328    0.336   32.920
  458.250   10.303    0.327    0.332   30.695
  458.500   11.315    0.316    0.326   28.958
  458.750   11.704    0.302    0.321   27.945
  459.000   11.641    0.290    0.319   27.050
  459.250   10.427    0.298    0.321   26.038
  459.500    7.576    0.309    0.323   25.384
  459.750    5.887    0.320    0.320   24.976
  460.000    4.366    0.310    0.316   25.233
  460.250    3.406    0.293    0.314   26.095
  460.500    2.879    0.284    0.313   26.835
  460.750    2.569    0.275    0.315   27.518
  461.000    2.327    0.276    0.319   27.833
  461.250    2.144    0.277    0.321   28.095
  461.500    2.023    0.276    0.319   28.044
  461.750    1.882    0.276    0.316   27.877
  462.000    1.779    0.282    0.313   27.893
  462.250    1.692    0.289    0.310   29.178
  462.500    1.630    0.298    0.308   31.133
  462.750    1.583    0.308    0.308   32.418
  463.000    1.562    0.311    0.311   33.762
  463.250    1.650    0.314    0.312   35.349
  463.500    1.762    0.317    0.310   37.602
  463.750    1.895    0.318    0.307   40.947
  464.000    2.109    0.314    0.305   46.226
  464.250    2.454    0.280    0.303   52.171
  464.500    2.872    0.207    0.301   60.781
  464.750    3.373    0.178    0.302   69.810
  465.000    3.725    0.187    0.307   75.937
  465.250    4.030    0.217    0.314   78.493
  465.500    4.263    0.237    0.320   82.139
  465.750    4.410    0.266    0.326   87.058
  466.000    4.503    0.206    0.329   90.095
  466.250    4.614    0.192    0.331   93.439
  466.500    4.909    0.170    0.331   96.117
  466.750    5.088    0.153    0.331   97.825
  467.000    5.292    0.156    0.330   99.294
  467.250    5.505    0.157    0.329  100.518
  467.500    5.642    0.141    0.331  101.622
  467.750    5.696    0.132    0.336  101.515
  468.000    5.644    0.147    0.345  100.078
  468.250    5.530    0.165    0.351   98.703
  468.500    5.229    0.178    0.358   98.292
  468.750    4.945    0.144    0.364  103.514
  469.000    4.496    0.111    0.368  107.278
  469.250    4.165    0.053    0.373  111.712
  469.500    3.830    0.023    0.380  113.782
  469.750    3.548    0.043    0.388  113.919
  470.000    3.368    0.065    0.389  112.543
  470.250    3.275    0.086    0.383  112.979
  470.500    3.344    0.111    0.378  113.239
  470.750    3.440    0.097    0.374  112.707
  471.000    3.525    0.087    0.366  110.482
  471.250    3.592    0.078    0.360  105.656
  471.500    3.675    0.068    0.354  104.036
  471.750    3.766    0.055    0.357  107.260
  472.000    3.859    0.060    0.366  109.515
  472.250    3.925    0.072    0.381  111.408
  472.500    3.948    0.082    0.393  111.962
  472.750    3.956    0.077    0.398  112.100
  473.000    3.928    0.070    0.398  112.295
  473.250    3.856    0.063    0.378  112.433
  473.500    3.806    0.056    0.367  112.022
  473.750    3.793    0.048    0.362  110.528
  474.000    3.815    0.054    0.364  109.271
  474.250    3.866    0.067    0.367  108.677
  474.500    3.932    0.072    0.365  109.660
  474.750    3.992    0.067    0.360  108.164
  475.000    4.061    0.070    0.358  107.874
  475.250    4.092    0.078    0.356  110.130
  475.500    4.108    0.081    0.354  112.023
  475.750    4.086    0.087    0.353  112.760
  476.000    3.974    0.092    0.353  112.171
  476.250    3.836    0.099    0.348  110.490
  476.500    3.758    0.106    0.341  108.932
  476.750    3.738    0.101    0.333  106.768
  477.000    3.767    0.094    0.319   99.884
  477.250    3.875    0.082    0.295   89.733
  477.500    4.231    0.072    0.278   84.483
  477.750    4.690    0.065    0.266   78.930
  478.000    5.357    0.067    0.259   74.648
  478.250    5.972    0.064    0.251   70.972
  478.500    6.733    0.051    0.245   67.236
  478.750    7.352    0.044    0.237   65.494
  479.000    8.119    0.044    0.230   63.453
  479.250    8.917    0.038    0.224   61.834
  479.500    9.468    0.030    0.218   60.576
  479.750    9.868    0.028    0.214   59.443
  480.000   10.131    0.032    0.209   59.093
