~VERSION INFORMATION
 VERS.                 2.0:   CWLS LOG ASCII STANDARD -VERSION 2.0
 WRAP.                  NO:   ONE LINE PER DEPTH STEP
~WELL INFORMATION BLOCK
#MNEM.UNIT           DATA                    DESCRIPTION OF MNEMONIC
#---------    -------------------            -------------------------------
# Generated from Intellog Unique Number	CS_67_68/WELL/2193
WELL.         10-08-067-03W4                 : Well_name    - WELL
LOC .         00/10-08-067-03W4/0            : Location     - LOCATION
UWI .         00/10-08-067-03W4/0            : Uwi          - UNIQUE WELL ID
ENTR.         SP                             : Entered      - ENTERED BY
SRVC.         SCHLUMBERGER                   : Scn          - SERVICE COMPANY
STRT.M        340                            : top_depth    - START DEPTH
STOP.M        576                            : bot_depth    - STOP DEPTH
STEP.M        0.25                           : increment    - STEP LENGTH
 NULL. -999.2500:NULL Value
~CURVE INFORMATION BLOCK
#MNEM UNIT       ERCB CURVE CODE    CURVE DESCRIPTION
#-----------   ------------------   ----------------------------------
DEPT.M        00 001 00 00         : DEPTH        - DEPTH
ILD .OHMM     00 120 00 00         : RESD         - DEEP RESISTIVITY (DIL)
DPHI.V/V      00 890 00 00         : PHID         - DENSITY POROSITY (LIMESTONE)
NPHI.V/V      00 330 00 00         : PHIN         - NEUTRON POROSITY (LIMESTONE)
GR  .API      00 310 00 00         : GR           - GAMMA RAY
CALI.MM       00 280 01 00         : CAL          - CALIPER
~PARAMETER INFORMATION
#MNEM.UNIT           DATA             DESCRIPTION OF MNEMONIC
#---------         -----------     ------------------------------
GL  .M        673.54               : gl           - GROUND LEVEL ELEVATION
EREF.M        678.04               : kb           - ELEVATION OF DEPTH REFERENCE
DATM.M        678.04               : datum        - DATUM ELEVATION
TDD .M        584                  : tdd          - TOTAL DEPTH DRILLER
RUN .         ONE                  : Run          - RUN NUMBER
ENG .         BILL                 : Engineer     - RECORDING ENGINEER
WIT .         JIM                  : Witness      - WITNESSED BY
MUD .         GEL                  : Mud_type     - MUD TYPE
MATR.         LIMESTONE            : Logunit      - NEUTRON MATRIX
TMAX.C        18.3                 : BHT          - MAXIMUM RECORDED TEMPERATURE
BHTD.M        584.5                : BHTDEP       - MAXIMUM RECORDED TEMPERATURE
MATR.         1                    : LOGUNIT      - NEUTRON MATRIX
RMT .C        25                   : MDTP         - TEMPERATURE OF MUD
NEUT.         1                    : NEUTRON      - NEUTRON TYPE
RESI.         0                    : RESIST       - RESISTIVITY TYPE
RMC .OHMM     0.25                 : RMC          - RESISTIVITY OF MUD CAKE
RMF .OHMM     0.25                 : RMF          - RESISTIVITY OF MUD FILTRATE
SUFT.C        15                   : SUFT         - SURFACE TEMPERATURE
~A  DEPTH     RESD     PHID     PHIN       GR      CAL
# ...
  376.500    5.913    0.245    0.398   86.633  165.627
  376.750    5.827    0.251    0.452   84.064  171.102
  377.000    5.765    0.260    0.485   84.908  175.052
  377.250    5.800    0.265    0.477   86.853  178.088
  377.500    5.836    0.255    0.464   88.371  173.503
  377.750    5.850    0.255    0.473   83.789  165.867
  378.000    5.874    0.270    0.481   75.489  161.383
  378.250    5.866    0.283    0.470   77.004  159.034
  378.500    5.814    0.275    0.468   82.546  157.902
  378.750    5.719    0.254    0.478   87.235  157.786
  379.000    5.532    0.256    0.484   91.800  157.471
  379.250    5.462    0.264    0.492   92.829  157.254
  379.500    5.333    0.253    0.476   89.406  157.444
  379.750    5.255    0.245    0.462   88.851  157.431
  380.000    5.189    0.269    0.456   89.879  157.724
  380.250    5.124    0.288    0.444   90.481  157.916
  380.500    5.031    0.294    0.439   90.961  158.208
  380.750    4.995    0.295    0.454   91.869  158.498
  381.000    4.979    0.293    0.463   94.300  158.588
  381.250    4.972    0.283    0.458   96.730  158.678
  381.500    5.040    0.278    0.464   99.223  158.868
  381.750    5.090    0.271    0.456  102.082  159.059
  382.000    5.150    0.256    0.446   96.709  159.248
  382.250    5.250    0.244    0.442   91.762  159.441
  382.500    5.303    0.234    0.444   87.913  158.818
  382.750    5.335    0.244    0.440   90.162  157.992
  383.000    5.378    0.248    0.445   88.203  157.370
  383.250    5.401    0.251    0.429   90.999  157.255
  383.500    5.403    0.263    0.431   94.956  157.242
  383.750    5.406    0.273    0.456   99.094  157.329
  384.000    5.398    0.266    0.447  101.526  157.520
  384.250    5.380    0.270    0.420  103.409  157.610
  384.500    5.352    0.275    0.407   99.559  157.594
  384.750    5.345    0.278    0.402   96.869  157.481
  385.000    5.368    0.272    0.408   92.287  157.572
  385.250    5.390    0.267    0.427   89.475  157.561
  385.500    5.403    0.259    0.422   88.066  157.548
  385.750    5.416    0.252    0.416   93.179  157.938
  386.000    5.428    0.246    0.444   95.063  158.030
  386.250    5.482    0.247    0.467   95.482  158.118
  386.500    5.631    0.251    0.483   94.132  158.208
  386.750    5.839    0.254    0.473   88.760  158.298
  387.000    5.997    0.258    0.454   80.825  158.283
  387.250    6.183    0.269    0.438   79.598  158.271
  387.500    6.351    0.268    0.437   81.724  158.156
  387.750    6.523    0.252    0.468   79.765  158.143
  388.000    6.675    0.239    0.479   79.696  158.133
  388.250    6.792    0.249    0.482   81.335  158.119
  388.500    6.950    0.263    0.473   81.876  158.714
  388.750    7.153    0.220    0.439   81.869  159.414
  389.000    7.528    0.196    0.411   78.142  159.505
  389.250    8.089    0.232    0.448   71.061  158.781
  389.500    8.676    0.249    0.479   66.115  159.072
  389.750    9.377    0.256    0.463   61.656  159.567
  390.000    9.831    0.237    0.444   63.842  160.977
  390.250   10.625    0.243    0.466   65.116  162.693
  390.500   11.161    0.279    0.478   66.021  164.712
  390.750   11.926    0.311    0.472   66.746  165.309
  391.000   12.647    0.315    0.436   66.251  164.483
  391.250   14.271    0.300    0.427   63.622  164.065
  391.500   16.285    0.311    0.427   61.784  164.255
  391.750   18.831    0.324    0.416   61.349  164.750
  392.000   21.009    0.328    0.411   61.159  164.936
  392.250   24.064    0.323    0.429   60.908  165.128
  392.500   25.907    0.328    0.431   60.047  165.119
  392.750   25.580    0.327    0.421   61.320  164.396
  393.000   22.692    0.320    0.434   62.167  163.060
  393.250   21.020    0.324    0.441   61.732  163.354
  393.500   20.444    0.332    0.440   60.992  163.542
  393.750   21.239    0.331    0.432   59.339  163.631
  394.000   22.439    0.318    0.433   57.257  163.925
  394.250   23.351    0.326    0.429   55.543  164.014
  394.500   23.188    0.342    0.428   53.462  163.900
  394.750   21.438    0.349    0.434   53.942  163.481
  395.000   15.877    0.324    0.425   64.177  162.553
  395.250   12.488    0.282    0.401   72.159  160.712
  395.500   10.294    0.244    0.382   79.163  159.886
  395.750    8.360    0.219    0.394   82.144  159.668
  396.000    7.319    0.215    0.401   83.721  159.553
  396.250    7.120    0.215    0.405   83.286  159.340
  396.500    7.122    0.227    0.411   81.329  159.123
  396.750    7.357    0.287    0.432   77.906  159.009
  397.000    7.701    0.329    0.449   77.167  158.895
  397.250    7.805    0.333    0.463   78.805  158.880
  397.500    7.810    0.321    0.468   79.711  158.870
  397.750    7.668    0.306    0.457   79.095  158.856
  398.000    7.715    0.312    0.447   75.977  159.046
  398.250    7.821    0.313    0.444   72.129  159.238
  398.500    7.839    0.312    0.442   69.194  159.426
  398.750    7.784    0.315    0.433   68.759  159.413
  399.000    7.388    0.310    0.412   69.239  159.403
  399.250    6.856    0.303    0.395   71.000  159.490
  399.500    6.386    0.286    0.386   75.260  159.478
  399.750    6.006    0.275    0.425   78.668  159.568
  400.000    6.053    0.268    0.456   73.721  159.555
  400.250    6.241    0.268    0.474   68.713  159.543
  400.500    6.435    0.276    0.465   73.218  159.733
  400.750    6.511    0.284    0.448   76.930  159.619
  401.000    6.563    0.288    0.445   79.972  159.505
  401.250    6.566    0.272    0.453   81.976  159.492
  401.500    6.581    0.267    0.443   76.664  159.681
  401.750    6.722    0.255    0.419   71.534  159.873
  402.000    7.305    0.237    0.406   67.990  159.962
  402.250    7.631    0.239    0.413   67.555  160.152
  402.500    7.751    0.255    0.417   67.365  160.038
  402.750    7.785    0.269    0.411   67.113  160.123
  403.000    7.744    0.264    0.408   62.532  160.315
  403.250    7.632    0.250    0.408   63.013  160.303
  403.500    7.465    0.242    0.401   67.517  160.494
  403.750    7.207    0.257    0.392   70.679  160.275
  404.000    7.305    0.254    0.385   71.892  160.364
  404.250    7.560    0.258    0.402   71.214  160.554
  404.500    7.853    0.269    0.413   68.828  160.644
  404.750    8.143    0.256    0.412   67.601  160.734
  405.000    8.490    0.237    0.399   67.959  160.722
  405.250    9.227    0.257    0.398   68.013  160.812
  405.500   10.549    0.274    0.414   65.566  160.902
  405.750   12.038    0.286    0.406   61.290  160.886
  406.000   13.686    0.294    0.407   57.624  160.876
  406.250   15.618    0.307    0.411   55.909  160.865
  406.500   18.160    0.323    0.411   55.413  160.444
  406.750   20.763    0.329    0.425   55.162  160.432
  407.000   22.735    0.329    0.439   50.459  159.403
  407.250   23.929    0.333    0.432   46.548  159.183
  407.500   23.940    0.340    0.424   44.164  159.068
  407.750   21.397    0.320    0.414   47.326  158.958
  408.000   17.606    0.292    0.399   54.087  158.741
  408.250   14.405    0.274    0.392   63.043  158.827
  408.500   11.988    0.270    0.401   71.085  159.019
  408.750   10.146    0.258    0.395   77.419  159.206
  409.000    8.254    0.236    0.388   80.887  159.603
  409.250    6.895    0.245    0.421   81.794  159.898
  409.500    6.520    0.265    0.462   77.821  159.683
  409.750    6.224    0.283    0.476   75.254  159.569
  410.000    5.918    0.284    0.460   75.368  159.658
  410.250    5.660    0.276    0.446   77.799  160.255
  410.500    5.382    0.280    0.432   81.268  160.750
  410.750    5.109    0.273    0.437   84.918  160.941
  411.000    4.932    0.254    0.465   89.605  160.926
  411.250    4.770    0.238    0.478   94.780  160.507
  411.500    4.674    0.247    0.473   97.701  159.784
  411.750    4.564    0.281    0.450   86.535  159.468
  412.000    4.489    0.303    0.434   77.014  159.453
  412.250    4.458    0.317    0.417   81.517  159.948
  412.500    4.666    0.298    0.478   85.414  160.341
  412.750    5.446    0.281    0.504   84.736  160.535
