~VERSION INFORMATION
 VERS.                 2.0:   CWLS LOG ASCII STANDARD -VERSION 2.0
 WRAP.                  NO:   ONE LINE PER DEPTH STEP
~WELL INFORMATION BLOCK
#MNEM.UNIT           DATA                    DESCRIPTION OF MNEMONIC
#---------    -------------------            -------------------------------
# Generated from Intellog Unique Number	CW_76_78/WELL/903
WELL.         AMOCO ROCK  10-23              : Well_name    - WELL
LOC .         00/10-23-077-23W4/0            : Location     - LOCATION
UWI .         00/10-23-077-23W4/0            : Uwi          - UNIQUE WELL ID
ENTR.         jj                             : Entered      - ENTERED BY
SRVC.         WESTERN ATLAS                  : Scn          - SERVICE COMPANY
DATE.         17 MARCH 78                    : Date         - LOG DATE
STRT.M        332.232                        : top_depth    - START DEPTH
STOP.M        575.982                        : bot_depth    - STOP DEPTH
STEP.M        0.25                           : increment    - STEP LENGTH
 NULL. -999.2500:NULL Value
~CURVE INFORMATION BLOCK
#MNEM UNIT       ERCB CURVE CODE    CURVE DESCRIPTION
#-----------   ------------------   ----------------------------------
DEPT.M        00 001 00 00         : DEPTH        - DEPTH
ILD .OHMM     00 120 00 00         : RESD         - DEEP RESISTIVITY (DIL)
DPHI.V/V      00 890 00 00         : PHID         - DENSITY POROSITY (SANDSTONE)
NPHI.V/V      00 330 00 00         : PHIN         - NEUTRON POROSITY (SANDSTONE)
GR  .API      00 310 00 00         : GR           - GAMMA RAY
CALI.MM       00 280 01 00         : CAL          - CALIPER
~PARAMETER INFORMATION
#MNEM.UNIT           DATA             DESCRIPTION OF MNEMONIC
#---------         -----------     ------------------------------
GL  .M        654.101              : gl           - GROUND LEVEL ELEVATION
EREF.M        658.063              : kb           - ELEVATION OF DEPTH REFERENCE
DATM.M        654.101              : datum        - DATUM ELEVATION
TDD .M        577.291              : tdd          - TOTAL DEPTH DRILLER
RUN .         ONE                  : Run          - RUN NUMBER
ENG .         BURLET               : Engineer     - RECORDING ENGINEER
WIT .         DAHLSTEDT/REGAN      : Witness      - WITNESSED BY
BASE.         EDMONTON             : Branch       - HOME BASE OF LOGGING UNIT
MUD .         GEL BENDEX           : Mud_type     - MUD TYPE
MATR.         SANDSTONE            : Logunit      - NEUTRON MATRIX
TMAX.C        26.1111              : BHT          - MAXIMUM RECORDED TEMPERATURE
BHTD.M        575.767              : BHTDEP       - MAXIMUM RECORDED TEMPERATURE
RMT .C        21.1111              : MDTP         - TEMPERATURE OF MUD
MUDD.KG/M     1140                 : MWT          - MUD DENSITY
NEUT.         1                    : NEUTRON      - NEUTRON TYPE
RESI.         0                    : RESIST       - RESISTIVITY TYPE
RM  .OHMM     2.13                 : RM           - RESISTIVITY OF MUD
RMC .OHMM     2.9                  : RMC          - RESISTIVITY OF MUD CAKE
RMF .OHMM     2.2                  : RMF          - RESISTIVITY OF MUD FILTRATE
SUFT.C        4.5                  : SUFT         - SURFACE TEMPERATURE
~A  DEPTH     RESD     PHID     PHIN       GR      CAL
# ...
  405.232    7.649    0.343    0.357   54.552  223.513
  405.482    7.600    0.335    0.361   52.250  223.528
  405.732    7.565    0.331    0.365   49.510  223.545
  405.982    7.560    0.329    0.370   52.458  223.348
  406.232    7.525    0.330    0.388   53.216  223.154
  406.482    7.463    0.333    0.385   51.789  223.275
  406.732    7.277    0.337    0.378   51.738  222.868
  406.982    7.097    0.337    0.371   52.121  222.569
  407.232    6.882    0.334    0.367   52.942  222.479
  407.482    6.550    0.330    0.369   53.140  222.390
  407.732    6.211    0.323    0.376   53.274  222.620
  407.982    5.779    0.316    0.373   59.968  222.951
  408.232    5.636    0.306    0.374   80.344  223.391
  408.482    5.663    0.305    0.377   83.915  223.723
  408.732    5.896    0.317    0.366   80.427  223.954
  408.982    6.303    0.337    0.353   79.499  224.073
  409.232    6.813    0.349    0.352   75.822  223.778
  409.482    7.241    0.348    0.353   68.085  223.582
  409.732    7.725    0.346    0.368   63.097  223.173
  409.982    8.588    0.342    0.364   59.359  222.554
  410.232    9.371    0.336    0.345   58.931  221.934
  410.482    9.612    0.320    0.300   58.878  221.210
  410.732    9.658    0.274    0.281   61.574  220.486
  410.982    9.243    0.181    0.271   63.271  220.078
  411.232    8.586    0.193    0.282   66.342  219.570
  411.482    8.156    0.225    0.366   68.100  218.948
  411.732    7.835    0.308    0.363   62.425  217.910
  411.982    7.670    0.326    0.360   60.747  217.289
  412.232    7.592    0.330    0.359   62.819  216.776
  412.482    7.686    0.332    0.359   70.638  216.792
  412.732    8.018    0.332    0.357   76.583  217.337
  412.982    8.914    0.327    0.351   66.284  218.306
  413.232   10.192    0.318    0.337   68.169  219.062
  413.482   11.675    0.289    0.303   75.487  219.714
  413.732   12.691    0.145    0.278   74.247  220.260
  413.982   12.993    0.090    0.263   57.638  220.700
  414.232   12.623    0.107    0.259   55.212  220.714
  414.482   11.379    0.130    0.288   59.532  220.944
  414.732    9.880    0.205    0.320   61.042  220.854
  414.982    8.579    0.226    0.352   67.548  220.870
  415.232    6.963    0.244    0.358   82.115  221.098
  415.482    6.313    0.244    0.354   80.563  220.904
  415.732    5.974    0.238    0.349   80.572  221.131
  415.982    5.890    0.236    0.347   83.393  221.146
  416.232    5.964    0.235    0.346   79.717  221.374
  416.482    6.060    0.236    0.351   77.228  221.710
  416.732    6.147    0.238    0.358   75.737  222.046
  416.982    6.223    0.237    0.353   78.558  222.165
  417.232    6.253    0.234    0.341   80.818  222.184
  417.482    6.213    0.230    0.356   77.328  222.728
  417.732    6.093    0.226    0.368   74.403  223.061
  417.982    5.853    0.220    0.363   72.601  223.397
  418.232    5.708    0.215    0.348   78.232  223.834
  418.482    5.484    0.214    0.343   85.427  224.062
  418.732    5.358    0.217    0.357   87.873  224.608
  418.982    5.225    0.223    0.360   90.007  224.940
  419.232    5.104    0.220    0.360   84.956  224.958
  419.482    5.043    0.213    0.358   76.031  224.866
  419.732    4.982    0.208    0.366   75.169  224.147
  419.982    4.951    0.212    0.359   76.425  223.737
  420.232    4.919    0.220    0.349   76.935  223.436
  420.482    4.906    0.230    0.365   79.882  223.029
  420.732    4.939    0.242    0.368   80.766  222.197
  420.982    5.019    0.254    0.357   79.401  220.841
  421.232    5.110    0.267    0.343   76.474  219.903
  421.482    5.271    0.272    0.346   76.984  218.544
  421.732    5.519    0.265    0.341   76.993  217.291
  421.982    5.747    0.260    0.332   71.880  215.615
  422.232    5.872    0.254    0.346   70.266  213.728
  422.482    5.857    0.240    0.346   69.025  213.110
  422.732    5.711    0.202    0.335   69.659  214.077
  422.982    5.446    0.090    0.322   65.983  219.913
  423.232    5.068    0.129    0.296   58.371  223.949
  423.482    4.760    0.231    0.284   50.072  225.448
  423.732    4.505    0.231    0.356   67.450  226.096
  423.982    4.328    0.224    0.356   76.580  226.642
  424.232    4.204    0.220    0.355   84.461  227.294
  424.482    4.147    0.222    0.356   83.035  228.159
  424.732    4.074    0.222    0.362   83.919  228.598
  424.982    4.033    0.222    0.366   89.176  228.931
  425.232    3.999    0.221    0.367   88.811  228.948
  425.482    3.996    0.221    0.371   86.571  229.068
  425.732    4.023    0.225    0.370   85.832  228.767
  425.982    4.072    0.228    0.366   82.842  227.831
  426.232    4.170    0.228    0.365   78.291  226.050
  426.482    4.524    0.230    0.369   80.677  224.902
  426.732    4.955    0.236    0.367   80.873  224.601
  426.982    5.306    0.248    0.357   75.448  224.196
  427.232    5.494    0.259    0.354   75.893  223.788
  427.482    5.479    0.269    0.358   76.341  223.596
  427.732    5.363    0.259    0.372   78.725  223.714
  427.982    5.289    0.244    0.364   79.421  223.520
  428.232    5.335    0.243    0.360   68.123  223.432
  428.482    5.512    0.254    0.368   63.198  223.130
  428.732    5.838    0.284    0.365   65.206  222.827
  428.982    6.147    0.299    0.350   65.841  222.212
  429.232    6.177    0.306    0.341   65.288  221.380
  429.482    6.217    0.299    0.341   68.359  220.868
  429.732    6.317    0.289    0.352   65.870  220.569
  429.982    6.444    0.276    0.356   61.506  220.477
  430.232    6.673    0.264    0.321   59.891  220.283
  430.482    7.106    0.249    0.299   57.277  220.192
  430.732    7.100    0.213    0.295   60.036  219.892
  430.982    6.911    0.189    0.339   63.169  219.591
  431.232    6.627    0.272    0.343   65.493  219.503
  431.482    6.390    0.306    0.364   66.249  219.306
  431.732    6.278    0.313    0.368   60.762  219.215
  431.982    6.237    0.312    0.371   54.524  219.232
  432.232    6.209    0.303    0.370   57.720  219.672
  432.482    6.239    0.299    0.368   58.917  220.220
  432.732    6.364    0.304    0.354   58.927  220.762
  432.982    6.454    0.310    0.343   59.124  221.203
  433.232    6.523    0.305    0.348   59.071  221.537
  433.482    6.541    0.298    0.367   60.268  221.765
  433.732    6.475    0.286    0.372   65.212  221.781
  433.982    6.386    0.276    0.386   65.035  221.480
  434.232    6.250    0.273    0.382   70.854  221.283
  434.482    6.073    0.283    0.375   78.361  221.617
  434.732    5.716    0.277    0.375   79.807  222.164
  434.982    5.269    0.282    0.378   81.316  222.816
  435.232    4.768    0.306    0.378   85.074  223.148
  435.482    4.330    0.299    0.375   81.773  223.270
  435.732    4.113    0.283    0.369   74.536  223.607
  435.982    4.078    0.282    0.370   74.358  223.939
  436.232    4.137    0.277    0.390   71.994  224.058
  436.482    4.381    0.246    0.381   65.569  224.499
  436.732    4.745    0.164    0.342   64.204  224.409
  436.982    5.100    0.179    0.324   66.650  224.428
  437.232    5.202    0.215    0.350   72.469  223.704
  437.482    5.063    0.249    0.368   78.790  223.400
  437.732    4.729    0.256    0.383   82.860  222.676
  437.982    4.484    0.250    0.387   81.807  221.636
  438.232    4.405    0.246    0.383   84.504  220.277
  438.482    4.394    0.242    0.387   87.261  218.705
  438.732    4.424    0.234    0.387   86.085  216.501
  438.982    4.486    0.217    0.367   79.034  213.661
  439.232    4.525    0.192    0.346   72.423  211.244
  439.482    4.598    0.150    0.342   73.681  209.779
  439.732    4.620    0.183    0.367   76.627  209.268
  439.982    4.634    0.208    0.377   77.948  209.494
  440.232    4.656    0.231    0.366   78.645  212.578
  440.482    4.697    0.246    0.346   79.531  221.269
  440.732    4.773    0.248    0.337   81.352  225.835
  440.982    4.813    0.245    0.342   80.798  228.814
  441.232    4.827    0.241    0.362   78.435  229.782
  441.482    4.769    0.237    0.366   83.567  230.330
