~VERSION INFORMATION
 VERS.                 2.0:   CWLS LOG ASCII STANDARD -VERSION 2.0
 WRAP.                  NO:   ONE LINE PER DEPTH STEP
~WELL INFORMATION BLOCK
#MNEM.UNIT           DATA                    DESCRIPTION OF MNEMONIC
#---------    -------------------            -------------------------------
# Generated from Intellog Unique Number	CS_73_76/WELL/2206
WELL.         DOME ET AL KIRBY               : Well_name    - WELL
LOC .         00/11-31-074-06W4/0            : Location     - LOCATION
UWI .         00/11-31-074-06W4/0            : Uwi          - UNIQUE WELL ID
ENTR.         SP                             : Entered      - ENTERED BY
SRVC.         SCHLUMBERGER                   : Scn          - SERVICE COMPANY
STRT.M        240                            : top_depth    - START DEPTH
STOP.M        470                            : bot_depth    - STOP DEPTH
STEP.M        0.25                           : increment    - STEP LENGTH
 NULL. -999.2500:NULL Value
~CURVE INFORMATION BLOCK
#MNEM UNIT       ERCB CURVE CODE    CURVE DESCRIPTION
#-----------   ------------------   ----------------------------------
DEPT.M        00 001 00 00         : DEPTH        - DEPTH
ILD .OHMM     00 120 00 00         : RESD         - DEEP RESISTIVITY (DIL)
DPHI.V/V      00 890 00 00         : PHID         - DENSITY POROSITY (LIMESTONE)
NPHI.V/V      00 330 00 00         : PHIN         - NEUTRON POROSITY (LIMESTONE)
GR  .API      00 310 00 00         : GR           - GAMMA RAY
~PARAMETER INFORMATION
#MNEM.UNIT           DATA             DESCRIPTION OF MNEMONIC
#---------         -----------     ------------------------------
GL  .M        632.87               : gl           - GROUND LEVEL ELEVATION
EREF.M        637.33               : kb           - ELEVATION OF DEPTH REFERENCE
DATM.M        632.87               : datum        - DATUM ELEVATION
TDD .M        478                  : tdd          - TOTAL DEPTH DRILLER
RUN .         ONE                  : Run          - RUN NUMBER
ENG .         BILL                 : Engineer     - RECORDING ENGINEER
WIT .         JIM                  : Witness      - WITNESSED BY
MUD .         GEL                  : Mud_type     - MUD TYPE
MATR.         LIMESTONE            : Logunit      - NEUTRON MATRIX
TMAX.C        21                   : BHT          - MAXIMUM RECORDED TEMPERATURE
BHTD.M        478                  : BHTDEP       - MAXIMUM RECORDED TEMPERATURE
MATR.         1                    : LOGUNIT      - NEUTRON MATRIX
RMT .C        25                   : MDTP         - TEMPERATURE OF MUD
NEUT.         1                    : NEUTRON      - NEUTRON TYPE
RESI.         0                    : RESIST       - RESISTIVITY TYPE
RMC .OHMM     0.25                 : RMC          - RESISTIVITY OF MUD CAKE
RMF .OHMM     0.25                 : RMF          - RESISTIVITY OF MUD FILTRATE
SUFT.C        15                   : SUFT         - SURFACE TEMPERATURE
~A  DEPTH     RESD     PHID     PHIN       GR
# ...
  283.500    8.207    0.369    0.455  119.245
  283.750    8.522    0.348    0.460  111.267
  284.000    8.684    0.374    0.474  132.664
  284.250    9.366    0.428    0.462  129.586
  284.500   10.101    0.391    0.463  123.441
  284.750   11.101    0.337    0.458  118.526
  285.000   11.972    0.279    0.453  122.789
  285.250   12.199    0.266    0.425  126.441
  285.500   11.745    0.270    0.422  123.349
  285.750   11.308    0.275    0.418  122.105
  286.000   10.683    0.279    0.414  121.476
  286.250   10.286    0.275    0.427  119.615
  286.500   11.520    0.266    0.428  113.474
  286.750   11.963    0.221    0.441  119.573
  287.000   11.302    0.154    0.442  126.894
  287.250   10.477    0.113    0.442  120.139
  287.500    9.898    0.168    0.450  113.383
  287.750    9.176    0.260    0.443  115.202
  288.000    8.191    0.283    0.463  114.565
  288.250    7.738    0.293    0.476  115.772
  288.500    8.345    0.284    0.465  120.034
  288.750    8.666    0.274    0.457  123.072
  289.000   10.080    0.304    0.446  118.766
  289.250   11.290    0.329    0.440  124.253
  289.500   12.176    0.351    0.444  116.271
  289.750   13.131    0.315    0.428  109.514
  290.000   13.636    0.298    0.404  102.763
  290.250   13.895    0.308    0.391   99.065
  290.500   13.894    0.297    0.397  102.719
  290.750   13.631    0.310    0.394   93.508
  291.000   13.374    0.315    0.388   89.817
  291.250   13.123    0.292    0.412   92.247
  291.500   12.633    0.278    0.424   98.951
  291.750   12.396    0.270    0.409  102.610
  292.000   11.710    0.284    0.407  102.583
  292.250   11.064    0.278    0.412   97.050
  292.500   10.065    0.272    0.419   97.649
  292.750    8.650    0.267    0.410  103.130
  293.000    8.487    0.282    0.407  106.170
  293.250    8.327    0.270    0.406  111.658
  293.500    8.486    0.257    0.410  112.860
  293.750    9.870    0.245    0.407  112.839
  294.000   11.055    0.272    0.412  112.821
  294.250   11.699    0.307    0.401  108.514
  294.500   11.921    0.319    0.418  102.972
  294.750   11.920    0.324    0.410  100.508
  295.000   11.261    0.332    0.395   97.428
  295.250   10.842    0.316    0.401   94.959
  295.500   10.841    0.311    0.409   99.831
  295.750   10.636    0.305    0.425  101.038
  296.000   10.635    0.313    0.437  103.462
  296.250   10.435    0.318    0.415  101.603
  296.500   10.238    0.335    0.410   99.129
  296.750   10.045    0.328    0.401   98.500
  297.000    9.312    0.324    0.393  103.985
  297.250    8.156    0.319    0.404  106.417
  297.500    7.561    0.308    0.409  113.128
  297.750    7.280    0.301    0.416  105.753
  298.000    7.279    0.304    0.428  102.678
  298.250    7.850    0.329    0.431  106.321
  298.500    8.466    0.321    0.445  105.083
  298.750    9.848    0.268    0.444  101.386
  299.000   10.824    0.189    0.394   94.010
  299.250   12.123    0.094    0.344   92.159
  299.500   13.837    0.069    0.319   88.465
  299.750   14.369    0.048    0.302   85.382
  300.000   13.575    0.051    0.282   84.132
  300.250    9.842    0.047    0.284   81.056
  300.500    7.992    0.065    0.282   75.523
  300.750    7.270    0.120    0.260   69.990
  301.000    6.614    0.194    0.268   64.457
  301.250    6.016    0.292    0.351   70.563
  301.500    5.684    0.349    0.379   76.046
  301.750    5.472    0.349    0.393   73.575
  302.000    5.471    0.343    0.416   80.286
  302.250    5.368    0.335    0.407   84.554
  302.500    5.368    0.329    0.425   82.690
  302.750    5.367    0.322    0.428   80.219
  303.000    5.367    0.334    0.436   80.200
  303.250    5.366    0.342    0.428   81.408
  303.500    5.365    0.355    0.417   88.118
  303.750    5.264    0.360    0.406   93.607
  304.000    5.264    0.353    0.405   86.844
  304.250    5.164    0.349    0.411   83.766
  304.500    5.067    0.354    0.407   80.685
  304.750    4.878    0.360    0.404   83.724
  305.000    4.787    0.364    0.410   77.578
  305.250    4.696    0.358    0.406   73.885
  305.500    4.608    0.352    0.415   79.368
  305.750    4.521    0.359    0.427   86.082
  306.000    4.520    0.367    0.439   83.612
  306.250    4.435    0.374    0.429   78.690
  306.500    4.352    0.364    0.415   77.448
  306.750    4.270    0.357    0.409   82.320
  307.000    4.269    0.353    0.400   84.753
  307.250    4.189    0.350    0.408   79.219
  307.500    4.110    0.356    0.404   78.585
  307.750    4.032    0.361    0.407   84.076
  308.000    3.956    0.356    0.407   80.379
  308.250    3.882    0.351    0.410   80.969
  308.500    3.737    0.352    0.420   76.655
  308.750    3.667    0.349    0.415   74.806
  309.000    3.598    0.346    0.411   77.834
  309.250    3.530    0.346    0.417   79.659
  309.500    3.399    0.349    0.417   78.405
  309.750    3.272    0.360    0.419   75.328
  310.000    3.272    0.367    0.411   80.202
  310.250    3.210    0.364    0.406   83.242
  310.500    3.210    0.371    0.395   77.091
  310.750    3.333    0.359    0.392   77.076
  311.000    3.663    0.361    0.401   80.728
  311.250    4.510    0.350    0.403   81.316
  311.500    6.338    0.342    0.389   79.458
  311.750    8.258    0.329    0.364   78.826
  312.000   12.054    0.312    0.333   80.639
  312.250   19.707    0.114    0.308   80.619
  312.500   23.361    0.060    0.275   74.475
  312.750   18.616    0.040    0.252   61.600
  313.000    8.736    0.026    0.242   54.842
  313.250    6.098    0.070    0.242   60.944
  313.500    5.047    0.145    0.289   65.207
  313.750    4.177    0.191    0.354   69.470
  314.000    3.523    0.247    0.401   74.346
  314.250    3.085    0.301    0.415   81.054
  314.500    2.915    0.380    0.418   85.934
  314.750    2.860    0.372    0.421   89.585
  315.000    2.806    0.367    0.415   82.215
  315.250    2.753    0.359    0.413   85.867
  315.500    2.753    0.379    0.420   77.890
  315.750    2.701    0.393    0.430   80.309
  316.000    2.701    0.393    0.440   82.131
  316.250    2.700    0.388    0.446   80.877
  316.500    2.700    0.382    0.434   79.638
  316.750    2.700    0.376    0.438   77.769
  317.000    2.699    0.367    0.440   76.532
  317.250    2.699    0.372    0.428   75.287
  317.500    2.699    0.388    0.423   81.379
  317.750    2.699    0.396    0.433   83.816
  318.000    2.648    0.390    0.444   82.567
  318.250    2.647    0.378    0.432   79.487
  318.500    2.598    0.374    0.417   75.780
  318.750    2.597    0.374    0.411   76.377
  319.000    2.548    0.380    0.405   78.798
  319.250    2.500    0.375    0.395   81.845
  319.500    2.453    0.376    0.397   86.100
  319.750    2.407    0.390    0.413   83.636
  320.000    2.361    0.395    0.421   78.097
  320.250    2.361    0.386    0.428   76.863
  320.500    2.317    0.381    0.413   74.387
  320.750    2.316    0.376    0.407   76.203
  321.000    2.273    0.373    0.404   79.242
  321.250    2.272    0.368    0.417   79.222
  321.500    2.272    0.367    0.426   75.516
  321.750    2.315    0.373    0.426   74.273
  322.000    2.315    0.363    0.424   76.093
  322.250    2.315    0.360    0.419   81.586
  322.500    2.359    0.372    0.436   86.459
  322.750    2.359    0.375    0.447   83.989
  323.000    2.403    0.378    0.430   80.284
  323.250    2.403    0.371    0.408   77.820
  323.500    2.449    0.373    0.389   75.967
  323.750    2.495    0.376    0.418   74.109
  324.000    2.591    0.373    0.415   74.088
  324.250    2.591    0.367    0.428   79.567
  324.500    2.591    0.358    0.435   80.773
  324.750    2.542    0.357    0.426   77.077
  325.000    2.590    0.373    0.447   83.176
  325.250    2.901    0.383    0.435   91.115
  325.500    3.070    0.379    0.454  100.272
  325.750    3.571    0.423    0.475  105.155
  326.000    4.076    0.446    0.506  103.291
  326.250    4.741    0.476    0.517   99.596
  326.500    5.310    0.439    0.500   99.576
  326.750    5.514    0.361    0.477  107.516
