~VERSION INFORMATION
 VERS.                 2.0:   CWLS LOG ASCII STANDARD -VERSION 2.0
 WRAP.                  NO:   ONE LINE PER DEPTH STEP
~WELL INFORMATION BLOCK
#MNEM.UNIT           DATA                    DESCRIPTION OF MNEMONIC
#---------    -------------------            -------------------------------
# Generated from Intellog Unique Number	CS_71_72/WELL/926
WELL.         CAVALIER ET AL NIXON           : Well_name    - WELL
LOC .         00/15-17-072-14W4/0            : Location     - LOCATION
UWI .         00/15-17-072-14W4/0            : Uwi          - UNIQUE WELL ID
ENTR.         SP                             : Entered      - ENTERED BY
SRVC.         SCHLUMBERGER                   : Scn          - SERVICE COMPANY
STRT.M        285                            : top_depth    - START DEPTH
STOP.M        485                            : bot_depth    - STOP DEPTH
STEP.M        0.25                           : increment    - STEP LENGTH
 NULL. -999.2500:NULL Value
~CURVE INFORMATION BLOCK
#MNEM UNIT       ERCB CURVE CODE    CURVE DESCRIPTION
#-----------   ------------------   ----------------------------------
DEPT.M        00 001 00 00         : DEPTH        - DEPTH
ILD .OHMM     00 120 00 00         : RESD         - DEEP RESISTIVITY (DIL)
DPHI.V/V      00 890 00 00         : PHID         - DENSITY POROSITY (LIMESTONE)
NPHI.V/V      00 330 00 00         : PHIN         - NEUTRON POROSITY (LIMESTONE)
GR  .API      00 310 00 00         : GR           - GAMMA RAY
~PARAMETER INFORMATION
#MNEM.UNIT           DATA             DESCRIPTION OF MNEMONIC
#---------         -----------     ------------------------------
GL  .M        614.5                : gl           - GROUND LEVEL ELEVATION
EREF.M        618                  : kb           - ELEVATION OF DEPTH REFERENCE
DATM.M        614.5                : datum        - DATUM ELEVATION
TDD .M        491                  : tdd          - TOTAL DEPTH DRILLER
RUN .         ONE                  : Run          - RUN NUMBER
ENG .         BILL                 : Engineer     - RECORDING ENGINEER
WIT .         JIM                  : Witness      - WITNESSED BY
MUD .         GEL                  : Mud_type     - MUD TYPE
MATR.         LIMESTONE            : Logunit      - NEUTRON MATRIX
TMAX.C        20                   : BHT          - MAXIMUM RECORDED TEMPERATURE
BHTD.M        491                  : BHTDEP       - MAXIMUM RECORDED TEMPERATURE
MATR.         1                    : LOGUNIT      - NEUTRON MATRIX
RMT .C        25                   : MDTP         - TEMPERATURE OF MUD
NEUT.         1                    : NEUTRON      - NEUTRON TYPE
RESI.         0                    : RESIST       - RESISTIVITY TYPE
RMC .OHMM     0.25                 : RMC          - RESISTIVITY OF MUD CAKE
RMF .OHMM     0.25                 : RMF          - RESISTIVITY OF MUD FILTRATE
SUFT.C        15                   : SUFT         - SURFACE TEMPERATURE
~A  DEPTH     RESD     PHID     PHIN       GR
# ...
  328.500    6.131    0.229    0.395  105.672
  328.750    6.017    0.223    0.407  108.721
  329.000    5.796    0.215    0.397  108.089
  329.250    5.378    0.211    0.392  106.225
  329.500    5.181    0.210    0.452  108.035
  329.750    5.085    0.221    0.481  109.861
  330.000    4.898    0.241    0.503  110.461
  330.250    4.807    0.255    0.515  111.046
  330.500    4.806    0.258    0.494  110.418
  330.750    4.806    0.257    0.492  104.244
  331.000    4.805    0.250    0.495  100.535
  331.250    4.805    0.254    0.474   98.064
  331.500    4.716    0.260    0.468   93.734
  331.750    4.715    0.262    0.467   99.234
  332.000    4.715    0.263    0.452  100.447
  332.250    4.894    0.266    0.436  101.048
  332.500    5.079    0.269    0.411   96.110
  332.750    5.272    0.274    0.392   91.779
  333.000    5.680    0.261    0.393   90.535
  333.250    5.896    0.248    0.394   93.585
  333.500    6.006    0.240    0.388   95.410
  333.750    6.006    0.233    0.387   97.845
  334.000    6.005    0.242    0.387   97.208
  334.250    5.894    0.255    0.391   93.496
  334.500    5.784    0.267    0.393   91.634
  334.750    5.677    0.268    0.399   89.772
  335.000    5.676    0.273    0.409   89.748
  335.250    5.676    0.282    0.425   89.726
  335.500    5.782    0.276    0.446   87.862
  335.750    6.001    0.259    0.450   85.371
  336.000    6.229    0.243    0.463   83.504
  336.250    6.466    0.234    0.449   82.257
  336.500    6.587    0.231    0.427   81.012
  336.750    6.586    0.220    0.423   79.143
  337.000    6.585    0.216    0.424   79.130
  337.250    6.585    0.222    0.425   82.168
  337.500    6.463    0.236    0.449   85.221
  337.750    6.343    0.244    0.473   88.886
  338.000    6.225    0.259    0.513   91.333
  338.250    5.996    0.283    0.503   95.614
  338.500    5.884    0.304    0.463   96.826
  338.750    5.775    0.331    0.452   94.960
  339.000    5.668    0.317    0.447   91.235
  339.250    5.667    0.286    0.432   90.605
  339.500    5.774    0.275    0.424   89.977
  339.750    5.882    0.271    0.407   87.499
  340.000    5.992    0.277    0.399   83.171
  340.250    5.991    0.281    0.392   81.301
  340.500    6.104    0.286    0.397   80.671
  340.750    6.103    0.280    0.410   79.413
  341.000    6.102    0.276    0.425   78.787
  341.250    6.102    0.273    0.438   76.915
  341.500    5.988    0.274    0.459   78.733
  341.750    5.988    0.275    0.473   80.566
  342.000    5.768    0.263    0.505   86.065
  342.250    5.661    0.251    0.461   88.508
  342.500    5.352    0.249    0.438   91.560
  342.750    5.253    0.245    0.430   91.539
  343.000    5.452    0.265    0.435   87.210
  343.250    5.765    0.284    0.459   85.351
  343.500    6.097    0.267    0.461   84.097
  343.750    6.447    0.244    0.438   85.927
  344.000    6.692    0.236    0.435   88.965
  344.250    6.818    0.239    0.455   89.566
  344.500    7.077    0.242    0.466   88.933
  344.750    7.209    0.241    0.457   88.913
  345.000    7.344    0.243    0.446   90.114
  345.250    7.343    0.252    0.426   91.330
  345.500    7.343    0.259    0.390   94.988
  345.750    7.342    0.253    0.382   94.974
  346.000    7.342    0.244    0.383   92.494
  346.250    7.341    0.237    0.385   87.556
  346.500    7.340    0.419    0.441   78.927
  346.750    7.339    0.435    0.477   73.986
  347.000    7.203    0.441    0.504   75.809
  347.250    7.069    0.415    0.526   79.477
  347.500    6.938    0.287    0.455   81.302
  347.750    6.683    0.276    0.426   84.341
  348.000    6.682    0.268    0.499   85.561
  348.250    6.558    0.270    0.542   84.918
  348.500    6.557    0.375    0.562   82.437
  348.750    6.680    0.425    0.585   78.115
  349.000    6.680    0.423    0.483   73.181
  349.250    6.555    0.411    0.408   73.160
  349.500    6.555    0.382    0.382   70.066
  349.750    6.197    0.297    0.374   62.669
  350.000    6.082    0.306    0.379   57.113
  350.250    5.859    0.307    0.390   52.176
  350.500    5.750    0.317    0.399   52.765
  350.750    5.643    0.342    0.404   60.109
  351.000    5.538    0.352    0.387   63.167
  351.250    5.538    0.334    0.384   66.227
  351.500    5.537    0.312    0.386   73.573
  351.750    5.641    0.293    0.378   76.017
  352.000    5.746    0.278    0.375   77.228
  352.250    5.854    0.266    0.373   77.198
  352.500    5.964    0.271    0.373   75.331
  352.750    5.963    0.283    0.378   74.088
  353.000    5.853    0.295    0.391   71.601
  353.250    5.852    0.325    0.412   70.358
  353.500    5.743    0.339    0.419   67.868
  353.750    5.743    0.349    0.425   67.241
  354.000    5.636    0.349    0.406   66.602
  354.250    5.742    0.342    0.406   68.426
  354.500    5.741    0.336    0.410   69.017
  354.750    6.071    0.333    0.405   66.534
  355.000    6.542    0.326    0.406   64.052
  355.250    7.048    0.316    0.409   63.420
  355.500    7.453    0.199    0.380   60.945
  355.750    7.882    0.136    0.352   57.236
  356.000    8.030    0.150    0.321   59.673
  356.250    7.880    0.187    0.326   67.029
  356.500    7.734    0.219    0.370   78.068
  356.750    7.312    0.241    0.388   84.193
  357.000    6.913    0.262    0.399   86.633
  357.250    6.659    0.267    0.398   88.453
  357.500    6.536    0.272    0.407   89.046
  357.750    6.911    0.277    0.421   85.952
  358.000    6.783    0.297    0.436   79.169
  358.250    6.533    0.282    0.435   73.616
  358.500    6.412    0.279    0.407   69.903
  358.750    6.412    0.261    0.391   71.721
  359.000    6.292    0.254    0.386   73.552
  359.250    6.292    0.247    0.390   77.215
  359.500    6.291    0.247    0.396   79.654
  359.750    6.291    0.243    0.394   82.700
  360.000    6.290    0.237    0.397   83.917
  360.250    6.290    0.232    0.408   85.122
  360.500    6.173    0.230    0.423   84.489
  360.750    6.058    0.229    0.413   82.002
  361.000    5.835    0.232    0.399   81.372
  361.250    5.621    0.236    0.383   85.646
  361.500    5.414    0.243    0.382   87.474
  361.750    5.119    0.252    0.404   88.680
  362.000    4.931    0.254    0.405   87.432
  362.250    4.662    0.246    0.396   83.716
  362.500    4.491    0.242    0.421   82.464
  362.750    4.407    0.244    0.432   81.216
  363.000    4.245    0.242    0.442   81.200
  363.250    4.245    0.240    0.452   81.173
  363.500    4.244    0.238    0.470   81.147
  363.750    4.244    0.235    0.482   79.900
  364.000    4.405    0.233    0.447   79.270
  364.250    4.572    0.236    0.408   76.782
  364.500    4.658    0.252    0.394   74.307
  364.750    4.835    0.266    0.386   69.970
  365.000    5.018    0.284    0.388   68.112
  365.250    5.018    0.299    0.401   66.870
  365.500    5.112    0.302    0.407   63.766
  365.750    5.207    0.308    0.393   62.521
  366.000    5.207    0.317    0.392   61.271
  366.250    5.207    0.328    0.392   60.016
  366.500    5.110    0.335    0.394   60.617
  366.750    5.015    0.334    0.411   59.365
  367.000    4.830    0.316    0.422   56.878
  367.250    4.741    0.309    0.425   53.787
  367.500    4.653    0.309    0.450   51.926
  367.750    4.566    0.307    0.476   59.266
  368.000    4.481    0.305    0.501   61.712
  368.250    4.317    0.303    0.481   65.379
  368.500    4.236    0.305    0.463   67.814
  368.750    4.158    0.302    0.449   72.705
  369.000    4.081    0.297    0.451   74.539
  369.250    3.930    0.288    0.455   78.816
  369.500    3.857    0.285    0.443   76.955
  369.750    3.857    0.287    0.435   70.784
  370.000    3.785    0.293    0.424   63.996
  370.250    3.856    0.299    0.421   61.520
  370.500    3.929    0.296    0.440   64.563
  370.750    4.078    0.289    0.423   64.555
  371.000    4.232    0.289    0.427   63.300
  371.250    4.393    0.297    0.437   66.353
  371.500    4.475    0.306    0.417   72.478
  371.750    4.559    0.296    0.417   77.377
