~VERSION INFORMATION
 VERS.                 2.0:   CWLS LOG ASCII STANDARD -VERSION 2.0
 WRAP.                  NO:   ONE LINE PER DEPTH STEP
~WELL INFORMATION BLOCK
#MNEM.UNIT           DATA                    DESCRIPTION OF MNEMONIC
#---------    -------------------            -------------------------------
# Generated from Intellog Unique Number	CS_67_68/WELL/2217
WELL.         15-01-067-06W4                 : Well_name    - WELL
LOC .         00/15-01-067-06W4/0            : Location     - LOCATION
UWI .         00/15-01-067-06W4/0            : Uwi          - UNIQUE WELL ID
ENTR.         SP                             : Entered      - ENTERED BY
SRVC.         SCHLUMBERGER                   : Scn          - SERVICE COMPANY
STRT.M        315                            : top_depth    - START DEPTH
STOP.M        535                            : bot_depth    - STOP DEPTH
STEP.M        0.25                           : increment    - STEP LENGTH
 NULL. -999.2500:NULL Value
~CURVE INFORMATION BLOCK
#MNEM UNIT       ERCB CURVE CODE    CURVE DESCRIPTION
#-----------   ------------------   ----------------------------------
DEPT.M        00 001 00 00         : DEPTH        - DEPTH
ILD .OHMM     00 120 00 00         : RESD         - DEEP RESISTIVITY (DIL)
DPHI.V/V      00 890 00 00         : PHID         - DENSITY POROSITY (LIMESTONE)
NPHI.V/V      00 330 00 00         : PHIN         - NEUTRON POROSITY (LIMESTONE)
GR  .API      00 310 00 00         : GR           - GAMMA RAY
CALI.MM       00 280 01 00         : CAL          - CALIPER
~PARAMETER INFORMATION
#MNEM.UNIT           DATA             DESCRIPTION OF MNEMONIC
#---------         -----------     ------------------------------
GL  .M        647.05               : gl           - GROUND LEVEL ELEVATION
EREF.M        650.03               : kb           - ELEVATION OF DEPTH REFERENCE
DATM.M        650.03               : datum        - DATUM ELEVATION
TDD .M        542                  : tdd          - TOTAL DEPTH DRILLER
RUN .         ONE                  : Run          - RUN NUMBER
ENG .         BILL                 : Engineer     - RECORDING ENGINEER
WIT .         JIM                  : Witness      - WITNESSED BY
MUD .         GEL                  : Mud_type     - MUD TYPE
MATR.         LIMESTONE            : Logunit      - NEUTRON MATRIX
TMAX.C        18.8                 : BHT          - MAXIMUM RECORDED TEMPERATURE
BHTD.M        544                  : BHTDEP       - MAXIMUM RECORDED TEMPERATURE
MATR.         1                    : LOGUNIT      - NEUTRON MATRIX
RMT .C        25                   : MDTP         - TEMPERATURE OF MUD
NEUT.         1                    : NEUTRON      - NEUTRON TYPE
RESI.         0                    : RESIST       - RESISTIVITY TYPE
RMC .OHMM     0.25                 : RMC          - RESISTIVITY OF MUD CAKE
RMF .OHMM     0.25                 : RMF          - RESISTIVITY OF MUD FILTRATE
SUFT.C        15                   : SUFT         - SURFACE TEMPERATURE
~A  DEPTH     RESD     PHID     PHIN       GR      CAL
# ...
  388.000    4.249    0.363    0.462   57.518  157.019
  388.250    4.232    0.362    0.458   56.722  156.910
  388.500    4.640    0.358    0.455   56.474  156.902
  388.750    4.665    0.352    0.453   58.357  156.793
  389.000    4.673    0.344    0.454   59.815  156.989
  389.250    4.647    0.338    0.455   60.663  156.981
  389.500    4.568    0.344    0.456   60.902  157.076
  389.750    4.559    0.349    0.473   58.583  157.170
  390.000    4.567    0.349    0.492   58.944  157.365
  390.250    4.399    0.351    0.485   58.940  157.357
  390.500    4.149    0.354    0.460   57.656  157.452
  390.750    3.885    0.358    0.444   61.793  157.749
  391.000    3.631    0.361    0.434   67.391  159.467
  391.250    3.374    0.357    0.435   76.888  161.997
  391.500    3.106    0.331    0.443   84.496  165.846
  391.750    2.936    0.291    0.438   90.033  169.898
  392.000    3.135    0.279    0.469   90.698  174.459
  392.250    3.379    0.278    0.500   90.024  178.309
  392.500    3.663    0.292    0.509   84.173  176.576
  392.750    4.061    0.319    0.508   77.347  167.636
  393.000    4.247    0.347    0.500   72.532  160.624
  393.250    3.932    0.368    0.484   68.630  156.456
  393.500    3.539    0.357    0.469   65.520  153.911
  393.750    3.352    0.347    0.453   71.117  153.904
  394.000    3.204    0.333    0.440   76.107  154.708
  394.250    3.295    0.315    0.474   81.097  155.411
  394.500    3.459    0.303    0.503   79.996  155.809
  394.750    3.680    0.293    0.524   73.170  156.005
  395.000    3.878    0.324    0.523   68.598  155.489
  395.250    4.157    0.352    0.512   65.244  155.584
  395.500    4.291    0.368    0.508   62.134  156.490
  395.750    4.339    0.377    0.505   60.120  157.498
  396.000    4.331    0.387    0.490   55.487  157.795
  396.250    4.346    0.390    0.480   55.360  157.889
  396.500    4.495    0.380    0.507   56.026  158.186
  396.750    4.667    0.370    0.508   54.742  158.483
  397.000    4.983    0.360    0.482   54.067  159.084
  397.250    5.525    0.349    0.465   54.732  159.889
  397.500    6.492    0.337    0.453   55.338  160.794
  397.750    7.601    0.326    0.444   56.369  161.193
  398.000    9.067    0.317    0.441   58.861  161.488
  398.250   10.655    0.315    0.445   61.415  161.482
  398.500   12.334    0.340    0.455   61.349  161.778
  398.750   14.144    0.350    0.465   58.117  161.976
  399.000   16.129    0.289    0.444   53.849  162.474
  399.250   17.882    0.210    0.249   51.896  162.874
  399.500   17.913    0.244    0.227   54.084  162.867
  399.750   17.058    0.306    0.311   56.881  163.468
  400.000   16.032    0.353    0.396   57.973  164.374
  400.250   14.704    0.365    0.452   59.125  165.381
  400.500   13.638    0.371    0.479   60.034  166.085
  400.750   13.060    0.376    0.465   61.187  165.773
  401.000   12.578    0.375    0.467   62.156  162.923
  401.250   11.798    0.373    0.476   62.214  159.667
  401.500   11.405    0.374    0.482   62.026  158.036
  401.750    9.813    0.372    0.479   62.570  157.318
  402.000    8.588    0.366    0.471   63.661  157.209
  402.250    7.701    0.363    0.461   64.509  157.201
  402.500    7.063    0.362    0.457   65.297  157.295
  402.750    6.393    0.360    0.458   66.145  157.084
  403.000    5.722    0.357    0.458   67.480  156.874
  403.250    5.258    0.350    0.459   67.841  156.663
  403.500    5.073    0.348    0.454   67.471  156.555
  403.750    5.082    0.353    0.455   67.954  156.548
  404.000    5.149    0.357    0.460   69.472  156.642
  404.250    5.158    0.355    0.465   70.868  156.837
  404.500    5.157    0.338    0.469   73.056  157.236
  404.750    5.176    0.314    0.473   75.670  158.142
  405.000    5.186    0.280    0.464   77.615  160.570
  405.250    5.156    0.262    0.453   79.437  163.709
  405.500    5.146    0.259    0.443   80.590  165.428
  405.750    5.145    0.282    0.456   80.647  162.274
  406.000    5.135    0.296    0.466   80.885  159.627
  406.250    5.106    0.285    0.454   81.734  158.501
  406.500    5.038    0.269    0.452   82.582  159.002
  406.750    4.944    0.257    0.460   83.734  160.112
  407.000    4.870    0.267    0.470   84.278  161.525
  407.250    4.743    0.277    0.482   83.908  162.633
  407.500    4.637    0.269    0.500   84.269  163.236
  407.750    4.576    0.270    0.509   86.457  163.127
  408.000    4.524    0.277    0.478   88.280  162.713
  408.250    4.549    0.268    0.456   89.432  162.807
  408.500    4.566    0.262    0.468   89.671  163.509
  408.750    4.582    0.263    0.485   89.971  164.010
  409.000    4.617    0.260    0.489   89.966  164.105
  409.250    4.739    0.251    0.481   89.901  164.605
  409.500    4.846    0.252    0.474   89.105  164.901
  409.750    4.892    0.264    0.479   87.335  165.097
  410.000    4.937    0.265    0.473   86.294  164.988
  410.250    4.946    0.262    0.469   86.168  164.777
  410.500    4.728    0.260    0.476   87.016  165.075
  410.750    4.519    0.265    0.473   86.890  166.082
  411.000    4.368    0.282    0.479   86.398  169.627
  411.250    4.222    0.299    0.487   86.577  173.983
  411.500    4.206    0.310    0.501   88.156  176.920
  411.750    4.221    0.320    0.516   91.257  178.334
  412.000    4.245    0.300    0.521   92.714  172.439
  412.250    4.189    0.281    0.510   92.588  165.326
  412.500    4.119    0.267    0.476   89.782  161.564
  412.750    4.019    0.270    0.442   87.829  159.323
  413.000    3.929    0.277    0.426   86.300  157.793
  413.250    3.791    0.279    0.432   85.627  157.989
  413.500    3.630    0.277    0.440   85.318  160.011
  413.750    3.456    0.281    0.451   85.923  161.627
  414.000    3.273    0.284    0.450   88.354  162.432
  414.250    3.839    0.276    0.476   90.542  164.860
  414.500    4.092    0.282    0.503   90.721  166.376
  414.750    4.411    0.286    0.515   88.767  166.673
  415.000    4.908    0.291    0.522   85.840  163.823
  415.250    4.991    0.305    0.525   82.912  158.741
  415.500    4.954    0.312    0.507   83.029  156.196
  415.750    4.888    0.320    0.489   81.076  154.970
  416.000    4.869    0.332    0.486   72.971  154.150
  416.250    4.887    0.346    0.481   70.835  154.041
  416.500    4.914    0.351    0.474   69.552  153.831
  416.750    4.868    0.352    0.477   68.512  153.215
  417.000    4.840    0.348    0.476   66.985  152.598
  417.250    4.794    0.350    0.469   65.275  152.386
  417.500    4.722    0.353    0.456   64.113  152.480
  417.750    4.713    0.354    0.445   63.500  152.576
  418.000    4.704    0.351    0.479   62.825  152.669
  418.250    4.685    0.347    0.496   62.212  152.357
  418.500    4.694    0.344    0.499   61.842  151.741
  418.750    4.755    0.344    0.490   61.838  151.428
  419.000    4.818    0.344    0.477   62.199  151.420
  419.250    4.918    0.347    0.479   63.717  151.719
  419.500    5.001    0.343    0.488   63.103  151.813
  419.750    5.086    0.341    0.479   61.881  152.414
  420.000    5.133    0.342    0.468   60.902  152.812
  420.250    5.133    0.343    0.459   60.958  153.009
  420.500    5.027    0.340    0.457   61.624  153.405
  420.750    4.924    0.335    0.459   61.619  153.602
  421.000    4.778    0.335    0.473   61.432  154.101
  421.250    4.671    0.337    0.481   61.245  154.400
  421.500    4.532    0.344    0.487   60.631  154.595
  421.750    4.414    0.354    0.481   59.713  154.892
  422.000    4.323    0.361    0.471   58.917  155.088
  422.250    4.323    0.359    0.470   58.364  155.282
  422.500    4.404    0.355    0.472   57.873  155.781
  422.750    4.650    0.352    0.480   57.380  156.384
  423.000    4.873    0.355    0.497   57.072  157.088
  423.250    5.145    0.357    0.499   56.824  157.181
  423.500    5.392    0.350    0.488   55.358  157.073
  423.750    5.651    0.341    0.480   54.501  157.268
  424.000    5.955    0.333    0.466   54.679  157.260
  424.250    6.431    0.328    0.448   54.369  157.354
