~VERSION INFORMATION
 VERS.                 2.0:   CWLS LOG ASCII STANDARD -VERSION 2.0
 WRAP.                  NO:   ONE LINE PER DEPTH STEP
~WELL INFORMATION BLOCK
#MNEM.UNIT           DATA                    DESCRIPTION OF MNEMONIC
#---------    -------------------            -------------------------------
# Generated from Intellog Unique Number	CW_73_75/WELL/3525
WELL.         HCO ET AL FRANCIS              : Well_name    - WELL
LOC .         00/11-01-073-21W4/0            : Location     - LOCATION
UWI .         00/11-01-073-21W4/0            : Uwi          - UNIQUE WELL ID
ENTR.         TIM                            : Entered      - ENTERED BY
SRVC.         SCHLUMBERGER                   : Scn          - SERVICE COMPANY
STRT.M        320                            : top_depth    - START DEPTH
STOP.M        575                            : bot_depth    - STOP DEPTH
STEP.M        0.25                           : increment    - STEP LENGTH
 NULL. -999.2500:NULL Value
~CURVE INFORMATION BLOCK
#MNEM UNIT       ERCB CURVE CODE    CURVE DESCRIPTION
#-----------   ------------------   ----------------------------------
DEPT.M        00 001 00 00         : DEPTH        - DEPTH
GR  .API      00 310 00 00         : GR           - GAMMA RAY
CALI.MM       00 280 01 00         : CAL          - CALIPER
NPHI.V/V      00 330 00 00         : PHIN         - NEUTRON POROSITY (SANDSTONE)
DPHI.V/V      00 890 00 00         : PHID         - DENSITY POROSITY (SANDSTONE)
ILD .OHMM     00 120 00 00         : RESD         - DEEP RESISTIVITY (DIL)
~PARAMETER INFORMATION
#MNEM.UNIT           DATA             DESCRIPTION OF MNEMONIC
#---------         -----------     ------------------------------
GL  .M        658.2                : gl           - GROUND LEVEL ELEVATION
EREF.M        661.7                : kb           - ELEVATION OF DEPTH REFERENCE
DATM.M        661.7                : datum        - DATUM ELEVATION
TDD .M        587                  : tdd          - TOTAL DEPTH DRILLER
RUN .         ONE                  : Run          - RUN NUMBER
ENG .         BILL                 : Engineer     - RECORDING ENGINEER
WIT .         JIM                  : Witness      - WITNESSED BY
MUD .         GEL                  : Mud_type     - MUD TYPE
MATR.         SANDSTONE            : Logunit      - NEUTRON MATRIX
TMAX.C        26                   : BHT          - MAXIMUM RECORDED TEMPERATURE
BHTD.M        487                  : BHTDEP       - MAXIMUM RECORDED TEMPERATURE
MATR.         1                    : LOGUNIT      - NEUTRON MATRIX
RMT .C        18                   : MDTP         - TEMPERATURE OF MUD
NEUT.         1                    : NEUTRON      - NEUTRON TYPE
RESI.         0                    : RESIST       - RESISTIVITY TYPE
RMC .OHMM     3.39                 : RMC          - RESISTIVITY OF MUD CAKE
RMF .OHMM     3.39                 : RMF          - RESISTIVITY OF MUD FILTRATE
SUFT.C        5                    : SUFT         - SURFACE TEMPERATURE
~A  DEPTH       GR      CAL     PHIN     PHID     RESD
# ...
  466.000   69.290  161.783    0.427    0.306    4.628
  466.250   69.895  162.791    0.437    0.295    4.382
  466.500   70.500  163.799    0.448    0.290    4.469
  466.750   71.104  164.800    0.442    0.290    4.730
  467.000   71.709  165.820    0.438    0.290    4.822
  467.250   72.317  166.822    0.433    0.288    5.011
  467.500   72.332  166.840    0.425    0.288    5.208
  467.750   69.981  167.859    0.421    0.293    5.211
  468.000   68.225  168.873    0.422    0.301    5.314
  468.250   67.649  168.885    0.427    0.310    5.421
  468.500   67.663  168.909    0.434    0.313    5.229
  468.750   64.727  168.945    0.448    0.273    5.048
  469.000   61.790  169.953    0.451    0.230    4.958
  469.250   61.214  169.971    0.433    0.260    4.875
  469.500   62.412  169.989    0.426    0.274    4.877
  469.750   63.607  170.019    0.418    0.293    4.885
  470.000   64.215  170.037    0.416    0.307    4.980
  470.250   64.222  169.077    0.418    0.318    5.078
  470.500   63.056  169.101    0.424    0.322    5.180
  470.750   61.890  168.141    0.435    0.323    5.283
  471.000   60.728  168.165    0.436    0.324    5.386
  471.250   60.152  168.189    0.429    0.322    5.392
  471.500   60.760  167.229    0.423    0.318    5.109
  471.750   61.951  167.253    0.425    0.302    4.928
  472.000   63.740  166.305    0.433    0.306    4.841
  472.250   65.525  165.339    0.433    0.308    4.671
  472.500   66.130  165.357    0.425    0.311    4.678
  472.750   66.141  164.398    0.424    0.312    4.682
  473.000   66.155  164.422    0.420    0.313    4.690
  473.250   68.531  163.468    0.413    0.313    4.692
  473.500   72.090  162.514    0.408    0.314    4.787
  473.750   73.875  161.548    0.428    0.317    4.973
  474.000   72.122  161.572    0.436    0.323    5.166
  474.250   70.359  161.602    0.431    0.328    5.366
  474.500   67.425  161.620    0.420    0.335    5.893
  474.750   65.669  161.650    0.414    0.341    6.472
  475.000   65.090  161.674    0.412    0.346    7.241
  475.250   62.746  162.682    0.395    0.219    8.104
  475.500   60.396  162.700    0.343    0.152    8.737
  475.750   56.873  162.730    0.227    0.106    8.749
  476.000   55.113  162.748    0.264    0.070    7.984
  476.250   56.311  162.778    0.302    0.093    7.284
  476.500   59.273  162.808    0.387    0.170    5.947
  476.750   62.833  162.820    0.427    0.242    5.134
  477.000   64.028  163.839    0.455    0.287    4.863
  477.250   64.632  163.857    0.463    0.310    4.961
  477.500   65.237  163.857    0.459    0.316    4.965
  477.750   65.845  165.879    0.457    0.324    5.064
  478.000   65.856  166.874    0.452    0.282    5.069
  478.250   65.874  166.904    0.449    0.291    5.168
  478.500   64.704  167.912    0.447    0.306    5.175
  478.750   64.132  167.936    0.442    0.320    5.179
  479.000   63.552  167.966    0.443    0.322    5.091
  479.250   62.980  167.996    0.448    0.321    5.003
  479.500   62.995  167.036    0.450    0.321    4.917
  479.750   62.415  167.054    0.442    0.320    4.922
  480.000   61.843  166.094    0.436    0.318    5.019
  480.250   61.857  165.129    0.420    0.312    5.314
  480.500   62.458  165.164    0.400    0.303    5.729
  480.750   64.247  165.176    0.409    0.298    5.954
  481.000   66.028  165.206    0.432    0.292    6.072
  481.250   71.945  165.236    0.442    0.283    6.075
  481.500   76.682  165.248    0.440    0.298    6.082
  481.750   79.651  165.272    0.435    0.302    5.977
  482.000   80.846  165.296    0.426    0.285    5.663
  482.250   82.631  165.320    0.415    0.255    5.564
  482.500   85.600  165.344    0.418    0.257    5.174
  482.750   84.434  165.368    0.426    0.262    4.990
  483.000   83.268  165.392    0.432    0.252    4.725
  483.250   84.460  165.422    0.438    0.243    4.642
  483.500   87.429  165.440    0.435    0.229    4.649
  483.750   90.398  165.470    0.432    0.220    4.741
  484.000   91.586  165.494    0.429    0.218    4.746
  484.250   93.371  165.512    0.432    0.228    4.664
  484.500   91.614  166.532    0.438    0.230    4.178
  484.750   91.042  167.533    0.441    0.225    3.742
  485.000   92.824  168.547    0.440    0.222    3.351
  485.250   96.380  170.545    0.436    0.228    2.947
  485.500   99.936  171.540    0.444    0.246    2.740
  485.750  102.315  173.532    0.479    0.257    2.901
  486.000  104.103  174.540    0.538    0.268    3.185
  486.250  104.118  175.547    0.525    0.267    3.768
  486.500  103.542  175.571    0.516    0.258    4.139
  486.750  102.962  175.595    0.511    0.245    4.380
  487.000  101.206  174.635    0.478    0.235    4.466
  487.250  100.040  171.714    0.450    0.224    4.391
  487.500   99.468  169.771    0.435    0.218    4.235
  487.750  100.072  167.827    0.439    0.210    4.084
  488.000  102.448  166.867    0.443    0.203    3.940
  488.250  104.233  166.885    0.446    0.202    3.732
  488.500  104.834  166.921    0.446    0.201    3.667
  488.750  104.848  166.939    0.443    0.194    3.741
  489.000  103.682  166.963    0.437    0.185    4.263
  489.250   96.613  166.987    0.426    0.175    5.233
  489.500   86.593  167.017    0.410    0.153    6.189
  489.750   86.611  167.029    0.391    0.131    6.927
  490.000   87.803  167.059    0.353    0.114    6.805
  490.250   91.359  167.077    0.342    0.132    6.567
  490.500   93.734  168.097    0.386    0.150    6.220
  490.750   97.290  168.115    0.404    0.184    6.111
  491.000   99.075  168.144    0.416    0.209    6.005
  491.250   97.322  168.168    0.425    0.212    6.128
  491.500   96.156  168.192    0.437    0.203    6.131
  491.750   94.396  169.206    0.442    0.200    6.253
  492.000   91.459  169.224    0.422    0.195    6.262
  492.250   91.477  169.248    0.409    0.195    6.269
  492.500   93.856  169.272    0.404    0.200    6.162
  492.750   94.457  169.302    0.409    0.200    6.052
  493.000   95.062  169.314    0.416    0.192    6.059
  493.250   94.486  169.338    0.415    0.185    5.954
  493.500   92.139  169.368    0.412    0.190    5.961
  493.750   92.154  168.420    0.409    0.194    5.861
  494.000   95.710  168.432    0.406    0.204    5.758
  494.250   98.088  168.456    0.404    0.209    5.763
  494.500   98.103  168.480    0.403    0.202    5.987
  494.750   96.347  168.510    0.401    0.198    6.224
  495.000   93.996  168.534    0.399    0.195    6.347
  495.250   93.424  168.546    0.399    0.202    6.354
  495.500   93.438  168.576    0.399    0.211    6.359
  495.750   93.449  168.600    0.400    0.211    6.366
  496.000   93.467  167.646    0.401    0.207    5.810
  496.250   92.891  167.670    0.404    0.206    5.204
  496.500   92.906  166.710    0.407    0.206    5.114
  496.750   92.920  166.746    0.411    0.208    5.120
  497.000   92.931  165.780    0.412    0.208    5.126
  497.250   93.535  165.792    0.408    0.203    5.326
  497.500   94.140  164.832    0.405    0.197    5.431
  497.750   94.745  162.889    0.406    0.194    5.747
  498.000   91.808  160.945    0.427    0.197    6.196
  498.250   88.874  159.986    0.428    0.195    7.064
  498.500   94.205  160.010    0.418    0.189    8.202
  498.750   95.400  160.039    0.421    0.187    9.348
  499.000   90.098  160.063    0.430    0.213   11.477
  499.250   79.488  161.071    0.433    0.229   12.838
  499.500   68.287  161.101    0.401    0.197   14.100
  499.750   65.354  161.113    0.315    0.163   16.075
  500.000   63.007  162.121    0.274    0.118   17.017
  500.250   61.841  162.145    0.261    0.075   15.239
  500.500   62.446  162.175    0.281    0.135   12.913
  500.750   63.051  161.221    0.304    0.181   11.354
  501.000   60.700  161.233    0.390    0.240    9.801
  501.250   55.993  159.289    0.386    0.248    9.281
  501.500   57.191  158.330    0.393    0.223    8.789
  501.750   57.792  158.354    0.412    0.246    8.479
  502.000   59.577  158.378    0.426    0.258    7.884
  502.250   61.362  158.407    0.369    0.226    7.468
