~VERSION INFORMATION
 VERS.                 2.0:   CWLS LOG ASCII STANDARD -VERSION 2.0
 WRAP.                  NO:   ONE LINE PER DEPTH STEP
~WELL INFORMATION BLOCK
#MNEM.UNIT           DATA                    DESCRIPTION OF MNEMONIC
#---------    -------------------            -------------------------------
# Generated from Intellog Unique Number	nealta/WELL/2304
WELL.         AMOCO PELICAN                  : Well_name    - WELL
LOC .         10-29-077-24W4                 : Location     - LOCATION
UWI .         00/10-29-077-24W4/0            : Uwi          - UNIQUE WELL ID
ENTR.         JAYE                           : Entered      - ENTERED BY
SRVC.         WESTERN ATLAS                  : Scn          - SERVICE COMPANY
DATE.         4 FEB 79                       : Date         - LOG DATE
STRT.M        365                            : top_depth    - START DEPTH
STOP.M        640                            : bot_depth    - STOP DEPTH
STEP.M        0.25                           : increment    - STEP LENGTH
 NULL. -999.2500:NULL Value
~CURVE INFORMATION BLOCK
#MNEM UNIT       ERCB CURVE CODE    CURVE DESCRIPTION
#-----------   ------------------   ----------------------------------
DEPT.M        00 001 00 00         : DEPTH        - DEPTH
GR  .API      00 310 00 00         : GR           - GAMMA RAY
ILD .OHMM     00 120 00 00         : RESD         - DEEP RESISTIVITY (DIL)
CALI.MM       00 280 01 00         : CAL          - CALIPER
NPHI.V/V      00 330 00 00         : PHIN         - NEUTRON POROSITY (SANDSTONE)
DPHI.V/V      00 890 00 00         : PHID         - DENSITY POROSITY (SANDSTONE)
~PARAMETER INFORMATION
#MNEM.UNIT           DATA             DESCRIPTION OF MNEMONIC
#---------         -----------     ------------------------------
GL  .M        666.57               : gl           - GROUND LEVEL ELEVATION
EREF.M        670.67               : kb           - ELEVATION OF DEPTH REFERENCE
DATM.M        666.57               : datum        - DATUM ELEVATION
TDD .M        642                  : tdd          - TOTAL DEPTH DRILLER
RUN .         ONE                  : Run          - RUN NUMBER
ENG .         FRENNETTE            : Engineer     - RECORDING ENGINEER
WIT .         LAMPEN               : Witness      - WITNESSED BY
BASE.         R.D.                 : Branch       - HOME BASE OF LOGGING UNIT
MUD .         GEL CHEM             : Mud_type     - MUD TYPE
MATR.         SANDSTONE            : Logunit      - NEUTRON MATRIX
TMAX.C        29                   : BHT          - MAXIMUM RECORDED TEMPERATURE
BHTD.M        643.4                : BHTDEP       - MAXIMUM RECORDED TEMPERATURE
RMT .C        15.5                 : MDTP         - TEMPERATURE OF MUD
MUDD.KG/M     1050                 : MWT          - MUD DENSITY
NEUT.         1                    : NEUTRON      - NEUTRON TYPE
RESI.         0                    : RESIST       - RESISTIVITY TYPE
RM  .OHMM     5.1                  : RM           - RESISTIVITY OF MUD
RMC .OHMM     6.87                 : RMC          - RESISTIVITY OF MUD CAKE
RMF .OHMM     5.5                  : RMF          - RESISTIVITY OF MUD FILTRATE
SUFT.C        4.5                  : SUFT         - SURFACE TEMPERATURE
~A  DEPTH       GR     RESD      CAL     PHIN     PHID
# ...
  511.000  103.031   11.131  192.787    0.384    0.173
  511.250  105.974   10.716  187.336    0.397    0.165
  511.500  109.228   10.431  184.195    0.402    0.143
  511.750  102.821   10.249  182.725    0.394    0.165
  512.000  103.376   10.276  182.073    0.404    0.160
  512.250  101.927   10.304  182.276    0.394    0.152
  512.500   99.282   10.354  182.783    0.365    0.133
  512.750  101.849   10.362  183.493    0.366    0.135
  513.000  105.856   10.371  184.743    0.377    0.178
  513.250  105.657   10.379  186.289    0.389    0.173
  513.500  105.716   10.407  188.164    0.396    0.161
  513.750  106.206   10.494  189.298    0.399    0.153
  514.000  106.332   10.562  190.121    0.389    0.163
  514.250  106.943   10.668  190.426    0.372    0.170
  514.500  106.311   10.698  191.168    0.369    0.164
  514.750  102.608   10.728  191.543    0.375    0.153
  515.000  102.971   10.695  192.493    0.403    0.145
  515.250  103.589   10.686  193.198    0.413    0.151
  515.500  103.831   10.596  193.703    0.422    0.159
  515.750  103.076   10.605  195.151    0.431    0.148
  516.000  103.312   10.614  197.019    0.419    0.128
  516.250  105.689   10.566  198.165    0.406    0.119
  516.500  105.625   10.497  198.672    0.396    0.133
  516.750  104.668   10.447  199.398    0.392    0.136
  517.000  103.785   10.363  200.532    0.401    0.135
  517.250  105.468   10.256  201.355    0.427    0.155
  517.500  105.615   10.210  201.653    0.432    0.164
  517.750  105.894   10.198  202.258    0.409    0.165
  518.000  105.634   10.224  202.472    0.416    0.158
  518.250  106.696   10.290  202.866    0.412    0.145
  518.500  109.070   10.416  202.544    0.394    0.150
  518.750  111.131   10.559  202.111    0.400    0.157
  519.000  110.873   11.027  201.182    0.396    0.154
  519.250  109.672   11.539  200.948    0.386    0.132
  519.500  109.422   11.983  200.492    0.386    0.133
  519.750  110.536   12.354  199.552    0.382    0.141
  520.000  110.092   12.737  199.532    0.375    0.143
  520.250  107.383   12.962  199.949    0.376    0.142
  520.500  105.427   13.068  200.762    0.379    0.146
  520.750  103.163   12.558  200.863    0.380    0.126
  521.000  103.218   11.980  201.050    0.376    0.122
  521.250  108.230   11.155  200.198    0.372    0.119
  521.500  112.988   10.387  199.238    0.377    0.158
  521.750  116.058    9.674  198.598    0.430    0.187
  522.000  114.917    9.347  198.373    0.449    0.209
  522.250  114.032    9.083  197.949    0.425    0.224
  522.500  111.518    8.825  197.931    0.410    0.190
  522.750  111.944    8.752  198.759    0.407    0.162
  523.000  108.802    8.989  198.843    0.411    0.142
  523.250  107.473    9.545  199.982    0.407    0.123
  523.500  107.653   10.081  200.710    0.398    0.153
  523.750  108.589   10.664  201.317    0.387    0.148
  524.000  109.962   11.220  201.829    0.380    0.138
  524.250  108.888   11.525  204.215    0.375    0.120
  524.500  106.496   11.817  205.377    0.369    0.115
  524.750  104.168   12.454  206.189    0.362    0.132
  525.000  103.219   13.928  206.687    0.353    0.171
  525.250   97.130   15.576  206.360    0.339    0.103
  525.500   91.216   21.627  204.577    0.311    0.001
  525.750   84.369   24.592  203.199    0.305   -0.003
  526.000   84.989   24.705  202.556    0.317    0.031
  526.250   88.497   23.051  201.943    0.340    0.072
  526.500   92.691   20.955  201.905    0.358    0.175
  526.750   97.701   18.188  201.578    0.364    0.189
  527.000  102.588   16.083  202.192    0.356    0.188
  527.250  105.844   15.032  204.583    0.342    0.212
  527.500  104.389   15.185  206.986    0.324    0.204
  527.750   93.088   15.976  206.961    0.287    0.166
  528.000   85.495   18.607  203.081    0.257    0.128
  528.250   76.007   20.618  201.714    0.244    0.011
  528.500   73.063   19.343  200.883    0.307    0.091
  528.750   76.557   16.821  200.533    0.334    0.117
  529.000   90.416   15.150  200.332    0.353    0.129
  529.250   95.488   13.646  200.398    0.359    0.114
  529.500   96.484   12.384  201.221    0.351    0.097
  529.750   96.672   11.660  202.255    0.346    0.107
  530.000  100.051   11.143  203.606    0.353    0.143
  530.250  104.115   10.728  205.576    0.365    0.130
  530.500  105.675   10.366  207.553    0.376    0.124
  530.750  106.046    9.925  208.999    0.381    0.132
  531.000  109.112    9.485  209.202    0.382    0.132
  531.250  109.542    9.097  209.186    0.383    0.123
  531.500  112.363    8.726  208.658    0.386    0.128
  531.750  115.300    8.324  208.133    0.391    0.150
  532.000  115.169    8.284  207.993    0.395    0.153
  532.250  114.540    8.509  207.671    0.395    0.136
  532.500  115.342    9.052  207.038    0.396    0.115
  532.750  112.380    9.866  206.593    0.400    0.113
  533.000  101.460   10.496  206.071    0.405    0.142
  533.250  101.009   11.064  205.840    0.415    0.144
  533.500  103.074   11.447  205.399    0.410    0.120
  533.750  101.182   11.736  204.864    0.392    0.109
  534.000   99.856   11.768  204.335    0.364    0.118
  534.250  103.047   11.671  203.915    0.372    0.124
  534.500  106.553   11.573  203.582    0.381    0.094
  534.750  109.371   11.540  203.671    0.391    0.101
  535.000  110.995   11.527  204.276    0.401    0.124
  535.250  107.658   11.474  205.099    0.400    0.131
  535.500  106.778   11.485  205.636    0.394    0.118
  535.750  106.826   11.516  206.343    0.380    0.139
  536.000  107.198   11.461  206.420    0.366    0.148
  536.250  110.828   11.451  206.639    0.381    0.211
  536.500  116.404   11.334  206.424    0.394    0.281
  536.750  115.271   11.218  206.606    0.396    0.195
  537.000  114.193   11.064  206.575    0.388    0.132
  537.250  113.493   11.012  206.251    0.393    0.115
  537.500  111.043   11.001  205.510    0.391    0.117
  537.750  104.441   11.113  204.250    0.387    0.112
  538.000  104.009   11.247  203.292    0.378    0.119
  538.250  105.314   11.381  202.549    0.386    0.126
  538.500  104.925   11.562  202.211    0.385    0.131
  538.750  101.213   11.680  201.776    0.378    0.122
  539.000  100.076   11.626  201.878    0.373    0.123
  539.250  100.882   11.485  201.768    0.380    0.154
  539.500  102.692   11.263  201.743    0.388    0.198
  539.750  107.642   10.946  202.141    0.394    0.189
  540.000  114.353   10.754  203.298    0.393    0.196
  540.250  111.141   10.605  203.897    0.390    0.208
  540.500  107.240   10.535  204.106    0.393    0.209
  540.750  104.726   10.623  204.191    0.400    0.183
  541.000  104.026   10.673  203.755    0.393    0.161
  541.250  100.315   10.682  203.535    0.388    0.156
  541.500  100.998   10.632  203.306    0.385    0.150
  541.750  102.182   10.583  202.584    0.397    0.134
  542.000  103.617   10.572  202.246    0.400    0.156
  542.250  108.945   10.541  202.117    0.403    0.140
  542.500  108.123   10.551  202.107    0.401    0.128
  542.750  106.666   10.639  201.884    0.395    0.108
  543.000  107.041   10.806  201.774    0.386    0.097
  543.250  105.584   11.327  201.765    0.391    0.105
  543.500  100.558   12.027  201.845    0.390    0.095
  543.750   96.973   12.631  201.955    0.383    0.141
  544.000   97.855   12.925  201.921    0.379    0.170
  544.250   98.904   13.251  201.508    0.388    0.154
  544.500   99.773   13.890  201.491    0.381    0.150
  544.750   94.369   15.279  201.459    0.371    0.127
  545.000   85.392   16.960  201.662    0.360    0.014
  545.250   81.115   19.287  202.297    0.345    0.006
  545.500   89.769   19.201  202.686    0.302    0.020
  545.750   91.831   18.481  202.664    0.330    0.048
  546.000   92.578   16.647  201.608    0.346    0.085
  546.250   92.816   15.190  200.363    0.369    0.148
  546.500   92.310   13.833  199.612    0.374    0.155
  546.750   93.554   12.459  199.162    0.379    0.171
  547.000   98.878   11.560  198.624    0.398    0.148
  547.250  104.140   11.130  198.298    0.396    0.133
