~VERSION INFORMATION
 VERS.                 2.0:   CWLS LOG ASCII STANDARD -VERSION 2.0
 WRAP.                  NO:   ONE LINE PER DEPTH STEP
~WELL INFORMATION BLOCK
#MNEM.UNIT           DATA                    DESCRIPTION OF MNEMONIC
#---------    -------------------            -------------------------------
# Generated from Intellog Unique Number	CW_73_75/WELL/1035
WELL.         ANADARKO ER AL FRANCIS 11-08   : Well_name    - WELL
LOC .         00/11-08-074-21W4/0            : Location     - LOCATION
UWI .         00/11-08-074-21W4/0            : Uwi          - UNIQUE WELL ID
ENTR.         JAYE                           : Entered      - ENTERED BY
SRVC.         SCHLUMBERGER                   : Scn          - SERVICE COMPANY
DATE.         9 FEB 79                       : Date         - LOG DATE
STRT.M        380                            : top_depth    - START DEPTH
STOP.M        595                            : bot_depth    - STOP DEPTH
STEP.M        0.25                           : increment    - STEP LENGTH
 NULL. -999.2500:NULL Value
~CURVE INFORMATION BLOCK
#MNEM UNIT       ERCB CURVE CODE    CURVE DESCRIPTION
#-----------   ------------------   ----------------------------------
DEPT.M        00 001 00 00         : DEPTH        - DEPTH
DPHI.V/V      00 890 00 00         : PHID         - DENSITY POROSITY (SANDSTONE)
NPHI.V/V      00 330 00 00         : PHIN         - NEUTRON POROSITY (SANDSTONE)
GR  .API      00 310 00 00         : GR           - GAMMA RAY
CALI.MM       00 280 01 00         : CAL          - CALIPER
ILD .OHMM     00 120 00 00         : RESD         - DEEP RESISTIVITY (DIL)
~PARAMETER INFORMATION
#MNEM.UNIT           DATA             DESCRIPTION OF MNEMONIC
#---------         -----------     ------------------------------
GL  .M        689                  : gl           - GROUND LEVEL ELEVATION
EREF.M        692.8                : kb           - ELEVATION OF DEPTH REFERENCE
DATM.M        689                  : datum        - DATUM ELEVATION
TDD .M        633                  : tdd          - TOTAL DEPTH DRILLER
RUN .         ONE                  : Run          - RUN NUMBER
ENG .         GRSY                 : Engineer     - RECORDING ENGINEER
WIT .         ROGERS               : Witness      - WITNESSED BY
BASE.         EDMONTON             : Branch       - HOME BASE OF LOGGING UNIT
MUD .         GEL CHEM             : Mud_type     - MUD TYPE
MATR.         SANDSTONE            : Logunit      - NEUTRON MATRIX
TMAX.C        32                   : BHT          - MAXIMUM RECORDED TEMPERATURE
BHTD.M        632                  : BHTDEP       - MAXIMUM RECORDED TEMPERATURE
RMT .C        16.11                : MDTP         - TEMPERATURE OF MUD
MUDD.KG/M     1090                 : MWT          - MUD DENSITY
NEUT.         1                    : NEUTRON      - NEUTRON TYPE
RESI.         0                    : RESIST       - RESISTIVITY TYPE
RM  .OHMM     4.11                 : RM           - RESISTIVITY OF MUD
RMC .OHMM     0                    : RMC          - RESISTIVITY OF MUD CAKE
RMF .OHMM     3.86                 : RMF          - RESISTIVITY OF MUD FILTRATE
SUFT.C        0                    : SUFT         - SURFACE TEMPERATURE
~A  DEPTH     PHID     PHIN       GR      CAL     RESD
# ...
  526.000    0.138    0.444   89.508  157.475    6.584
  526.250    0.109    0.448   93.643  157.567    6.524
  526.500    0.144    0.445   95.305  158.176    6.416
  526.750    0.169    0.455   90.787  160.019    6.287
  527.000    0.167    0.443   90.163  162.172    6.195
  527.250    0.135    0.446   90.404  163.397    6.160
  527.500    0.138    0.451   86.689  164.417    6.265
  527.750    0.150    0.444   83.407  165.332    6.430
  528.000    0.147    0.438   84.884  165.941    6.687
  528.250    0.140    0.433   86.547  166.033    6.825
  528.500    0.178    0.443   87.838  165.507    6.838
  528.750    0.175    0.469   88.388  164.981    6.826
  529.000    0.159    0.469   87.393  163.838    6.878
  529.250    0.171    0.460   87.016  162.180    6.955
  529.500    0.150    0.442   86.886  160.315    7.060
  529.750    0.162    0.426   87.806  158.861    7.166
  530.000    0.168    0.418   85.390  157.822    7.383
  530.250    0.189    0.420   82.355  156.575    7.578
  530.500    0.190    0.417   80.309  156.256    7.807
  530.750    0.164    0.402   79.253  156.245    8.179
  531.000    0.102    0.385   79.061  157.882    8.379
  531.250    0.093    0.396   80.167  159.829    8.537
  531.500    0.146    0.417   91.780  161.982    8.150
  531.750    0.159    0.442   94.121  163.722    7.144
  532.000    0.164    0.450   94.610  164.742    6.510
  532.250    0.152    0.436   97.385  165.349    6.250
  532.500    0.157    0.424  101.643  165.545    6.297
  532.750    0.158    0.414   99.721  164.917    6.597
  533.000    0.167    0.396   91.742  162.743    7.041
  533.250    0.178    0.387   82.465  159.745    7.473
  533.500    0.204    0.402   83.756  155.305    7.960
  533.750    0.192    0.416   85.728  152.308    8.110
  534.000    0.181    0.416   85.413  151.987    7.991
  534.250    0.161    0.399   85.097  152.493    7.772
  534.500    0.187    0.391   84.349  153.100    7.672
  534.750    0.198    0.390   82.427  154.325    7.773
  535.000    0.175    0.377   80.381  155.653    7.979
  535.250    0.148    0.357   75.987  156.982    8.436
  535.500    0.088    0.315   66.587  157.693    9.088
  535.750    0.014    0.315   57.310  157.476   10.683
  536.000   -0.013    0.272   55.943  156.332   12.723
  536.250   -0.011    0.227   59.584  155.807   13.910
  536.500    0.063    0.282   69.095  155.692   13.963
  536.750    0.111    0.354   77.741  155.889   13.405
  537.000    0.148    0.377   80.763  156.289   12.726
  537.250    0.137    0.394   82.735  156.589   11.772
  537.500    0.121    0.405   88.538  157.196   10.318
  537.750    0.115    0.416   86.801  157.392    9.247
  538.000    0.136    0.425   82.716  157.897    8.242
  538.250    0.151    0.430   88.457  158.298    7.623
  538.500    0.159    0.424   91.232  158.494    7.251
  538.750    0.153    0.419   92.461  158.688    7.092
  539.000    0.140    0.410   89.983  158.986    7.066
  539.250    0.141    0.401   90.533  159.182    7.199
  539.500    0.161    0.397   88.796  159.275    7.444
  539.750    0.134    0.418   86.194  159.471    7.698
  540.000    0.119    0.424   84.025  159.563    7.843
  540.250    0.135    0.413   84.760  159.450    7.873
  540.500    0.116    0.403   90.440  159.439    7.757
  540.750    0.146    0.420   95.996  159.738    7.489
  541.000    0.147    0.429   94.753  160.345    7.256
  541.250    0.131    0.421   92.831  161.055    7.216
  541.500    0.127    0.409   91.279  161.972    7.311
  541.750    0.129    0.391   89.296  162.477    7.519
  542.000    0.130    0.377   86.817  163.083    7.689
  542.250    0.140    0.388   93.424  163.278    7.646
  542.500    0.153    0.397   90.327  163.373    7.327
  542.750    0.175    0.395   83.461  162.847    7.113
  543.000    0.142    0.388   81.786  162.116    6.996
  543.250    0.103    0.381   82.768  161.178    7.009
  543.500    0.090    0.383   88.386  160.549    7.141
  543.750    0.134    0.394   89.060  160.229    7.235
  544.000    0.172    0.405   87.879  160.116    7.289
  544.250    0.146    0.387   87.192  160.209    7.304
  544.500    0.069    0.372   86.754  159.889    7.237
  544.750    0.115    0.411   87.736  159.570    6.883
  545.000    0.176    0.469   89.213  159.352    5.999
  545.250    0.220    0.508   90.629  159.341    4.973
  545.500    0.235    0.555   89.818  159.331    3.514
  545.750    0.212    0.547   90.554  159.217    2.945
  546.000    0.208    0.524   94.132  159.207    2.357
  546.250    0.215    0.510   99.008  159.197    2.201
  546.500    0.213    0.510   99.929  159.187    2.148
  546.750    0.202    0.512   97.204  159.485    2.176
  547.000    0.184    0.529   93.489  159.475    2.246
  547.250    0.178    0.501   91.567  159.465    2.314
  547.500    0.154    0.469   90.077  159.555    2.690
  547.750    0.153    0.451   90.689  159.546    3.295
  548.000    0.129    0.427   87.778  159.845    4.087
  548.250    0.046    0.383   89.935  160.041    4.877
  548.500    0.144    0.412   91.226  160.442    5.442
  548.750    0.142    0.443   86.461  161.872    5.830
  549.000    0.124    0.376   79.842  163.511    6.017
  549.250    0.084    0.352   80.144  165.045    6.246
  549.500    0.092    0.384   79.520  166.476    6.531
  549.750    0.116    0.386   75.744  167.393    7.074
  550.000    0.077    0.372   75.985  168.001    7.807
  550.250    0.073    0.361   74.186  168.196    8.536
  550.500    0.119    0.366   75.106  168.495    8.909
  550.750    0.131    0.378   76.460  168.381    9.043
  551.000    0.159    0.397   84.859  168.474    8.994
  551.250    0.158    0.413   89.797  168.461    8.747
  551.500    0.171    0.427   89.728  168.246    8.227
  551.750    0.128    0.426   86.879  167.926    7.211
  552.000    0.147    0.426   85.638  167.608    6.090
  552.250    0.137    0.443   82.788  167.391    5.499
  552.500    0.106    0.421   84.512  167.072    5.368
  552.750    0.118    0.416   88.523  167.061    5.489
  553.000    0.114    0.406   86.972  167.152    5.751
  553.250    0.091    0.401   86.656  166.935    6.047
  553.500    0.098    0.420   86.526  166.824    6.370
  553.750    0.093    0.407   87.632  166.194    6.563
  554.000    0.100    0.401   91.149  165.463    6.662
  554.250    0.130    0.428   90.401  164.319    6.699
  554.500    0.124    0.420   86.316  163.072    6.712
  554.750    0.099    0.412   86.186  162.239    6.541
  555.000    0.072    0.407   88.960  162.228    6.373
  555.250    0.102    0.436   92.106  163.041    6.130
  555.500    0.131    0.442   95.005  164.060    5.950
  555.750    0.140    0.441   97.038  164.977    5.681
  556.000    0.173    0.446   95.363  165.687    5.373
  556.250    0.158    0.441   95.851  166.295    5.197
  556.500    0.116    0.429   98.008  167.109    5.045
  556.750    0.136    0.430  100.535  167.509    5.074
  557.000    0.133    0.425   96.388  167.602    5.227
  557.250    0.133    0.414   91.376  167.797    5.476
  557.500    0.099    0.400   94.027  167.685    5.747
  557.750    0.106    0.397   99.830  167.570    5.932
  558.000    0.130    0.419  104.645  167.767    6.123
  558.250    0.148    0.428  106.245  167.960    6.273
  558.500    0.161    0.437  104.199  168.466    6.356
  558.750    0.160    0.451  104.625  168.661    6.416
  559.000    0.160    0.441  105.855  169.063    6.524
  559.250    0.136    0.432  106.900  169.465    6.635
  559.500    0.159    0.440  107.635  169.557    6.835
  559.750    0.176    0.429  109.174  169.753    6.977
  560.000    0.178    0.443  111.330  170.257    7.108
  560.250    0.161    0.454  112.622  170.762    7.215
  560.500    0.187    0.463  107.733  171.061    7.447
  560.750    0.153    0.441  101.238  168.475    8.280
  561.000    0.121    0.400   94.989  164.962    9.572
  561.250    0.080    0.373   87.443  163.201   12.075
  561.500    0.119    0.389   88.240  162.983   16.317
  561.750    0.147    0.398   89.531  163.798   15.958
  562.000    0.147    0.421   94.037  164.920   15.434
  562.250    0.141    0.403   99.408  165.528   14.955
