~VERSION INFORMATION
 VERS.                 2.0:   CWLS LOG ASCII STANDARD -VERSION 2.0
 WRAP.                  NO:   ONE LINE PER DEPTH STEP
~WELL INFORMATION BLOCK
#MNEM.UNIT           DATA                    DESCRIPTION OF MNEMONIC
#---------    -------------------            -------------------------------
# Generated from Intellog Unique Number	CW_82_90/WELL/3446
WELL.         NUMAC LIEGE 11-4               : Well_name    - WELL
LOC .         00/11-04-088-21W4/0            : Location     - LOCATION
UWI .         00/11-04-088-21W4/0            : Uwi          - UNIQUE WELL ID
ENTR.         MAX                            : Entered      - ENTERED BY
SRVC.         WESTERN ATLAS                  : Scn          - SERVICE COMPANY
STRT.M        110                            : top_depth    - START DEPTH
STOP.M        321                            : bot_depth    - STOP DEPTH
STEP.M        0.25                           : increment    - STEP LENGTH
 NULL. -999.2500:NULL Value
~CURVE INFORMATION BLOCK
#MNEM UNIT       ERCB CURVE CODE    CURVE DESCRIPTION
#-----------   ------------------   ----------------------------------
DEPT.M        00 001 00 00         : DEPTH        - DEPTH
ILD .OHMM     00 120 00 00         : RESD         - DEEP RESISTIVITY (DIL)
NPHI.V/V      00 330 00 00         : PHIN         - NEUTRON POROSITY (SANDSTONE)
DPHI.V/V      00 890 00 00         : PHID         - DENSITY POROSITY (SANDSTONE)
CALI.MM       00 280 01 00         : CAL          - CALIPER
GR  .API      00 310 00 00         : GR           - GAMMA RAY
~PARAMETER INFORMATION
#MNEM.UNIT           DATA             DESCRIPTION OF MNEMONIC
#---------         -----------     ------------------------------
GL  .M        532.2                : gl           - GROUND LEVEL ELEVATION
EREF.M        535.2                : kb           - ELEVATION OF DEPTH REFERENCE
DATM.M        532.2                : datum        - DATUM ELEVATION
TDD .M        322.5                : tdd          - TOTAL DEPTH DRILLER
RUN .         ONE                  : Run          - RUN NUMBER
ENG .         BILL                 : Engineer     - RECORDING ENGINEER
WIT .         JIM                  : Witness      - WITNESSED BY
MUD .         GEL                  : Mud_type     - MUD TYPE
MATR.         SANDSTONE            : Logunit      - NEUTRON MATRIX
TMAX.C        18.8                 : BHT          - MAXIMUM RECORDED TEMPERATURE
BHTD.M        322.5                : BHTDEP       - MAXIMUM RECORDED TEMPERATURE
MATR.         1                    : LOGUNIT      - NEUTRON MATRIX
RMT .C        16                   : MDTP         - TEMPERATURE OF MUD
NEUT.         1                    : NEUTRON      - NEUTRON TYPE
RESI.         0                    : RESIST       - RESISTIVITY TYPE
RMC .OHMM     5                    : RMC          - RESISTIVITY OF MUD CAKE
RMF .OHMM     3                    : RMF          - RESISTIVITY OF MUD FILTRATE
SUFT.C        -5                   : SUFT         - SURFACE TEMPERATURE
~A  DEPTH     RESD     PHIN     PHID      CAL       GR
# ...
  146.500   13.948    0.390    0.311  242.248   88.565
  146.750   13.798    0.410    0.300  246.201   84.057
  147.000   13.777    0.447    0.298  243.670   84.628
  147.250   14.012    0.444    0.300  244.127   83.112
  147.500   14.253    0.398    0.296  243.591   87.276
  147.750   14.501    0.402    0.294  242.561   90.548
  148.000   15.162    0.405    0.306  242.021   80.652
  148.250   15.714    0.400    0.326  240.483   79.433
  148.500   16.137    0.389    0.363  239.956   80.009
  148.750   16.110    0.378    0.359  238.423   79.684
  149.000   16.390    0.390    0.343  236.876   76.071
  149.250   15.910    0.409    0.344  235.352   78.742
  149.500   15.169    0.402    0.342  233.320   87.696
  149.750   14.868    0.430    0.339  232.285   81.091
  150.000   14.039    0.448    0.331  232.248   72.990
  150.250   13.510    0.448    0.334  231.712   84.338
  150.500   11.202    0.431    0.337  231.176   92.096
  150.750    9.732    0.409    0.342  231.633   93.267
  151.000   10.085    0.408    0.343  231.097   96.237
  151.250   10.642    0.440    0.340  230.068   98.312
  151.500   10.530    0.448    0.339  230.524  104.573
  151.750   10.133    0.448    0.341  229.984  106.346
  152.000    9.928    0.442    0.352  230.441   98.245
  152.250   10.288    0.432    0.356  231.410   92.837
  152.500   10.273    0.444    0.350  230.874   96.106
  152.750    9.177    0.449    0.348  230.837  103.564
  153.000    8.587    0.450    0.359  230.800  103.243
  153.250    8.261    0.450    0.369  230.763  100.824
  153.500    8.096    0.450    0.365  230.227   96.906
  153.750    8.160    0.450    0.359  230.176   96.889
  154.000    8.613    0.450    0.353  230.143   96.269
  154.250    9.525    0.440    0.342  232.106   95.648
  154.500   10.635    0.412    0.330  234.059   89.638
  154.750   12.904    0.388    0.320  234.525   88.719
  155.000   13.747    0.392    0.303  236.482   90.492
  155.250   13.726    0.371    0.299  238.440   90.769
  155.500   13.706    0.354    0.299  240.393   87.156
  155.750   13.685    0.345    0.304  243.348   91.320
  156.000   13.795    0.344    0.315  248.303   85.914
  156.250   13.903    0.372    0.322  246.769   79.905
  156.500   14.142    0.378    0.321  245.735   78.982
  156.750   14.385    0.372    0.322  245.698   84.049
  157.000   14.630    0.350    0.327  244.658   80.436
  157.250   14.882    0.375    0.322  239.131   73.532
  157.500   14.857    0.404    0.316  233.608   79.195
  157.750   13.520    0.392    0.324  232.573   87.251
  158.000   11.968    0.382    0.339  232.042   89.022
  158.250    9.128    0.415    0.346  227.009   92.593
  158.500    7.293    0.419    0.355  226.478  103.938
  158.750    6.761    0.431    0.372  224.940  106.013
  159.000    6.814    0.449    0.376  222.908   98.809
  159.250    7.535    0.448    0.374  221.873   98.485
  159.500    8.648    0.448    0.365  221.337   94.872
  159.750   10.398    0.430    0.361  220.806   70.912
  160.000   13.589    0.387    0.381  220.764   34.080
  160.250   16.491    0.351    0.394  220.732   26.578
  160.500   22.161    0.375    0.408  219.189   22.067
  160.750   27.393    0.383    0.414  218.653   29.226
  161.000   29.465    0.379    0.409  218.616   32.794
  161.250   30.528    0.346    0.412  218.584   27.982
  161.500   30.195    0.333    0.408  219.045   28.259
  161.750   29.328    0.363    0.398  217.512   31.530
  162.000   28.469    0.352    0.389  216.468   34.800
  162.250   27.396    0.330    0.382  216.435   36.573
  162.500   26.604    0.323    0.376  215.900   38.941
  162.750   25.840    0.341    0.368  215.862   38.919
  163.000   25.317    0.373    0.358  215.326   40.988
  163.250   23.915    0.366    0.358  215.289   46.056
  163.500   22.796    0.375    0.367  215.247   54.414
  163.750   22.339    0.352    0.368  215.714   57.683
  164.000   21.693    0.327    0.371  215.676   65.142
  164.250   21.262    0.359    0.363  215.136   64.817
  164.500   20.272    0.365    0.358  215.103   68.987
  164.750   17.124    0.338    0.358  216.558   74.350
  165.000   13.812    0.398    0.368  217.019   76.124
  165.250   11.453    0.443    0.364  217.476   79.393
  165.500   10.715    0.446    0.359  217.942   84.457
  165.750   11.209    0.423    0.354  218.898   86.529
  166.000   12.395    0.442    0.331  218.861   74.236
  166.250   13.963    0.390    0.345  218.824   67.927
  166.500   16.174    0.353    0.390  220.283   58.031
  166.750   18.566    0.404    0.404  221.238   45.142
  167.000   22.113    0.369    0.402  221.210   25.668
  167.250   28.106    0.389    0.404  220.171   25.346
  167.500   34.748    0.376    0.400  220.633   23.828
  167.750   36.682    0.332    0.391  223.583   25.900
  168.000   33.375    0.321    0.403  224.543   30.366
  168.250   25.462    0.332    0.396  225.503   30.045
  168.500   18.541    0.341    0.374  226.464   30.920
  168.750   14.011    0.362    0.347  226.426   52.142
  169.000   11.838    0.389    0.310  225.895   70.076
  169.250    9.725    0.448    0.319  225.355   85.015
  169.500    8.371    0.425    0.331  224.315   92.772
  169.750    7.408    0.415    0.329  223.789   93.947
  170.000    6.931    0.445    0.336  223.248   81.354
  170.250    7.182    0.450    0.347  222.712   87.918
  170.500    8.016    0.450    0.351  221.673   85.801
  170.750    9.549    0.405    0.345  221.631   67.822
  171.000   13.694    0.351    0.334  221.105   52.238
  171.250   16.615    0.372    0.334  220.066   46.228
  171.500   20.160    0.385    0.337  219.026   49.500
  171.750   20.123    0.394    0.326  218.500   59.951
  172.000   20.100    0.400    0.312  217.959   57.834
  172.250   20.257    0.392    0.297  217.419   53.323
  172.500   20.602    0.353    0.286  216.888   61.679
  172.750   19.642    0.339    0.287  216.841   59.861
  173.000   18.547    0.352    0.295  217.307   58.343
  173.250   18.175    0.368    0.324  218.272   60.116
  173.500   18.324    0.350    0.336  217.736   58.296
  173.750   20.448    0.338    0.337  217.695   53.187
  174.000   23.916    0.335    0.326  217.662   43.589
  174.250   29.562    0.341    0.300  217.625   42.669
  174.500   35.210    0.343    0.294  216.576   42.644
  174.750   38.929    0.342    0.302  216.544   36.638
  175.000   40.725    0.346    0.322  218.007   32.725
  175.250   44.214    0.349    0.320  218.469   44.074
  175.500   49.349    0.316    0.310  218.432   48.240
  175.750   44.891    0.267    0.275  220.385   53.903
  176.000   40.852    0.229    0.206  219.345   61.661
  176.250   38.934    0.258    0.200  219.313   69.720
  176.500   38.890    0.287    0.249  219.774   58.325
  176.750   38.473    0.284    0.275  218.745   37.354
  177.000   36.667    0.292    0.314  216.708   31.647
  177.250   34.629    0.325    0.335  215.175   32.223
  177.500   33.929    0.339    0.313  215.632   37.886
  177.750   34.207    0.348    0.294  216.596   39.357
  178.000   35.447    0.350    0.291  217.557   40.833
  178.250   37.075    0.335    0.277  217.520   43.202
  178.500   37.706    0.271    0.236  218.480   51.560
  178.750   38.720    0.273    0.183  222.926   52.433
  179.000   39.023    0.278    0.244  224.879   46.130
  179.250   38.241    0.283    0.279  226.846   37.428
  179.500   37.481    0.296    0.295  228.305   32.618
  179.750   36.744    0.299    0.332  230.249   26.309
  180.000   37.010    0.301    0.360  232.216   29.880
  180.250   36.962    0.330    0.383  235.171   27.165
  180.500   36.914    0.366    0.390  236.620   23.247
  180.750   37.195    0.371    0.386  238.084   23.524
  181.000   37.486    0.348    0.371  238.545   22.903
  181.250   37.779    0.341    0.367  239.012   21.385
  181.500   37.381    0.327    0.361  240.471   21.964
  181.750   37.325    0.313    0.355  242.927   25.532
  182.000   37.610    0.329    0.351  244.381   29.400
  182.250   37.560    0.347    0.360  245.845   30.275
  182.500   37.504    0.346    0.370  249.298   17.384
  182.750   37.448    0.329    0.384  243.272   18.256
