~VERSION INFORMATION
 VERS.                 2.0:   CWLS LOG ASCII STANDARD -VERSION 2.0
 WRAP.                  NO:   ONE LINE PER DEPTH STEP
~WELL INFORMATION BLOCK
#MNEM.UNIT           DATA                    DESCRIPTION OF MNEMONIC
#---------    -------------------            -------------------------------
# Generated from Intellog Unique Number	CN_94_101/WELL/2580
WELL.         PARAMOUNT RESOURCES LTD.       : Well_name    - WELL
LOC .         00/11-16-094-19W4/0            : Location     - LOCATION
UWI .         00/11-16-094-19W4/0            : Uwi          - UNIQUE WELL ID
ENTR.         JOETTE                         : Entered      - ENTERED BY
SRVC.         COMPUTALOG                     : Scn          - SERVICE COMPANY
DATE.         06/12/92                       : Date         - LOG DATE
STRT.M        125                            : top_depth    - START DEPTH
STOP.M        340                            : bot_depth    - STOP DEPTH
STEP.M        0.25                           : increment    - STEP LENGTH
 NULL. -999.2500:NULL Value
~CURVE INFORMATION BLOCK
#MNEM UNIT       ERCB CURVE CODE    CURVE DESCRIPTION
#-----------   ------------------   ----------------------------------
DEPT.M        00 001 00 00         : DEPTH        - DEPTH
GR  .API      00 310 00 00         : GR           - GAMMA RAY
NPHI.V/V      00 330 00 00         : PHIN         - NEUTRON POROSITY (SANDSTONE)
ILD .OHMM     00 120 00 00         : RESD         - DEEP RESISTIVITY (DIL)
~PARAMETER INFORMATION
#MNEM.UNIT           DATA             DESCRIPTION OF MNEMONIC
#---------         -----------     ------------------------------
GL  .M        609                  : gl           - GROUND LEVEL ELEVATION
EREF.M        612.45               : kb           - ELEVATION OF DEPTH REFERENCE
DATM.M        612.45               : datum        - DATUM ELEVATION
TDD .M        336.2                : tdd          - TOTAL DEPTH DRILLER
RUN .         ONE                  : Run          - RUN NUMBER
ENG .         BILL                 : Engineer     - RECORDING ENGINEER
WIT .         JIM                  : Witness      - WITNESSED BY
MUD .         GEL                  : Mud_type     - MUD TYPE
MATR.         SANDSTONE            : Logunit      - NEUTRON MATRIX
TMAX.C        34                   : BHT          - MAXIMUM RECORDED TEMPERATURE
BHTD.M        336.2                : BHTDEP       - MAXIMUM RECORDED TEMPERATURE
RMT .C        23.3                 : MDTP         - TEMPERATURE OF MUD
MUDD.KG/M     1130                 : MWT          - MUD DENSITY
NEUT.         1                    : NEUTRON      - NEUTRON TYPE
RESI.         0                    : RESIST       - RESISTIVITY TYPE
RM  .OHMM     4.4                  : RM           - RESISTIVITY OF MUD
RMC .OHMM     4.4                  : RMC          - RESISTIVITY OF MUD CAKE
RMF .OHMM     4.4                  : RMF          - RESISTIVITY OF MUD FILTRATE
SUFT.C        4                    : SUFT         - SURFACE TEMPERATURE
~A  DEPTH       GR     PHIN     RESD
  125.000   72.501    0.487    4.884
  125.250   75.648    0.492    4.794
  125.500   77.540    0.495    4.705
  125.750   77.563    0.497    4.617
  126.000   70.713    0.506    4.532
  126.250   71.361    0.513    4.533
  126.500   78.888    0.501    4.534
  126.750   83.285    0.509    4.535
  127.000   79.565    0.512    4.536
  127.250   76.458    0.512    4.623
  127.500   75.231    0.517    4.624
  127.750   80.878    0.529    4.713
  128.000   85.906    0.519    4.804
  128.250   86.554    0.499    4.805
  128.500   82.828    0.488    5.087
  128.750   84.107    0.484    5.284
  129.000   87.248    0.479    5.385
  129.250   91.026    0.478    5.701
  129.500   83.551    0.485    5.811
  129.750   72.946    0.505    6.151
  130.000   67.363    0.518    6.390
  130.250   67.374    0.529    6.637
  130.500   68.647    0.536    6.765
  130.750   71.794    0.528    6.640
  131.000   76.192    0.512    6.395
  131.250   84.349    0.500    6.159
  131.500   89.366    0.500    5.931
  131.750   91.263    0.509    5.713
  132.000   84.413    0.539    5.606
  132.250   81.318    0.541    5.400
  132.500   80.091    0.528    5.300
  132.750   76.359    0.530    5.301
  133.000   82.012    0.535    5.302
  133.250   88.284    0.518    5.404
  133.500   82.070    0.507    5.508
  133.750   85.205    0.513    5.942
  134.000   87.728    0.514    6.410
  134.250   64.631    0.506    7.182
  134.500   51.532    0.494    8.200
  134.750   41.558    0.464    9.362
  135.000   35.963    0.449   13.668
  135.250   31.612    0.429   14.197
  135.500   26.631    0.408   16.518
  135.750   21.030    0.400   18.859
  136.000   18.571    0.409   21.944
  136.250   21.088    0.441   21.950
  136.500   34.227    0.471   21.138
  136.750   47.997    0.489   19.602
  137.000   66.147    0.508   17.503
  137.250   75.543    0.511   11.549
  137.500   68.068    0.504   10.915
  137.750   58.099    0.499   10.122
  138.000   56.247    0.490    9.566
  138.250   53.765    0.477    9.040
  138.500   63.792    0.438    8.872
  138.750   61.316    0.427    8.874
  139.000   54.465    0.456    8.876
  139.250   48.240    0.462    8.878
  139.500   45.139    0.464    8.880
  139.750   44.537    0.463    9.051
  140.000   50.809    0.423    9.052
  140.250   56.461    0.431    8.885
  140.500   48.986    0.477    8.887
  140.750   39.011    0.481    8.559
  141.000   29.662    0.429    8.400
  141.250   22.811    0.423    8.090
  141.500   20.341    0.420    7.940
  141.750   22.858    0.426    8.729
  142.000   33.503    0.433   12.987
  142.250   43.530    0.458   19.689
  142.500   56.050    0.476   23.791
  142.750   63.577    0.500   22.484
  143.000   62.351    0.508   15.408
  143.250   56.125    0.500   14.020
  143.500   56.773    0.499   11.390
  143.750   60.545    0.501    9.610
  144.000   61.199    0.496    7.956
  144.250   58.717    0.479    7.378
  144.500   54.366    0.464    7.241
  144.750   52.515    0.474    7.665
  145.000   57.543    0.478    8.114
  145.250   58.191    0.480    8.271
  145.500   57.589    0.483    7.817
  145.750   53.863    0.497    7.387
  146.000   58.266    0.511    7.114
  146.250   59.533    0.493    6.851
  146.500   55.188    0.482    6.598
  146.750   55.841    0.477    6.355
  147.000   58.983    0.482    6.237
  147.250   59.631    0.483    6.238
  147.500   52.786    0.476    6.240
  147.750   50.929    0.474    6.241
  148.000   51.577    0.478    6.483
  148.250   54.117    0.482    6.734
  148.500   54.754    0.482    6.864
  148.750   51.033    0.475    7.405
  149.000   48.551    0.469    7.691
  149.250   51.704    0.461    8.142
  149.500   52.346    0.475    8.458
  149.750   51.120    0.480    8.459
  150.000   53.029    0.476    8.302
  150.250   51.803    0.474    7.997
  150.500   53.070    0.472    7.848
  150.750   56.842    0.474    8.308
  151.000   56.865    0.476    8.629
  151.250   48.140    0.481    9.135
  151.500   39.415    0.484    9.311
  151.750   43.193    0.473    9.313
  152.000   42.597    0.461    9.315
  152.250   37.616    0.468    9.143
  152.500   39.514    0.470    8.973
  152.750   40.161    0.462    8.974
  153.000   31.436    0.453    8.808
  153.250   25.211    0.448    8.810
  153.500   25.234    0.452    9.151
  153.750   42.765    0.468    9.687
  154.000   47.781    0.482   10.853
  154.250   57.802    0.483   12.159
  154.500   59.075    0.480   13.368
  154.750   55.355    0.483   12.164
  155.000   50.379    0.490   10.658
  155.250   44.784    0.500    9.517
  155.500   48.550    0.507    8.339
  155.750   49.829    0.498    7.589
  156.000   47.972    0.483    7.590
  156.250   46.120    0.468    8.035
  156.500   45.519    0.469    8.834
  156.750   40.549    0.469    9.351
  157.000   44.946    0.465   10.088
  157.250   49.968    0.475   10.282
  157.500   49.991    0.485   10.480
  157.750   49.389    0.480    9.905
  158.000   58.166    0.484    9.185
  158.250   61.319    0.491    8.845
  158.500   60.087    0.493    7.898
  158.750   37.615    0.477    7.324
  159.000   27.640    0.450    6.792
  159.250   30.788    0.438    6.299
  159.500   38.309    0.449    5.841
  159.750   47.080    0.453    5.626
  160.000   47.109    0.454    5.955
  160.250   40.270    0.458    6.929
  160.500   41.538    0.464    8.062
  160.750   42.805    0.473    9.559
  161.000   47.832    0.484   10.914
  161.250   50.349    0.488   11.774
  161.500   51.003    0.478   12.230
  161.750   41.659    0.460   12.466
  162.000   43.557    0.452   12.236
  162.250   34.826    0.450   12.008
  162.500   32.350    0.459   11.136
  162.750   42.370    0.470   11.351
  163.000   45.524    0.485   11.790
  163.250   46.797    0.480   16.576
  163.500   52.443    0.473   16.894
  163.750   58.715    0.481   16.581
  164.000   64.362    0.499   15.376
  164.250   71.264    0.519   14.259
  164.500   75.037    0.526   12.494
  164.750   76.940    0.514   10.742
  165.000   76.963    0.505    9.775
  165.250   77.611    0.501    8.404
  165.500   66.381    0.490    7.364
  165.750   63.905    0.487    6.829
  166.000   70.807    0.505    6.214
  166.250   76.460    0.513    5.655
  166.500   77.727    0.506    5.446
  166.750   79.630    0.499    5.345
  167.000   81.522    0.501    5.346
  167.250   85.306    0.508    5.347
  167.500   82.829    0.539    5.348
  167.750   80.978    0.554    5.350
  168.000   80.382    0.577    5.251
  168.250   80.394    0.574    5.056
  168.500   81.666    0.548    4.602
  168.750   78.565    0.530    4.431
  169.000   68.597    0.519    4.268
  169.250   69.244    0.527    4.350
  169.500   74.891    0.529    4.434
  169.750   77.420    0.525    4.694
  170.000   79.311    0.523    4.969
  170.250   78.085    0.526    5.161
  170.500   79.364    0.530    5.361
  170.750   82.511    0.524    5.569
  171.000   76.910    0.509    5.264
  171.250   69.435    0.515    5.165
  171.500   69.458    0.524    4.975
  171.750   73.231    0.536    4.791
  172.000   70.760    0.540    4.793
  172.250   67.653    0.532    4.885
  172.500   70.187    0.521    5.074
  172.750   73.335    0.513    5.474
  173.000   72.733    0.516    6.133
  173.250   74.625    0.515    6.492
  173.500   80.272    0.504    6.872
  173.750   77.176    0.489    7.138
  174.000   72.200    0.489    7.276
  174.250   70.361    0.491    7.141
  174.500   69.747    0.485    6.878
  174.750   67.896    0.468    6.750
  175.000   64.795    0.460    7.012
  175.250   63.568    0.470    7.423
  175.500   66.715    0.483    7.857
  175.750   70.499    0.491    8.638
  176.000   65.518    0.496    8.972
  176.250   63.672    0.500    9.498
  176.500   64.945    0.484    9.500
  176.750   66.212    0.491    9.150
  177.000   70.609    0.498    8.811
  177.250   78.142    0.490    8.171
  177.500   74.410    0.492    7.869
  177.750   72.559    0.511    7.437
  178.000   71.957    0.527    7.029
  178.250   76.354    0.539    6.769
  178.500   87.630    0.539    6.160
  178.750   93.283    0.534    5.932
  179.000   91.426    0.530    5.501
