~VERSION INFORMATION
 VERS.                 2.0:   CWLS LOG ASCII STANDARD -VERSION 2.0
 WRAP.                  NO:   ONE LINE PER DEPTH STEP
~WELL INFORMATION BLOCK
#MNEM.UNIT           DATA                    DESCRIPTION OF MNEMONIC
#---------    -------------------            -------------------------------
# Generated from Intellog Unique Number	CS_71_72/WELL/870
WELL.         AEC IPIATIK KIRBY              : Well_name    - WELL
LOC .         00/10-25-071-05W4/0            : Location     - LOCATION
UWI .         00/10-25-071-05W4/0            : Uwi          - UNIQUE WELL ID
ENTR.         SP                             : Entered      - ENTERED BY
SRVC.         SCHLUMBERGER                   : Scn          - SERVICE COMPANY
STRT.M        300                            : top_depth    - START DEPTH
STOP.M        520                            : bot_depth    - STOP DEPTH
STEP.M        0.25                           : increment    - STEP LENGTH
 NULL. -999.2500:NULL Value
~CURVE INFORMATION BLOCK
#MNEM UNIT       ERCB CURVE CODE    CURVE DESCRIPTION
#-----------   ------------------   ----------------------------------
DEPT.M        00 001 00 00         : DEPTH        - DEPTH
GR  .API      00 310 00 00         : GR           - GAMMA RAY
NPHI.V/V      00 330 00 00         : PHIN         - NEUTRON POROSITY (LIMESTONE)
DPHI.V/V      00 890 00 00         : PHID         - DENSITY POROSITY (LIMESTONE)
ILD .OHMM     00 120 00 00         : RESD         - DEEP RESISTIVITY (DIL)
~PARAMETER INFORMATION
#MNEM.UNIT           DATA             DESCRIPTION OF MNEMONIC
#---------         -----------     ------------------------------
GL  .M        681.4                : gl           - GROUND LEVEL ELEVATION
EREF.M        685.4                : kb           - ELEVATION OF DEPTH REFERENCE
DATM.M        681.4                : datum        - DATUM ELEVATION
TDD .M        543.5                : tdd          - TOTAL DEPTH DRILLER
RUN .         ONE                  : Run          - RUN NUMBER
ENG .         BILL                 : Engineer     - RECORDING ENGINEER
WIT .         JIM                  : Witness      - WITNESSED BY
MUD .         GEL                  : Mud_type     - MUD TYPE
MATR.         LIMESTONE            : Logunit      - NEUTRON MATRIX
TMAX.C        20                   : BHT          - MAXIMUM RECORDED TEMPERATURE
BHTD.M        543.5                : BHTDEP       - MAXIMUM RECORDED TEMPERATURE
MATR.         1                    : LOGUNIT      - NEUTRON MATRIX
RMT .C        25                   : MDTP         - TEMPERATURE OF MUD
NEUT.         1                    : NEUTRON      - NEUTRON TYPE
RESI.         0                    : RESIST       - RESISTIVITY TYPE
RMC .OHMM     0.25                 : RMC          - RESISTIVITY OF MUD CAKE
RMF .OHMM     0.25                 : RMF          - RESISTIVITY OF MUD FILTRATE
SUFT.C        15                   : SUFT         - SURFACE TEMPERATURE
~A  DEPTH       GR     PHIN     PHID     RESD
  300.000  100.580    0.506    0.264    3.387
  300.250   98.430    0.519    0.261    3.339
  300.500  100.956    0.507    0.250    3.273
  300.750  101.168    0.498    0.234    3.300
  301.000  101.806    0.522    0.239    3.365
  301.250  105.661    0.541    0.250    3.483
  301.500  108.120    0.552    0.259    3.653
  301.750  108.157    0.538    0.257    3.824
  302.000  107.459    0.529    0.254    3.950
  302.250  106.584    0.532    0.247    4.036
  302.500  103.343    0.509    0.244    4.023
  302.750  100.221    0.497    0.248    3.945
  303.000   98.189    0.505    0.250    3.868
  303.250  100.529    0.523    0.253    3.861
  303.500  102.931    0.524    0.253    3.828
  303.750  104.598    0.522    0.249    3.852
  304.000  106.270    0.530    0.245    3.965
  304.250  101.575    0.541    0.243    3.960
  304.500   99.603    0.548    0.241    3.846
  304.750   99.639    0.553    0.236    3.763
  305.000   99.065    0.521    0.235    3.737
  305.250   98.008    0.504    0.244    3.726
  305.500   97.129    0.485    0.254    3.750
  305.750  100.680    0.471    0.251    3.823
  306.000  108.175    0.476    0.244    4.041
  306.250  112.093    0.492    0.237    4.213
  306.500  104.663    0.499    0.234    4.461
  306.750   99.243    0.486    0.238    4.514
  307.000   98.846    0.511    0.245    4.067
  307.250  101.793    0.530    0.257    3.733
  307.500  102.674    0.513    0.262    3.454
  307.750   95.248    0.480    0.251    3.429
  308.000   87.938    0.385    0.271    3.530
  308.250   80.146    0.349    0.293    4.888
  308.500   69.807    0.286    0.342    6.566
  308.750   65.777    0.261    0.390    9.581
  309.000   63.262    0.335    0.412   13.543
  309.250   60.867    0.581    0.470   16.753
  309.500   61.629    0.614    0.501   18.657
  309.750   58.689    0.413    0.393   18.084
  310.000   56.236    0.256    0.361   18.268
  310.250   57.422    0.212    0.354   21.483
  310.500   58.610    0.194    0.359   26.180
  310.750   57.854    0.180    0.374   34.392
  311.000   55.644    0.170    0.384   40.446
  311.250   54.830    0.166    0.389   45.724
  311.500   56.444    0.162    0.380   48.862
  311.750   59.025    0.169    0.372   51.729
  312.000   61.235    0.181    0.362   50.423
  312.250   64.668    0.200    0.356   46.114
  312.500   67.428    0.216    0.363   40.616
  312.750   69.281    0.240    0.367   34.783
  313.000   69.619    0.260    0.368   29.785
  313.250   69.106    0.270    0.377   25.365
  313.500   70.048    0.282    0.375   21.600
  313.750   74.574    0.290    0.346   18.531
  314.000   78.550    0.298    0.320   16.170
  314.250   79.976    0.312    0.232   14.216
  314.500   77.948    0.331    0.207   12.663
  314.750   79.803    0.350    0.238   11.301
  315.000   84.513    0.374    0.272   10.086
  315.250   86.542    0.403    0.292    9.293
  315.500   85.726    0.426    0.295    8.940
  315.750   86.911    0.409    0.287    8.747
  316.000   89.066    0.395    0.285    8.672
  316.250   90.375    0.399    0.285    8.678
  316.500   90.831    0.420    0.280    8.721
  316.750   88.804    0.442    0.292    8.722
  317.000   87.259    0.426    0.303    8.680
  317.250   94.816    0.408    0.306    8.433
  317.500  100.130    0.427    0.287    8.372
  317.750  102.890    0.434    0.246    7.935
  318.000  103.468    0.420    0.228    7.632
  318.250  102.592    0.437    0.213    7.139
  318.500  100.080    0.450    0.225    6.881
  318.750   95.925    0.462    0.240    7.069
  319.000   93.776    0.421    0.252    7.456
  319.250  101.511    0.408    0.232    7.746
  319.500  103.668    0.417    0.215    7.958
  319.750   97.453    0.427    0.199    8.175
  320.000   92.998    0.433    0.202    8.387
  320.250   96.918    0.411    0.206    8.437
  320.500   98.527    0.409    0.224    8.443
  320.750   97.040    0.428    0.252    8.449
  321.000  101.326    0.439    0.276    8.439
  321.250  107.967    0.448    0.311    8.399
  321.500  111.882    0.458    0.247    8.200
  321.750  110.156    0.467    0.175    7.801
  322.000  103.093    0.452    0.128    6.622
  322.250  103.187    0.443    0.087    6.536
  322.500  122.086    0.457    0.153    6.000
  322.750  127.699    0.478    0.183    5.518
  323.000  135.437    0.496    0.203    5.046
  323.250  129.405    0.480    0.205    4.675
  323.500  125.132    0.486    0.207    4.381
  323.750  125.589    0.505    0.208    4.075
  324.000  126.960    0.518    0.205    3.869
  324.250  126.023    0.526    0.217    3.660
  324.500  121.812    0.537    0.230    3.488
  324.750  116.504    0.548    0.235    3.413
  325.000  104.586    0.539    0.235    3.579
  325.250   92.426    0.499    0.310    4.100
  325.500   75.533    0.473    0.362    5.326
  325.750   61.251    0.172    0.384    8.552
  326.000   52.245    0.164    0.397   15.602
  326.250   52.043    0.203    0.394   22.939
  326.500   52.680    0.214    0.399   26.978
  326.750   53.742    0.215    0.406   23.627
  327.000   55.544    0.228    0.407   18.079
  327.250   56.538    0.276    0.394   13.653
  327.500   58.949    0.304    0.353   11.176
  327.750   60.550    0.328    0.329   10.752
  328.000   63.919    0.344    0.328    9.560
  328.250   68.318    0.357    0.319    8.743
  328.500   75.572    0.334    0.301    8.208
  328.750   86.279    0.353    0.281    7.837
  329.000  100.510    0.394    0.265    7.770
  329.250  102.665    0.424    0.263    7.790
  329.500   94.811    0.425    0.291    7.751
  329.750   91.755    0.408    0.306    7.627
  330.000   87.967    0.398    0.282    7.448
  330.250   78.838    0.394    0.287    7.192
  330.500   71.347    0.404    0.307    6.907
  330.750   64.040    0.404    0.327    6.707
  331.000   64.316    0.390    0.341    6.611
  331.250   76.422    0.387    0.330    6.628
  331.500   83.616    0.399    0.313    6.991
  331.750   85.347    0.394    0.281    7.429
  332.000   82.046    0.375    0.206    7.777
  332.250   80.683    0.363    0.199    8.004
  332.500   74.105    0.365    0.269    8.070
  332.750   65.824    0.361    0.334    7.881
  333.000   58.153    0.342    0.352    7.400
  333.250   55.579    0.332    0.361    6.934
  333.500   55.490    0.345    0.340    6.571
  333.750   55.772    0.366    0.325    6.239
  334.000   57.622    0.384    0.318    5.980
  334.250   64.386    0.404    0.317    5.961
  334.500   70.249    0.404    0.305    6.067
  334.750   73.498    0.384    0.290    6.280
  335.000   72.555    0.371    0.272    6.687
  335.250   68.099    0.382    0.275    6.908
  335.500   65.767    0.373    0.278    7.204
  335.750   71.144    0.360    0.265    7.401
  336.000   74.328    0.357    0.248    7.504
  336.250   76.426    0.364    0.241    7.398
  336.500   76.335    0.369    0.239    7.279
  336.750   78.490    0.371    0.239    7.122
  337.000   82.532    0.370    0.242    6.942
  337.250   84.017    0.378    0.249    6.805
  337.500   78.471    0.401    0.254    6.683
  337.750   72.866    0.421    0.267    6.588
  338.000   69.861    0.414    0.275    6.494
  338.250   74.869    0.410    0.282    6.390
  338.500   81.396    0.401    0.272    6.359
  338.750   85.313    0.405    0.254    6.351
  339.000   87.223    0.417    0.245    6.404
  339.250   84.168    0.415    0.251    6.408
  339.500   83.289    0.414    0.255    6.437
  339.750   86.293    0.408    0.240    6.454
  340.000   88.570    0.403    0.230    6.470
  340.250   86.239    0.419    0.225    6.475
  340.500   81.600    0.428    0.227    6.479
  340.750   78.178    0.420    0.232    6.484
  341.000   75.660    0.409    0.232    6.500
  341.250   73.273    0.417    0.237    6.505
  341.500   70.451    0.427    0.253    6.473
  341.750   66.054    0.433    0.284    6.405
  342.000   61.782    0.435    0.303    6.211
  342.250   66.008    0.434    0.295    6.178
  342.500   72.707    0.421    0.270    6.159
  342.750   77.351    0.415    0.250    6.221
  343.000   80.419    0.418    0.240    6.343
  343.250   80.511    0.414    0.248    6.554
