~VERSION INFORMATION
 VERS.                 2.0:   CWLS LOG ASCII STANDARD -VERSION 2.0
 WRAP.                  NO:   ONE LINE PER DEPTH STEP
~WELL INFORMATION BLOCK
#MNEM.UNIT           DATA                    DESCRIPTION OF MNEMONIC
#---------    -------------------            -------------------------------
# Generated from Intellog Unique Number	CW_73_75/WELL/924
WELL.         GULF POC DROWNED 10-16         : Well_name    - WELL
LOC .         00/10-16-075-21W4/0            : Location     - LOCATION
UWI .         00/10-16-075-21W4/0            : Uwi          - UNIQUE WELL ID
ENTR.         JAYE                           : Entered      - ENTERED BY
SRVC.         SCHLUMBERGER                   : Scn          - SERVICE COMPANY
DATE.         6 MAR 78                       : Date         - LOG DATE
STRT.M        356.616                        : top_depth    - START DEPTH
STOP.M        566.866                        : bot_depth    - STOP DEPTH
STEP.M        0.25                           : increment    - STEP LENGTH
 NULL. -999.2500:NULL Value
~CURVE INFORMATION BLOCK
#MNEM UNIT       ERCB CURVE CODE    CURVE DESCRIPTION
#-----------   ------------------   ----------------------------------
DEPT.M        00 001 00 00         : DEPTH        - DEPTH
ILD .OHMM     00 120 00 00         : RESD         - DEEP RESISTIVITY (DIL)
NPHI.V/V      00 330 00 00         : PHIN         - NEUTRON POROSITY (SANDSTONE)
DPHI.V/V      00 890 00 00         : PHID         - DENSITY POROSITY (SANDSTONE)
GR  .API      00 310 00 00         : GR           - GAMMA RAY
CALI.MM       00 280 01 00         : CAL          - CALIPER
~PARAMETER INFORMATION
#MNEM.UNIT           DATA             DESCRIPTION OF MNEMONIC
#---------         -----------     ------------------------------
GL  .M        666.598              : gl           - GROUND LEVEL ELEVATION
EREF.M        670.712              : kb           - ELEVATION OF DEPTH REFERENCE
DATM.M        666.598              : datum        - DATUM ELEVATION
TDD .M        569.976              : tdd          - TOTAL DEPTH DRILLER
RUN .         ONE                  : Run          - RUN NUMBER
ENG .         VERRAIRES            : Engineer     - RECORDING ENGINEER
WIT .         BRINKMAN/ROZENHART   : Witness      - WITNESSED BY
BASE.         EDM                  : Branch       - HOME BASE OF LOGGING UNIT
MUD .         GEL CHEM             : Mud_type     - MUD TYPE
MATR.         SANDSTONE            : Logunit      - NEUTRON MATRIX
TMAX.C        17.2222              : BHT          - MAXIMUM RECORDED TEMPERATURE
BHTD.M        569.671              : BHTDEP       - MAXIMUM RECORDED TEMPERATURE
RMT .C        17.7778              : MDTP         - TEMPERATURE OF MUD
MUDD.KG/M     1116                 : MWT          - MUD DENSITY
NEUT.         1                    : NEUTRON      - NEUTRON TYPE
RESI.         0                    : RESIST       - RESISTIVITY TYPE
RM  .OHMM     4.87                 : RM           - RESISTIVITY OF MUD
RMC .OHMM     0                    : RMC          - RESISTIVITY OF MUD CAKE
RMF .OHMM     5.89                 : RMF          - RESISTIVITY OF MUD FILTRATE
SUFT.C        -17.7778             : SUFT         - SURFACE TEMPERATURE
~A  DEPTH     RESD     PHIN     PHID       GR      CAL
# ...
  466.116    4.221    0.457    0.305   71.733  157.879
  466.366    4.211    0.461    0.301   67.524  157.374
  466.616    4.218    0.454    0.299   67.040  157.183
  466.866    4.232    0.444    0.297   70.837  155.942
  467.116    4.247    0.437    0.297   74.945  155.017
  467.366    4.284    0.433    0.296   70.799  154.514
  467.616    4.323    0.440    0.295   69.324  154.953
  467.866    4.362    0.457    0.294   72.003  155.818
  468.116    4.409    0.465    0.294   76.296  156.467
  468.366    4.449    0.473    0.288   79.101  157.116
  468.616    4.497    0.480    0.270   77.438  157.766
  468.866    4.554    0.478    0.252   76.208  158.521
  469.116    4.586    0.462    0.244   75.165  159.382
  469.366    4.602    0.452    0.258   76.231  160.662
  469.616    4.609    0.461    0.261   80.340  162.053
  469.866    4.625    0.452    0.244   87.614  163.016
  470.116    4.632    0.442    0.206   92.776  163.981
  470.366    4.639    0.467    0.177   98.746  165.052
  470.616    4.663    0.461    0.195   99.378  166.125
  470.866    4.714    0.442    0.205   98.273  166.353
  471.116    4.773    0.459    0.214   98.037  166.586
  471.366    4.834    0.461    0.227   96.746  166.604
  471.616    4.932    0.443    0.215   95.826  166.206
  471.866    5.078    0.442    0.218   96.520  166.014
  472.116    5.172    0.447    0.210   97.898  165.613
  472.366    5.296    0.455    0.197   97.724  164.897
  472.616    5.343    0.474    0.183   95.190  164.287
  472.866    5.411    0.462    0.203   94.396  163.259
  473.116    5.490    0.449    0.211   95.277  162.856
  473.366    5.560    0.448    0.212   97.275  162.668
  473.616    5.724    0.449    0.214   97.658  162.266
  473.866    5.819    0.442    0.218   96.678  162.287
  474.116    5.914    0.440    0.205   97.807  162.096
  474.366    5.946    0.441    0.212  100.859  161.906
  474.616    5.965    0.445    0.201  100.871  161.612
  474.866    5.953    0.453    0.184   98.588  161.320
  475.116    5.907    0.459    0.198   97.109  161.233
  475.366    5.808    0.453    0.210   98.798  161.250
  475.616    5.700    0.450    0.203  105.015  161.271
  475.866    5.646    0.468    0.196  107.137  161.291
  476.116    5.623    0.476    0.191  106.280  161.734
  476.366    5.612    0.461    0.190  102.382  162.069
  476.616    5.662    0.451    0.193  100.532  162.612
  476.866    5.862    0.444    0.195  103.647  163.263
  477.116    6.070    0.466    0.196  104.467  163.494
  477.366    6.227    0.482    0.210  102.988  163.724
  477.616    6.329    0.474    0.211  103.621  164.060
  477.866    6.339    0.472    0.168  106.860  164.079
  478.116    6.279    0.460    0.179  109.912  164.419
  478.366    6.254    0.449    0.193  105.704  164.541
  478.616    6.275    0.445    0.205  101.310  164.352
  478.866    6.296    0.437    0.198  101.073  164.267
  479.116    6.329    0.439    0.187   99.161  164.285
  479.366    6.362    0.443    0.174   98.428  164.096
  479.616    6.372    0.459    0.170  102.723  163.905
  479.866    6.394    0.453    0.172  106.210  163.503
  480.116    6.392    0.456    0.180  104.360  163.105
  480.366    6.355    0.478    0.188   97.546  162.389
  480.616    6.283    0.466    0.197   94.205  160.833
  480.866    6.189    0.450    0.206   96.452  159.382
  481.116    6.141    0.434    0.218   96.898  158.035
  481.366    6.117    0.426    0.223   96.848  157.216
  481.616    6.194    0.446    0.195   98.907  156.920
  481.866    6.250    0.454    0.180  100.223  156.623
  482.116    6.329    0.431    0.175   98.994  156.435
  482.366    6.398    0.425    0.195   97.702  156.037
  482.616    6.432    0.433    0.200   97.032  156.057
  482.866    6.453    0.433    0.188   98.285  156.815
  483.116    6.440    0.426    0.191  100.221  157.568
  483.366    6.438    0.424    0.202   99.612  158.110
  483.616    6.424    0.437    0.210   98.320  158.553
  483.866    6.398    0.452    0.208   96.904  159.206
  484.116    6.408    0.454    0.202   96.669  159.643
  484.366    6.465    0.437    0.193   97.611  160.299
  484.616    6.511    0.441    0.184   99.237  160.629
  484.866    6.546    0.449    0.178  102.289  160.963
  485.116    6.568    0.455    0.206  100.563  161.298
  485.366    6.578    0.470    0.193   97.224  161.739
  485.616    6.588    0.470    0.182   94.877  162.394
  485.866    6.598    0.457    0.180   94.641  162.830
  486.116    6.596    0.438    0.183   96.578  163.273
  486.366    6.558    0.423    0.188   98.824  163.712
  486.616    6.520    0.415    0.193  101.814  164.047
  486.866    6.458    0.427    0.200   99.839  164.492
  487.116    6.397    0.431    0.202   95.693  164.508
  487.366    6.312    0.419    0.200   97.939  164.532
  487.616    6.241    0.427    0.200  102.978  164.548
  487.866    6.193    0.435    0.192  107.210  164.885
  488.116    6.089    0.441    0.172  104.367  164.903
  488.366    5.987    0.444    0.170   99.973  164.923
  488.616    5.897    0.449    0.176   95.766  164.733
  488.866    5.798    0.455    0.199   92.239  164.648
  489.116    5.712    0.459    0.190   95.169  164.150
  489.366    5.647    0.452    0.176   98.780  164.059
  489.616    5.708    0.466    0.179  102.391  164.078
  489.866    6.387    0.504    0.196   91.852  164.311
  490.116    7.213    0.524    0.252   84.540  164.330
  490.366    8.609    0.508    0.269   79.278  163.719
  490.616   10.372    0.490    0.280   76.186  161.744
  490.866   11.975    0.486    0.280   75.393  159.556
  491.116   12.149    0.485    0.258   74.907  158.419
  491.366   12.213    0.485    0.255   74.856  157.704
  491.616   12.346    0.483    0.251   75.551  157.831
  491.866   12.854    0.468    0.236   77.115  158.059
  492.116   13.138    0.405    0.203   79.237  158.504
  492.366   12.312    0.353    0.166   83.779  158.940
  492.616   10.501    0.361    0.158   86.894  159.698
  492.866    8.663    0.385    0.177   87.340  160.454
  493.116    7.160    0.439    0.199   86.980  161.208
  493.366    6.152    0.465    0.234   87.922  161.966
  493.616    5.607    0.466    0.261   89.796  162.405
  493.866    5.092    0.449    0.252   92.540  162.845
  494.116    4.763    0.486    0.237   95.530  162.968
  494.366    4.615    0.497    0.232   89.461  162.464
  494.616    4.495    0.488    0.246   87.733  160.277
  494.866    4.428    0.478    0.254   88.306  159.143
  495.116    4.354    0.478    0.240   89.930  158.744
  495.366    4.361    0.481    0.227   93.975  158.971
  495.616    4.449    0.480    0.226   96.285  159.518
  495.866    4.572    0.478    0.220   96.606  160.065
  496.116    4.725    0.480    0.202   96.307  160.610
  496.366    4.839    0.473    0.207   95.885  161.262
  496.616    4.946    0.459    0.208   95.772  161.909
  496.866    5.216    0.453    0.209   94.605  162.561
  497.116    5.481    0.459    0.204   92.942  162.580
  497.366    5.834    0.470    0.211   90.348  159.449
  497.616    6.223    0.450    0.219   86.945  157.787
  497.866    6.747    0.427    0.228   80.999  157.491
  498.116    7.276    0.408    0.227   74.060  158.355
  498.366    8.066    0.380    0.150   69.107  159.107
  498.616    9.954    0.333    0.067   64.712  160.178
  498.866   12.396    0.286    0.043   59.697  161.459
  499.116   14.155    0.239   -0.014   55.365  162.846
  499.366   12.855    0.237    0.004   63.507  163.813
  499.616   10.546    0.279    0.041   74.876  164.570
  499.866    9.543    0.345    0.145   80.597  164.696
  500.116    8.618    0.420    0.194   82.597  164.292
  500.366    7.698    0.429    0.200   82.855  159.268
  500.616    6.481    0.429    0.183   83.367  156.767
  500.866    6.611    0.428    0.200   84.369  156.157
  501.116    7.038    0.429    0.213   87.359  156.176
  501.366    7.451    0.410    0.201   85.386  157.355
  501.616    7.531    0.398    0.184   81.984  158.847
  501.866    7.176    0.382    0.169   84.726  159.915
  502.116    6.737    0.391    0.164   89.208  161.200
  502.366    6.372    0.412    0.181   91.703  161.533
