~V
VERS. 2.00: Ver 2.00
WRAP. NO:
VEND. PRIZM:GeoGraphix
~W
STRT.M 45.7200:START DEPTH
STOP.M 281.6352:STOP DEPTH
STEP.M 0.3048:STEP
NULL. -999.2500:NULL VALUE
WELL. NUMAC SURMONT :WELL
COMP. :COMPANY
UWI. 00_10-14-082-06W4_0:UNIQUE WELL ID
FLD. :FIELD
CNTY. :COUNTY
STAT. :STATE
CTRY. :COUNTRY
PDAT. :PERMANENT DATUM
LMF. :LOG MEASURED FROM
DMF. :DRILLING MEASURED FROM
LOC1. 10-14-082-06W4:LOCATION LINE 1
LOC2. :LOCATION LINE 2
LOC3. :LOCATION LINE 3
SEC. :SECTION
TWP. :TOWNSHIP
RAN. :RANGE
SRVC. DRESSER ATLAS:Logging Company
BASE. :Logging Unit Location
ENG. BILL:Logging Engineer
WITN. JIM:Witnessed By
DATE. 26 - MAR - 1973:Date
RUN. ONE:Run No.
MUD_TYPE. GEL:Type Fluid in Hole
MUDS. :Source of Mud Sample
RMFS. :Source of Mud Filtrate
RMCS. :Source of Mud Cake
LOC. :LOCATION
~C
DEPT.M :DEPTH
PHID. :Density Pososity
NPHI. :PHIN         - NEUTRON POROSITY (LIMESTONE)
RHOB.KG/M3 :DENS         - BULK DENSITY
GR.API :GR           - GAMMA RAY
ILD.OHMM :RESD         - DEEP RESISTIVITY (DIL)
~P
EKB. 488.6000:ELEVATION OF KELLY BUSHING
EDF. -999.2500:ELEVATION OF DRILLING FLOOR
EGL. 486.7660:ELEVATION OF GROUND LEVEL
EPD. -999.2500:ELEVATION OF PERMANENT DATUM
APD. -999.2500:LMF DISTANCE ABOVE PERMANENT DATUM
LAT. 56.1093:LATITUDE OF WELL LOCATION
LONG. 110.8227:LONGITUDE OF WELL LOCATION
TDD. 278.8920:Total Depth Driller
TDL. -999.2500:Total Depth Logger
LCSG1. -999.2500:Depth of Casing from Logger
CSIZE. -999.2500:Casing Size
CWT. -999.2500:Casing Weight
BS. -999.2500:Bit Size
TLI. 45.7200:Top Logged Interval
BLI. 281.6352:Bottom Logged Interval
MRT. 16.6667:Maximum Recorded Temperature
WMUD. -999.2500:Drilling Mud Density
DFV. -999.2500:Drilling Mud Viscosity
PH. -999.2500:Drilling Mud pH
DFL. -999.2500:Drilling Mud Fluid Loss
RM. -999.2500:Resistivity of Drilling Fluid
RMT. -999.2500:Measured Temp. of Drilling Fluid
RMF. 0.2500:Resistivity of Drilling Fluid Filtrate
RMFT. -999.2500:Measured Temp. of Drilling Fluid Filtrate
RMC. 0.2500:Resistivity of Mud Cake
RMCT. -999.2500:Measured Temp. of Mud Cake
PHImax.V/V 0.3900:Maximum allowable Porosity
RwBnd.OHMM 0.1500:Bound Water Resistivity
RhoHy.KG/MT 1000.0000:Hydrocarbon Bulk density
SwCutoff.V/V 0.7000:Water Saturation Cutoff
PHINsh.V/V 0.4800:New Description
Rw.OHMM 1.0000:Formation Water Resistivity
Rshl.OHMM 5.0000:Resistivity shale
Trw.DEGC 25.0000:Rw measured at Lab conditions
ShaleCutoff.V/V 0.4000:New Description
GRcln.API 45.0000:Gamma Ray clean
RhoM.KG/MT 2650.0000:Bulk Density Matrix
GRshl.API 90.0000:Gamma Ray shale
m. 2.0000:Archie "m"
n. 2.0000:Archie "n"
GasTol.V/V 0.0500:Gas Tollerance
BHTemp.DEGC 25.0000:Bottom Hole Temperature
BHTDepth.M 1000.0000:Bottom Hole Depth
PHIDsh.US/MT 0.1800:New Description
a. 1.0000:Archie "a"
Gas Tol.V/V 0.0500:Gas Tollerance
RhoF.KG/MT 1000.0000:Bulk Density Fluid
RhoShl.KG/MT 2300.0000:Bulk Density Shale
TarCutoff.V/V 0.0300:New Description
SurfTemp.DEGC 10.0000:New Description
HIshl.V/V 0.4000:Neutron Hydrogen Index shale
MATR. 1.0000:
NEUT. 0.0000:
BHTD.M 278.8920:
DATM.M 488.5940:
NULL. -999.2500:
RESI. 0.0000:
SUFT.C 15.0000:
~A
   45.7200     0.2565     0.3880  2226.7300    91.3430     1.1830 
   46.0248     0.2578     0.3780  2224.7100    90.7390     1.0780 
   46.3296     0.2577     0.3730  2224.7200    88.9260     1.0200 
   46.6344     0.2541     0.3720  2230.7900    88.9300     1.0200 
   46.9392     0.2467     0.3720  2242.9500    89.5380     4.0620 
   47.2440     0.2406     0.3740  2253.0701    90.1460     4.6320 
   47.5488     0.2271     0.3760  2275.3501    90.7540     4.4630 
   47.8536     0.2258     0.3840  2277.3799    90.1510     4.1430 
   48.1584     0.2344     0.3900  2263.2200    88.9430     3.6360 
   48.4632     0.2381     0.3940  2257.1499    86.5250     3.5050 
   48.7680     0.2430     0.3930  2249.0601    85.9220     3.6390 
   49.0728     0.2418     0.3820  2251.0901    85.9250     3.5720 
   49.3776     0.2283     0.3700  2273.3601    85.3220     3.1360 
   49.6824     0.2295     0.3420  2271.3401    78.0610     3.0220 
   49.9872     0.2307     0.3200  2269.3201    71.4070     3.2570 
   50.2920     0.2123     0.2960  2299.7000    65.9620     2.8590 
   50.5968     0.2013     0.2840  2317.9199    62.9380     2.6540 
   50.9016     0.2000     0.2950  2319.9500    72.0200     2.7050 
   51.2064     0.2197     0.3160  2287.5701    80.4970     3.0840 
   51.5112     0.1878     0.3400  2340.2100    83.5260     3.5820 
   51.8160     0.1841     0.3500  2346.2900    84.1330     3.2030 
   52.1208     0.2196     0.3480  2287.5901    82.9260     2.9180 
   52.4256     0.2245     0.3400  2279.5000    75.6650     4.0100 
   52.7304     0.2294     0.3160  2271.4099    65.3790     7.7110 
   53.0352     0.2405     0.2980  2253.1899    61.7500     6.8960 
   53.3400     0.2442     0.2940  2247.1299    56.9110     5.6170 
   53.6448     0.2368     0.2940  2259.2800    55.7030     4.4910 
   53.9496     0.2245     0.2990  2279.5300    59.3370     3.5240 
   54.2544     0.2380     0.2990  2257.2700    68.4180     2.8180 
   54.5592     0.2589     0.2960  2222.8601    78.1050     2.7660 
   54.8640     0.2822     0.2940  2184.3999    84.1610     3.3980 
   55.1688     0.2883     0.2950  2174.2900    87.1900     5.7340 
   55.4736     0.3006     0.3010  2154.0500    89.6140     8.8120 
   55.7784     0.2920     0.3050  2168.2300    93.2480    11.8860 
   56.0832     0.2503     0.3070  2237.0601    97.4880    12.1120 
   56.3880     0.2392     0.3130  2255.2800    99.3060    11.6730 
   56.6928     0.2380     0.3190  2257.3201    95.0710     8.3430 
   56.9976     0.2331     0.3260  2265.4199    88.4160     8.0390 
   57.3024     0.2245     0.3170  2279.6001    82.9720     8.8290 
   57.6072     0.2269     0.3050  2275.5500    80.5530     7.4660 
   57.9120     0.2110     0.3040  2301.8799    77.5300     7.3300 
   58.2168     0.2098     0.3020  2303.9099    74.5060     6.9320 
   58.5216     0.2282     0.3000  2273.5500    74.5090     4.7740 
   58.8264     0.2637     0.2990  2214.8501    78.7490     4.7750 
   59.1312     0.2821     0.2990  2184.4900    80.5680     5.8660 
   59.4360     0.3103     0.2970  2137.9299    79.9650    10.2750 
   59.7408     0.3152     0.2850  2129.8401    78.7570    12.1580 
   60.0456     0.3103     0.2740  2137.9500    73.9180    11.4990 
   60.3504     0.3017     0.2760  2152.1201    70.8940    10.6760 
   60.6552     0.2932     0.2880  2166.3000    67.8710    11.0850 
   60.9600     0.2563     0.2990  2227.0400    65.4520    10.6820 
   61.2648     0.2330     0.3020  2265.5100    70.9020    10.6850 
   61.5696     0.2490     0.3050  2239.2000    78.7730    11.5180 
   61.8744     0.2576     0.3010  2225.0300    81.8020    10.1090 
   62.1792     0.2661     0.2950  2210.8701    79.3840     9.5620 
   62.4840     0.2563     0.2890  2227.0701    77.5700     9.7450 
   62.7888     0.2220     0.2900  2283.7600    69.7050    10.1190 
   63.0936     0.2048     0.2890  2312.1001    68.4970     9.9350 
   63.3984     0.1999     0.2860  2320.2100    70.9210     8.4010 
   63.7032     0.2109     0.2850  2301.9900    71.5290     7.3730 
   64.0080     0.2281     0.2830  2273.6599    71.5320     7.9480 
   64.3128     0.2489     0.2850  2239.2500    74.5610     8.5670 
   64.6176     0.2649     0.2890  2212.9399    73.3530     9.2340 
   64.9224     0.2710     0.2910  2202.8201    72.1450    10.9280 
   65.2272     0.2759     0.2950  2194.7300    79.4110    10.7290 
   65.5320     0.2563     0.3020  2227.1299    85.4660    10.5340 
   65.8368     0.2710     0.3140  2202.8401    92.7320     9.5980 
   66.1416     0.2759     0.3220  2194.7500    98.7870     9.4230 
   66.4464     0.2612     0.3080  2219.0500    99.3940    10.1580 
   66.7512     0.2342     0.3050  2263.5901    96.9760    10.3530 
   67.0560     0.2366     0.3020  2259.5500    90.3220    10.1650 
   67.3608     0.2231     0.3020  2281.8201    84.8770     9.7940 
   67.6656     0.2072     0.3000  2308.1499    79.4320     9.2640 
   67.9704     0.1937     0.2970  2330.4199    73.9880     8.5990 
   68.2752     0.1888     0.2960  2338.5200    69.7540     7.8350 
   68.5800     0.1900     0.2960  2336.5100    57.0460     6.2640 
   68.8848     0.2072     0.2960  2308.1699    51.6020     6.7520 
   69.1896     0.2280     0.2990  2273.7600    56.4460     9.8130 
   69.4944     0.2513     0.3050  2235.3101    59.4750    10.7760 
   69.7992     0.2759     0.3240  2194.8301    63.1100    10.7800 
   70.1040     0.2992     0.3450  2156.3701    66.7450    10.3880 
   70.4088     0.3274     0.3090  2109.8201    66.1410    10.3910 
   70.7136     0.3090     0.3030  2140.1899    61.9080    10.7900 
   71.0184     0.3237     0.3020  2115.8999    63.1200    10.9960 
   71.3232     0.3421     0.3010  2085.5400    64.9390     7.7150 
   71.6280     0.3053     0.2940  2146.2800    66.7580     9.3010 
   71.9328     0.2820     0.2800  2184.7500    72.2070    11.2140 
   72.2376     0.3163     0.2780  2128.0701    83.1040    11.2170 
   72.5424     0.3114     0.2780  2136.1799    86.7390    11.6480 
   72.8472     0.2930     0.2800  2166.5500    89.1630    12.5560 
   73.1520     0.2611     0.2900  2219.1899    88.5600    12.7970 
   73.4568     0.2402     0.3010  2253.6101    84.9310    12.3320 
   73.7616     0.2280     0.3020  2273.8601    83.1180    11.2360 
   74.0664     0.2157     0.3010  2294.1101    83.1210    10.2370 
   74.3712     0.1973     0.3060  2324.4800    84.3350     9.5030 
   74.6760     0.1912     0.3070  2334.6001    84.9420     8.9890 
   74.9808     0.1875     0.3010  2340.6899    84.9450     9.5100 
   75.2856     0.1960     0.2960  2326.5200    84.9480    10.0600 
   75.5904     0.2476     0.3050  2241.5000    84.3450    11.0490 
   75.8952     0.2611     0.3170  2219.2400    83.1380    11.2600 
   76.2000     0.2917     0.3150  2168.6399    81.3240    11.4750 
   76.5048     0.3015     0.3090  2152.4500    75.8790    11.6970 
   76.8096     0.3077     0.3070  2142.3401    69.2240    11.9210 
   77.1144     0.3028     0.3090  2150.4399    71.0430    11.9240 
   77.4192     0.3015     0.3180  2152.4700    71.0450    11.0690 
   77.7240     0.3040     0.3140  2148.4299    66.2070     9.8990 
   78.0288     0.3003     0.2810  2154.5100    62.5780     7.7680 
   78.3336     0.3199     0.2780  2122.1201    61.9750     8.2180 
   78.6384     0.3285     0.2830  2107.9600    68.0300    10.2850 
   78.9432     0.2524     0.2860  2233.4700    75.9010    11.9460 
   79.2480     0.2365     0.2870  2259.8000    77.1150     9.2010 
   79.5528     0.2291     0.2830  2271.9500    76.5110     8.2290 
   79.8576     0.2119     0.2760  2300.3000    77.7250     9.7370 
   80.1624     0.2046     0.2740  2312.4500    80.7540    10.3010 
   80.4672     0.2279     0.2740  2273.9900    78.9410    10.3050 
   80.7720     0.2463     0.2750  2243.6299    75.3120    10.3070 
   81.0768     0.2475     0.2860  2241.6201    71.0780    10.7040 
   81.3816     0.2475     0.2930  2241.6201    71.6860    11.1160 
   81.6864     0.2487     0.2920  2239.6001    75.3200    11.7590 
   81.9912     0.2549     0.2900  2229.4900    72.2970    11.7630 
