~VERSION INFORMATION
 VERS.                 2.0:   CWLS LOG ASCII STANDARD -VERSION 2.0
 WRAP.                  NO:   ONE LINE PER DEPTH STEP
~WELL INFORMATION BLOCK
#MNEM.UNIT           DATA                    DESCRIPTION OF MNEMONIC
#---------    -------------------            -------------------------------
# Generated from Intellog Unique Number	CN_94_101/WELL/3423
WELL.         PARAMOUNT RESOURCES LTD.       : Well_name    - WELL
LOC .         00/11-16-095-18W4/0            : Location     - LOCATION
UWI .         00/11-16-095-18W400            : Uwi          - UNIQUE WELL ID
ENTR.         JOETTE                         : Entered      - ENTERED BY
SRVC.         COMPUTALOG                     : Scn          - SERVICE COMPANY
DATE.         07/27/92                       : Date         - LOG DATE
STRT.M        175                            : top_depth    - START DEPTH
STOP.M        345                            : bot_depth    - STOP DEPTH
STEP.M        0.25                           : increment    - STEP LENGTH
 NULL. -999.2500:NULL Value
~CURVE INFORMATION BLOCK
#MNEM UNIT       ERCB CURVE CODE    CURVE DESCRIPTION
#-----------   ------------------   ----------------------------------
DEPT.M        00 001 00 00         : DEPTH        - DEPTH
ILD .OHMM     00 120 00 00         : RESD         - DEEP RESISTIVITY (DIL)
GR  .API      00 310 00 00         : GR           - GAMMA RAY
NPHI.V/V      00 330 00 00         : PHIN         - NEUTRON POROSITY (SANDSTONE)
DPHI.V/V      00 890 00 00         : PHID         - DENSITY POROSITY (SANDSTONE)
~PARAMETER INFORMATION
#MNEM.UNIT           DATA             DESCRIPTION OF MNEMONIC
#---------         -----------     ------------------------------
GL  .M        623.61               : gl           - GROUND LEVEL ELEVATION
EREF.M        626.61               : kb           - ELEVATION OF DEPTH REFERENCE
DATM.M        626.61               : datum        - DATUM ELEVATION
TDD .M        346.8                : tdd          - TOTAL DEPTH DRILLER
RUN .         ONE                  : Run          - RUN NUMBER
ENG .         BILL                 : Engineer     - RECORDING ENGINEER
WIT .         JIM                  : Witness      - WITNESSED BY
MUD .         GEL                  : Mud_type     - MUD TYPE
MATR.         SANDSTONE            : Logunit      - NEUTRON MATRIX
TMAX.C        25                   : BHT          - MAXIMUM RECORDED TEMPERATURE
BHTD.M        346.8                : BHTDEP       - MAXIMUM RECORDED TEMPERATURE
RMT .C        17.8                 : MDTP         - TEMPERATURE OF MUD
MUDD.KG/M     1120                 : MWT          - MUD DENSITY
NEUT.         1                    : NEUTRON      - NEUTRON TYPE
RESI.         0                    : RESIST       - RESISTIVITY TYPE
RM  .OHMM     3.5                  : RM           - RESISTIVITY OF MUD
RMC .OHMM     3                    : RMC          - RESISTIVITY OF MUD CAKE
RMF .OHMM     3                    : RMF          - RESISTIVITY OF MUD FILTRATE
SUFT.C        4                    : SUFT         - SURFACE TEMPERATURE
~A  DEPTH     RESD       GR     PHIN     PHID
# ...
  218.500    4.883   96.194    0.505    0.193
  218.750    4.962  101.597    0.483    0.192
  219.000    4.946  101.446    0.502    0.219
  219.250    4.741  100.103    0.533    0.245
  219.500    4.288  103.034    0.523    0.264
  219.750    3.878  106.606    0.490    0.258
  220.000    3.790  108.286    0.444    0.250
  220.250    4.004  105.143    0.428    0.245
  220.500    4.397   97.055    0.467    0.240
  220.750    5.017   92.660    0.512    0.229
  221.000    5.413   88.235    0.500    0.223
  221.250    5.718   89.945    0.450    0.231
  221.500    6.280   92.296    0.432    0.191
  221.750    6.506   94.616    0.462    0.187
  222.000    6.479   94.465    0.447    0.239
  222.250    6.097   91.901    0.445    0.268
  222.500    5.617   89.338    0.443    0.260
  222.750    5.080   90.438    0.497    0.245
  223.000    4.776   93.979    0.513    0.242
  223.250    4.319   95.109    0.477    0.259
  223.500    3.906   94.378    0.446    0.257
  223.750    3.670   91.814    0.405    0.244
  224.000    3.660   89.831    0.408    0.229
  224.250    4.020   92.121    0.466    0.230
  224.500    4.502   93.892    0.450    0.233
  224.750    5.041   97.434    0.447    0.226
  225.000    5.330  101.586    0.441    0.219
  225.250    5.741  102.686    0.428    0.223
  225.500    5.716  103.725    0.427    0.225
  225.750    5.697  103.664    0.417    0.228
  226.000    5.678  103.543    0.417    0.223
  226.250    5.659  105.253    0.409    0.219
  226.500    5.644  106.963    0.463    0.215
  226.750    5.620  109.894    0.456    0.212
  227.000    5.597  112.245    0.473    0.209
  227.250    5.587  109.071    0.464    0.211
  227.500    5.356  102.784    0.476    0.211
  227.750    5.231  105.135    0.498    0.214
  228.000    5.113  108.097    0.502    0.217
  228.250    4.993  110.417    0.460    0.219
  228.500    4.876  109.075    0.446    0.223
  228.750    4.771  102.788    0.434    0.224
  229.000    4.754  100.225    0.434    0.215
  229.250    4.742  102.576    0.451    0.225
  229.500    4.815  104.866    0.441    0.231
  229.750    4.798  105.966    0.434    0.236
  230.000    4.786  107.035    0.449    0.240
  230.250    4.770  106.364    0.465    0.231
  230.500    4.750  102.580    0.481    0.230
  230.750    4.827   95.713    0.486    0.229
  231.000    5.001   99.284    0.457    0.206
  231.250    4.790  109.542    0.445    0.137
  231.500    4.421  111.893    0.435    0.173
  231.750    4.076  112.382    0.457    0.190
  232.000    3.833  112.260    0.491    0.204
  232.250    3.743  113.360    0.490    0.223
  232.500    3.737  118.733    0.496    0.230
  232.750    3.724  124.717    0.503    0.229
  233.000    3.784  126.457    0.491    0.223
  233.250    4.076  123.223    0.453    0.213
  233.500    4.302  118.858    0.447    0.206
  233.750    4.372  104.055    0.464    0.201
  234.000    4.273  100.851    0.492    0.208
  234.250    4.014  108.086    0.522    0.203
  234.500    3.855  115.290    0.537    0.162
  234.750    3.692  118.832    0.395    0.103
  235.000    3.674  116.299    0.528    0.160
  235.250    3.664  108.211    0.569    0.195
  235.500    3.727  101.344    0.602    0.217
  235.750    3.937  104.275    0.573    0.226
  236.000    4.237  108.427    0.566    0.235
  236.250    4.393  113.220    0.549    0.226
  236.500    4.464  116.761    0.500    0.224
  236.750    4.364  118.502    0.456    0.214
  237.000    4.183  117.770    0.495    0.211
  237.250    4.089  115.757    0.536    0.215
  237.500    4.072  117.497    0.536    0.217
  237.750    4.061  118.627    0.499    0.215
  238.000    4.127  119.727    0.484    0.217
  238.250    4.190  116.523    0.458    0.222
  238.500    4.183  110.907    0.454    0.227
  238.750    4.330  107.703    0.470    0.229
  239.000    4.486  112.465    0.470    0.226
  239.250    4.648  112.954    0.462    0.230
  239.500    4.727  110.391    0.446    0.232
  239.750    4.800  106.607    0.417    0.226
  240.000    4.783  104.044    0.426    0.224
  240.250    4.767  103.312    0.419    0.234
  240.500    4.664  106.823    0.408    0.237
  240.750    4.471  105.481    0.431    0.224
  241.000    4.286  102.948    0.456    0.216
  241.250    4.189   97.942    0.528    0.199
  241.500    4.095  104.537    0.548    0.180
  241.750    3.996  111.741    0.527    0.135
  242.000    3.909  114.092    0.501    0.096
  242.250    3.821  114.581    0.512    0.137
  242.500    3.731  117.482    0.535    0.182
  242.750    3.866  114.919    0.538    0.216
  243.000    4.087  111.775    0.488    0.217
  243.250    4.403  106.129    0.512    0.221
  243.500    4.655  110.861    0.489    0.226
  243.750    4.377  112.541    0.464    0.234
  244.000    3.951  112.481    0.500    0.225
  244.250    3.938  111.749    0.526    0.217
  244.500    3.928  109.185    0.503    0.218
  244.750    4.310  106.012    0.470    0.226
  245.000    4.651  102.838    0.461    0.228
  245.250    5.108   95.940    0.485    0.221
  245.500    5.822   92.186    0.481    0.215
  245.750    5.926   87.761    0.478    0.211
  246.000    6.022   91.303    0.501    0.206
  246.250    5.768   93.624    0.481    0.209
  246.500    5.529   94.723    0.434    0.229
  246.750    5.305   93.991    0.414    0.244
  247.000    4.984   92.039    0.432    0.248
  247.250    4.777  108.461    0.505    0.167
  247.500    4.580  121.801    0.459    0.132
  247.750    4.302  128.365    0.382    0.079
  248.000    4.205  128.213    0.336    0.077
  248.250    4.188  126.291    0.481    0.144
  248.500    4.177  123.758    0.520    0.181
  248.750    4.248  123.026    0.558    0.199
  249.000    4.317  125.957    0.523    0.191
  249.250    4.055  130.079    0.502    0.175
  249.500    4.041  131.239    0.472    0.161
  249.750    4.110  130.477    0.451    0.152
  250.000    4.255  127.303    0.478    0.169
  250.250    4.162  124.129    0.512    0.178
  250.500    3.913  121.566    0.503    0.189
  250.750    3.471  120.193    0.498    0.209
  251.000    3.137  118.241    0.514    0.226
  251.250    2.780  117.478    0.546    0.228
  251.500    2.561  118.548    0.589    0.229
  251.750    2.552  119.708    0.474    0.233
  252.000    2.546  120.167    0.455    0.240
  252.250    2.587  118.855    0.487    0.244
  252.500    2.683  112.018    0.545    0.246
  252.750    3.002   94.742    0.572    0.249
  253.000    3.302   83.602    0.572    0.242
  253.250    4.075   74.933    0.548    0.234
  253.500    4.931   74.171    0.481    0.247
  253.750    6.332   77.713    0.440    0.276
  254.000    7.973   81.255    0.400    0.293
  254.250    9.633   82.995    0.414    0.296
  254.500    9.432   81.622    0.418    0.286
  254.750    8.690   79.059    0.389    0.282
  255.000    8.338   80.159    0.385    0.270
  255.250    7.993   83.700    0.492    0.260
  255.500    8.444   86.051    0.517    0.282
  255.750    9.455   88.983    0.508    0.293
  256.000   10.570   92.555    0.517    0.283
  256.250   10.552   96.707    0.484    0.254
  256.500    9.921   99.607    0.435    0.246
  256.750    8.631  101.318    0.431    0.235
  257.000    7.077  101.227    0.430    0.217
  257.250    6.156  100.464    0.390    0.225
  257.500    5.456  104.067    0.379    0.229
  257.750    5.653  111.271    0.410    0.228
  258.000    5.972  116.064    0.452    0.223
  258.250    6.068  120.827    0.423    0.217
  258.500    5.822  123.728    0.377    0.215
  258.750    5.465  121.805    0.376    0.210
  259.000    5.138  110.665    0.407    0.210
  259.250    5.323   94.640    0.447    0.217
  259.500    5.966   85.331    0.467    0.227
  259.750    6.432   79.685    0.473    0.242
  260.000    7.488   74.069    0.480    0.255
  260.250    8.377   69.674    0.428    0.260
  260.500    9.193   69.553    0.403    0.218
  260.750    9.719   72.454    0.391    0.199
  261.000   10.079   75.385    0.400    0.210
  261.250   10.647   79.567    0.403    0.246
  261.500   10.620   84.269    0.425    0.259
  261.750    9.597   86.040    0.443    0.303
