~VERSION INFORMATION
 VERS.                 2.0:   CWLS LOG ASCII STANDARD -VERSION 2.0
 WRAP.                  NO:   ONE LINE PER DEPTH STEP
~WELL INFORMATION BLOCK
#MNEM.UNIT           DATA                    DESCRIPTION OF MNEMONIC
#---------    -------------------            -------------------------------
# Generated from Intellog Unique Number	CW_79_81/WELL/913
WELL.         HOMESTEAD ET AL WEAVER         : Well_name    - WELL
LOC .         00/11-25-080-01W5/0            : Location     - LOCATION
UWI .         00/11-25-080-01W5/0            : Uwi          - UNIQUE WELL ID
ENTR.         MAX                            : Entered      - ENTERED BY
SRVC.         SCHLUMBERGER                   : Scn          - SERVICE COMPANY
STRT.M        260                            : top_depth    - START DEPTH
STOP.M        505                            : bot_depth    - STOP DEPTH
STEP.M        0.25                           : increment    - STEP LENGTH
 NULL. -999.2500:NULL Value
~CURVE INFORMATION BLOCK
#MNEM UNIT       ERCB CURVE CODE    CURVE DESCRIPTION
#-----------   ------------------   ----------------------------------
DEPT.M        00 001 00 00         : DEPTH        - DEPTH
ILD .OHMM     00 120 00 00         : RESD         - DEEP RESISTIVITY (DIL)
NPHI.V/V      00 330 00 00         : PHIN         - NEUTRON POROSITY (SANDSTONE)
DPHI.V/V      00 890 00 00         : PHID         - DENSITY POROSITY (SANDSTONE)
CALI.MM       00 280 01 00         : CAL          - CALIPER
GR  .API      00 310 00 00         : GR           - GAMMA RAY
~PARAMETER INFORMATION
#MNEM.UNIT           DATA             DESCRIPTION OF MNEMONIC
#---------         -----------     ------------------------------
GL  .M        580                  : gl           - GROUND LEVEL ELEVATION
EREF.M        583.67               : kb           - ELEVATION OF DEPTH REFERENCE
DATM.M        580                  : datum        - DATUM ELEVATION
TDD .M        515                  : tdd          - TOTAL DEPTH DRILLER
RUN .         ONE                  : Run          - RUN NUMBER
ENG .         BILL                 : Engineer     - RECORDING ENGINEER
WIT .         JIM                  : Witness      - WITNESSED BY
MUD .         GEL                  : Mud_type     - MUD TYPE
MATR.         SANDSTONE            : Logunit      - NEUTRON MATRIX
TMAX.C        24                   : BHT          - MAXIMUM RECORDED TEMPERATURE
BHTD.M        515                  : BHTDEP       - MAXIMUM RECORDED TEMPERATURE
RMT .C        16                   : MDTP         - TEMPERATURE OF MUD
MUDD.KG/M     1100                 : MWT          - MUD DENSITY
NEUT.         1                    : NEUTRON      - NEUTRON TYPE
RESI.         0                    : RESIST       - RESISTIVITY TYPE
RM  .OHMM     6.62                 : RM           - RESISTIVITY OF MUD
RMC .OHMM     0                    : RMC          - RESISTIVITY OF MUD CAKE
RMF .OHMM     4.5                  : RMF          - RESISTIVITY OF MUD FILTRATE
SUFT.C        4                    : SUFT         - SURFACE TEMPERATURE
~A  DEPTH     RESD     PHIN     PHID      CAL       GR
# ...
  296.500   13.006    0.460    0.331  172.544   59.516
  296.750   14.425    0.471    0.323  174.088   62.565
  297.000   13.534    0.475    0.327  173.641   62.890
  297.250   11.363    0.464    0.310  171.194   63.528
  297.500    9.541    0.466    0.284  168.740   66.264
  297.750    8.627    0.462    0.275  165.791   70.215
  298.000    8.095    0.445    0.276  165.337   71.756
  298.250    7.813    0.436    0.267  164.388   71.483
  298.500    7.825    0.428    0.258  164.949   70.007
  298.750    7.833    0.416    0.261  168.005   67.038
  299.000    7.216    0.433    0.262  176.583   69.770
  299.250    6.464    0.473    0.268  186.672   74.620
  299.500    5.846    0.500    0.281  195.251   75.551
  299.750    5.641    0.505    0.296  212.855   73.481
  300.000    5.493    0.491    0.294  206.390   74.115
  300.250    5.400    0.489    0.292  188.893   75.652
  300.500    5.357    0.471    0.308  180.428   75.985
  300.750    5.315    0.453    0.321  174.458   75.720
  301.000    5.274    0.453    0.302  166.983   74.845
  301.250    5.231    0.464    0.275  168.046   73.381
  301.500    5.190    0.484    0.271  175.120   72.511
  301.750    5.199    0.488    0.294  177.687   72.234
  302.000    5.204    0.480    0.274  179.245   73.770
  302.250    5.309    0.489    0.288  178.797   74.408
  302.500    5.569    0.498    0.281  173.335   73.835
  302.750    5.951    0.504    0.272  169.878   72.972
  303.000    6.539    0.498    0.272  165.419   72.696
  303.250    7.051    0.480    0.295  162.464   71.829
  303.500    7.675    0.483    0.299  163.520   68.251
  303.750    8.277    0.493    0.317  164.577   65.872
  304.000    9.265    0.503    0.310  165.633   63.798
  304.250   10.370    0.500    0.300  166.188   62.631
  304.500   10.978    0.497    0.306  166.750   60.858
  304.750   10.993    0.492    0.318  166.797   60.890
  305.000   11.112    0.478    0.327  166.349   61.524
  305.250   11.233    0.475    0.335  166.403   62.166
  305.500   11.351    0.502    0.337  166.456   62.194
  305.750   11.368    0.512    0.335  165.513   61.319
  306.000   11.382    0.521    0.338  165.066   59.249
  306.250   11.397    0.533    0.341  164.116   59.277
  306.500   11.309    0.523    0.342  163.160   60.212
  306.750   11.218    0.505    0.342  162.712   61.147
  307.000   11.029    0.496    0.340  163.776   61.785
  307.250   10.940    0.504    0.332  164.337   62.118
  307.500   10.753    0.511    0.336  165.394   62.756
  307.750   10.378    0.511    0.337  166.444   63.085
  308.000    9.923    0.510    0.331  166.511   61.613
  308.250    9.484    0.518    0.321  166.551   62.856
  308.500    9.065    0.521    0.312  166.604   66.792
  308.750    7.826    0.512    0.299  167.166   72.540
  309.000    6.948    0.502    0.279  168.724   79.497
  309.250    6.519    0.491    0.280  169.279   80.135
  309.500    6.291    0.495    0.273  169.834   82.870
  309.750    6.242    0.516    0.274  170.897   82.305
  310.000    6.250    0.523    0.279  171.445   79.629
  310.250    6.376    0.525    0.282  171.499   76.356
  310.500    6.687    0.524    0.279  169.554   75.180
  310.750    7.214    0.509    0.273  167.093   75.818
  311.000    7.495    0.503    0.272  162.640   76.452
  311.250    7.367    0.509    0.270  157.171   76.777
  311.500    7.108    0.508    0.273  161.738   78.021
  311.750    6.549    0.510    0.267  168.819   79.252
  312.000    6.145    0.512    0.253  171.373   81.696
  312.250    5.557    0.520    0.239  172.931   83.529
  312.500    5.073    0.523    0.255  173.994   84.163
  312.750    5.032    0.498    0.260  175.050   82.699
  313.000    5.086    0.489    0.266  175.111   80.921
  313.250    5.284    0.475    0.273  175.659   79.754
  313.500    5.443    0.464    0.252  174.208   80.388
  313.750    5.501    0.479    0.243  172.263   81.315
  314.000    5.507    0.497    0.227  172.316   81.953
  314.250    5.464    0.511    0.231  171.862   81.989
  314.500    5.420    0.526    0.232  171.420   83.225
  314.750    5.686    0.521    0.235  170.979   83.858
  315.000    6.191    0.519    0.254  171.019   80.577
  315.250    6.141    0.504    0.264  171.080   78.202
  315.500    5.400    0.497    0.269  169.636   79.739
  315.750    4.793    0.513    0.273  169.181   81.576
  316.000    4.415    0.546    0.279  171.749   82.820
  316.250    4.030    0.564    0.286  174.303   82.844
  316.500    3.853    0.579    0.290  179.371   81.977
  316.750    3.786    0.589    0.295  178.421   79.899
  317.000    3.898    0.595    0.294  171.468   77.825
  317.250    4.488    0.580    0.274  171.508   76.056
  317.500    4.794    0.543    0.289  171.562   75.182
  317.750    4.757    0.526    0.282  171.121   77.023
  318.000    4.548    0.539    0.266  171.676   79.763
  318.250    4.347    0.532    0.271  170.720   82.507
  318.500    4.156    0.519    0.267  169.770   83.739
  318.750    4.086    0.524    0.288  172.846   86.178
  319.000    4.016    0.536    0.304  174.404   86.820
  319.250    4.022    0.544    0.303  174.457   85.344
  319.500    4.257    0.557    0.305  173.508   79.956
  319.750    4.855    0.568    0.309  172.566   74.276
  320.000    5.139    0.572    0.307  171.101   70.697
  320.250    5.751    0.578    0.317  167.651   69.225
  320.500    6.438    0.550    0.314  167.204   68.652
  320.750    7.140    0.528    0.309  166.248   67.484
  321.000    7.699    0.515    0.309  164.810   66.614
  321.250    8.303    0.485    0.311  165.853   66.349
  321.500    8.958    0.487    0.307  168.414   65.775
  321.750    9.053    0.500    0.301  168.481   64.905
  322.000    9.064    0.499    0.305  165.018   62.831
  322.250    9.076    0.494    0.300  162.063   64.067
  322.500    9.175    0.500    0.289  164.624   65.908
  322.750    9.187    0.489    0.289  165.179   64.733
  323.000    9.284    0.478    0.289  164.737   62.663
  323.250    9.562    0.471    0.294  165.801   61.487
  323.500    9.573    0.465    0.299  167.847   59.422
  323.750    9.857    0.452    0.303  168.402   57.648
  324.000   10.632    0.458    0.307  168.462   56.770
  324.250   11.362    0.470    0.316  168.509   55.904
  324.500   11.062    0.470    0.324  170.080   56.537
  324.750   10.285    0.466    0.320  170.635   58.672
  325.000    9.388    0.473    0.316  170.689   62.615
  325.250    8.729    0.479    0.288  170.749   68.368
  325.500    8.345    0.479    0.266  171.297   73.816
  325.750    8.052    0.482    0.251  171.351   79.869
  326.000    7.842    0.480    0.245  170.916   82.910
  326.250    7.779    0.478    0.246  170.950   82.044
  326.500    7.790    0.484    0.250  172.006   81.169
  326.750    7.946    0.497    0.253  172.561   82.409
  327.000    7.667    0.498    0.254  172.615   82.441
  327.250    7.063    0.498    0.242  173.685   82.469
  327.500    6.447    0.509    0.246  173.738   84.306
  327.750    6.277    0.525    0.252  173.284   85.550
  328.000    6.287    0.530    0.257  170.837   84.972
  328.250    6.717    0.502    0.263  167.380   78.686
  328.500    7.589    0.488    0.275  164.425   74.807
  328.750    8.110    0.484    0.286  165.976   72.733
  329.000    8.908    0.491    0.288  167.534   71.562
  329.250   10.641    0.499    0.294  164.579   64.975
  329.500   12.245    0.495    0.313  164.138   59.591
  329.750   16.348    0.476    0.324  165.188   56.322
  330.000   20.641    0.470    0.320  166.251   55.443
  330.250   22.268    0.465    0.310  166.304   55.475
  330.500   22.298    0.453    0.297  165.857   54.003
  330.750   22.324    0.445    0.282  165.924   52.531
  331.000   22.985    0.435    0.267  166.465   51.059
  331.250   24.572    0.399    0.243  168.023   45.078
  331.500   25.527    0.169    0.025  168.083   39.987
  331.750   27.280    0.126    0.000  168.144   37.612
  332.000   28.880    0.126   -0.005  168.699   38.551
  332.250   30.858    0.131   -0.001  168.739   40.095
  332.500   30.328    0.141    0.014  168.298   40.721
  332.750   26.920    0.209    0.052  167.850   42.258
