~VERSION INFORMATION
 VERS.                 2.0:   CWLS LOG ASCII STANDARD -VERSION 2.0
 WRAP.                  NO:   ONE LINE PER DEPTH STEP
~WELL INFORMATION BLOCK
#MNEM.UNIT           DATA                    DESCRIPTION OF MNEMONIC
#---------    -------------------            -------------------------------
# Generated from Intellog Unique Number	CW_73_75/WELL/2750
WELL.         QUINTANA CEGO BLANCHE 14-15    : Well_name    - WELL
LOC .         00/14-15-073-03W5/0            : Location     - LOCATION
UWI .         00/14-15-073-03W5/0            : Uwi          - UNIQUE WELL ID
ENTR.         JAYE                           : Entered      - ENTERED BY
SRVC.         SCHLUMBERGER                   : Scn          - SERVICE COMPANY
DATE.         31 JAN 81                      : Date         - LOG DATE
STRT.M        400                            : top_depth    - START DEPTH
STOP.M        640                            : bot_depth    - STOP DEPTH
STEP.M        0.25                           : increment    - STEP LENGTH
 NULL. -999.2500:NULL Value
~CURVE INFORMATION BLOCK
#MNEM UNIT       ERCB CURVE CODE    CURVE DESCRIPTION
#-----------   ------------------   ----------------------------------
DEPT.M        00 001 00 00         : DEPTH        - DEPTH
DPHI.V/V      00 890 00 00         : PHID         - DENSITY POROSITY (SANDSTONE)
NPHI.V/V      00 330 00 00         : PHIN         - NEUTRON POROSITY (SANDSTONE)
GR  .API      00 310 00 00         : GR           - GAMMA RAY
CALI.MM       00 280 01 00         : CAL          - CALIPER
ILD .OHMM     00 120 00 00         : RESD         - DEEP RESISTIVITY (DIL)
~PARAMETER INFORMATION
#MNEM.UNIT           DATA             DESCRIPTION OF MNEMONIC
#---------         -----------     ------------------------------
GL  .M        608.48               : gl           - GROUND LEVEL ELEVATION
EREF.M        612.88               : kb           - ELEVATION OF DEPTH REFERENCE
DATM.M        608.48               : datum        - DATUM ELEVATION
TDD .M        1585                 : tdd          - TOTAL DEPTH DRILLER
RUN .         ONE                  : Run          - RUN NUMBER
ENG .         VERKAIK              : Engineer     - RECORDING ENGINEER
WIT .         WALSH                : Witness      - WITNESSED BY
BASE.         EDM                  : Branch       - HOME BASE OF LOGGING UNIT
MUD .         GEL CHEM             : Mud_type     - MUD TYPE
MATR.         SANDSTONE            : Logunit      - NEUTRON MATRIX
TMAX.C        47.8                 : BHT          - MAXIMUM RECORDED TEMPERATURE
BHTD.M        1585                 : BHTDEP       - MAXIMUM RECORDED TEMPERATURE
RMT .C        16.7                 : MDTP         - TEMPERATURE OF MUD
MUDD.KG/M     1070                 : MWT          - MUD DENSITY
NEUT.         1                    : NEUTRON      - NEUTRON TYPE
RESI.         0                    : RESIST       - RESISTIVITY TYPE
RM  .OHMM     0.52                 : RM           - RESISTIVITY OF MUD
RMC .OHMM     0                    : RMC          - RESISTIVITY OF MUD CAKE
RMF .OHMM     0.5                  : RMF          - RESISTIVITY OF MUD FILTRATE
SUFT.C        0                    : SUFT         - SURFACE TEMPERATURE
~A  DEPTH     PHID     PHIN       GR      CAL     RESD
# ...
  473.000    0.022    0.133   41.451  247.916    8.383
  473.250    0.082    0.213   48.350  245.337    7.014
  473.500    0.184    0.316   58.355  245.034    6.084
  473.750    0.278    0.393   64.385  247.941    5.327
  474.000    0.275    0.412   70.664  252.401    4.963
  474.250    0.221    0.420   79.427  256.860    4.930
  474.500    0.203    0.429   80.860  260.699    4.992
  474.750    0.198    0.436   81.238  262.571    5.035
  475.000    0.196    0.428   81.491  262.682    5.079
  475.250    0.189    0.409   82.429  261.759    5.152
  475.500    0.178    0.408   83.862  261.456    5.246
  475.750    0.172    0.418   85.791  261.257    5.351
  476.000    0.170    0.428   84.928  260.955    5.458
  476.250    0.175    0.435   84.249  260.342    5.536
  476.500    0.190    0.441   82.266  257.970    5.595
  476.750    0.203    0.437   82.333  251.766    5.654
  477.000    0.196    0.430   84.698  246.288    5.681
  477.250    0.181    0.423   86.816  245.366    5.698
  477.500    0.186    0.412   85.951  245.374    5.703
  477.750    0.196    0.402   85.707  245.591    5.699
  478.000    0.184    0.414   89.501  245.908    5.673
  478.250    0.177    0.423   87.767  246.019    5.636
  478.500    0.189    0.413   85.598  246.236    5.621
  478.750    0.197    0.391   83.677  246.657    5.553
  479.000    0.193    0.413   81.943  247.391    5.486
  479.250    0.178    0.433   81.203  248.122    5.399
  479.500    0.166    0.416   81.021  248.856    5.273
  479.750    0.176    0.408   81.026  248.553    5.142
  480.000    0.188    0.414   80.783  247.734    4.946
  480.250    0.192    0.435   79.297  249.089    4.796
  480.500    0.176    0.432   79.364  250.960    4.570
  480.750    0.164    0.419   82.102  253.245    4.465
  481.000    0.182    0.417   86.641  254.807    4.386
  481.250    0.185    0.424   86.274  255.023    4.500
  481.500    0.169    0.438   82.863  254.719    4.803
  481.750    0.156    0.436   80.817  252.656    5.012
  482.000    0.192    0.448   82.810  249.353    4.740
  482.250    0.173    0.464   86.418  246.773    4.544
  482.500    0.183    0.487   88.224  245.021    4.315
  482.750    0.193    0.503   90.341  243.064    4.081
  483.000    0.183    0.488   92.954  240.899    3.979
  483.250    0.185    0.479   88.611  239.560    4.036
  483.500    0.196    0.454   83.090  238.326    4.149
  483.750    0.217    0.450   79.429  237.402    4.256
  484.000    0.247    0.472   78.316  237.410    4.341
  484.250    0.224    0.469   81.737  238.663    4.370
  484.500    0.209    0.432   84.040  239.600    4.367
  484.750    0.197    0.422   85.536  240.852    4.339
  485.000    0.203    0.438   86.411  242.517    4.278
  485.250    0.201    0.424   88.093  243.976    4.202
  485.500    0.204    0.434   87.165  244.913    4.144
  485.750    0.221    0.462   83.754  245.439    4.078
  486.000    0.215    0.452   78.728  242.342    4.044
  486.250    0.226    0.469   74.571  238.002    4.026
  486.500    0.231    0.460   75.322  234.388    4.007
  486.750    0.239    0.456   70.979  232.222    4.042
  487.000    0.251    0.428   61.729  230.677    4.108
  487.250    0.260    0.403   54.467  230.168    4.262
  487.500    0.282    0.426   52.609  229.555    4.405
  487.750    0.292    0.453   53.421  230.289    4.580
  488.000    0.271    0.429   55.662  231.227    4.879
  488.250    0.267    0.425   55.667  232.583    4.996
  488.500    0.286    0.418   57.039  233.314    4.926
  488.750    0.294    0.407   59.155  234.152    4.722
  489.000    0.288    0.401   61.148  234.366    4.450
  489.250    0.276    0.423   60.098  234.789    4.331
  489.500    0.257    0.453   59.667  235.004    4.206
  489.750    0.229    0.457   59.237  235.116    4.187
  490.000    0.257    0.416   59.242  234.814    4.223
  490.250    0.275    0.416   59.746  233.996    4.243
  490.500    0.281    0.425   60.309  233.694    4.215
  490.750    0.281    0.403   61.307  233.703    4.220
  491.000    0.280    0.410   66.219  233.917    4.264
  491.250    0.268    0.423   72.062  233.925    4.277
  491.500    0.253    0.412   75.608  234.138    4.282
  491.750    0.252    0.449   69.836  234.147    4.262
  492.000    0.271    0.479   62.325  233.949    4.258
  492.250    0.280    0.449   58.355  233.648    4.239
  492.500    0.289    0.432   59.292  233.448    4.211
  492.750    0.297    0.422   60.849  233.663    4.208
  493.000    0.288    0.410   62.842  233.982    4.203
  493.250    0.293    0.399   64.400  234.300    4.208
  493.500    0.294    0.393   65.523  234.619    4.220
  493.750    0.280    0.395   66.460  234.317    4.233
  494.000    0.270    0.423   66.962  233.808    4.214
  494.250    0.279    0.443   68.954  233.815    4.202
  494.500    0.281    0.456   72.686  233.824    4.231
  494.750    0.269    0.464   75.735  233.835    4.291
  495.000    0.228    0.465   76.734  234.256    4.386
  495.250    0.205    0.469   75.930  234.574    4.880
  495.500    0.153    0.388   67.861  234.998    5.933
  495.750    0.037    0.164   54.947  235.004    7.323
  496.000   -0.003    0.148   49.237  234.496    9.178
  496.250    0.037    0.141   49.987  233.883   10.785
  496.500    0.068    0.265   62.477  233.787   11.023
  496.750    0.108    0.363   72.110  233.795    8.699
  497.000    0.193    0.416   75.903  233.596    7.169
  497.250    0.238    0.456   74.915  233.504    6.266
  497.500    0.253    0.458   74.609  233.200    5.252
  497.750    0.240    0.452   75.297  233.000    4.607
  498.000    0.232    0.439   77.165  232.905    4.236
  498.250    0.224    0.425   79.344  233.121    4.015
  498.500    0.213    0.431   81.709  233.853    3.914
  498.750    0.207    0.438   82.274  234.588    3.940
  499.000    0.205    0.429   76.192  235.112    4.012
  499.250    0.214    0.430   73.153  235.431    4.178
  499.500    0.230    0.449   74.089  235.645    4.320
  499.750    0.221    0.458   78.380  236.070    4.559
  500.000    0.207    0.460   75.652  236.285    4.866
  500.250    0.195    0.450   69.446  236.707    5.283
  500.500    0.184    0.412   67.588  237.128    5.555
  500.750    0.177    0.405   70.512  237.345    5.365
  501.000    0.165    0.437   74.865  237.145    5.017
  501.250    0.171    0.448   76.671  236.740    4.809
  501.500    0.201    0.427   76.303  236.748    4.644
  501.750    0.219    0.422   76.991  236.859    4.520
  502.000    0.203    0.454   80.350  237.074    4.432
  502.250    0.190    0.457   84.206  237.704    4.370
  502.500    0.181    0.441   86.447  238.333    4.350
  502.750    0.182    0.433   86.763  239.066    4.338
  503.000    0.197    0.425   84.656  239.281    4.293
  503.250    0.196    0.425   82.114  238.359    4.257
  503.500    0.190    0.439   75.225  237.124    4.214
  503.750    0.191    0.455   78.398  235.476    4.171
  504.000    0.192    0.463   81.011  233.931    4.113
  504.250    0.193    0.462   81.824  232.699    4.025
  504.500    0.194    0.434   81.518  231.568    3.961
  504.750    0.192    0.429   81.709  230.852    3.862
  505.000    0.191    0.442   81.715  229.928    3.779
  505.250    0.190    0.453   81.719  229.314    3.762
  505.500    0.187    0.463   84.395  227.875    3.780
  505.750    0.207    0.473   81.667  226.330    3.863
  506.000    0.238    0.471   73.660  225.096    3.956
  506.250    0.264    0.431   71.677  223.965    4.043
  506.500    0.282    0.415   73.732  223.455    4.125
  506.750    0.295    0.428   76.221  222.843    4.184
  507.000    0.306    0.438   73.679  222.333    4.235
  507.250    0.317    0.454   67.474  221.721    4.248
  507.500    0.309    0.444   64.931  221.521    4.245
  507.750    0.293    0.458   63.757  221.012    4.249
  508.000    0.299    0.457   61.836  220.711    4.270
  508.250    0.311    0.441   61.841  220.511    4.298
  508.500    0.305    0.429   63.647  220.313    4.360
  508.750    0.292    0.429   64.894  219.908    4.456
  509.000    0.286    0.433   63.719  220.018    4.563
  509.250    0.291    0.434   61.178  219.923    4.629
