~VERSION INFORMATION
 VERS.                 2.0:   CWLS LOG ASCII STANDARD -VERSION 2.0
 WRAP.                  NO:   ONE LINE PER DEPTH STEP
~WELL INFORMATION BLOCK
#MNEM.UNIT           DATA                    DESCRIPTION OF MNEMONIC
#---------    -------------------            -------------------------------
# Generated from Intellog Unique Number	CS_73_76/WELL/2188
WELL.         PEX-MARGIS                     : Well_name    - WELL
LOC .         00/10-14-074-09W4/0            : Location     - LOCATION
UWI .         00/10-14-074-09W4/0            : Uwi          - UNIQUE WELL ID
ENTR.         SP                             : Entered      - ENTERED BY
SRVC.         SCHLUMBERGER                   : Scn          - SERVICE COMPANY
STRT.M        285                            : top_depth    - START DEPTH
STOP.M        493                            : bot_depth    - STOP DEPTH
STEP.M        0.25                           : increment    - STEP LENGTH
 NULL. -999.2500:NULL Value
~CURVE INFORMATION BLOCK
#MNEM UNIT       ERCB CURVE CODE    CURVE DESCRIPTION
#-----------   ------------------   ----------------------------------
DEPT.M        00 001 00 00         : DEPTH        - DEPTH
ILD .OHMM     00 120 00 00         : RESD         - DEEP RESISTIVITY (DIL)
NPHI.V/V      00 330 00 00         : PHIN         - NEUTRON POROSITY (LIMESTONE)
GR  .API      00 310 00 00         : GR           - GAMMA RAY
DPHI.V/V      00 890 00 00         : PHID         - DENSITY POROSITY (LIMESTONE)
~PARAMETER INFORMATION
#MNEM.UNIT           DATA             DESCRIPTION OF MNEMONIC
#---------         -----------     ------------------------------
GL  .M        654.68               : gl           - GROUND LEVEL ELEVATION
EREF.M        658.64               : kb           - ELEVATION OF DEPTH REFERENCE
DATM.M        654.68               : datum        - DATUM ELEVATION
TDD .M        503.51               : tdd          - TOTAL DEPTH DRILLER
RUN .         ONE                  : Run          - RUN NUMBER
ENG .         BILL                 : Engineer     - RECORDING ENGINEER
WIT .         JIM                  : Witness      - WITNESSED BY
MUD .         GEL                  : Mud_type     - MUD TYPE
MATR.         LIMESTONE            : Logunit      - NEUTRON MATRIX
TMAX.C        34                   : BHT          - MAXIMUM RECORDED TEMPERATURE
BHTD.M        503.51               : BHTDEP       - MAXIMUM RECORDED TEMPERATURE
MATR.         1                    : LOGUNIT      - NEUTRON MATRIX
RMT .C        25                   : MDTP         - TEMPERATURE OF MUD
NEUT.         1                    : NEUTRON      - NEUTRON TYPE
RESI.         0                    : RESIST       - RESISTIVITY TYPE
RMC .OHMM     0.25                 : RMC          - RESISTIVITY OF MUD CAKE
RMF .OHMM     0.25                 : RMF          - RESISTIVITY OF MUD FILTRATE
SUFT.C        15                   : SUFT         - SURFACE TEMPERATURE
~A  DEPTH     RESD     PHIN       GR     PHID
# ...
  372.000    5.565    0.420   94.448    0.247
  372.250    6.234    0.406   93.201    0.242
  372.500    6.852    0.398   91.331    0.208
  372.750    6.983    0.394   89.461    0.228
  373.000    7.116    0.388   88.837    0.231
  373.250    7.252    0.403   89.456    0.246
  373.500    7.117    0.415   90.077    0.231
  373.750    7.117    0.420   90.696    0.219
  374.000    6.984    0.409   91.317    0.212
  374.250    6.984    0.411   91.938    0.219
  374.500    7.117    0.399   92.558    0.208
  374.750    7.392    0.401   93.178    0.199
  375.000    7.533    0.387   91.931    0.197
  375.250    7.973    0.380   89.439    0.232
  375.500    8.600    0.369   86.325    0.237
  375.750    9.276    0.358   85.700    0.248
  376.000    9.634    0.348   85.698    0.241
  376.250   10.005    0.337   76.982    0.211
  376.500    9.818    0.300   69.511    0.111
  376.750    8.440    0.273   68.887    0.004
  377.000    7.678    0.316   81.333    0.057
  377.250    7.394    0.347   91.289    0.168
  377.500    6.855    0.384   90.663    0.199
  377.750    6.477    0.396   90.662    0.183
  378.000    6.356    0.401   91.903    0.176
  378.250    6.005    0.390   92.525    0.181
  378.500    6.006    0.401   96.879    0.183
  378.750    6.006    0.394   98.744    0.187
  379.000    5.893    0.398   98.120    0.176
  379.250    5.783    0.401   95.005    0.160
  379.500    5.569    0.410   96.248    0.146
  379.750    5.464    0.411  100.602    0.177
  380.000    5.675    0.411  101.223    0.203
  380.250    5.894    0.424   98.731    0.223
  380.500    5.894    0.432   98.106    0.232
  380.750    5.465    0.406   98.726    0.261
  381.000    5.067    0.416   99.968    0.296
  381.250    4.355    0.421  100.589    0.265
  381.500    3.815    0.427  101.209    0.205
  381.750    3.342    0.450  102.452    0.270
  382.000    2.664    0.461  106.806    0.297
  382.250    2.424    0.468  108.049    0.265
  382.500    2.044    0.463  107.424    0.261
  382.750    1.860    0.458  106.799    0.255
  383.000    2.123    0.443  106.796    0.260
  383.250    2.470    0.437  106.795    0.255
  383.500    2.664    0.431  103.680    0.239
  383.750    3.159    0.426  101.811    0.222
  384.000    3.745    0.418   99.941    0.218
  384.250    4.440    0.422   99.939    0.168
  384.500    4.973    0.415   98.692    0.165
  384.750    5.364    0.399   98.068    0.213
  385.000    5.571    0.389   97.442    0.238
  385.250    5.467    0.384   96.819    0.239
  385.500    5.467    0.384   96.194    0.201
  385.750    5.467    0.392   96.192    0.185
  386.000    5.572    0.398   94.322    0.175
  386.250    5.678    0.395   92.453    0.220
  386.500    6.125    0.386   89.339    0.250
  386.750    6.482    0.379   85.602    0.272
  387.000    6.606    0.373   81.242    0.295
  387.250    6.992    0.366   78.750    0.273
  387.500    7.126    0.370   76.881    0.251
  387.750    7.126    0.367   78.124    0.241
  388.000    6.993    0.377   81.856    0.223
  388.250    6.733    0.372   86.210    0.217
  388.500    6.483    0.366   88.076    0.214
  388.750    6.362    0.371   86.829    0.214
  389.000    6.243    0.381   84.959    0.242
  389.250    6.126    0.392   83.712    0.269
  389.500    6.126    0.391   84.333    0.267
  389.750    6.127    0.394   87.442    0.236
  390.000    6.127    0.397   91.174    0.212
  390.250    6.127    0.399   93.039    0.194
  390.500    6.244    0.400   95.527    0.202
  390.750    6.485    0.396   95.525    0.192
  391.000    6.609    0.386   90.543    0.189
  391.250    6.735    0.377   91.785    0.184
  391.500    6.735    0.377   92.406    0.219
  391.750    6.864    0.373   90.537    0.220
  392.000    6.735    0.384   88.043    0.238
  392.250    6.486    0.405   88.042    0.249
  392.500    6.128    0.393   88.040    0.245
  392.750    5.901    0.384   88.038    0.260
  393.000    5.790    0.391   89.280    0.236
  393.250    5.575    0.381   85.544    0.226
  393.500    5.576    0.372   83.052    0.236
  393.750    5.576    0.386   87.406    0.228
  394.000    5.471    0.388   89.271    0.201
  394.250    5.471    0.378   89.269    0.190
  394.500    5.472    0.376   93.001    0.183
  394.750    5.472    0.371   94.244    0.179
  395.000    5.472    0.371   95.486    0.169
  395.250    5.369    0.393   94.240    0.226
  395.500    5.472    0.409   88.012    0.287
  395.750    5.472    0.409   86.144    0.302
  396.000    5.683    0.401   83.651    0.307
  396.250    5.903    0.406   80.537    0.288
  396.500    6.488    0.399   78.045    0.282
  396.750    6.738    0.381   76.798    0.291
  397.000    7.989    0.355   74.306    0.296
  397.250   11.019    0.335   72.437    0.302
  397.500   14.633    0.296   70.568    0.294
  397.750   16.705    0.269   67.453    0.120
  398.000   18.362    0.256   64.961    0.085
  398.250   17.350    0.275   63.092    0.053
  398.500   11.445    0.295   65.579    0.042
  398.750    7.990    0.312   68.067    0.029
  399.000    6.613    0.332   71.799    0.119
  399.250    5.794    0.376   74.909    0.192
  399.500    5.474    0.397   78.019    0.259
  399.750    5.372    0.409   77.394    0.269
  400.000    5.372    0.403   77.391    0.276
  400.250    5.372    0.392   78.012    0.284
  400.500    5.475    0.386   76.765    0.291
  400.750    5.579    0.390   75.517    0.289
  401.000    5.905    0.395   78.004    0.295
  401.250    6.133    0.399   79.870    0.299
  401.500    6.250    0.398   83.601    0.284
  401.750    6.370    0.398   84.845    0.272
  402.000    6.491    0.401   86.087    0.252
  402.250    6.615    0.409   87.330    0.243
  402.500    6.492    0.413   88.573    0.238
  402.750    6.134    0.408   90.438    0.224
  403.000    4.982    0.403   92.303    0.211
  403.250    4.364    0.401   94.790    0.192
  403.500    4.202    0.409   96.655    0.240
  403.750    4.202    0.422   99.142    0.271
  404.000    4.283    0.416   99.140    0.301
  404.250    4.619    0.411   94.159    0.300
  404.500    5.175    0.411   89.800    0.240
  404.750    5.477    0.403   87.308    0.209
  405.000    5.477    0.400   91.662    0.203
  405.250    5.274    0.417   94.772    0.191
  405.500    4.983    0.423   96.014    0.215
  405.750    4.533    0.429   96.013    0.191
  406.000    4.449    0.432   89.163    0.392
  406.250    4.449    0.438   87.294    0.455
  406.500    5.079    0.438   87.914    0.474
  406.750    5.478    0.417   87.290    0.373
  407.000    6.373    0.403   82.930    0.300
  407.250    7.275    0.390   80.439    0.191
  407.500    7.700    0.368   74.212    0.176
  407.750    7.997    0.358   69.854    0.135
  408.000    8.149    0.344   76.075    0.011
  408.250    7.556    0.363   83.542    0.138
  408.500    7.276    0.385   87.274    0.162
  408.750    6.746    0.396   89.138    0.179
  409.000    6.495    0.390   89.136    0.167
  409.250    6.374    0.390   89.135    0.179
  409.500    6.374    0.400   89.755    0.186
  409.750    6.374    0.394   90.997    0.178
  410.000    6.374    0.387   91.617    0.183
  410.250    6.375    0.379   92.237    0.183
  410.500    6.255    0.392   94.103    0.203
  410.750    6.138    0.402   94.100    0.219
  411.000    6.023    0.394   93.476    0.239
  411.250    5.911    0.389   91.606    0.179
  411.500    5.800    0.398   89.114    0.200
  411.750    5.800    0.406   88.489    0.211
  412.000    5.800    0.396   87.865    0.223
  412.250    5.800    0.390   88.485    0.217
  412.500    5.801    0.407   88.482    0.232
  412.750    5.911    0.405   89.725    0.247
  413.000    5.912    0.401   90.346    0.243
  413.250    5.801    0.400   90.966    0.166
  413.500    5.586    0.402   89.718    0.125
  413.750    5.179    0.411   89.717    0.119
  414.000    4.712    0.410   90.337    0.231
  414.250    3.974    0.410   89.712    0.280
  414.500    3.228    0.415   89.088    0.302
  414.750    2.828    0.431   87.840    0.323
  415.000    2.573    0.434   87.838    0.266
  415.250    2.254    0.450   87.214    0.262
