~VERSION INFORMATION
 VERS.                 2.0:   CWLS LOG ASCII STANDARD -VERSION 2.0
 WRAP.                  NO:   ONE LINE PER DEPTH STEP
~WELL INFORMATION BLOCK
#MNEM.UNIT           DATA                    DESCRIPTION OF MNEMONIC
#---------    -------------------            -------------------------------
# Generated from Intellog Unique Number	CS_73_76/WELL/3276
WELL.         CWWE HARDY                     : Well_name    - WELL
LOC .         00/13-32-076-04W4/0            : Location     - LOCATION
UWI .         00/13-32-076-04W4/0            : Uwi          - UNIQUE WELL ID
ENTR.         SP                             : Entered      - ENTERED BY
SRVC.         SCHLUMBERGER                   : Scn          - SERVICE COMPANY
STRT.M        165                            : top_depth    - START DEPTH
STOP.M        425                            : bot_depth    - STOP DEPTH
STEP.M        0.25                           : increment    - STEP LENGTH
 NULL. -999.2500:NULL Value
~CURVE INFORMATION BLOCK
#MNEM UNIT       ERCB CURVE CODE    CURVE DESCRIPTION
#-----------   ------------------   ----------------------------------
DEPT.M        00 001 00 00         : DEPTH        - DEPTH
DPHI.V/V      00 890 00 00         : PHID         - DENSITY POROSITY (LIMESTONE)
NPHI.V/V      00 330 00 00         : PHIN         - NEUTRON POROSITY (LIMESTONE)
GR  .API      00 310 00 00         : GR           - GAMMA RAY
ILD .OHMM     00 120 00 00         : RESD         - DEEP RESISTIVITY (DIL)
~PARAMETER INFORMATION
#MNEM.UNIT           DATA             DESCRIPTION OF MNEMONIC
#---------         -----------     ------------------------------
GL  .M        580.54               : gl           - GROUND LEVEL ELEVATION
EREF.M        583.04               : kb           - ELEVATION OF DEPTH REFERENCE
DATM.M        580.54               : datum        - DATUM ELEVATION
TDD .M        428                  : tdd          - TOTAL DEPTH DRILLER
RUN .         ONE                  : Run          - RUN NUMBER
ENG .         BILL                 : Engineer     - RECORDING ENGINEER
WIT .         JIM                  : Witness      - WITNESSED BY
MUD .         GEL                  : Mud_type     - MUD TYPE
MATR.         LIMESTONE            : Logunit      - NEUTRON MATRIX
TMAX.C        60                   : BHT          - MAXIMUM RECORDED TEMPERATURE
BHTD.M        428                  : BHTDEP       - MAXIMUM RECORDED TEMPERATURE
MATR.         1                    : LOGUNIT      - NEUTRON MATRIX
RMT .C        25                   : MDTP         - TEMPERATURE OF MUD
NEUT.         1                    : NEUTRON      - NEUTRON TYPE
RESI.         0                    : RESIST       - RESISTIVITY TYPE
RMC .OHMM     0.25                 : RMC          - RESISTIVITY OF MUD CAKE
RMF .OHMM     0.25                 : RMF          - RESISTIVITY OF MUD FILTRATE
SUFT.C        15                   : SUFT         - SURFACE TEMPERATURE
~A  DEPTH     PHID     PHIN       GR     RESD
# ...
  295.500    0.249    0.403   83.065    6.681
  295.750    0.254    0.394   80.021    6.939
  296.000    0.255    0.390   78.806    7.071
  296.250    0.250    0.383   79.421    7.768
  296.500    0.250    0.384   76.377    8.219
  296.750    0.255    0.390   72.723    8.697
  297.000    0.256    0.399   73.339    9.031
  297.250    0.254    0.416   75.782    9.379
  297.500    0.257    0.431   83.104    9.559
  297.750    0.261    0.427   83.110    9.742
  298.000    0.269    0.436   80.065   10.117
  298.250    0.281    0.449   73.363   10.312
  298.500    0.288    0.428   70.928   10.509
  298.750    0.292    0.406   73.983   10.711
  299.000    0.289    0.407   75.816   10.714
  299.250    0.289    0.412   77.651   10.718
  299.500    0.288    0.409   79.485   10.721
  299.750    0.288    0.404   75.831   10.525
  300.000    0.288    0.405   61.811   10.334
  300.250    0.286    0.418   62.427    9.956
  300.500    0.280    0.434   71.579    9.416
  300.750    0.273    0.431   75.851    9.072
  301.000    0.267    0.430   78.906    8.741
  301.250    0.262    0.427   79.519    8.582
  301.500    0.260    0.420   81.354    8.270
  301.750    0.249    0.420   86.238    7.968
  302.000    0.239    0.418   87.461    7.822
  302.250    0.222    0.410   91.125    7.824
  302.500    0.212    0.389   92.960    7.400
  302.750    0.218    0.380   90.526    7.402
  303.000    0.223    0.394   89.920    7.544
  303.250    0.220    0.410   92.974    7.834
  303.500    0.227    0.423   93.589    8.135
  303.750    0.230    0.411   88.105    8.448
  304.000    0.231    0.393   82.623    8.939
  304.250    0.229    0.373   80.188    9.458
  304.500    0.229    0.373   80.803    9.640
  304.750    0.233    0.378   86.906    9.464
  305.000    0.239    0.378   90.570    8.950
  305.250    0.244    0.389   89.965    8.624
  305.500    0.247    0.392   89.361    8.004
  305.750    0.247    0.401   85.706    7.713
  306.000    0.245    0.407   85.101    7.571
  306.250    0.249    0.410   86.935    7.433
  306.500    0.260    0.410   83.891    7.298
  306.750    0.265    0.410   83.896    7.032
  307.000    0.250    0.421   87.561    6.775
  307.250    0.237    0.424   88.176    6.528
  307.500    0.224    0.438   87.570    6.173
  307.750    0.214    0.446   90.014    5.730
  308.000    0.207    0.450   91.240    5.418
  308.250    0.212    0.449   90.635    5.124
  308.500    0.214    0.445   90.029    4.938
  308.750    0.215    0.442   86.986    4.757
  309.000    0.215    0.443   88.820    4.584
  309.250    0.217    0.442   93.093    4.254
  309.500    0.224    0.461   99.195    4.024
  309.750    0.234    0.505  101.029    3.597
  310.000    0.245    0.492   99.816    3.277
  310.250    0.252    0.482   99.209    3.339
  310.500    0.258    0.483   97.996    3.404
  310.750    0.261    0.485   94.342    3.809
  311.000    0.264    0.456   91.297    4.426
  311.250    0.271    0.423   88.864    4.954
  311.500    0.275    0.418   89.478    5.341
  311.750    0.279    0.433   91.922    5.866
  312.000    0.285    0.454   86.441    6.566
  312.250    0.291    0.427   82.176    7.630
  312.500    0.213    0.385   76.692    7.922
  312.750    0.076    0.285   60.233    9.737
  313.000    0.070    0.216   54.750    9.560
  313.250    0.107    0.236   62.072    8.873
  313.500    0.268    0.435   80.371    7.641
  313.750    0.283    0.446   76.109    6.831
  314.000    0.282    0.440   74.283    6.223
  314.250    0.279    0.429   71.849    5.884
  314.500    0.267    0.417   77.341    5.886
  314.750    0.230    0.434   84.054    5.999
  315.000    0.216    0.435   87.718    6.348
  315.250    0.213    0.425   85.893    6.592
  315.500    0.221    0.420   82.850    6.594
  315.750    0.221    0.419   82.855    6.597
  316.000    0.219    0.419   86.519    6.598
  316.250    0.220    0.418   90.183    6.600
  316.500    0.221    0.407   91.406    6.480
  316.750    0.225    0.412   92.020    6.482
  317.000    0.225    0.418   88.977    6.484
  317.250    0.224    0.425   85.324    6.608
  317.500    0.227    0.431   86.547    6.610
  317.750    0.225    0.435   90.211    6.612
  318.000    0.221    0.423   89.606    6.739
  318.250    0.221    0.409   90.222    6.616
  318.500    0.227    0.398   90.836    6.495
  318.750    0.227    0.397   93.894    6.028
  319.000    0.226    0.406   93.895    5.390
  319.250    0.222    0.414   89.021    4.909
  319.500    0.219    0.422   89.027    4.073
  319.750    0.216    0.423   90.250    3.641
  320.000    0.220    0.442   85.987    3.020
  320.250    0.236    0.493   81.114    2.601
  320.500    0.271    0.510   79.289    2.506
  320.750    0.274    0.494   81.124    2.370
  321.000    0.265    0.473   83.567    2.200
  321.250    0.265    0.480   81.743    2.042
  321.500    0.275    0.508   79.919    2.004
  321.750    0.280    0.501   78.705    2.005
  322.000    0.290    0.483   78.710    2.043
  322.250    0.279    0.463   79.324    2.083
  322.500    0.266    0.436   82.988    2.163
  322.750    0.253    0.471   86.041    2.708
  323.000    0.266    0.472   82.998    3.147
  323.250    0.269    0.413   81.174    3.522
  323.500    0.260    0.387   79.958    3.727
  323.750    0.239    0.392   82.403    4.094
  324.000    0.222    0.409   86.068    4.331
  324.250    0.214    0.432   87.290    4.758
  324.500    0.206    0.432   89.125    5.129
  324.750    0.204    0.410   86.690    5.427
  325.000    0.199    0.372   84.866    5.636
  325.250    0.194    0.346   84.261    5.638
  325.500    0.190    0.366   84.876    5.332
  325.750    0.196    0.386   86.712    5.042
  326.000    0.218    0.384   87.325    4.593
  326.250    0.236    0.378   88.549    4.106
  326.500    0.247    0.409   91.606    3.811
  326.750    0.254    0.418   93.438    3.604
  327.000    0.249    0.408  100.150    3.538
  327.250    0.241    0.392   91.619    3.540
  327.500    0.222    0.393   90.403    3.541
  327.750    0.217    0.413   91.629    3.541
  328.000    0.216    0.424   92.242    3.477
  328.250    0.212    0.416   95.906    3.478
  328.500    0.209    0.404   97.131    3.289
  328.750    0.207    0.403   95.916    3.229
  329.000    0.208    0.421   95.311    3.170
  329.250    0.211    0.431   95.317    3.171
  329.500    0.216    0.427   95.321    3.293
  329.750    0.218    0.415   95.326    3.826
  330.000    0.221    0.415   92.892    4.530
  330.250    0.221    0.409   89.238    4.976
  330.500    0.222    0.397   87.414    5.569
  330.750    0.223    0.389   85.589    6.003
  331.000    0.218    0.387   86.814    6.719
  331.250    0.199    0.414   89.868    7.381
  331.500    0.154    0.389   86.214    8.261
  331.750    0.120    0.337   76.462    9.074
  332.000    0.116    0.280   71.589    9.422
  332.250    0.148    0.281   71.594   10.350
  332.500    0.290    0.285   72.818   10.353
  332.750    0.287    0.286   74.653   10.164
  333.000    0.264    0.288   72.219   11.591
  333.250    0.234    0.296   72.834   13.218
  333.500    0.194    0.304   71.619   14.520
  333.750    0.183    0.283   70.404   15.653
  334.000    0.214    0.267   74.067   16.875
  334.250    0.296    0.255   74.683   17.524
  334.500    0.329    0.248   75.908   17.531
  334.750    0.324    0.249   78.351   17.866
  335.000    0.314    0.244   81.405   17.871
  335.250    0.314    0.228   75.313   12.763
  335.500    0.312    0.203   69.219   10.588
  335.750    0.298    0.232   58.248    8.948
  336.000    0.282    0.284   68.619    7.285
  336.250    0.267    0.324   75.941    6.636
  336.500    0.254    0.254   74.117    8.627
  336.750    0.275    0.157   63.146   11.644
  337.000    0.320    0.064   41.808   15.714
  337.250    0.325    0.045   24.130   22.858
  337.500    0.319    0.043   13.768   45.706
  337.750    0.313    0.047   14.385   83.227
  338.000    0.303    0.056   16.218   51.170
  338.250    0.283    0.090   18.052   34.547
  338.500    0.264    0.189   30.862   21.643
  338.750    0.235    0.232   50.380   16.657
