~VERSION INFORMATION
 VERS.                 2.0:   CWLS LOG ASCII STANDARD -VERSION 2.0
 WRAP.                  NO:   ONE LINE PER DEPTH STEP
~WELL INFORMATION BLOCK
#MNEM.UNIT           DATA                    DESCRIPTION OF MNEMONIC
#---------    -------------------            -------------------------------
# Generated from Intellog Unique Number	CS_69_70/WELL/865
WELL.         ASHLAND OIL CANADA             : Well_name    - WELL
LOC .         00/10-10-069-18W4/0            : Location     - LOCATION
UWI .         00/10-10-069-18W4/0            : Uwi          - UNIQUE WELL ID
ENTR.         SP                             : Entered      - ENTERED BY
SRVC.         SCHLUMBERGER                   : Scn          - SERVICE COMPANY
STRT.M        259.08                         : top_depth    - START DEPTH
STOP.M        487.33                         : bot_depth    - STOP DEPTH
STEP.M        0.25                           : increment    - STEP LENGTH
 NULL. -999.2500:NULL Value
~CURVE INFORMATION BLOCK
#MNEM UNIT       ERCB CURVE CODE    CURVE DESCRIPTION
#-----------   ------------------   ----------------------------------
DEPT.M        00 001 00 00         : DEPTH        - DEPTH
GR  .API      00 310 00 00         : GR           - GAMMA RAY
DPHI.V/V      00 890 00 00         : PHID         - DENSITY POROSITY (SANDSTONE)
NPHI.V/V      00 330 00 00         : PHIN         - NEUTRON POROSITY (SANDSTONE)
ILD .OHMM     00 120 00 00         : RESD         - DEEP RESISTIVITY (DIL)
~PARAMETER INFORMATION
#MNEM.UNIT           DATA             DESCRIPTION OF MNEMONIC
#---------         -----------     ------------------------------
GL  .M        549.859              : gl           - GROUND LEVEL ELEVATION
EREF.M        553.822              : kb           - ELEVATION OF DEPTH REFERENCE
DATM.M        549.859              : datum        - DATUM ELEVATION
TDD .M        548.64               : tdd          - TOTAL DEPTH DRILLER
RUN .         ONE                  : Run          - RUN NUMBER
ENG .         BILL                 : Engineer     - RECORDING ENGINEER
WIT .         JIM                  : Witness      - WITNESSED BY
MUD .         GEL                  : Mud_type     - MUD TYPE
MATR.         SANDSTONE            : Logunit      - NEUTRON MATRIX
TMAX.C        21.6667              : BHT          - MAXIMUM RECORDED TEMPERATURE
BHTD.M        548.64               : BHTDEP       - MAXIMUM RECORDED TEMPERATURE
MATR.         1                    : LOGUNIT      - NEUTRON MATRIX
RMT .C        25                   : MDTP         - TEMPERATURE OF MUD
NEUT.         1                    : NEUTRON      - NEUTRON TYPE
RESI.         0                    : RESIST       - RESISTIVITY TYPE
RMC .OHMM     0.25                 : RMC          - RESISTIVITY OF MUD CAKE
RMF .OHMM     0.25                 : RMF          - RESISTIVITY OF MUD FILTRATE
SUFT.C        15                   : SUFT         - SURFACE TEMPERATURE
~A  DEPTH       GR     PHID     PHIN     RESD
# ...
  433.080  107.716    0.246    0.467    5.416
  433.330  105.152    0.255    0.450    5.398
  433.580   97.718    0.269    0.451    5.345
  433.830   89.048    0.261    0.474    5.247
  434.080   83.192    0.303    0.491    5.146
  434.330   81.434    0.316    0.499    5.213
  434.580   82.247    0.308    0.478    5.411
  434.830   84.332    0.287    0.456    5.788
  435.080   87.522    0.268    0.446    6.170
  435.330   88.988    0.258    0.449    6.548
  435.580   91.017    0.262    0.444    6.820
  435.830   91.262    0.273    0.434    7.057
  436.080   89.425    0.249    0.419    7.039
  436.330   81.936    0.223    0.391    6.838
  436.580   75.891    0.201    0.362    6.373
  436.830   72.903    0.185    0.368    6.034
  437.080   76.472    0.203    0.389    5.945
  437.330   82.876    0.222    0.410    5.891
  437.580   90.995    0.247    0.428    6.033
  437.830   96.671    0.264    0.446    6.317
  438.080   98.978    0.267    0.454    6.633
  438.330   96.697    0.258    0.445    6.949
  438.580   97.181    0.249    0.453    7.018
  438.830   97.474    0.214    0.434    6.837
  439.080   87.883    0.180    0.360    6.369
  439.330   81.627    0.159    0.330    5.947
  439.580   73.684    0.134    0.322    5.802
  439.830   76.855    0.137    0.393    5.685
  440.080   85.507    0.176    0.434    5.703
  440.330   95.327    0.233    0.452    5.745
  440.580  104.314    0.242    0.453    5.819
  440.830  106.308    0.239    0.441    5.862
  441.080  105.929    0.250    0.425    5.883
  441.330  104.287    0.235    0.415    5.924
  441.580  101.644    0.215    0.410    5.885
  441.830   99.153    0.211    0.402    5.870
  442.080   98.401    0.205    0.399    5.941
  442.330   99.214    0.205    0.405    5.486
  442.580  100.782    0.218    0.416    5.283
  442.830  103.357    0.239    0.431    5.078
  443.080  105.333    0.258    0.446    4.977
  443.330  108.003    0.254    0.448    5.045
  443.580  109.378    0.252    0.425    5.126
  443.830  111.110    0.270    0.412    5.235
  444.080  110.180    0.275    0.420    5.355
  444.330  110.376    0.253    0.433    5.538
  444.580  108.583    0.230    0.443    5.745
  444.830  105.146    0.206    0.453    5.743
  445.080  102.500    0.204    0.423    5.674
  445.330   93.672    0.181    0.383    5.334
  445.580   88.870    0.119    0.362    5.057
  445.830   89.340    0.098    0.344    4.761
  446.080   94.464    0.175    0.371    4.412
  446.330   99.694    0.184    0.404    4.083
  446.580  103.521    0.218    0.420    3.635
  446.830  107.338    0.255    0.427    3.265
  447.080  105.472    0.273    0.437    2.994
  447.330  100.091    0.242    0.420    2.856
  447.580  100.955    0.238    0.414    2.944
  447.830  103.869    0.257    0.453    3.283
  448.080  107.775    0.242    0.501    3.601
  448.330  111.149    0.242    0.564    4.105
  448.580  112.249    0.274    0.585    4.704
  448.830  107.677    0.313    0.589    5.120
  449.080   99.534    0.293    0.591    5.374
  449.330   89.823    0.235    0.493    5.355
  449.580   80.912    0.129    0.367    5.266
  449.830   72.835    0.121    0.322    5.474
  450.080   80.319    0.178    0.369    5.868
  450.330   89.860    0.202    0.401    6.534
  450.580   96.138    0.191    0.426    7.057
  450.830   98.534    0.196    0.424    7.442
  451.080   97.634    0.207    0.393    7.556
  451.330   85.902    0.218    0.308    7.272
  451.580   72.667    0.127    0.254    6.998
  451.830   65.374    0.042    0.235    6.726
  452.080   73.569    0.073    0.255    6.491
  452.330   83.433    0.165    0.291    6.147
  452.580   94.458    0.197    0.350    5.733
  452.830   96.689    0.163    0.383    5.295
  453.080   88.320    0.146    0.356    4.772
  453.330   82.433    0.115    0.325    4.246
  453.580   86.832    0.071    0.350    3.903
  453.830   95.092    0.154    0.398    3.835
  454.080  105.629    0.191    0.429    4.032
  454.330  114.373    0.195    0.448    4.361
  454.580  115.571    0.176    0.458    4.689
  454.830  113.463    0.190    0.472    5.034
  455.080  112.692    0.194    0.491    5.238
  455.330  111.977    0.202    0.502    5.387
  455.580  110.674    0.206    0.481    5.444
  455.830  108.892    0.196    0.464    5.354
  456.080  106.073    0.185    0.455    5.061
  456.330  103.765    0.172    0.455    4.717
  456.580  102.739    0.181    0.456    4.370
  456.830  102.687    0.216    0.450    4.141
  457.080  103.323    0.187    0.449    3.944
  457.330  106.183    0.190    0.453    3.870
  457.580  109.081    0.207    0.461    3.858
  457.830  108.307    0.207    0.472    3.898
  458.080  106.948    0.176    0.461    3.911
  458.330  106.590    0.165    0.439    3.809
  458.580  106.942    0.142    0.424    3.776
  458.830  107.690    0.118    0.420    3.654
  459.080  108.910    0.137    0.435    3.578
  459.330  110.245    0.153    0.459    3.497
  459.580  112.157    0.135    0.477    3.443
  459.830  114.616    0.200    0.503    3.501
  460.080  117.066    0.238    0.523    3.726
  460.330  119.081    0.255    0.541    3.979
  460.580  120.315    0.237    0.561    4.154
  460.830  118.118    0.194    0.545    4.228
  461.080  116.166    0.181    0.533    4.218
  461.330  115.705    0.199    0.521    4.153
  461.580  115.362    0.183    0.442    3.982
  461.830  112.399    0.152    0.389    3.762
  462.080  104.804    0.123    0.397    3.539
  462.330  110.877    0.188    0.447    3.346
  462.580  115.359    0.223    0.509    3.252
  462.830  117.826    0.252    0.549    3.360
  463.080  118.170    0.261    0.579    3.700
  463.330  115.240    0.236    0.600    4.204
  463.580  112.705    0.212    0.618    4.821
  463.830  110.482    0.225    0.503    5.837
  464.080  104.240    0.194    0.453    6.849
  464.330   97.548    0.209    0.416    7.321
  464.580   92.859    0.214    0.380    8.579
  464.830   86.922    0.195    0.358   12.043
  465.080   81.196    0.171    0.347   15.244
  465.330   70.435    0.145    0.340   17.358
  465.580   60.830    0.194    0.359   17.909
  465.830   56.363    0.258    0.371   17.709
  466.080   55.068    0.315    0.373   17.098
  466.330   56.322    0.354    0.374   16.142
  466.580   59.081    0.318    0.372   15.044
  466.830   61.000    0.283    0.365   14.332
  467.080   61.651    0.271    0.355   13.485
  467.330   60.998    0.277    0.346   12.888
  467.580   60.496    0.299    0.340   12.206
  467.830   60.665    0.291    0.352   11.416
  468.080   61.396    0.266    0.347   10.682
  468.330   62.794    0.246    0.341   10.029
  468.580   64.652    0.224    0.345    9.621
  468.830   66.967    0.228    0.348    9.325
  469.080   70.435    0.230    0.346    9.003
  469.330   73.053    0.228    0.342    8.746
  469.580   74.839    0.234    0.339    8.513
  469.830   75.646    0.225    0.342    8.360
  470.080   76.126    0.240    0.345    8.144
  470.330   77.017    0.216    0.346    7.896
  470.580   77.837    0.210    0.344    7.665
  470.830   80.447    0.230    0.342    7.455
  471.080   84.163    0.236    0.340    7.289
  471.330   91.875    0.237    0.339    7.089
  471.580  100.492    0.203    0.363    6.930
  471.830  108.440    0.173    0.379    6.717
  472.080  115.550    0.157    0.394    6.515
  472.330  120.452    0.181    0.408    6.262
  472.580  126.475    0.208    0.461    5.608
  472.830  123.320    0.235    0.485    5.616
  473.080  118.172    0.258    0.586    5.621
  473.330  113.535    0.289    0.603    5.808
  473.580  109.842    0.312    0.526    6.023
  473.830  107.377    0.286    0.394    6.331
  474.080  105.690    0.300    0.372    6.694
  474.330  105.834    0.278    0.363    6.909
  474.580  107.425    0.163    0.358    7.007
  474.830  111.262    0.140    0.359    7.004
  475.080  115.958    0.124    0.364    6.919
  475.330  118.662    0.109    0.373    6.809
  475.580  119.768    0.164    0.382    6.638
  475.830  114.710    0.202    0.390    6.492
  476.080  108.559    0.191    0.400    6.418
  476.330  102.163    0.201    0.407    6.463
