~VERSION INFORMATION
 VERS.                 2.0:   CWLS LOG ASCII STANDARD -VERSION 2.0
 WRAP.                  NO:   ONE LINE PER DEPTH STEP
~WELL INFORMATION BLOCK
#MNEM.UNIT           DATA                    DESCRIPTION OF MNEMONIC
#---------    -------------------            -------------------------------
# Generated from Intellog Unique Number	CN_94_101/WELL/3423
WELL.         PARAMOUNT RESOURCES LTD.       : Well_name    - WELL
LOC .         00/11-16-095-18W4/0            : Location     - LOCATION
UWI .         00/11-16-095-18W400            : Uwi          - UNIQUE WELL ID
ENTR.         JOETTE                         : Entered      - ENTERED BY
SRVC.         COMPUTALOG                     : Scn          - SERVICE COMPANY
DATE.         07/27/92                       : Date         - LOG DATE
STRT.M        175                            : top_depth    - START DEPTH
STOP.M        345                            : bot_depth    - STOP DEPTH
STEP.M        0.25                           : increment    - STEP LENGTH
 NULL. -999.2500:NULL Value
~CURVE INFORMATION BLOCK
#MNEM UNIT       ERCB CURVE CODE    CURVE DESCRIPTION
#-----------   ------------------   ----------------------------------
DEPT.M        00 001 00 00         : DEPTH        - DEPTH
ILD .OHMM     00 120 00 00         : RESD         - DEEP RESISTIVITY (DIL)
GR  .API      00 310 00 00         : GR           - GAMMA RAY
NPHI.V/V      00 330 00 00         : PHIN         - NEUTRON POROSITY (SANDSTONE)
DPHI.V/V      00 890 00 00         : PHID         - DENSITY POROSITY (SANDSTONE)
~PARAMETER INFORMATION
#MNEM.UNIT           DATA             DESCRIPTION OF MNEMONIC
#---------         -----------     ------------------------------
GL  .M        623.61               : gl           - GROUND LEVEL ELEVATION
EREF.M        626.61               : kb           - ELEVATION OF DEPTH REFERENCE
DATM.M        626.61               : datum        - DATUM ELEVATION
TDD .M        346.8                : tdd          - TOTAL DEPTH DRILLER
RUN .         ONE                  : Run          - RUN NUMBER
ENG .         BILL                 : Engineer     - RECORDING ENGINEER
WIT .         JIM                  : Witness      - WITNESSED BY
MUD .         GEL                  : Mud_type     - MUD TYPE
MATR.         SANDSTONE            : Logunit      - NEUTRON MATRIX
TMAX.C        25                   : BHT          - MAXIMUM RECORDED TEMPERATURE
BHTD.M        346.8                : BHTDEP       - MAXIMUM RECORDED TEMPERATURE
RMT .C        17.8                 : MDTP         - TEMPERATURE OF MUD
MUDD.KG/M     1120                 : MWT          - MUD DENSITY
NEUT.         1                    : NEUTRON      - NEUTRON TYPE
RESI.         0                    : RESIST       - RESISTIVITY TYPE
RM  .OHMM     3.5                  : RM           - RESISTIVITY OF MUD
RMC .OHMM     3                    : RMC          - RESISTIVITY OF MUD CAKE
RMF .OHMM     3                    : RMF          - RESISTIVITY OF MUD FILTRATE
SUFT.C        4                    : SUFT         - SURFACE TEMPERATURE
~A  DEPTH     RESD       GR     PHIN     PHID
# ...
  262.000    8.686   91.444    0.447    0.291
  262.250    6.590  109.698    0.454    0.265
  262.500    4.626  112.629    0.466    0.240
  262.750    3.947  111.867    0.483    0.229
  263.000    3.431  110.555    0.507    0.224
  263.250    3.480  105.519    0.506    0.222
  263.500    3.615  111.472    0.479    0.217
  263.750    3.967  114.464    0.472    0.207
  264.000    4.194  114.923    0.479    0.199
  264.250    4.693  112.970    0.479    0.194
  264.500    4.957  111.628    0.460    0.192
  264.750    5.136  112.117    0.450    0.183
  265.000    5.115  113.827    0.440    0.177
  265.250    5.008  118.010    0.440    0.189
  265.500    4.801  117.278    0.428    0.207
  265.750    4.602  107.358    0.451    0.216
  266.000    5.250   96.828    0.468    0.219
  266.250    5.879   96.677    0.460    0.220
  266.500    6.467  100.859    0.445    0.224
  266.750    6.695  106.232    0.426    0.221
  267.000    6.798  107.973    0.413    0.222
  267.250    6.913   95.001    0.412    0.217
  267.500    7.157   78.365    0.408    0.207
  267.750    7.421   65.393    0.375    0.199
  268.000    8.310   56.084    0.452    0.195
  268.250    9.504   58.375    0.382    0.172
  268.500   11.281   61.336    0.223    0.098
  268.750   13.921   67.930    0.157    0.017
  269.000   16.220   77.607    0.138   -0.019
  269.250   14.656   81.179    0.207    0.067
  269.500   12.028   86.552    0.266    0.114
  269.750   10.263   92.566    0.345    0.178
  270.000    8.408   91.194    0.395    0.228
  270.250    8.060   86.158    0.428    0.225
  270.500    8.344   84.785    0.459    0.227
  270.750    8.493   85.946    0.511    0.236
  271.000    8.457   91.319    0.520    0.249
  271.250    7.945   96.722    0.490    0.246
  271.500    7.629   99.012    0.417    0.238
  271.750    6.504  100.723    0.432    0.228
  272.000    5.882  103.074    0.451    0.223
  272.250    5.424  101.731    0.427    0.227
  272.500    6.074   85.096    0.419    0.234
  272.750    6.422   98.436    0.413    0.230
  273.000    7.191  102.558    0.454    0.235
  273.250    6.373  107.961    0.432    0.256
  273.500    5.758  113.365    0.389    0.287
  273.750    5.212  115.655    0.435    0.251
  274.000    4.623  115.564    0.460    0.236
  274.250    3.859  114.832    0.488    0.227
  274.500    3.705  112.269    0.470    0.233
  274.750    3.622  107.844    0.477    0.244
  275.000    3.978  102.839    0.489    0.243
  275.250    4.545   91.698    0.482    0.244
  275.500    6.680   82.999    0.457    0.252
  275.750    8.251   79.185    0.411    0.257
  276.000    9.597   80.315    0.397    0.259
  276.250    9.380   82.635    0.408    0.224
  276.500    8.819   87.368    0.433    0.224
  276.750    7.823   90.359    0.444    0.253
  277.000    7.075   97.564    0.446    0.275
  277.250    6.031  102.968    0.412    0.277
  277.500    5.251  107.120    0.396    0.259
  277.750    5.128  105.136    0.377    0.247
  278.000    5.106  104.405    0.389    0.239
  278.250    5.093  105.504    0.457    0.240
  278.500    5.072  105.993    0.496    0.244
  278.750    5.059  103.400    0.485    0.241
  279.000    5.145  100.867    0.479    0.233
  279.250    5.331   97.083    0.487    0.228
  279.500    5.627   90.856    0.499    0.230
  279.750    5.835   98.671    0.501    0.241
  280.000    6.408  107.738    0.378    0.241
  280.250    7.038  113.081    0.347    0.187
  280.500    7.441  112.990    0.366    0.150
  280.750    7.267  111.647    0.417    0.148
  281.000    6.701  110.305    0.428    0.201
  281.250    6.179  108.322    0.418    0.204
  281.500    6.158  106.369    0.408    0.199
  281.750    6.132  105.027    0.402    0.202
  282.000    6.111  106.126    0.386    0.213
  282.250    5.863  108.417    0.374    0.220
  282.500    5.294  108.966    0.398    0.224
  282.750    5.183  108.235    0.439    0.223
  283.000    4.780  105.000    0.466    0.218
  283.250    4.404  106.130    0.470    0.210
  283.500    4.221  109.702    0.461    0.209
  283.750    3.893  116.296    0.448    0.210
  284.000    3.590  119.227    0.459    0.210
  284.250    3.863  113.001    0.482    0.206
  284.500    4.326  106.134    0.494    0.197
  284.750    4.663  100.518    0.493    0.192
  285.000    5.027   96.704    0.503    0.191
  285.250    5.209  106.991    0.514    0.158
  285.500    5.397  114.196    0.369    0.093
  285.750    5.813  114.074    0.325    0.058
  286.000    6.261  117.005    0.384    0.129
  286.250    7.289  119.967    0.416    0.154
  286.500    7.858  122.287    0.384    0.179
  286.750    8.630  120.335    0.369    0.188
  287.000    9.845  118.382    0.355    0.188
  287.250   10.004  116.399    0.376    0.189
  287.500    9.598  115.667    0.401    0.189
  287.750    9.201  115.545    0.388    0.190
  288.000    9.350  114.783    0.373    0.193
  288.250   10.071  114.112    0.361    0.193
  288.500   10.639  110.298    0.355    0.195
  288.750   11.239  104.651    0.353    0.194
  289.000   11.645  102.118    0.355    0.190
  289.250   11.823   99.494    0.379    0.177
  289.500   10.912  102.456    0.341    0.145
  289.750    9.678  106.638    0.314    0.107
  290.000    9.100  110.791    0.295    0.106
  290.250    8.879  113.722    0.378    0.139
  290.500    8.857  114.821    0.389    0.149
  290.750    9.176  115.310    0.391    0.187
  291.000    9.516  112.717    0.400    0.192
  291.250   10.232  107.101    0.384    0.189
  291.500   10.611  100.234    0.372    0.195
  291.750   11.209   98.281    0.397    0.214
  292.000   11.400  100.632    0.386    0.230
  292.250   11.574  104.784    0.350    0.182
  292.500   11.525  106.525    0.300    0.132
  292.750   11.058  105.763    0.269    0.046
  293.000   10.601  104.360    0.259    0.127
  293.250   10.370  104.299    0.369    0.165
  293.500   10.326  104.178    0.375    0.191
  293.750   10.699  104.056    0.373    0.180
  294.000   11.085  105.156    0.330    0.142
  294.250   11.495  106.866    0.281    0.107
  294.500   11.681  109.217    0.271    0.102
  294.750   10.982  111.538    0.339    0.167
  295.000   10.127  115.690    0.369    0.196
  295.250    9.159  117.980    0.392    0.194
  295.500    8.604  118.469    0.384    0.168
  295.750    8.227  121.400    0.376    0.166
  296.000    8.213  121.340    0.370    0.165
  296.250    8.502  116.274    0.369    0.165
  296.500    8.824  113.741    0.390    0.163
  296.750    9.504  105.653    0.477    0.156
  297.000    9.480  104.310    0.423    0.156
  297.250    8.395  110.324    0.351    0.121
  297.500    7.899  119.360    0.340    0.112
  297.750    7.278  121.071    0.364    0.137
  298.000    6.849  119.118    0.357    0.169
  298.250    6.439  114.693    0.356    0.188
  298.500    6.543  113.381    0.374    0.181
  298.750    7.042  116.922    0.399    0.174
  299.000    7.296  118.022    0.364    0.174
  299.250    7.131  114.177    0.348    0.187
  299.500    6.570  111.033    0.393    0.202
  299.750    6.188  107.829    0.445    0.202
  300.000    5.374  109.539    0.413    0.196
  300.250    5.788  111.250    0.377    0.192
  300.500    5.338  113.601    0.347    0.194
  300.750    4.300  117.142    0.467    0.210
  301.000    3.389  119.493    0.495    0.227
  301.250    3.443  118.761    0.502    0.224
  301.500    3.571  114.977    0.497    0.212
  301.750    3.998  109.941    0.503    0.192
  302.000    4.569  104.906    0.506    0.182
  302.250    5.319  101.732    0.490    0.184
  302.500    7.100   97.917    0.464    0.200
  302.750    7.500   97.186    0.453    0.197
  303.000    8.230  109.304    0.465    0.187
  303.250    8.695  111.655    0.476    0.167
  303.500    8.175  118.890    0.441    0.099
  303.750    7.692  120.570    0.365    0.082
  304.000    7.232  116.175    0.273    0.115
  304.250    6.535  106.897    0.338    0.156
  304.500    6.635   96.367    0.397    0.161
  304.750    6.881   85.226    0.485    0.151
  305.000    7.418   79.549    0.503    0.154
  305.250    8.306   81.931    0.414    0.118
