~VERSION INFORMATION
 VERS.                 2.0:   CWLS LOG ASCII STANDARD -VERSION 2.0
 WRAP.                  NO:   ONE LINE PER DEPTH STEP
~WELL INFORMATION BLOCK
#MNEM.UNIT           DATA                    DESCRIPTION OF MNEMONIC
#---------    -------------------            -------------------------------
# Generated from Intellog Unique Number	CW_76_78/WELL/913
WELL.         PCP MARTEN HILLS 10-28-076     : Well_name    - WELL
LOC .         00/10-28-076-04W5/0            : Location     - LOCATION
UWI .         00/10-28-076-04W5/0            : Uwi          - UNIQUE WELL ID
ENTR.         JAYE                           : Entered      - ENTERED BY
SRVC.         SCHLUMBERGER                   : Scn          - SERVICE COMPANY
DATE.         18 FEB 74                      : Date         - LOG DATE
STRT.M        463.296                        : top_depth    - START DEPTH
STOP.M        704.046                        : bot_depth    - STOP DEPTH
STEP.M        0.25                           : increment    - STEP LENGTH
 NULL. -999.2500:NULL Value
~CURVE INFORMATION BLOCK
#MNEM UNIT       ERCB CURVE CODE    CURVE DESCRIPTION
#-----------   ------------------   ----------------------------------
DEPT.M        00 001 00 00         : DEPTH        - DEPTH
ILD .OHMM     00 120 00 00         : RESD         - DEEP RESISTIVITY (DIL)
NPHI.V/V      00 330 00 00         : PHIN         - NEUTRON POROSITY (SANDSTONE)
DPHI.V/V      00 890 00 00         : PHID         - DENSITY POROSITY (SANDSTONE)
GR  .API      00 310 00 00         : GR           - GAMMA RAY
CALI.MM       00 280 01 00         : CAL          - CALIPER
~PARAMETER INFORMATION
#MNEM.UNIT           DATA             DESCRIPTION OF MNEMONIC
#---------         -----------     ------------------------------
GL  .M        771.754              : gl           - GROUND LEVEL ELEVATION
EREF.M        775.716              : kb           - ELEVATION OF DEPTH REFERENCE
DATM.M        771.754              : datum        - DATUM ELEVATION
TDD .M        717.804              : tdd          - TOTAL DEPTH DRILLER
RUN .         ONE                  : Run          - RUN NUMBER
MATR.         SANDSTONE            : Logunit      - NEUTRON MATRIX
TMAX.C        31.6667              : BHT          - MAXIMUM RECORDED TEMPERATURE
BHTD.M        717.499              : BHTDEP       - MAXIMUM RECORDED TEMPERATURE
RMT .C        20                   : MDTP         - TEMPERATURE OF MUD
MUDD.KG/M     0                    : MWT          - MUD DENSITY
NEUT.         1                    : NEUTRON      - NEUTRON TYPE
RESI.         0                    : RESIST       - RESISTIVITY TYPE
RM  .OHMM     2.52                 : RM           - RESISTIVITY OF MUD
RMC .OHMM     0                    : RMC          - RESISTIVITY OF MUD CAKE
RMF .OHMM     2.67                 : RMF          - RESISTIVITY OF MUD FILTRATE
SUFT.C        -17.7778             : SUFT         - SURFACE TEMPERATURE
~A  DEPTH     RESD     PHIN     PHID       GR      CAL
# ...
  682.296    5.958    0.379    0.138   66.909  212.463
  682.546    6.277    0.390    0.155   64.156  213.000
  682.796    6.699    0.382    0.146   60.552  213.740
  683.046    8.091    0.362    0.163   56.098  215.100
  683.296   11.433    0.358    0.177   47.670  216.461
  683.546   17.883    0.187    0.217   29.150  212.138
  683.796   28.129    0.161    0.263   20.925  208.127
  684.046   40.192    0.140    0.129   19.713  207.112
  684.296   60.700    0.100    0.087   19.758  207.957
  684.546   86.733    0.109    0.017   19.518  209.730
  684.796   98.379    0.112    0.047   17.901  211.402
  685.046  100.437    0.092    0.085   16.202  212.662
  685.296   96.480    0.075    0.018   17.828  212.989
  685.546   89.147    0.090    0.001   18.886  213.832
  685.796   77.216    0.121    0.022   19.862  214.264
  686.046   57.801    0.186    0.056   20.676  212.835
  686.296   45.818    0.302    0.196   21.694  210.268
  686.546   36.052    0.334    0.265   22.995  207.601
  686.796   33.251    0.336    0.274   24.012  206.690
  687.046   30.555    0.339    0.277   26.205  206.189
  687.296   27.923    0.346    0.291   26.614  205.793
  687.546   25.992    0.353    0.306   26.699  205.607
  687.796   24.510    0.361    0.293   26.784  205.003
  688.046   23.283    0.365    0.300   26.464  204.297
  688.296   21.996    0.363    0.288   25.900  203.901
  688.546   20.438    0.356    0.284   25.418  203.197
  688.796   18.747    0.348    0.293   24.692  202.697
  689.046   17.386    0.344    0.281   24.452  202.304
  689.296   15.888    0.346    0.268   25.389  202.113
  689.546   14.121    0.346    0.302   25.352  201.821
  689.796   11.854    0.340    0.292   24.707  201.941
  690.046    9.950    0.335    0.285   24.509  202.271
  690.296    8.587    0.328    0.292   24.472  202.598
  690.546    7.493    0.321    0.289   24.719  203.238
  690.796    6.747    0.334    0.275   24.926  203.770
  691.046    6.269    0.329    0.264   26.024  204.512
  691.296    6.100    0.328    0.290   27.325  204.944
  691.546    6.091    0.346    0.289   28.869  205.478
  691.796    6.207    0.354    0.270   30.575  205.701
  692.046    6.612    0.346    0.285   32.606  205.924
  692.296    7.017    0.341    0.291   35.975  205.839
  692.546    7.244    0.342    0.270   38.492  205.445
  692.796    7.409    0.339    0.233   39.063  205.257
  693.046    7.509    0.324    0.213   39.310  205.066
  693.296    7.415    0.346    0.223   40.003  204.774
  693.546    7.215    0.340    0.227   41.264  204.688
  693.796    7.034    0.336    0.224   43.091  204.709
  694.046    6.895    0.336    0.258   45.528  204.727
  694.296    6.797    0.336    0.240   47.153  204.846
  694.546    6.787    0.338    0.241   46.508  204.967
  694.796    6.790    0.335    0.236   47.971  205.500
  695.046    6.767    0.337    0.230   49.029  205.933
  695.296    6.695    0.338    0.209   47.614  205.951
  695.546    6.649    0.340    0.187   48.713  205.762
  695.796    6.517    0.344    0.176   50.703  202.989
  696.046    6.101    0.357    0.215   53.139  201.663
  696.296    5.647    0.357    0.224   55.007  202.405
  696.546    5.190    0.353    0.208   57.443  204.180
  696.796    4.725    0.346    0.222   60.649  206.366
  697.046    4.415    0.356    0.192   65.761  209.692
  697.296    4.194    0.375    0.188   69.818  210.535
  697.546    4.058    0.392    0.184   70.025  214.171
  697.796    4.052    0.414    0.188   70.353  215.430
  698.046    4.099    0.430    0.185   70.965  215.962
  698.296    4.139    0.425    0.184   69.631  215.878
  698.546    4.225    0.427    0.165   66.271  215.482
  698.796    4.386    0.440    0.198   58.492  214.983
  699.046    4.604    0.425    0.228   51.159  214.484
  699.296    4.850    0.385    0.245   53.433  215.432
  699.546    5.138    0.373    0.268   54.328  217.620
  699.796    5.383    0.406    0.272   55.427  213.297
  700.046    5.766    0.430    0.285   55.066  210.836
  700.296    6.268    0.452    0.273   38.937  210.233
  700.546    7.162    0.293    0.219   27.996  210.150
  700.796    8.730    0.221    0.191   19.853  209.961
  701.046   12.778    0.193    0.052   19.086  209.976
  701.296   16.895    0.156    0.049   18.725  209.584
  701.546   20.747    0.152    0.058   19.094  209.291
  701.796   23.534    0.148    0.058   18.693  208.997
  702.046   23.805    0.144    0.048   18.170  208.705
  702.296   23.597    0.156    0.051   18.579  208.414
  702.546   23.388    0.163    0.067   19.312  208.020
  702.796   22.758    0.164    0.071   20.290  207.625
  703.046   22.351    0.163    0.060   20.617  207.434
  703.296   21.829    0.160    0.056   20.175  207.037
  703.546   21.359    0.163    0.058   19.044  206.953
  703.796   21.056    0.169    0.074   18.602  206.661
  704.046   20.987    0.177    0.085   18.526  206.575
