~VERSION INFORMATION
 VERS.                 2.0:   CWLS LOG ASCII STANDARD -VERSION 2.0
 WRAP.                  NO:   ONE LINE PER DEPTH STEP
~WELL INFORMATION BLOCK
#MNEM.UNIT           DATA                    DESCRIPTION OF MNEMONIC
#---------    -------------------            -------------------------------
# Generated from Intellog Unique Number	CW_82_90/WELL/3438
WELL.         TEXEX WOODEN                   : Well_name    - WELL
LOC .         00/10-13-089-24W4/0            : Location     - LOCATION
UWI .         00/10-13-089-24W4/0            : Uwi          - UNIQUE WELL ID
ENTR.         MAX                            : Entered      - ENTERED BY
SRVC.         SCHLUMBERGER                   : Scn          - SERVICE COMPANY
STRT.M        121.92                         : top_depth    - START DEPTH
STOP.M        270.67                         : bot_depth    - STOP DEPTH
STEP.M        0.25                           : increment    - STEP LENGTH
 NULL. -999.2500:NULL Value
~CURVE INFORMATION BLOCK
#MNEM UNIT       ERCB CURVE CODE    CURVE DESCRIPTION
#-----------   ------------------   ----------------------------------
DEPT.M        00 001 00 00         : DEPTH        - DEPTH
ILD .OHMM     00 120 00 00         : RESD         - DEEP RESISTIVITY (DIL)
NPHI.V/V      00 330 00 00         : PHIN         - NEUTRON POROSITY (SANDSTONE)
DPHI.V/V      00 890 00 00         : PHID         - DENSITY POROSITY (SANDSTONE)
CALI.MM       00 280 01 00         : CAL          - CALIPER
GR  .API      00 310 00 00         : GR           - GAMMA RAY
~PARAMETER INFORMATION
#MNEM.UNIT           DATA             DESCRIPTION OF MNEMONIC
#---------         -----------     ------------------------------
GL  .M        508.65               : gl           - GROUND LEVEL ELEVATION
EREF.M        512.003              : kb           - ELEVATION OF DEPTH REFERENCE
DATM.M        508.65               : datum        - DATUM ELEVATION
TDD .M        263.347              : tdd          - TOTAL DEPTH DRILLER
RUN .         ONE                  : Run          - RUN NUMBER
ENG .         BILL                 : Engineer     - RECORDING ENGINEER
WIT .         JIM                  : Witness      - WITNESSED BY
MUD .         GEL                  : Mud_type     - MUD TYPE
MATR.         SANDSTONE            : Logunit      - NEUTRON MATRIX
TMAX.C        15.5556              : BHT          - MAXIMUM RECORDED TEMPERATURE
BHTD.M        263.347              : BHTDEP       - MAXIMUM RECORDED TEMPERATURE
MATR.         1                    : LOGUNIT      - NEUTRON MATRIX
RMT .C        15.5556              : MDTP         - TEMPERATURE OF MUD
NEUT.         1                    : NEUTRON      - NEUTRON TYPE
RESI.         0                    : RESIST       - RESISTIVITY TYPE
RMC .OHMM     5.35                 : RMC          - RESISTIVITY OF MUD CAKE
RMF .OHMM     5.35                 : RMF          - RESISTIVITY OF MUD FILTRATE
SUFT.C        -12.2222             : SUFT         - SURFACE TEMPERATURE
~A  DEPTH     RESD     PHIN     PHID      CAL       GR
# ...
  158.420    4.118    0.576    0.199  222.736   98.318
  158.670    3.621    0.599    0.202  222.688   99.173
  158.920    3.394    0.599    0.196  222.641   99.144
  159.170    3.182    0.599    0.195  222.604   98.534
  159.420    3.240    0.599    0.202  222.561   98.212
  159.670    3.389    0.559    0.201  222.513   96.716
  159.920    3.579    0.544    0.186  221.967   94.925
  160.170    3.711    0.539    0.177  221.930   97.254
  160.420    3.919    0.544    0.176  221.384   98.105
  160.670    4.138    0.554    0.184  221.840   97.789
  160.920    4.291    0.534    0.190  224.776   97.179
  161.170    4.449    0.527    0.212  225.238   95.974
  161.420    4.446    0.524    0.208  225.200   95.063
  161.670    4.363    0.519    0.182  223.653   94.155
  161.920    4.282    0.513    0.189  223.117   93.542
  162.170    4.319    0.518    0.207  223.070   92.925
  162.420    4.398    0.541    0.219  223.033   91.726
  162.670    4.476    0.536    0.229  222.985   89.047
  162.920    4.515    0.508    0.218  222.937   88.143
  163.170    4.555    0.511    0.237  222.895   91.060
  163.420    4.552    0.519    0.227  222.847   98.096
  163.670    4.509    0.541    0.197  222.306  101.895
  163.920    4.507    0.545    0.186  222.269  102.161
  164.170    4.504    0.537    0.183  222.720  100.077
  164.420    4.502    0.531    0.184  223.165   98.581
  164.670    4.500    0.539    0.184  222.635   97.673
  164.920    4.498    0.524    0.176  222.089   97.351
  165.170    4.537    0.537    0.182  222.052   96.440
  165.420    4.619    0.541    0.191  222.502   95.238
  165.670    4.789    0.548    0.197  222.953   94.033
  165.920    4.920    0.550    0.199  222.910   93.129
  166.170    5.101    0.521    0.201  222.868   91.338
  166.420    5.485    0.498    0.184  222.327   84.249
  166.670    5.740    0.473    0.176  222.778   81.573
  166.920    5.951    0.457    0.161  224.230   81.251
  167.170    5.949    0.449    0.134  223.690   81.814
  167.420    5.838    0.448    0.099  222.147   92.380
  167.670    5.625    0.460    0.113  222.110   95.883
  167.920    5.470    0.488    0.184  222.062   97.629
  168.170    5.176    0.506    0.163  222.020   99.664
  168.420    4.851    0.518    0.158  221.972   99.341
  168.670    4.632    0.547    0.180  222.423   98.430
  168.920    4.546    0.530    0.174  222.386   98.409
  169.170    4.421    0.501    0.181  222.343  100.443
  169.420    4.299    0.513    0.177  223.297  102.183
  169.670    4.142    0.543    0.179  223.249   99.798
  169.920    3.954    0.562    0.187  219.709  100.659
  170.170    3.917    0.570    0.179  219.174  102.693
  170.420    3.987    0.575    0.202  219.137  103.257
  170.670    4.288    0.545    0.215  220.091   99.695
  170.920    4.612    0.511    0.213  220.536   96.139
  171.170    5.145    0.500    0.200  220.493   91.992
  171.420    5.584    0.506    0.193  220.451   89.322
  171.670    5.582    0.525    0.205  220.398   85.469
  171.920    5.528    0.531    0.210  220.864   85.441
  172.170    5.278    0.524    0.206  220.811   87.181
  172.420    4.857    0.510    0.191  221.278   90.984
  172.670    4.768    0.501    0.106  221.728   94.781
  172.920    4.511    0.543    0.118  221.680   96.227
  173.170    4.347    0.562    0.143  221.638   97.967
  173.420    4.112    0.575    0.155  222.088  101.172
  173.670    3.890    0.580    0.184  223.546  100.271
  173.920    3.647    0.582    0.173  224.993   97.886
  174.170    3.450    0.588    0.169  224.950   99.920
  174.420    3.295    0.595    0.161  226.397  101.072
  174.670    3.174    0.598    0.150  226.360   98.396
  174.920    3.144    0.599    0.170  223.821   98.371
  175.170    3.171    0.599    0.179  222.783   99.522
  175.420    3.199    0.599    0.186  222.735   99.203
  175.670    3.317    0.599    0.195  222.189  102.418
  175.920    3.408    0.600    0.196  222.152  103.569
  176.170    3.565    0.600    0.166  222.115  100.302
  176.420    3.800    0.584    0.164  222.549   99.688
  176.670    4.086    0.561    0.172  222.523   99.075
  176.920    4.517    0.528    0.182  222.470   97.873
  177.170    5.180    0.480    0.203  222.438   96.374
  177.420    5.674    0.474    0.205  222.883   94.292
  177.670    6.330    0.479    0.196  222.846   95.435
  177.920    7.192    0.481    0.191  223.291   96.299
  178.170    7.736    0.479    0.193  223.249   93.920
  178.420    8.474    0.468    0.193  223.206   88.007
  178.670    9.281    0.459    0.188  223.164   76.802
  178.920    9.802    0.478    0.168  223.122   73.244
  179.170   10.444    0.487    0.187  223.074   78.809
  179.420   10.440    0.477    0.221  223.037   84.079
  179.670    9.968    0.487    0.232  222.989   85.522
  179.920    9.008    0.500    0.214  222.952   85.497
  180.170    7.848    0.497    0.216  221.903   86.061
  180.420    7.093    0.483    0.236  221.860   88.386
  180.670    6.351    0.479    0.224  221.823   88.361
  180.920    5.846    0.474    0.213  222.263   88.042
  181.170    5.381    0.463    0.208  222.719   88.899
  181.420    4.863    0.429    0.084  223.174   90.640
  181.670    4.600    0.455    0.124  223.132   98.264
  181.920    4.515    0.496    0.192  223.588  105.300
  182.170    4.555    0.535    0.188  223.545  108.805
  182.420    4.989    0.521    0.184  223.503  101.422
  182.670    5.464    0.506    0.181  223.461   96.981
  182.920    5.823    0.464    0.184  223.911   94.893
  183.170    5.768    0.441    0.195  223.869   92.808
  183.420    5.608    0.447    0.198  223.826   90.727
  183.670    5.306    0.476    0.188  223.778   95.115
  183.920    4.974    0.500    0.190  223.741   98.323
  184.170    4.882    0.507    0.194  224.192   96.827
  184.420    5.202    0.503    0.190  224.149   94.743
  184.670    5.595    0.495    0.189  223.100   90.599
  184.920    6.018    0.479    0.207  223.063   83.506
  185.170    6.714    0.465    0.219  223.524   80.837
  185.420    7.841    0.457    0.222  223.980   80.808
  185.670    9.073    0.455    0.235  223.927   82.251
  185.920    9.670    0.451    0.205  223.884   83.109
  186.170    9.934    0.450    0.194  223.842   80.730
  186.420   10.113    0.438    0.165  224.292   77.763
  186.670   10.107    0.422    0.131  224.753   74.790
  186.920   10.011    0.391    0.083  225.707   71.822
  187.170    9.825    0.368    0.047  225.660   69.149
  187.420    8.879    0.364    0.083  225.612   67.951
  187.670    6.994    0.387    0.139  225.575   68.217
  187.920    5.928    0.470    0.194  225.527   77.904
  188.170    4.800    0.502    0.182  224.483   85.234
  188.420    3.781    0.534    0.208  223.948   87.265
  188.670    3.118    0.543    0.207  223.402   86.652
  188.920    2.792    0.551    0.215  222.856   88.392
  189.170    2.570    0.573    0.219  222.813   90.132
  189.420    2.545    0.593    0.217  223.767   90.987
  189.670    2.568    0.583    0.219  225.220   93.021
  189.920    2.787    0.570    0.219  225.670   95.055
  190.170    3.534    0.558    0.213  225.622   96.207
  190.420    4.243    0.531    0.205  225.591   92.060
  190.670    4.910    0.512    0.187  226.046   82.620
  190.920    5.894    0.492    0.188  227.000   72.883
  191.170    6.821    0.495    0.188  227.451   68.739
  191.420    7.540    0.505    0.172  228.394   67.534
  191.670    7.818    0.501    0.162  228.855   77.516
  191.920    7.602    0.492    0.162  227.816   84.843
  192.170    7.258    0.483    0.146  228.765   86.289
  192.420    7.058    0.488    0.164  232.708   85.672
  192.670    6.990    0.492    0.151  232.671   83.587
  192.920    6.923    0.473    0.146  230.132   80.620
  193.170    6.920    0.437    0.142  232.576   79.710
  193.420    6.853    0.429    0.135  232.533   82.041
  193.670    6.851    0.445    0.181  229.507   83.781
  193.920    6.847    0.454    0.190  228.956   82.573
  194.170    6.782    0.456    0.199  228.410   82.548
  194.420    6.716    0.462    0.201  227.382   80.464
  194.670    6.652    0.452    0.197  226.841   81.910
