~VERSION INFORMATION
 VERS.                 2.0:   CWLS LOG ASCII STANDARD -VERSION 2.0
 WRAP.                  NO:   ONE LINE PER DEPTH STEP
~WELL INFORMATION BLOCK
#MNEM.UNIT           DATA                    DESCRIPTION OF MNEMONIC
#---------    -------------------            -------------------------------
# Generated from Intellog Unique Number	CS_67_68/WELL/2203
WELL.         11-04-067-03W4                 : Well_name    - WELL
LOC .         00/11-04-067-03W4/0            : Location     - LOCATION
UWI .         00/11-04-067-03W4/0            : Uwi          - UNIQUE WELL ID
ENTR.         SP                             : Entered      - ENTERED BY
SRVC.         SCHLUMBERGER                   : Scn          - SERVICE COMPANY
STRT.M        330                            : top_depth    - START DEPTH
STOP.M        555                            : bot_depth    - STOP DEPTH
STEP.M        0.25                           : increment    - STEP LENGTH
 NULL. -999.2500:NULL Value
~CURVE INFORMATION BLOCK
#MNEM UNIT       ERCB CURVE CODE    CURVE DESCRIPTION
#-----------   ------------------   ----------------------------------
DEPT.M        00 001 00 00         : DEPTH        - DEPTH
ILD .OHMM     00 120 00 00         : RESD         - DEEP RESISTIVITY (DIL)
DPHI.V/V      00 890 00 00         : PHID         - DENSITY POROSITY (LIMESTONE)
NPHI.V/V      00 330 00 00         : PHIN         - NEUTRON POROSITY (LIMESTONE)
GR  .API      00 310 00 00         : GR           - GAMMA RAY
CALI.MM       00 280 01 00         : CAL          - CALIPER
~PARAMETER INFORMATION
#MNEM.UNIT           DATA             DESCRIPTION OF MNEMONIC
#---------         -----------     ------------------------------
GL  .M        654.03               : gl           - GROUND LEVEL ELEVATION
EREF.M        657.79               : kb           - ELEVATION OF DEPTH REFERENCE
DATM.M        657.79               : datum        - DATUM ELEVATION
TDD .M        564                  : tdd          - TOTAL DEPTH DRILLER
RUN .         ONE                  : Run          - RUN NUMBER
ENG .         BILL                 : Engineer     - RECORDING ENGINEER
WIT .         JIM                  : Witness      - WITNESSED BY
MUD .         GEL                  : Mud_type     - MUD TYPE
MATR.         LIMESTONE            : Logunit      - NEUTRON MATRIX
TMAX.C        26                   : BHT          - MAXIMUM RECORDED TEMPERATURE
BHTD.M        564                  : BHTDEP       - MAXIMUM RECORDED TEMPERATURE
MATR.         1                    : LOGUNIT      - NEUTRON MATRIX
RMT .C        25                   : MDTP         - TEMPERATURE OF MUD
NEUT.         1                    : NEUTRON      - NEUTRON TYPE
RESI.         0                    : RESIST       - RESISTIVITY TYPE
RMC .OHMM     0.25                 : RMC          - RESISTIVITY OF MUD CAKE
RMF .OHMM     0.25                 : RMF          - RESISTIVITY OF MUD FILTRATE
SUFT.C        15                   : SUFT         - SURFACE TEMPERATURE
~A  DEPTH     RESD     PHID     PHIN       GR      CAL
# ...
  439.500    6.663    0.306    0.462   66.585  204.229
  439.750    6.799    0.315    0.488   68.535  204.529
  440.000    7.056    0.320    0.479   66.579  203.913
  440.250    7.093    0.323    0.466   64.865  202.788
  440.500    6.946    0.322    0.468   64.130  202.579
  440.750    6.675    0.320    0.480   63.089  202.980
  441.000    6.500    0.313    0.486   67.664  203.992
  441.250    6.235    0.306    0.491   75.231  204.598
  441.500    6.004    0.295    0.511   82.920  205.813
  441.750    5.879    0.285    0.522   87.069  206.825
  442.000    5.789    0.280    0.524   88.714  207.634
  442.250    5.743    0.277    0.517   86.268  207.222
  442.500    5.699    0.282    0.510   83.945  205.283
  442.750    5.354    0.289    0.500   83.454  204.362
  443.000    5.194    0.292    0.491   87.480  204.356
  443.250    5.077    0.288    0.476   89.369  204.860
  443.500    4.953    0.294    0.478   86.801  205.058
  443.750    4.814    0.309    0.492   86.005  205.460
  444.000    4.661    0.317    0.502   84.963  205.760
  444.250    4.471    0.302    0.513   82.457  206.364
  444.500    4.209    0.283    0.503   82.332  206.867
  444.750    4.083    0.274    0.509   86.724  207.677
  445.000    3.991    0.279    0.532   89.774  208.892
  445.250    3.901    0.277    0.531   90.503  210.412
  445.500    3.827    0.275    0.514   89.645  211.628
  445.750    3.747    0.276    0.503   90.313  212.946
  446.000    3.649    0.271    0.507   92.874  214.161
  446.250    3.353    0.251    0.527   94.458  213.342
  446.500    2.973    0.242    0.544   97.446  214.861
  446.750    2.591    0.261    0.556  100.618  217.198
  447.000    2.394    0.266    0.567   99.394  220.040
  447.250    2.327    0.248    0.561   97.681  221.359
  447.500    2.292    0.237    0.554  101.951  221.964
  447.750    2.356    0.251    0.514  105.977  222.365
  448.000    2.793    0.262    0.510  106.829  221.851
  448.250    3.256    0.269    0.533  107.008  219.505
  448.500    3.963    0.259    0.561  104.197  215.023
  448.750    5.247    0.276    0.574   93.693  209.625
  449.000    7.630    0.306    0.505   70.186  204.329
  449.250   11.715    0.326    0.460   59.499  201.474
  449.500   22.396    0.333    0.442   56.870  204.114
  449.750   32.627    0.336    0.437   57.966  207.873
  450.000   34.631    0.334    0.439   57.047  210.310
  450.250   35.207    0.330    0.454   56.860  213.153
  450.500   35.194    0.326    0.456   57.162  214.471
  450.750   34.786    0.341    0.450   57.586  212.125
  451.000   34.321    0.337    0.448   57.889  207.643
  451.250   33.106    0.332    0.454   58.435  205.195
  451.500   32.664    0.332    0.466   59.286  203.358
  451.750   32.407    0.347    0.471   60.443  200.300
  452.000   32.823    0.346    0.469   58.120  198.972
  452.250   33.682    0.341    0.470   57.933  198.560
  452.500   34.953    0.335    0.478   60.311  197.944
  452.750   36.141    0.328    0.494   60.308  197.532
  453.000   37.571    0.322    0.497   60.365  197.424
  453.250   38.059    0.324    0.470   60.667  197.621
  453.500   38.836    0.329    0.468   60.786  197.923
  453.750   37.672    0.337    0.486   61.516  198.526
  454.000   34.351    0.343    0.481   59.436  199.133
  454.250   30.747    0.338    0.455   59.616  200.246
  454.500   26.007    0.329    0.439   60.956  201.156
  454.750   25.331    0.331    0.456   63.456  202.270
  455.000   23.938    0.335    0.469   65.285  202.977
  455.250   22.620    0.339    0.476   65.281  203.379
  455.500   20.355    0.334    0.482   64.790  203.881
  455.750   19.094    0.329    0.500   65.275  203.978
  456.000   17.121    0.315    0.516   66.920  204.278
  456.250   16.363    0.304    0.497   68.260  204.476
  456.500   15.873    0.320    0.463   67.035  204.775
  456.750   15.312    0.332    0.438   66.117  204.669
  457.000   14.854    0.270    0.424   65.930  204.766
  457.250   14.737    0.262    0.411   65.866  205.065
  457.500   13.617    0.273    0.402   67.450  205.059
  457.750   11.805    0.297    0.422   71.720  205.462
  458.000    8.842    0.254    0.442   76.784  206.982
  458.250    7.369    0.244    0.462   80.078  208.910
  458.500    6.720    0.246    0.482   83.066  209.413
  458.750    5.947    0.272    0.488   82.208  208.187
  459.000    5.516    0.281    0.476   80.312  207.164
  459.250    5.242    0.272    0.462   81.408  207.463
  459.500    5.123    0.266    0.474   82.259  208.476
  459.750    5.267    0.263    0.494   81.340  208.368
  460.000    5.385    0.279    0.485   80.237  207.346
  460.250    5.413    0.292    0.493   80.052  206.119
  460.500    5.441    0.275    0.509   83.588  205.402
  460.750    5.439    0.254    0.507   86.577  204.888
  461.000    5.417    0.244    0.492   89.016  204.475
  461.250    5.405    0.247    0.476   90.173  203.961
  461.500    5.474    0.234    0.466   90.902  204.566
  461.750    5.778    0.224    0.480   91.937  206.087
  462.000    6.390    0.227    0.496   91.323  208.421
  462.250    7.003    0.273    0.510   85.032  209.332
  462.500    8.162    0.300    0.512   78.496  206.783
  462.750    9.303    0.319    0.501   74.158  204.539
  463.000   10.213    0.318    0.490   73.056  203.719
  463.250   11.004    0.302    0.482   73.297  204.222
  463.500   11.745    0.300    0.495   72.866  204.522
  463.750   12.327    0.313    0.518   69.627  205.128
  464.000   13.281    0.318    0.516   67.487  205.631
  464.250   14.417    0.307    0.503   66.568  205.931
  464.500   15.857    0.300    0.505   69.374  206.028
  464.750   16.832    0.305    0.494   72.667  205.717
  465.000   17.305    0.302    0.480   74.190  205.711
  465.250   17.363    0.292    0.470   74.675  206.927
  465.500   17.195    0.285    0.459   78.640  208.753
  465.750   14.906    0.290    0.454   85.169  208.849
  466.000   11.945    0.268    0.468   88.157  208.233
  466.250    9.150    0.239    0.481   90.352  210.365
  466.500    6.739    0.247    0.487   91.936  212.903
  466.750    4.844    0.260    0.504   93.642  215.543
  467.000    3.947    0.261    0.530   90.037  217.573
  467.250    3.647    0.255    0.531   86.065  218.788
  467.500    3.479    0.252    0.508   84.170  218.274
  467.750    3.369    0.251    0.479   82.335  215.013
  468.000    3.280    0.256    0.501   83.492  214.905
  468.250    3.117    0.269    0.536   86.846  216.425
  468.500    2.864    0.278    0.549   86.659  217.540
  468.750    2.568    0.286    0.562   86.473  218.959
  469.000    2.364    0.282    0.565   86.714  216.919
  469.250    2.196    0.274    0.562   86.894  213.963
  469.500    2.075    0.275    0.555   86.463  214.262
  469.750    2.032    0.280    0.569   85.178  213.341
  470.000    2.016    0.282    0.577   81.573  210.792
  470.250    2.012    0.284    0.563   80.226  209.667
  470.500    2.011    0.292    0.532   80.712  208.848
  470.750    2.025    0.287    0.538   83.517  207.825
  471.000    2.040    0.284    0.557   83.636  205.581
  471.250    2.032    0.290    0.569   83.876  206.186
  471.500    2.019    0.294    0.569   85.155  206.689
  471.750    2.015    0.292    0.563   86.434  206.989
  472.000    2.022    0.293    0.573   86.858  206.984
  472.250    2.059    0.303    0.587   85.512  206.876
  472.500    2.133    0.295    0.588   77.938  206.871
  472.750    2.239    0.282    0.567   80.988  206.866
  473.000    2.376    0.274    0.546   85.868  207.267
  473.250    2.470    0.274    0.537   88.795  208.075
  473.500    2.549    0.277    0.531   91.906  209.088
  473.750    2.587    0.268    0.538   94.467  209.693
  474.000    2.572    0.263    0.543   95.928  208.671
  474.250    2.537    0.261    0.538   95.010  208.869
  474.500    2.503    0.256    0.542   94.579  211.712
  474.750    2.559    0.274    0.558   93.111  213.436
  475.000    2.955    0.287    0.559   85.354  214.449
  475.250    3.406    0.298    0.529   77.048  210.372
  475.500    4.248    0.307    0.521   71.550  207.112
  475.750    5.083    0.318    0.521   76.248  204.359
