~VERSION INFORMATION
 VERS.                 2.0:   CWLS LOG ASCII STANDARD -VERSION 2.0
 WRAP.                  NO:   ONE LINE PER DEPTH STEP
~WELL INFORMATION BLOCK
#MNEM.UNIT           DATA                    DESCRIPTION OF MNEMONIC
#---------    -------------------            -------------------------------
# Generated from Intellog Unique Number	CS_73_76/WELL/2202
WELL.         AMOCO CANADA PETROLEUM         : Well_name    - WELL
LOC .         00/11-22-074-12W4/0            : Location     - LOCATION
UWI .         00/11-22-074-12W4/0            : Uwi          - UNIQUE WELL ID
ENTR.         SP                             : Entered      - ENTERED BY
SRVC.         SCHLUMBERGER                   : Scn          - SERVICE COMPANY
STRT.M        289.56                         : top_depth    - START DEPTH
STOP.M        508.81                         : bot_depth    - STOP DEPTH
STEP.M        0.25                           : increment    - STEP LENGTH
 NULL. -999.2500:NULL Value
~CURVE INFORMATION BLOCK
#MNEM UNIT       ERCB CURVE CODE    CURVE DESCRIPTION
#-----------   ------------------   ----------------------------------
DEPT.M        00 001 00 00         : DEPTH        - DEPTH
GR  .API      00 310 00 00         : GR           - GAMMA RAY
DPHI.V/V      00 890 00 00         : PHID         - DENSITY POROSITY (SANDSTONE)
NPHI.V/V      00 330 00 00         : PHIN         - NEUTRON POROSITY (SANDSTONE)
ILD .OHMM     00 120 00 00         : RESD         - DEEP RESISTIVITY (DIL)
~PARAMETER INFORMATION
#MNEM.UNIT           DATA             DESCRIPTION OF MNEMONIC
#---------         -----------     ------------------------------
GL  .M        10                   : gl           - GROUND LEVEL ELEVATION
EREF.M        656.265              : kb           - ELEVATION OF DEPTH REFERENCE
DATM.M        10                   : datum        - DATUM ELEVATION
TDD .M        511.759              : tdd          - TOTAL DEPTH DRILLER
RUN .         ONE                  : Run          - RUN NUMBER
ENG .         BILL                 : Engineer     - RECORDING ENGINEER
WIT .         JIM                  : Witness      - WITNESSED BY
MUD .         GEL                  : Mud_type     - MUD TYPE
MATR.         SANDSTONE            : Logunit      - NEUTRON MATRIX
TMAX.C        15.5556              : BHT          - MAXIMUM RECORDED TEMPERATURE
BHTD.M        511.759              : BHTDEP       - MAXIMUM RECORDED TEMPERATURE
MATR.         1                    : LOGUNIT      - NEUTRON MATRIX
RMT .C        25                   : MDTP         - TEMPERATURE OF MUD
NEUT.         1                    : NEUTRON      - NEUTRON TYPE
RESI.         0                    : RESIST       - RESISTIVITY TYPE
RMC .OHMM     0.25                 : RMC          - RESISTIVITY OF MUD CAKE
RMF .OHMM     0.25                 : RMF          - RESISTIVITY OF MUD FILTRATE
SUFT.C        15                   : SUFT         - SURFACE TEMPERATURE
~A  DEPTH       GR     PHID     PHIN     RESD
# ...
  463.560  107.635    0.186    0.427    9.921
  463.810  107.742    0.172    0.432    9.287
  464.060  107.746    0.171    0.441    8.803
  464.310  107.763    0.176    0.442    8.390
  464.560  106.765    0.178    0.437    7.979
  464.810  103.729    0.182    0.427    7.752
  465.060  100.048    0.197    0.420    7.733
  465.310   98.018    0.182    0.420    7.908
  465.560   94.994    0.159    0.424    8.282
  465.810   91.060    0.161    0.427    9.055
  466.060   88.569    0.178    0.421   10.667
  466.310   85.541    0.201    0.414   13.750
  466.560   83.460    0.230    0.409   17.439
  466.810   82.143    0.260    0.397   20.423
  467.060   81.519    0.236    0.388   20.751
  467.310   81.577    0.229    0.383   18.947
  467.560   80.966    0.218    0.379   17.973
  467.810   81.016    0.204    0.379   17.280
  468.060   80.305    0.188    0.383   16.947
  468.310   79.796    0.196    0.388   17.239
  468.560   79.749    0.222    0.389   18.332
  468.810   79.760    0.233    0.380   18.574
  469.060   80.826    0.232    0.374   18.021
  469.310   81.152    0.212    0.368   17.592
  469.560   80.818    0.192    0.369   17.617
  469.810   79.914    0.192    0.372   17.823
  470.060   78.173    0.213    0.376   19.056
  470.310   77.878    0.228    0.380   21.143
  470.560   78.156    0.226    0.383   22.509
  470.810   80.001    0.192    0.385   22.664
  471.060   81.335    0.165    0.384   21.975
  471.310   83.111    0.138    0.372   21.180
  471.560   86.386    0.174    0.378   19.461
  471.810   87.183    0.218    0.382   17.741
  472.060   87.923    0.223    0.382   17.003
  472.310   87.834    0.203    0.379   16.684
  472.560   87.309    0.195    0.384   16.909
  472.810   86.625    0.209    0.390   16.808
  473.060   86.684    0.221    0.395   15.472
  473.310   87.762    0.230    0.402   13.716
  473.560   93.696    0.241    0.408   12.149
  473.810   97.790    0.210    0.411   11.180
  474.060  102.479    0.159    0.416   10.303
  474.310  103.982    0.117    0.420    9.960
  474.560  103.871    0.081    0.415    9.665
  474.810  103.517    0.072    0.409    9.454
  475.060  103.220    0.078    0.403    9.472
  475.310  103.135    0.097    0.407    9.318
  475.560  103.783    0.145    0.411    9.177
  475.810  104.387    0.161    0.409    8.608
  476.060  104.344    0.164    0.408    8.066
  476.310  104.374    0.164    0.413    7.632
  476.560  103.744    0.154    0.416    7.330
  476.810  102.959    0.149    0.419    7.324
  477.060   99.867    0.139    0.420    7.538
  477.310   97.987    0.149    0.416    7.990
  477.560   94.371    0.152    0.411    8.794
  477.810   91.489    0.147    0.405    9.957
  478.060   88.527    0.142    0.397   10.873
  478.310   86.519    0.155    0.389   11.668
  478.560   84.545    0.162    0.388   12.524
  478.810   83.029    0.166    0.386   13.534
  479.060   82.104    0.145    0.387   14.331
  479.310   80.466    0.165    0.397   15.527
  479.560   78.880    0.187    0.403   16.152
  479.810   77.811    0.199    0.399   17.084
  480.060   75.776    0.177    0.397   19.606
  480.310   74.105    0.209    0.393   21.543
  480.560   71.813    0.220    0.393   24.096
  480.810   68.785    0.225    0.395   27.129
  481.060   66.802    0.233    0.402   30.084
  481.310   64.826    0.245    0.407   31.937
  481.560   63.302    0.255    0.409   33.389
  481.810   63.247    0.260    0.409   33.600
  482.060   63.229    0.247    0.404   32.140
  482.310   63.158    0.240    0.404   30.226
  482.560   63.858    0.253    0.409   28.449
  482.810   63.792    0.245    0.418   27.320
  483.060   62.380    0.245    0.424   27.891
  483.310   61.058    0.266    0.429   30.581
  483.560   60.218    0.277    0.428   37.493
  483.810   59.540    0.284    0.427   47.074
  484.060   59.567    0.294    0.429   50.336
  484.310   60.112    0.291    0.429   52.000
  484.560   60.159    0.282    0.422   47.693
  484.810   60.171    0.282    0.416   43.651
  485.060   59.760    0.271    0.409   39.699
  485.310   57.816    0.241    0.413   39.097
  485.560   56.532    0.240    0.419   39.418
  485.810   55.367    0.244    0.426   40.948
  486.060   54.671    0.268    0.432   45.786
  486.310   55.354    0.278    0.427   52.619
  486.560   55.350    0.276    0.422   57.535
  486.810   55.379    0.283    0.416   62.617
  487.060   54.795    0.289    0.418   64.407
  487.310   54.706    0.288    0.428   64.449
  487.560   55.431    0.300    0.436   64.399
  487.810   56.398    0.307    0.433   61.483
  488.060   57.614    0.301    0.438   57.442
  488.310   58.897    0.293    0.446   53.569
  488.560   59.893    0.288    0.450   49.809
  488.810   61.093    0.286    0.450   45.642
  489.060   61.791    0.284    0.455   43.922
  489.310   62.776    0.272    0.457   42.321
  489.560   63.728    0.276    0.453   42.966
  489.810   64.680    0.276    0.449   45.493
  490.060   65.320    0.266    0.442   49.763
  490.310   66.144    0.274    0.438   52.857
  490.560   67.593    0.294    0.437   52.833
  490.810   68.511    0.296    0.443   49.540
  491.060   70.237    0.297    0.447   45.299
  491.310   73.211    0.306    0.445   39.528
  491.560   75.186    0.295    0.458   35.124
  491.810   77.810    0.313    0.465   30.371
  492.060   80.388    0.307    0.479   26.916
  492.310   81.619    0.296    0.482   23.806
  492.560   82.438    0.294    0.490   22.354
  492.810   79.950    0.303    0.500   21.016
  493.060   76.540    0.294    0.504   20.287
  493.310   73.167    0.249    0.492   20.024
  493.560   69.928    0.255    0.482   20.194
  493.810   66.662    0.262    0.477   20.835
  494.060   64.251    0.249    0.468   21.506
  494.310   63.144    0.261    0.463   21.683
  494.560   62.139    0.255    0.463   22.380
  494.810   60.608    0.252    0.460   23.381
  495.060   60.032    0.255    0.452   25.018
  495.310   58.592    0.261    0.442   29.468
  495.560   57.191    0.283    0.444   32.787
  495.810   56.058    0.303    0.447   37.026
  496.060   55.030    0.318    0.446   40.775
  496.310   54.913    0.320    0.440   42.648
  496.560   56.435    0.314    0.437   39.433
  496.810   58.960    0.318    0.449   35.609
  497.060   60.510    0.325    0.457   30.828
  497.310   63.547    0.298    0.452   25.514
  497.560   65.578    0.283    0.439   24.111
  497.810   65.361    0.270    0.433   23.166
  498.060   65.004    0.255    0.432   20.687
  498.310   64.321    0.242    0.427   17.267
  498.560   65.085    0.253    0.415   13.486
  498.810   64.417    0.254    0.411   10.392
  499.060   62.855    0.260    0.408    8.683
  499.310   61.193    0.249    0.409    7.481
  499.560   60.289    0.261    0.403    6.727
  499.810   59.584    0.260    0.393    6.276
  500.060   59.634    0.241    0.396    5.734
  500.310   59.098    0.224    0.400    5.399
  500.560   59.063    0.216    0.392    5.197
  500.810   58.328    0.209    0.384    4.889
  501.060   57.404    0.202    0.378    4.757
  501.310   55.540    0.220    0.385    4.508
  501.560   53.597    0.237    0.388    4.473
  501.810   53.385    0.230    0.385    4.399
  502.060   54.516    0.239    0.372    4.327
  502.310   56.528    0.247    0.369    4.467
  502.560   57.481    0.243    0.369    4.781
  502.810   58.370    0.227    0.360    5.349
  503.060   58.347    0.219    0.366    6.153
  503.310   57.305    0.243    0.379    7.707
  503.560   53.144    0.254    0.386    9.224
  503.810   48.825    0.278    0.399   10.249
  504.060   38.759    0.236    0.387   10.626
  504.310   29.715    0.193    0.380   10.955
  504.560   23.773    0.193    0.383   10.588
  504.810   42.915    0.214    0.391   10.445
  505.060   73.073    0.225    0.398   10.000
  505.310   91.486    0.244    0.386    9.364
  505.560   96.802    0.254    0.340    8.726
  505.810   96.753    0.246    0.310    8.357
  506.060   96.415    0.244    0.283    7.865
  506.310   96.189    0.231    0.267    7.386
  506.560   95.618    0.238    0.209    6.950
  506.810   95.539    0.237    0.094    6.740
