~VERSION INFORMATION
 VERS.                 2.0:   CWLS LOG ASCII STANDARD -VERSION 2.0
 WRAP.                  NO:   ONE LINE PER DEPTH STEP
~WELL INFORMATION BLOCK
#MNEM.UNIT           DATA                    DESCRIPTION OF MNEMONIC
#---------    -------------------            -------------------------------
# Generated from Intellog Unique Number	CS_73_76/WELL/840
WELL.         ARGO PETOLEUM CORPORATION      : Well_name    - WELL
LOC .         00/10-36-073-11W4/0            : Location     - LOCATION
UWI .         00/10-36-073-11W4/0            : Uwi          - UNIQUE WELL ID
ENTR.         SP                             : Entered      - ENTERED BY
SRVC.         SCHLUMBERGER                   : Scn          - SERVICE COMPANY
STRT.M        298.704                        : top_depth    - START DEPTH
STOP.M        517.954                        : bot_depth    - STOP DEPTH
STEP.M        0.25                           : increment    - STEP LENGTH
 NULL. -999.2500:NULL Value
~CURVE INFORMATION BLOCK
#MNEM UNIT       ERCB CURVE CODE    CURVE DESCRIPTION
#-----------   ------------------   ----------------------------------
DEPT.M        00 001 00 00         : DEPTH        - DEPTH
GR  .API      00 310 00 00         : GR           - GAMMA RAY
DPHI.V/V      00 890 00 00         : PHID         - DENSITY POROSITY (SANDSTONE)
NPHI.V/V      00 330 00 00         : PHIN         - NEUTRON POROSITY (SANDSTONE)
ILD .OHMM     00 120 00 00         : RESD         - DEEP RESISTIVITY (DIL)
~PARAMETER INFORMATION
#MNEM.UNIT           DATA             DESCRIPTION OF MNEMONIC
#---------         -----------     ------------------------------
GL  .M        654.406              : gl           - GROUND LEVEL ELEVATION
EREF.M        657.606              : kb           - ELEVATION OF DEPTH REFERENCE
DATM.M        654.406              : datum        - DATUM ELEVATION
TDD .M        523.951              : tdd          - TOTAL DEPTH DRILLER
RUN .         ONE                  : Run          - RUN NUMBER
ENG .         BILL                 : Engineer     - RECORDING ENGINEER
WIT .         JIM                  : Witness      - WITNESSED BY
MUD .         GEL                  : Mud_type     - MUD TYPE
MATR.         SANDSTONE            : Logunit      - NEUTRON MATRIX
TMAX.C        16.6667              : BHT          - MAXIMUM RECORDED TEMPERATURE
BHTD.M        523.951              : BHTDEP       - MAXIMUM RECORDED TEMPERATURE
MATR.         1                    : LOGUNIT      - NEUTRON MATRIX
RMT .C        25                   : MDTP         - TEMPERATURE OF MUD
NEUT.         1                    : NEUTRON      - NEUTRON TYPE
RESI.         0                    : RESIST       - RESISTIVITY TYPE
RMC .OHMM     0.25                 : RMC          - RESISTIVITY OF MUD CAKE
RMF .OHMM     0.25                 : RMF          - RESISTIVITY OF MUD FILTRATE
SUFT.C        15                   : SUFT         - SURFACE TEMPERATURE
~A  DEPTH       GR     PHID     PHIN     RESD
# ...
  472.704   74.259    0.187    0.424    9.678
  472.954   61.668    0.225    0.403   11.120
  473.204   58.839    0.224    0.393   12.773
  473.454   62.890    0.225    0.371   14.120
  473.704   65.760    0.205    0.369   15.948
  473.954   68.247    0.215    0.379   17.374
  474.204   68.673    0.233    0.400   18.306
  474.454   68.463    0.229    0.389   18.365
  474.704   68.901    0.217    0.380   17.830
  474.954   69.151    0.202    0.373   16.930
  475.204   67.048    0.208    0.376   16.461
  475.454   64.215    0.217    0.382   15.966
  475.704   61.100    0.207    0.370   15.398
  475.954   68.483    0.183    0.359   14.768
  476.204   72.221    0.172    0.359   14.355
  476.454   76.048    0.160    0.352   13.625
  476.704   78.386    0.153    0.353   13.245
  476.954   76.969    0.171    0.357   12.716
  477.204   72.554    0.214    0.367   12.250
  477.454   68.680    0.229    0.388   11.890
  477.704   66.319    0.230    0.390   11.735
  477.954   63.849    0.223    0.387   11.874
  478.204   58.395    0.244    0.423   12.992
  478.454   53.566    0.244    0.401   15.184
  478.704   56.247    0.248    0.394   17.820
  478.954   59.574    0.251    0.409   21.465
  479.204   61.620    0.258    0.400   23.844
  479.454   63.157    0.250    0.390   26.441
  479.704   68.989    0.254    0.416   27.706
  479.954   76.749    0.237    0.424   27.974
  480.204   85.141    0.203    0.417   22.312
  480.454   93.442    0.112    0.481   16.989
  480.704  103.073    0.094    0.564   12.101
  480.954  115.377    0.128    0.597    9.094
  481.204  116.836    0.150    0.614    7.392
  481.454  103.400    0.199    0.599    6.038
  481.704   90.024    0.242    0.562    4.874
  481.954   77.708    0.268    0.522    4.454
  482.204   46.276    0.276    0.447    5.311
  482.454   41.547    0.284    0.382    6.468
  482.704   40.940    0.276    0.388   10.343
  482.954   41.468    0.266    0.397   30.870
  483.204   42.240    0.261    0.393   64.863
  483.454   41.778    0.269    0.383   30.789
  483.704   44.258    0.269    0.380   17.594
  483.954   49.161    0.272    0.381   12.557
  484.204   55.650    0.284    0.391   10.872
  484.454   60.655    0.283    0.397    9.458
  484.704   59.121    0.285    0.404    8.473
  484.954   56.958    0.288    0.395    7.733
  485.204   60.135    0.273    0.407    7.461
  485.454   63.369    0.257    0.421    7.517
  485.704   68.022    0.237    0.410    7.608
  485.954   71.803    0.231    0.399    7.849
  486.204   74.355    0.239    0.392    7.850
  486.454   75.667    0.238    0.398    7.745
  486.704   77.000    0.240    0.394    7.378
  486.954   78.384    0.230    0.402    6.871
  487.204   77.572    0.218    0.398    6.372
  487.454   80.231    0.218    0.383    5.826
  487.704   83.065    0.235    0.372    5.444
  487.954   85.611    0.241    0.372    5.207
  488.204   83.522    0.228    0.374    4.979
  488.454   79.272    0.219    0.377    4.896
  488.704   81.122    0.213    0.387    4.892
  488.954   85.142    0.203    0.380    5.010
  489.204   87.962    0.165    0.367    5.352
  489.454   96.280    0.154    0.375    5.790
  489.704  103.586    0.162    0.371    6.297
  489.954  107.310    0.159    0.372    6.780
  490.204  108.966    0.172    0.390    7.005
  490.454  105.851    0.181    0.406    7.071
  490.704  102.840    0.149    0.394    7.076
  490.954  102.392    0.136    0.380    7.032
  491.204   98.790    0.120    0.370    7.329
  491.454   93.257    0.110    0.362    7.632
  491.704   94.072    0.106    0.362    8.063
  491.954   92.294    0.132    0.375    8.461
  492.204   89.955    0.148    0.387    8.520
  492.454   92.681    0.152    0.409    8.184
  492.704   94.688    0.148    0.416    7.729
  492.954   95.326    0.143    0.408    7.365
  493.204   95.177    0.139    0.418    7.020
  493.454   94.714    0.135    0.434    7.040
  493.704   91.949    0.164    0.453    7.370
  493.954   77.722    0.185    0.459    7.733
  494.204   69.658    0.199    0.461    8.326
  494.454   62.078    0.235    0.439    9.344
  494.704   55.451    0.224    0.396   10.971
  494.954   64.905    0.191    0.372   12.616
  495.204   64.110    0.169    0.378   14.338
  495.454   56.637    0.149    0.346   14.873
  495.704   52.398    0.148    0.306   14.241
  495.954   58.111    0.172    0.304   13.572
  496.204   63.742    0.189    0.330   12.022
  496.454   70.175    0.174    0.362   10.453
  496.704   71.987    0.180    0.369    9.038
  496.954   73.160    0.213    0.375    7.891
  497.204   71.757    0.216    0.375    7.135
  497.454   75.618    0.199    0.364    6.757
  497.704   77.977    0.208    0.363    6.459
  497.954   79.360    0.199    0.366    6.383
  498.204   77.185    0.186    0.358    6.177
  498.454   81.749    0.178    0.358    6.114
  498.704   82.805    0.175    0.373    5.944
  498.954   84.217    0.179    0.381    5.958
  499.204   83.608    0.189    0.386    5.846
  499.454   82.444    0.206    0.385    5.728
  499.704   80.284    0.208    0.374    5.738
  499.954   80.927    0.194    0.362    5.736
  500.204   83.970    0.176    0.356    5.735
  500.454   87.278    0.169    0.367    5.735
  500.704   88.513    0.182    0.376    5.734
  500.954   83.345    0.170    0.384    5.734
  501.204   71.085    0.161    0.399    5.675
  501.454   59.876    0.188    0.411    5.376
  501.704   53.756    0.234    0.391    4.781
  501.954   52.169    0.244    0.383    4.365
  502.204   51.224    0.242    0.378    4.081
  502.454   53.473    0.248    0.374    3.968
  502.704   57.512    0.242    0.371    4.040
  502.954   68.496    0.196    0.356    4.226
  503.204   76.042    0.168    0.353    4.548
  503.454   80.758    0.155    0.370    4.911
  503.704   80.115    0.143    0.391    5.048
  503.954   79.536    0.152    0.394    5.142
  504.204   81.033    0.164    0.405    5.033
  504.454   79.629    0.173    0.424    4.942
  504.704   78.808    0.171    0.434    4.892
  504.954   85.403    0.155    0.408    4.764
  505.204   88.381    0.150    0.391    4.680
  505.454   92.564    0.160    0.391    4.678
  505.704   88.524    0.190    0.405    4.671
  505.954   79.119    0.222    0.405    4.759
  506.204   74.531    0.233    0.385    4.678
  506.454   70.249    0.204    0.364    4.485
  506.704   78.503    0.132    0.347    4.423
  506.954   97.281    0.112    0.355    4.440
  507.204  101.508    0.130    0.365    4.674
  507.454  103.399    0.137    0.373    4.857
  507.704   75.506    0.184    0.384    5.074
  507.954   71.565    0.192    0.379    5.403
  508.204   71.811    0.172    0.341    5.633
  508.454   76.522    0.154    0.338    5.839
  508.704   81.746    0.149    0.344    6.019
  508.954   83.667    0.141    0.354    6.210
  509.204   93.798    0.155    0.377    6.248
  509.454   95.959    0.166    0.380    6.259
  509.704   98.711    0.183    0.396    6.125
  509.954   84.885    0.201    0.410    5.986
  510.204   75.754    0.209    0.414    5.432
  510.454   75.543    0.214    0.404    5.092
  510.704   73.230    0.226    0.391    4.742
  510.954   63.800    0.240    0.415    4.270
  511.204   58.040    0.267    0.393    3.998
  511.454   57.758    0.152    0.381    3.953
  511.704   71.765    0.155    0.364    3.946
  511.954   79.582    0.162    0.373    4.044
  512.204   75.525    0.172    0.394    4.164
  512.454   65.039    0.185    0.428    4.258
  512.704   60.767    0.201    0.420    4.255
  512.954   57.392    0.237    0.396    4.130
  513.204   52.767    0.267    0.423    3.842
  513.454   45.607    0.286    0.440    3.397
  513.704   40.731    0.273    0.403    3.246
  513.954   41.156    0.276    0.408    3.165
  514.204   43.433    0.272    0.412    3.170
  514.454   48.554    0.239    0.401    3.208
  514.704   50.219    0.225    0.403    3.347
  514.954   47.360    0.226    0.412    3.990
  515.204   33.194    0.189    0.388    4.810
  515.454   19.882    0.134    0.359    5.981
  515.704   20.498    0.107    0.313    7.079
  515.954   20.805    0.096    0.288    8.034
