~VERSION INFORMATION
 VERS.                 2.0:   CWLS LOG ASCII STANDARD -VERSION 2.0
 WRAP.                  NO:   ONE LINE PER DEPTH STEP
~WELL INFORMATION BLOCK
#MNEM.UNIT           DATA                    DESCRIPTION OF MNEMONIC
#---------    -------------------            -------------------------------
# Generated from Intellog Unique Number	CW_76_78/WELL/2779
WELL.         ASHLAND ET AL PELICAN          : Well_name    - WELL
LOC .         00/10-28-077-20W4/0            : Location     - LOCATION
UWI .         00/10-28-077-20W4/0            : Uwi          - UNIQUE WELL ID
ENTR.         JOE                            : Entered      - ENTERED BY
SRVC.         SCHLUMBERGER                   : Scn          - SERVICE COMPANY
STRT.M        228.6                          : top_depth    - START DEPTH
STOP.M        466.35                         : bot_depth    - STOP DEPTH
STEP.M        0.25                           : increment    - STEP LENGTH
 NULL. -999.2500:NULL Value
~CURVE INFORMATION BLOCK
#MNEM UNIT       ERCB CURVE CODE    CURVE DESCRIPTION
#-----------   ------------------   ----------------------------------
DEPT.M        00 001 00 00         : DEPTH        - DEPTH
ILD .OHMM     00 120 00 00         : RESD         - DEEP RESISTIVITY (DIL)
DPHI.V/V      00 890 00 00         : PHID         - DENSITY POROSITY (SANDSTONE)
NPHI.V/V      00 330 00 00         : PHIN         - NEUTRON POROSITY (SANDSTONE)
GR  .API      00 310 00 00         : GR           - GAMMA RAY
CALI.MM       00 280 01 00         : CAL          - CALIPER
~PARAMETER INFORMATION
#MNEM.UNIT           DATA             DESCRIPTION OF MNEMONIC
#---------         -----------     ------------------------------
GL  .M        571.195              : gl           - GROUND LEVEL ELEVATION
EREF.M        574.853              : kb           - ELEVATION OF DEPTH REFERENCE
DATM.M        574.853              : datum        - DATUM ELEVATION
TDD .M        499.872              : tdd          - TOTAL DEPTH DRILLER
RUN .         ONE                  : Run          - RUN NUMBER
ENG .         McNAUGHTON           : Engineer     - RECORDING ENGINEER
WIT .         LINKE                : Witness      - WITNESSED BY
MUD .         GEL                  : Mud_type     - MUD TYPE
MATR.         SANDSTONE            : Logunit      - NEUTRON MATRIX
TMAX.C        22.7778              : BHT          - MAXIMUM RECORDED TEMPERATURE
BHTD.M        499.872              : BHTDEP       - MAXIMUM RECORDED TEMPERATURE
RMT .C        16.1111              : MDTP         - TEMPERATURE OF MUD
MUDD.KG/M     61000                : MWT          - MUD DENSITY
NEUT.         1                    : NEUTRON      - NEUTRON TYPE
RESI.         0                    : RESIST       - RESISTIVITY TYPE
RM  .OHMM     1.1                  : RM           - RESISTIVITY OF MUD
RMC .OHMM     1.34                 : RMC          - RESISTIVITY OF MUD CAKE
RMF .OHMM     2.87                 : RMF          - RESISTIVITY OF MUD FILTRATE
SUFT.C        -12.2222             : SUFT         - SURFACE TEMPERATURE
~A  DEPTH     RESD     PHID     PHIN       GR      CAL
# ...
  411.100    4.607    0.180    0.438  117.115  176.197
  411.350    4.409    0.180    0.417  120.451  177.783
  411.600    4.401    0.186    0.400  118.375  177.842
  411.850    4.589    0.195    0.425  111.195  176.375
  412.100    4.776    0.210    0.478  106.121  174.894
  412.350    4.964    0.225    0.498  108.260  173.420
  412.600    5.442    0.209    0.464  104.981  173.420
  412.850    5.918    0.214    0.433   96.298  172.514
  413.100    6.204    0.206    0.377   87.011  171.543
  413.350    6.391    0.204    0.362   80.431  171.087
  413.600    6.191    0.196    0.376   82.569  171.139
  413.850    5.992    0.179    0.382   85.906  170.683
  414.100    5.599    0.169    0.384   87.743  170.247
  414.350    5.302    0.181    0.374   88.980  170.293
  414.600    5.199    0.173    0.381   89.909  170.345
  414.850    5.096    0.153    0.402   92.648  170.391
  415.100    4.994    0.155    0.418   95.083  171.461
  415.350    4.987    0.144    0.442   97.522  172.538
  415.600    4.982    0.138    0.410  100.554  173.615
  415.850    5.072    0.148    0.440  105.994  174.692
  416.100    5.258    0.160    0.429  116.245  175.240
  416.350    5.737    0.153    0.418  124.093  175.815
  416.600    6.409    0.141    0.410  117.513  176.389
  416.850    7.177    0.148    0.403  110.633  176.422
  417.100    8.333    0.153    0.401  107.070  176.481
  417.350    9.487    0.163    0.397  105.587  176.527
  417.600    9.577    0.171    0.379  102.914  176.078
  417.850    9.379    0.159    0.353   99.639  174.108
  418.100    9.082    0.182    0.346   95.764  172.112
  418.350    8.786    0.206    0.358   91.889  170.652
  418.600    8.489    0.221    0.403   87.413  170.182
  418.850    8.386    0.210    0.455   87.444  169.746
  419.100    8.379    0.169    0.494   86.273  169.785
  419.350    8.373    0.155    0.515   87.217  169.336
  419.600    8.658    0.152    0.479   88.442  168.879
  419.850    9.425    0.133    0.420   86.975  168.925
  420.100   10.291    0.114    0.385   84.899  169.500
  420.350   11.445    0.104    0.361   81.628  169.500
  420.600   12.504    0.138    0.333   77.449  169.612
  420.850   13.176    0.140    0.316   71.170  170.167
  421.100   13.751    0.109    0.298   67.895  170.728
  421.350   14.130    0.138    0.269   65.530  170.781
  421.600   13.931    0.162    0.269   65.565  170.846
  421.850   13.538    0.190    0.314   69.495  170.892
  422.100   13.243    0.214    0.341   80.948  170.938
  422.350   13.912    0.246    0.368   78.876  170.482
  422.600   14.488    0.264    0.364   70.193  170.032
  422.850   15.546    0.272    0.364   65.717  168.559
  423.100   16.411    0.285    0.381   62.446  167.594
  423.350   16.308    0.307    0.376   59.172  169.179
  423.600   15.721    0.288    0.351   55.293  169.232
  423.850   14.941    0.261    0.335   50.516  169.284
  424.100   14.159    0.247    0.297   50.551  169.344
  424.350   13.865    0.218    0.290   55.987  169.396
  424.600   13.471    0.183    0.304   65.638  169.449
  424.850   13.272    0.137    0.320   76.490  169.501
  425.100   13.072    0.136    0.337   83.132  169.561
  425.350   12.873    0.162    0.386   83.471  169.111
  425.600   12.962    0.184    0.375   79.592  169.659
  425.850   12.957    0.201    0.348   76.321  171.251
  426.100   12.853    0.150    0.331   77.555  171.297
  426.350   12.557    0.151    0.316   76.380  170.841
  426.600   12.262    0.136    0.302   73.105  169.883
  426.850   11.480    0.151    0.275   70.135  168.415
  427.100   11.089    0.127    0.281   72.270  167.444
  427.350   10.599    0.110    0.309   81.616  167.503
  427.600   10.108    0.131    0.333   81.046  170.608
  427.850    9.715    0.146    0.335   72.664  172.703
  428.100    9.322    0.134    0.319   69.990  173.264
  428.350    8.638    0.134    0.305   67.020  173.832
  428.600    7.954    0.120    0.300   65.853  173.872
  428.850    7.368    0.100    0.303   67.086  173.931
  429.100    6.781    0.091    0.310   70.423  173.475
  429.350    6.486    0.103    0.322   77.365  173.527
  429.600    5.996    0.131    0.347   83.410  173.084
  429.850    5.893    0.156    0.412   86.141  173.130
  430.100    5.886    0.221    0.463   91.284  172.668
  430.350    6.074    0.232    0.548   97.325  171.207
  430.600    6.455    0.253    0.496  100.970  167.189
  430.850    6.740    0.246    0.469  100.099  165.193
  431.100    6.927    0.233    0.451   99.830  164.235
  431.350    7.115    0.244    0.382  100.766  164.287
  431.600    7.206    0.225    0.365   99.287  164.862
  431.850    7.199    0.203    0.376   95.713  164.901
  432.100    7.191    0.215    0.359   90.936  165.978
  432.350    7.187    0.218    0.332   85.558  166.031
  432.600    6.987    0.198    0.349   81.382  166.592
  432.850    6.787    0.193    0.337   77.507  167.153
  433.100    6.588    0.198    0.325   71.829  167.721
  433.350    6.388    0.206    0.318   68.859  168.283
  433.600    6.093    0.172    0.317   77.905  168.851
  433.850    5.892    0.193    0.325   86.954  168.897
  434.100    5.789    0.174    0.389   93.296  168.949
  434.350    5.687    0.184    0.401   99.344  170.026
  434.600    5.584    0.171    0.376   97.268  171.110
  434.850    5.578    0.152    0.383   88.284  171.162
  435.100    5.475    0.160    0.382   85.314  171.208
  435.350    5.468    0.180    0.382   86.852  171.254
  435.600    5.463    0.197    0.393   88.377  171.320
  435.850    5.554    0.184    0.429   91.722  171.373
  436.100    5.645    0.194    0.517   95.054  171.934
  436.350    5.735    0.193    0.504   97.192  171.980
  436.600    5.735    0.227    0.476   90.909  172.033
  436.850    5.816    0.220    0.448   81.025  170.572
  437.100    5.814    0.208    0.376   72.342  168.589
  437.350    5.807    0.211    0.342   68.470  167.115
  437.600    5.801    0.218    0.332   66.999  165.126
  437.850    5.794    0.231    0.349   65.223  162.654
  438.100    5.692    0.242    0.341   61.051  162.178
  438.350    5.686    0.247    0.337   61.387  161.742
  438.600    5.680    0.233    0.346   61.418  161.286
  438.850    5.577    0.214    0.367   60.547  160.816
  439.100    5.474    0.221    0.355   59.380  160.869
  439.350    5.469    0.216    0.338   60.914  159.910
  439.600    5.462    0.238    0.324   63.645  159.963
  439.850    5.359    0.245    0.326   66.982  159.513
  440.100    5.352    0.235    0.355   67.313  159.566
  440.350    5.444    0.224    0.391   64.941  159.619
  440.600    5.632    0.250    0.378   61.065  159.665
  440.850    5.723    0.264    0.354   57.791  159.730
  441.100    5.812    0.270    0.348   59.929  159.776
  441.350    5.806    0.253    0.341   63.867  159.836
  441.600    5.801    0.265    0.330   68.405  159.882
  441.850    5.794    0.278    0.345   74.750  159.934
  442.100    5.691    0.251    0.388   68.772  159.993
  442.350    5.686    0.253    0.402   64.896  160.568
  442.600    5.680    0.244    0.416   61.922  160.614
  442.850    5.770    0.272    0.366   57.450  160.660
  443.100    5.860    0.265    0.331   56.283  161.228
  443.350    5.951    0.242    0.344   58.714  161.281
  443.600    5.946    0.246    0.304   63.253  160.838
  443.850    5.939    0.217    0.283   70.495  160.890
  444.100    5.932    0.199    0.282   92.165  160.930
  444.350    5.927    0.190    0.303  124.055  161.511
  444.600    5.728    0.177    0.332  157.148  162.066
  444.850    5.624    0.155    0.369  156.882  164.662
  445.100    5.522    0.158    0.370  152.402  166.750
  445.350    5.517    0.158    0.386  144.921  167.820
  445.600    5.510    0.154    0.404  139.543  168.891
  445.850    5.407    0.141    0.418  134.466  168.943
  446.100    5.401    0.151    0.419  126.384  168.996
  446.350    5.395    0.174    0.398  118.899  168.553
  446.600    5.388    0.207    0.376  109.916  168.599
  446.850    5.383    0.221    0.348  104.237  165.096
  447.100    5.377    0.219    0.357  114.489  160.061
  447.350    5.467    0.203    0.377  117.224  158.587
