~VERSION INFORMATION
 VERS.                 2.0:   CWLS LOG ASCII STANDARD -VERSION 2.0
 WRAP.                  NO:   ONE LINE PER DEPTH STEP
~WELL INFORMATION BLOCK
#MNEM.UNIT           DATA                    DESCRIPTION OF MNEMONIC
#---------    -------------------            -------------------------------
# Generated from Intellog Unique Number	CC_80_83/WELL/2328
NULL.         -999.25                        : NULL_VALUE
WELL.         CHEVRON CAN OXY JOLI FOU       : Well_name    - WELL
LOC .         10-01-082-18W4                 : Location     - LOCATION          
UWI .         00/10-01-082-18W400            : Uwi          - UNIQUE WELL ID    
ENTR.         DW                             : Entered      - ENTERED BY        
SRVC.         SCHLUMBERGER                   : Scn          - SERVICE COMPANY   
DATE.         14 FEB 73                      : Date         - LOG DATE
STRT.M        131.064                        : top_depth    - START DEPTH       
STOP.M        338.328                        : bot_depth    - STOP DEPTH        
STEP.M        0.305                          : increment    - STEP LENGTH       
~CURVE INFORMATION BLOCK
#MNEM UNIT       ERCB CURVE CODE    CURVE DESCRIPTION
#-----------   ------------------   ----------------------------------
DEPT.M        00 001 00 00         : DEPTH        - DEPTH                       
DPHI.V/V      00 890 00 00         : PHID         - DENSITY POROSITY (LIMESTONE)
NPHI.V/V      00 330 00 00         : PHIN         - NEUTRON POROSITY (LIMESTONE)
GR  .API      00 310 00 00         : GR           - GAMMA RAY                   
ILD .OHMM     00 120 00 00         : RESD         - DEEP RESISTIVITY (DIL)      
~PARAMETER INFORMATION       
#MNEM.UNIT           DATA             DESCRIPTION OF MNEMONIC
#---------         -----------     ------------------------------
GL  .M        545.287              : gl           - GROUND LEVEL ELEVATION      
EREF.M        548.64               : kb           - ELEVATION OF DEPTH REFERENCE
DATM.M        548.64               : datum        - DATUM ELEVATION             
TDD .M        336.499              : tdd          - TOTAL DEPTH DRILLER         
RUN .         ONE                  : Run          - RUN NUMBER                  
ENG .         BILL                 : Engineer     - RECORDING ENGINEER          
WIT .         JIM                  : Witness      - WITNESSED BY                
MUD .         GEL                  : Mud_type     - MUD TYPE                    
MATR.         LIMESTONE            : Logunit      - NEUTRON MATRIX              
TMAX.C        17.7778              : BHT          - MAXIMUM RECORDED TEMPERATURE
BHTD.M        336.499              : BHTDEP       - MAXIMUM RECORDED TEMPERATURE
MATR.         1                    : LOGUNIT      - NEUTRON MATRIX              
RMT .C        25                   : MDTP         - TEMPERATURE OF MUD          
NEUT.         1                    : NEUTRON      - NEUTRON TYPE                
RESI.         0                    : RESIST       - RESISTIVITY TYPE            
RMC .OHMM     0.25                 : RMC          - RESISTIVITY OF MUD CAKE     
RMF .OHMM     0.25                 : RMF          - RESISTIVITY OF MUD FILTRATE 
SUFT.C        15                   : SUFT         - SURFACE TEMPERATURE         
~A  DEPTH     PHID     PHIN       GR     RESD
# ...
  237.132    0.266    0.538   72.816    7.485
  237.437    0.247    0.524   76.418    7.484
  237.742    0.264    0.513   78.819    7.282
  238.047    0.254    0.511   81.220    7.281
  238.352    0.248    0.543   84.222    7.280
  238.656    0.250    0.558   86.623    7.078
  238.961    0.257    0.570   87.823    7.077
  239.266    0.254    0.602   87.820    7.075
  239.571    0.246    0.586   87.817    6.874
  239.876    0.234    0.563   86.011    7.072
  240.180    0.223    0.553   81.201    7.271
  240.485    0.249    0.559   74.588    8.069
  240.790    0.261    0.558   76.988    9.068
  241.095    0.267    0.564   76.986    9.667
  241.400    0.280    0.542   61.359   10.866
  241.704    0.284    0.456   55.947   12.464
  242.009    0.277    0.429   54.742   13.463
  242.314    0.214    0.403   54.740   14.861
  242.619    0.162    0.363   55.337   15.260
  242.924    0.098    0.347   57.739   14.258
  243.228    0.116    0.393   62.543   12.657
  243.533    0.154    0.438   69.752    9.655
  243.838    0.209    0.524   73.355    8.253
  244.143    0.248    0.511   76.357    8.052
  244.447    0.236    0.503   78.156    7.250
  244.752    0.236    0.502   79.355    7.048
  245.057    0.212    0.532   80.554    6.847
  245.362    0.183    0.554   82.355    6.045
  245.667    0.211    0.594   88.963    5.844
  245.971    0.229    0.592   91.363    5.842
  246.276    0.234    0.558   86.553    5.841
  246.581    0.214    0.535   80.541    6.240
  246.886    0.206    0.514   79.937    7.038
  247.191    0.240    0.532   79.934    7.636
  247.495    0.258    0.536   76.926    8.035
  247.800    0.260    0.528   76.923    8.834
  248.105    0.262    0.514   78.724    9.032
  248.410    0.246    0.508   82.927    9.231
  248.715    0.233    0.526   81.723    9.429
  249.019    0.224    0.528   76.311    9.428
  249.324    0.233    0.531   75.708    9.627
  249.629    0.223    0.520   78.108   10.025
  249.934    0.211    0.457   78.707   10.824
  250.239    0.106    0.393   77.502   11.823
  250.543    0.021    0.284   72.091   17.822
  250.848    0.090    0.267   61.271   19.821
  251.153    0.125    0.292   63.672   16.619
  251.458    0.210    0.329   73.284   12.017
  251.763    0.229    0.535   80.493    9.015
  252.067    0.236    0.543   79.888    8.213
  252.372    0.228    0.529   77.481    8.011
  252.677    0.223    0.525   78.080    8.210
  252.982    0.217    0.546   82.885    8.208
  253.287    0.218    0.564   84.686    8.407
  253.591    0.230    0.554   84.683    8.406
  253.896    0.240    0.541   83.477    8.403
  254.201    0.252    0.542   82.873    8.202
  254.506    0.233    0.536   80.467    8.001
  254.810    0.225    0.528   76.257    7.399
  255.115    0.231    0.525   81.062    7.198
  255.420    0.257    0.525   82.863    7.196
  255.725    0.268    0.529   82.259    7.195
  256.030    0.270    0.543   76.847    7.194
  256.334    0.279    0.518   71.436    7.992
  256.639    0.284    0.512   69.630    9.391
  256.944    0.264    0.520   68.426   11.590
  257.249    0.242    0.508   62.413   13.388
  257.554    0.188    0.441   58.804   13.987
  257.859    0.153    0.355   60.605   14.186
  258.163    0.159    0.445   67.213   13.985
  258.468    0.232    0.470   72.017   12.983
  258.773    0.234    0.476   73.217   10.781
  259.078    0.232    0.481   71.411    9.979
  259.383    0.212    0.458   69.605   11.578
  259.687    0.177    0.315   63.592   13.177
  259.992    0.096    0.298   58.782   13.575
  260.297    0.123    0.367   64.789   12.574
  260.602    0.166    0.437   72.598   11.172
  260.907    0.258    0.512   72.596    9.370
  261.211    0.261    0.546   70.188    8.769
  261.516    0.246    0.565   71.989    7.967
  261.821    0.235    0.540   75.591    7.165
  262.126    0.220    0.508   76.790    6.964
  262.431    0.211    0.524   79.192    6.562
  262.735    0.240    0.537   80.391    6.761
  263.040    0.252    0.543   79.788    7.359
  263.345    0.262    0.543   76.178    7.758
  263.650    0.275    0.522   72.570    7.957
  263.955    0.280    0.528   70.765    8.955
  264.260    0.215    0.499   68.358   10.354
  264.564    0.183    0.447   64.148   12.553
  264.869    0.151    0.285   61.742   15.552
  265.174    0.094    0.257   58.734   19.551
  265.479    0.079    0.262   56.928   20.550
  265.784    0.100    0.295   57.527   19.949
  266.088    0.147    0.329   62.332   14.346
  266.393    0.223    0.398   65.333   11.744
  266.698    0.250    0.483   65.330   10.142
  267.003    0.233    0.534   67.131    8.740
  267.308    0.225    0.527   72.536    8.138
  267.612    0.229    0.507   78.543    7.737
  267.917    0.241    0.473   81.544    7.536
  268.222    0.223    0.523   82.744    7.334
  268.527    0.220    0.531   80.939    7.333
  268.832    0.222    0.540   80.936    7.331
  269.136    0.211    0.547   82.736    7.129
  269.441    0.197    0.536   86.338    7.128
  269.746    0.194    0.553   86.336    7.327
  270.051    0.197    0.548   80.323    7.725
  270.356    0.212    0.527   83.326    7.923
  270.661    0.196    0.544   86.928    8.522
  270.965    0.213    0.558   85.724    8.921
  271.270    0.237    0.539   86.922    9.120
  271.575    0.227    0.532   89.323    8.719
  271.880    0.221    0.541   89.321    7.916
  272.185    0.214    0.525   85.711    7.715
  272.489    0.192    0.515   85.108    7.313
  272.794    0.175    0.500   86.307    7.112
  273.099    0.187    0.489   89.309    7.311
  273.404    0.203    0.487   91.109    7.509
  273.709    0.209    0.492   93.511    7.307
  274.013    0.223    0.504   97.113    7.106
  274.318    0.208    0.519   92.904    7.105
  274.623    0.201    0.522   96.507    7.303
  274.928    0.186    0.515   98.306    8.302
  275.233    0.197    0.495   95.299    9.700
  275.537    0.208    0.486   88.686   10.100
  275.842    0.208    0.448   83.876    9.698
  276.147    0.215    0.450   82.070    8.696
  276.452    0.215    0.482   85.071    8.294
  276.757    0.210    0.490   88.073    7.893
  277.062    0.207    0.483   90.474    7.691
  277.366    0.210    0.482   90.472    7.690
  277.671    0.211    0.488   94.075    8.089
  277.976    0.219    0.486   94.673    9.087
  278.281    0.211    0.486   86.257   10.086
  278.586    0.204    0.487   82.047   10.884
  278.890    0.255    0.487   83.847   10.883
  279.195    0.230    0.490   84.445   10.882
  279.500    0.218    0.437   81.438   11.080
  279.805    0.230    0.449   75.425   11.679
  280.110    0.243    0.447   71.817   12.878
  280.414    0.245    0.437   70.011   14.477
  280.719    0.112    0.286   67.605   19.476
  281.024    0.052    0.234   63.996   29.676
  281.329    0.031    0.219   58.584   25.674
  281.634    0.098    0.326   57.981   16.871
  281.938    0.174    0.389   66.391   13.269
  282.243    0.206    0.449   71.195   11.267
  282.548    0.237    0.487   74.799    9.865
  282.853    0.242    0.480   75.397    9.463
  283.158    0.249    0.441   74.793    9.462
  283.463    0.259    0.430   74.790    9.660
  283.767    0.238    0.434   75.387    9.659
  284.072    0.224    0.445   75.986    9.857
  284.377    0.220    0.432   77.186    9.656
  284.682    0.209    0.418   77.784    9.454
  284.987    0.224    0.416   78.983    9.253
  285.291    0.225    0.442   78.379    9.051
  285.596    0.227    0.482   76.573    8.850
  285.901    0.203    0.464   75.970    8.849
  286.206    0.189    0.455   77.169    9.447
  286.511    0.201    0.453   83.776    9.645
  286.815    0.210    0.469   83.173    9.644
  287.120    0.221    0.471   79.565    9.643
  287.425    0.232    0.462   75.354    9.441
  287.730    0.218    0.455   75.351    9.240
  288.035    0.208    0.465   75.951    9.039
  288.339    0.215    0.471   75.948    9.037
  288.644    0.201    0.449   72.939    9.235
  288.949    0.192    0.439   68.129    9.233
  289.254    0.203    0.437   65.122    9.032
  289.559    0.219    0.492   64.518    8.831
  289.864    0.230    0.465   69.323    8.429
