~VERSION INFORMATION
 VERS.                 2.0:   CWLS LOG ASCII STANDARD -VERSION 2.0
 WRAP.                  NO:   ONE LINE PER DEPTH STEP
~WELL INFORMATION BLOCK
#MNEM.UNIT           DATA                    DESCRIPTION OF MNEMONIC
#---------    -------------------            -------------------------------
# Generated from Intellog Unique Number	CW_79_81/WELL/2486
WELL.         11-26-080-24W4                 : Well_name    - WELL
LOC .         00/11-26-080-24W4/0            : Location     - LOCATION
UWI .         00/11-26-080-24W4/0            : Uwi          - UNIQUE WELL ID
ENTR.         MAX                            : Entered      - ENTERED BY
SRVC.         COMPUTALOG                     : Scn          - SERVICE COMPANY
STRT.M        225                            : top_depth    - START DEPTH
STOP.M        450                            : bot_depth    - STOP DEPTH
STEP.M        0.25                           : increment    - STEP LENGTH
 NULL. -999.2500:NULL Value
~CURVE INFORMATION BLOCK
#MNEM UNIT       ERCB CURVE CODE    CURVE DESCRIPTION
#-----------   ------------------   ----------------------------------
DEPT.M        00 001 00 00         : DEPTH        - DEPTH
ILD .OHMM     00 120 00 00         : RESD         - DEEP RESISTIVITY (DIL)
NPHI.V/V      00 330 00 00         : PHIN         - NEUTRON POROSITY (SANDSTONE)
DPHI.V/V      00 890 00 00         : PHID         - DENSITY POROSITY (SANDSTONE)
GR  .API      00 310 00 00         : GR           - GAMMA RAY
CALI.MM       00 280 01 00         : CAL          - CALIPER
~PARAMETER INFORMATION
#MNEM.UNIT           DATA             DESCRIPTION OF MNEMONIC
#---------         -----------     ------------------------------
GL  .M        568.3                : gl           - GROUND LEVEL ELEVATION
EREF.M        572.95               : kb           - ELEVATION OF DEPTH REFERENCE
DATM.M        568.3                : datum        - DATUM ELEVATION
TDD .M        450                  : tdd          - TOTAL DEPTH DRILLER
RUN .         ONE                  : Run          - RUN NUMBER
ENG .         BILL                 : Engineer     - RECORDING ENGINEER
WIT .         JIM                  : Witness      - WITNESSED BY
MUD .         GEL                  : Mud_type     - MUD TYPE
MATR.         SANDSTONE            : Logunit      - NEUTRON MATRIX
TMAX.C        34                   : BHT          - MAXIMUM RECORDED TEMPERATURE
BHTD.M        450                  : BHTDEP       - MAXIMUM RECORDED TEMPERATURE
MATR.         1                    : LOGUNIT      - NEUTRON MATRIX
RMT .C        15.5                 : MDTP         - TEMPERATURE OF MUD
NEUT.         1                    : NEUTRON      - NEUTRON TYPE
RESI.         0                    : RESIST       - RESISTIVITY TYPE
RMC .OHMM     1.9                  : RMC          - RESISTIVITY OF MUD CAKE
RMF .OHMM     4.5                  : RMF          - RESISTIVITY OF MUD FILTRATE
SUFT.C        -20                  : SUFT         - SURFACE TEMPERATURE
~A  DEPTH     RESD     PHIN     PHID       GR      CAL
# ...
  334.500    8.573    0.454    0.305   69.503  228.326
  334.750    9.161    0.490    0.290   69.013  227.912
  335.000   10.111    0.431    0.215   67.263  226.895
  335.250   11.188    0.331    0.129   64.252  225.679
  335.500   12.260    0.258    0.079   61.120  224.565
  335.750   13.663    0.310    0.116   60.697  223.663
  336.000   14.428    0.351    0.146   63.443  223.231
  336.250   14.428    0.384    0.240   66.796  222.013
  336.500   14.186    0.419    0.263   69.070  220.796
  336.750   13.820    0.443    0.264   70.862  219.782
  337.000   13.415    0.452    0.267   71.754  219.168
  337.250   12.878    0.446    0.265   70.201  219.400
  337.500   12.201    0.419    0.233   69.690  220.635
  337.750   11.665    0.435    0.235   69.442  221.021
  338.000   11.281    0.443    0.239   68.292  221.105
  338.250   10.950    0.440    0.243   67.924  221.290
  338.500   10.629    0.427    0.246   69.117  221.576
  338.750   10.270    0.412    0.249   72.348  221.391
  339.000   10.034    0.406    0.251   75.341  220.542
  339.250    9.738    0.416    0.251   74.131  219.726
  339.500    9.613    0.437    0.250   74.902  220.110
  339.750    9.470    0.450    0.247   75.133  221.096
  340.000    9.207    0.450    0.242   74.164  222.483
  340.250    8.780    0.443    0.237   73.492  224.635
  340.500    8.645    0.435    0.230   74.986  225.453
  340.750    8.709    0.430    0.222   76.657  225.838
  341.000    8.773    0.432    0.221   74.908  225.925
  341.250    8.838    0.427    0.230   71.776  225.911
  341.500    8.888    0.415    0.243   69.424  225.995
  341.750    8.846    0.417    0.245   70.785  226.461
  342.000    8.642    0.436    0.243   74.028  226.862
  342.250    8.514    0.443    0.238   75.940  227.645
  342.500    8.482    0.442    0.232   77.134  228.132
  342.750    8.450    0.440    0.227   77.486  228.720
  343.000    8.403    0.440    0.223   76.756  229.406
  343.250    8.403    0.444    0.215   74.833  229.786
  343.500    8.402    0.444    0.210   76.075  229.772
  343.750    8.402    0.439    0.209   76.787  229.758
  344.000    8.308    0.433    0.212   77.679  229.442
  344.250    8.247    0.428    0.218   78.031  229.226
  344.500    8.262    0.423    0.224   78.022  229.212
  344.750    8.349    0.418    0.230   78.731  229.112
  345.000    8.479    0.423    0.240   78.722  228.679
  345.250    8.669    0.422    0.237   79.193  227.864
  345.500    8.913    0.421    0.231   79.304  226.748
  345.750    9.216    0.422    0.225   79.056  225.531
  346.000    9.716    0.426    0.218   78.027  224.614
  346.250   11.051    0.434    0.212   75.273  224.599
  346.500   12.528    0.436    0.212   74.763  224.583
  346.750   13.096    0.425    0.231   76.917  224.566
  347.000   13.393    0.417    0.235   77.268  224.851
  347.250   14.040    0.410    0.226   75.937  225.437
  347.500   15.397    0.398    0.215   73.346  225.922
  347.750   18.039    0.361    0.207   69.413  225.335
  348.000   21.281    0.331    0.153   65.399  224.488
  348.250   24.448    0.313    0.116   61.066  224.071
  348.500   26.390    0.310    0.100   57.814  223.959
  348.750   26.592    0.307    0.105   55.042  223.946
  349.000   24.358    0.304    0.132   54.250  223.930
  349.250   18.709    0.326    0.191   59.244  223.828
  349.500   14.803    0.364    0.216   60.239  223.391
  349.750   13.220    0.394    0.236   65.034  222.977
  350.000   12.461    0.415    0.246   68.401  221.214
  350.250   12.018    0.427    0.247   68.773  220.500
  350.500   11.841    0.428    0.241   67.105  221.286
  350.750   12.315    0.407    0.223   67.010  222.237
  351.000   12.989    0.345    0.193   67.750  223.057
  351.250   13.271    0.369    0.201   70.124  223.050
  351.500   13.049    0.412    0.216   72.677  223.044
  351.750   12.480    0.436    0.229   75.288  223.038
  352.000   11.771    0.438    0.235   77.127  222.932
  352.250   10.947    0.449    0.232   75.904  222.527
  352.500   10.223    0.449    0.232   72.185  222.518
  352.750    9.998    0.434    0.232   71.706  222.118
  353.000    9.941    0.430    0.229   72.831  222.311
  353.250    9.939    0.431    0.227   74.254  222.702
  353.500    9.935    0.432    0.227   75.023  223.092
  353.750    9.931    0.433    0.231   73.899  223.480
  354.000    9.928    0.431    0.232   70.675  223.473
  354.250    9.781    0.436    0.227   71.147  223.863
  354.500    9.635    0.439    0.227   72.510  224.253
  354.750    9.458    0.429    0.226   72.626  224.841
  355.000    9.268    0.415    0.223   71.730  225.627
  355.250    9.074    0.431    0.224   72.736  226.495
  355.500    8.799    0.442    0.227   74.218  226.902
  355.750    8.543    0.427    0.226   73.025  227.687
  356.000    8.386    0.425    0.221   72.724  228.474
  356.250    8.323    0.425    0.219   73.672  229.458
  356.500    8.305    0.428    0.221   75.332  230.342
  356.750    8.191    0.442    0.224   76.180  230.417
  357.000    7.944    0.443    0.224   75.681  230.823
  357.250    7.655    0.429    0.215   73.775  231.214
  357.500    7.584    0.423    0.214   73.117  231.604
  357.750    7.883    0.424    0.221   72.519  231.598
  358.000    8.697    0.431    0.235   71.267  230.899
  358.250   10.615    0.437    0.255   68.974  228.728
  358.500   12.980    0.428    0.278   68.226  225.831
  358.750   15.507    0.428    0.288   70.600  224.637
  359.000   16.297    0.435    0.281   73.865  223.738
  359.250   15.692    0.438    0.261   75.645  223.335
  359.500   14.728    0.431    0.235   74.928  223.328
  359.750   14.218    0.417    0.210   70.783  223.322
  360.000   14.322    0.407    0.199   64.339  223.314
  360.250   15.283    0.335    0.172   61.957  223.308
  360.500   15.454    0.299    0.135   61.537  223.302
  360.750   14.883    0.304    0.130   61.772  223.494
  361.000   13.826    0.343    0.170   62.184  223.783
  361.250   12.325    0.403    0.240   63.378  223.861
  361.500   11.171    0.417    0.247   64.613  224.266
  361.750   10.530    0.411    0.266   66.035  224.259
  362.000   10.039    0.400    0.274   66.923  224.253
  362.250    9.642    0.404    0.276   67.632  224.048
  362.500    9.277    0.420    0.276   68.401  223.745
  362.750    8.795    0.425    0.279   69.397  223.738
  363.000    8.402    0.420    0.281   69.641  223.731
  363.250    8.277    0.424    0.276   67.022  223.725
  363.500    8.244    0.417    0.258   65.473  224.015
  363.750    8.242    0.405    0.239   65.587  224.207
  364.000    8.239    0.401    0.231   67.248  224.301
  364.250    8.334    0.427    0.234   69.373  224.771
  364.500    8.857    0.448    0.218   68.131  225.178
  364.750   10.363    0.394    0.141   62.422  225.568
  365.000   13.254    0.301    0.073   57.959  225.364
  365.250   16.371    0.240    0.040   55.696  224.763
  365.500   17.439    0.235    0.049   55.870  224.360
  365.750   15.660    0.278    0.095   58.650  225.310
  366.000   12.621    0.342    0.142   61.866  226.128
  366.250   10.874    0.397    0.243   67.568  226.519
  366.500    9.825    0.417    0.271   69.883  226.611
  366.750    9.102    0.415    0.264   68.929  226.604
  367.000    8.556    0.406    0.250   67.022  226.598
  367.250    8.117    0.416    0.247   69.376  226.591
  367.500    8.053    0.457    0.254   72.840  226.585
  367.750    8.408    0.466    0.254   73.073  225.786
  368.000    8.829    0.446    0.237   70.454  224.689
  368.250    9.451    0.411    0.215   67.121  224.088
  368.500   10.353    0.378    0.195   65.037  224.182
  368.750   11.614    0.371    0.180   66.033  224.653
  369.000   12.344    0.375    0.182   66.276  225.059
  369.250   12.796    0.365    0.175   66.272  225.053
  369.500   13.124    0.368    0.172   67.339  225.047
  369.750   13.411    0.384    0.181   69.000  224.842
  370.000   13.801    0.401    0.203   70.363  224.538
  370.250   14.738    0.402    0.237   69.032  224.695
  370.500   15.906    0.405    0.259   63.578  225.514
  370.750   17.218    0.414    0.270   62.386  225.905
