~VERSION INFORMATION
 VERS.                 2.0:   CWLS LOG ASCII STANDARD -VERSION 2.0
 WRAP.                  NO:   ONE LINE PER DEPTH STEP
~WELL INFORMATION BLOCK
#MNEM.UNIT           DATA                    DESCRIPTION OF MNEMONIC
#---------    -------------------            -------------------------------
# Generated from Intellog Unique Number	CW_73_75/WELL/1034
WELL.         SUNDANCE MCMORAN MARTEN H 11-0 : Well_name    - WELL
LOC .         00/11-04-074-24W4/0            : Location     - LOCATION
UWI .         00/11-04-074-24W4/0            : Uwi          - UNIQUE WELL ID
ENTR.         JAYE                           : Entered      - ENTERED BY
SRVC.         SCHLUMBERGER                   : Scn          - SERVICE COMPANY
DATE.         2 FEB 73                       : Date         - LOG DATE
STRT.M        381                            : top_depth    - START DEPTH
STOP.M        597.5                          : bot_depth    - STOP DEPTH
STEP.M        0.25                           : increment    - STEP LENGTH
 NULL. -999.2500:NULL Value
~CURVE INFORMATION BLOCK
#MNEM UNIT       ERCB CURVE CODE    CURVE DESCRIPTION
#-----------   ------------------   ----------------------------------
DEPT.M        00 001 00 00         : DEPTH        - DEPTH
ILD .OHMM     00 120 00 00         : RESD         - DEEP RESISTIVITY (DIL)
DPHI.V/V      00 890 00 00         : PHID         - DENSITY POROSITY (SANDSTONE)
NPHI.V/V      00 330 00 00         : PHIN         - NEUTRON POROSITY (SANDSTONE)
CALI.MM       00 280 01 00         : CAL          - CALIPER
GR  .API      00 310 00 00         : GR           - GAMMA RAY
~PARAMETER INFORMATION
#MNEM.UNIT           DATA             DESCRIPTION OF MNEMONIC
#---------         -----------     ------------------------------
GL  .M        642.214              : gl           - GROUND LEVEL ELEVATION
EREF.M        644.5                : kb           - ELEVATION OF DEPTH REFERENCE
DATM.M        642.214              : datum        - DATUM ELEVATION
TDD .M        600.456              : tdd          - TOTAL DEPTH DRILLER
RUN .         ONE                  : Run          - RUN NUMBER
ENG .         DESROCHES            : Engineer     - RECORDING ENGINEER
WIT .         GREEN                : Witness      - WITNESSED BY
BASE.         RD                   : Branch       - HOME BASE OF LOGGING UNIT
MUD .         GEL CHEM             : Mud_type     - MUD TYPE
MATR.         SANDSTONE            : Logunit      - NEUTRON MATRIX
TMAX.C        26.1111              : BHT          - MAXIMUM RECORDED TEMPERATURE
BHTD.M        600.456              : BHTDEP       - MAXIMUM RECORDED TEMPERATURE
RMT .C        26.1111              : MDTP         - TEMPERATURE OF MUD
MUDD.KG/M     1104                 : MWT          - MUD DENSITY
NEUT.         1                    : NEUTRON      - NEUTRON TYPE
RESI.         0                    : RESIST       - RESISTIVITY TYPE
RM  .OHMM     4.6                  : RM           - RESISTIVITY OF MUD
RMC .OHMM     0                    : RMC          - RESISTIVITY OF MUD CAKE
RMF .OHMM     5.47                 : RMF          - RESISTIVITY OF MUD FILTRATE
SUFT.C        -17.7778             : SUFT         - SURFACE TEMPERATURE
~A  DEPTH     RESD     PHID     PHIN      CAL       GR
# ...
  417.500    4.357    0.176    0.368  147.992   84.066
  417.750    4.356    0.233    0.394  148.957   92.729
  418.000    4.354    0.221    0.430  150.129   99.156
  418.250    4.369    0.208    0.425  155.184  104.556
  418.500    4.376    0.232    0.435  157.993   98.304
  418.750    4.382    0.237    0.457  155.480   85.711
  419.000    4.381    0.231    0.457  151.948   80.787
  419.250    4.347    0.218    0.465  150.254   85.890
  419.500    4.322    0.224    0.476  151.634   87.666
  419.750    4.289    0.228    0.479  154.543   85.700
  420.000    4.187    0.240    0.464  157.656   79.811
  420.250    3.939    0.258    0.468  159.026   76.939
  420.500    3.639    0.278    0.474  158.665   74.609
  420.750    3.301    0.296    0.477  157.998   73.914
  421.000    2.918    0.287    0.466  157.117   74.965
  421.250    2.514    0.270    0.464  155.220   79.463
  421.500    2.202    0.269    0.465  150.974   84.742
  421.750    2.173    0.266    0.465  152.144   88.938
  422.000    2.386    0.247    0.464  158.632   91.739
  422.250    2.677    0.207    0.465  165.217   95.630
  422.500    2.923    0.202    0.466  174.774   95.958
  422.750    3.174    0.248    0.466  172.979   85.902
  423.000    3.346    0.284    0.466  163.110   72.042
  423.250    3.219    0.292    0.467  152.826   63.134
  423.500    3.040    0.310    0.466  145.716   56.215
  423.750    3.083    0.321    0.463  147.909   49.721
  424.000    3.209    0.316    0.454  148.879   49.086
  424.250    3.292    0.326    0.447  147.182   49.836
  424.500    3.389    0.312    0.458  146.617   52.161
  424.750    3.457    0.295    0.468  147.275   55.748
  425.000    3.578    0.282    0.463  148.444   58.433
  425.250    3.738    0.269    0.461  149.409   59.122
  425.500    3.856    0.252    0.466  150.580   59.453
  425.750    3.976    0.260    0.469  151.553   61.049
  426.000    4.078    0.260    0.463  152.612   63.127
  426.250    4.222    0.230    0.467  153.993   65.089
  426.500    4.370    0.221    0.474  154.446   66.564
  426.750    4.450    0.217    0.470  154.803   74.199
  427.000    4.432    0.184    0.462  154.636   80.323
  427.250    4.302    0.178    0.463  154.176   83.734
  427.500    4.215    0.211    0.468  153.711   82.490
  427.750    4.054    0.228    0.476  153.346   78.775
  428.000    3.957    0.255    0.476  153.287   71.133
  428.250    3.863    0.297    0.467  153.242   70.618
  428.500    3.791    0.289    0.463  153.078   75.292
  428.750    3.818    0.264    0.462  153.122   79.243
  429.000    3.945    0.238    0.468  153.263   81.142
  429.250    4.054    0.258    0.472  153.516   87.509
  429.500    4.173    0.257    0.486  154.075   85.066
  429.750    4.234    0.275    0.481  154.635   83.156
  430.000    4.279    0.283    0.471  154.983   81.674
  430.250    4.357    0.268    0.470  155.445   79.285
  430.500    4.436    0.269    0.478  155.795   75.750
  430.750    4.550    0.285    0.483  155.941   72.698
  431.000    4.684    0.291    0.489  156.086   71.155
  431.250    4.885    0.264    0.484  156.029   70.759
  431.500    5.512    0.259    0.469  154.748   71.329
  431.750    6.265    0.261    0.457  153.873   72.504
  432.000    6.890    0.220    0.445  151.257   70.900
  432.250    7.718    0.201    0.385  152.535   65.252
  432.500    7.844    0.122    0.315  156.878   63.106
  432.750    7.313    0.165    0.296  159.676   66.514
  433.000    6.359    0.190    0.334  160.641   72.699
  433.250    5.449    0.208    0.370  159.255   78.885
  433.500    5.080    0.227    0.442  156.443   85.675
  433.750    4.745    0.217    0.469  153.827   90.592
  434.000    4.548    0.155    0.469  151.318   88.990
  434.250    4.423    0.139    0.465  152.491   93.786
  434.500    4.285    0.161    0.457  155.089   96.952
  434.750    4.152    0.209    0.462  160.247   97.584
  435.000    3.871    0.257    0.486  163.977   90.305
  435.250    3.835    0.296    0.480  167.094   85.199
  435.500    3.833    0.332    0.474  168.360   79.792
  435.750    3.818    0.324    0.463  167.383   70.460
  436.000    3.845    0.299    0.456  167.020   64.271
  436.250    3.837    0.298    0.466  161.645   61.216
  436.500    3.857    0.329    0.479  146.762   59.676
  436.750    3.813    0.327    0.462  142.312   60.608
  437.000    3.770    0.296    0.451  141.334   60.934
  437.250    3.694    0.292    0.463  141.993   61.384
  437.500    3.625    0.270    0.463  145.111   61.411
  437.750    3.624    0.266    0.460  150.071   59.990
  438.000    3.603    0.295    0.459  153.178   58.991
  438.250    3.582    0.298    0.451  154.954   58.719
  438.500    3.581    0.308    0.459  154.699   57.536
  438.750    3.620    0.300    0.462  154.136   57.320
  439.000    3.658    0.300    0.459  153.771   59.640
  439.250    3.691    0.295    0.458  153.616   62.808
  439.500    3.724    0.292    0.470  153.961   63.438
  439.750    3.785    0.279    0.477  154.311   63.344
  440.000    3.839    0.263    0.469  155.070   64.882
  440.250    3.923    0.282    0.464  156.041   66.419
  440.500    4.069    0.286    0.473  156.601   69.283
  440.750    4.377    0.265    0.489  156.651   72.449
  441.000    5.474    0.273    0.500  156.693   78.397
  441.250    7.353    0.322    0.520  156.429   78.430
  441.500    9.469    0.374    0.525  156.266   74.342
  441.750   10.020    0.436    0.525  155.699   59.817
  442.000    9.274    0.453    0.512  151.248   41.549
  442.250    8.109    0.468    0.499  144.646   27.990
  442.500    6.986    0.464    0.489  144.794   30.191
  442.750    6.419    0.415    0.480  146.578   43.441
  443.000    5.897    0.335    0.467  150.716   66.957
  443.250    5.488    0.288    0.458  155.267   79.844
  443.500    5.250    0.297    0.456  157.449   83.314
  443.750    5.115    0.366    0.466  158.416   77.423
  444.000    4.993    0.339    0.472  158.974   71.230
  444.250    4.927    0.282    0.473  158.918   71.440
  444.500    4.827    0.261    0.462  157.845   76.296
  444.750    4.790    0.276    0.462  156.554   79.948
  445.000    4.719    0.267    0.476  149.241   83.055
  445.250    4.615    0.219    0.478  140.390   87.306
  445.500    4.521    0.191    0.472  131.439   94.337
  445.750    4.421    0.203    0.464  125.655   96.297
  446.000    4.355    0.220    0.457  123.964   95.359
  446.250    4.354    0.203    0.456  127.995   96.352
  446.500    4.369    0.159    0.465  141.949   98.249
  446.750    4.399    0.153    0.474  153.954  101.476
  447.000    4.690    0.160    0.473  158.910   98.001
  447.250    5.272    0.179    0.469  158.958   93.922
  447.500    5.895    0.228    0.464  156.344   92.622
  447.750    6.158    0.262    0.460  154.036   75.924
  448.000    6.145    0.275    0.470  151.319   69.127
  448.250    5.825    0.255    0.475  147.586   62.090
  448.500    5.582    0.217    0.470  146.301   61.093
  448.750    5.379    0.162    0.460  146.971   62.143
  449.000    5.164    0.193    0.462  147.521   70.019
  449.250    4.995    0.265    0.472  148.284   67.813
  449.500    4.778    0.261    0.476  148.537   65.363
  449.750    4.521    0.258    0.472  148.068   63.459
  450.000    4.309    0.276    0.463  147.905   58.716
  450.250    4.175    0.282    0.453  147.959   53.007
  450.500    4.083    0.267    0.467  147.689   48.508
  450.750    4.074    0.281    0.476  147.433   46.542
  451.000    4.058    0.264    0.469  146.041   47.110
  451.250    4.064    0.274    0.459  143.433   51.725
  451.500    4.070    0.305    0.451  145.423   50.124
  451.750    4.061    0.280    0.452  148.737   48.219
  452.000    4.196    0.269    0.471  152.461   46.558
  452.250    4.336    0.268    0.482  154.959   45.737
  452.500    4.563    0.287    0.486  153.986   46.185
  452.750    4.776    0.279    0.470  151.682   46.635
  453.000    4.971    0.245    0.458  150.809   46.723
  453.250    5.099    0.220    0.452  150.132   46.025
  453.500    5.134    0.199    0.444  150.490   45.147
  453.750    4.589    0.177    0.426  150.331   44.149
