~VERSION INFORMATION
 VERS.                 2.0:   CWLS LOG ASCII STANDARD -VERSION 2.0
 WRAP.                  NO:   ONE LINE PER DEPTH STEP
~WELL INFORMATION BLOCK
#MNEM.UNIT           DATA                    DESCRIPTION OF MNEMONIC
#---------    -------------------            -------------------------------
# Generated from Intellog Unique Number	CS_69_70/WELL/886
NULL.         -999.25                        : NULL_VALUE
WELL.         MAYNARD ENERGY                 : Well_name    - WELL              
LOC .         00/11-06-070-15W4/0            : Location     - LOCATION          
UWI .         00/11-06-070-15W4/0            : Uwi          - UNIQUE WELL ID    
ENTR.         SP                             : Entered      - ENTERED BY        
SRVC.         SCHLUMBERGER                   : Scn          - SERVICE COMPANY   
STRT.M        270                            : top_depth    - START DEPTH       
STOP.M        492                            : bot_depth    - STOP DEPTH        
STEP.M        0.25                           : increment    - STEP LENGTH       
~CURVE INFORMATION BLOCK
#MNEM UNIT       ERCB CURVE CODE    CURVE DESCRIPTION
#-----------   ------------------   ----------------------------------
DEPT.M        00 001 00 00         : DEPTH        - DEPTH                       
ILD .OHMM     00 120 00 00         : RESD         - DEEP RESISTIVITY (DIL)      
DPHI.V/V      00 890 00 00         : PHID         - DENSITY POROSITY (LIMESTONE)
NPHI.V/V      00 330 00 00         : PHIN         - NEUTRON POROSITY (LIMESTONE)
GR  .API      00 310 00 00         : GR           - GAMMA RAY                   
~PARAMETER INFORMATION       
#MNEM.UNIT           DATA             DESCRIPTION OF MNEMONIC
#---------         -----------     ------------------------------
GL  .M        562.71               : gl           - GROUND LEVEL ELEVATION      
EREF.M        565.41               : kb           - ELEVATION OF DEPTH REFERENCE
DATM.M        562.71               : datum        - DATUM ELEVATION             
TDD .M        494                  : tdd          - TOTAL DEPTH DRILLER         
RUN .         ONE                  : Run          - RUN NUMBER                  
ENG .         BILL                 : Engineer     - RECORDING ENGINEER          
WIT .         JIM                  : Witness      - WITNESSED BY                
MUD .         GEL                  : Mud_type     - MUD TYPE                    
MATR.         LIMESTONE            : Logunit      - NEUTRON MATRIX              
TMAX.C        21                   : BHT          - MAXIMUM RECORDED TEMPERATURE
BHTD.M        494                  : BHTDEP       - MAXIMUM RECORDED TEMPERATURE
MATR.         1                    : LOGUNIT      - NEUTRON MATRIX              
RMT .C        25                   : MDTP         - TEMPERATURE OF MUD          
NEUT.         1                    : NEUTRON      - NEUTRON TYPE                
RESI.         0                    : RESIST       - RESISTIVITY TYPE            
RMC .OHMM     0.25                 : RMC          - RESISTIVITY OF MUD CAKE     
RMF .OHMM     0.25                 : RMF          - RESISTIVITY OF MUD FILTRATE 
SUFT.C        15                   : SUFT         - SURFACE TEMPERATURE         
~A  DEPTH     RESD     PHID     PHIN       GR
  270.000    2.403    0.210    0.520  104.269
  270.250    2.429    0.236    0.529  106.354
  270.500    2.496    0.253    0.521  107.646
  270.750    2.669    0.241    0.503  106.988
  271.000    2.907    0.230    0.493  105.719
  271.250    3.162    0.235    0.487  101.584
  271.500    3.343    0.245    0.484   98.364
  271.750    3.475    0.250    0.478   95.085
  272.000    3.526    0.246    0.465   95.827
  272.250    3.552    0.233    0.456   99.560
  272.500    3.554    0.199    0.445  102.318
  272.750    3.531    0.186    0.438  103.426
  273.000    3.468    0.180    0.446  104.293
  273.250    3.373    0.183    0.452  103.878
  273.500    3.325    0.196    0.459  103.342
  273.750    3.213    0.208    0.464  103.903
  274.000    3.125    0.208    0.469  104.525
  274.250    2.980    0.217    0.472  105.026
  274.500    2.892    0.203    0.470  105.158
  274.750    2.813    0.193    0.471  105.048
  275.000    2.806    0.189    0.472  106.586
  275.250    2.816    0.200    0.474  108.057
  275.500    2.875    0.214    0.474  110.507
  275.750    2.926    0.223    0.467  112.715
  276.000    2.968    0.220    0.468  114.070
  276.250    3.011    0.218    0.475  114.508
  276.500    3.053    0.209    0.479  113.606
  276.750    3.080    0.206    0.484  111.303
  277.000    3.065    0.220    0.487  108.874
  277.250    3.019    0.223    0.490  105.778
  277.500    2.988    0.235    0.475  104.080
  277.750    2.998    0.230    0.457  102.998
  278.000    3.056    0.221    0.446  104.107
  278.250    3.066    0.223    0.440  105.032
  278.500    2.986    0.221    0.445  106.018
  278.750    2.899    0.230    0.457  106.152
  279.000    2.909    0.236    0.464  105.922
  279.250    2.992    0.242    0.470  104.653
  279.500    3.165    0.249    0.475  102.470
  279.750    3.452    0.249    0.445  100.346
  280.000    3.722    0.245    0.427   98.286
  280.250    3.952    0.232    0.412   97.078
  280.500    4.166    0.239    0.403   97.028
  280.750    4.477    0.251    0.388   96.858
  281.000    5.131    0.285    0.359   89.858
  281.250    6.428    0.332    0.316   73.285
  281.500    8.099    0.370    0.256   63.418
  281.750   10.203    0.412    0.232   51.785
  282.000    8.942    0.450    0.220   44.540
  282.250    7.567    0.449    0.226   43.761
  282.500    6.478    0.429    0.246   47.735
  282.750    5.380    0.406    0.265   50.064
  283.000    4.608    0.376    0.286   51.783
  283.250    4.048    0.357    0.309   53.685
  283.500    3.772    0.356    0.335   57.178
  283.750    3.881    0.355    0.361   58.650
  284.000    4.200    0.350    0.378   60.616
  284.250    4.487    0.344    0.390   61.050
  284.500    5.067    0.347    0.401   62.648
  284.750    5.266    0.350    0.408   70.101
  285.000    5.242    0.345    0.414   75.050
  285.250    4.960    0.332    0.421   80.976
  285.500    4.920    0.301    0.405   86.537
  285.750    4.742    0.289    0.392   89.233
  286.000    4.581    0.286    0.375   90.098
  286.250    4.452    0.274    0.361   88.220
  286.500    4.284    0.276    0.362   77.561
  286.750    4.212    0.268    0.376   74.524
  287.000    4.157    0.268    0.388   73.194
  287.250    4.297    0.296    0.399   72.903
  287.500    4.413    0.306    0.403   74.011
  287.750    4.732    0.313    0.406   75.852
  288.000    4.986    0.302    0.406   76.900
  288.250    5.330    0.292    0.411   76.486
  288.500    5.707    0.293    0.420   76.925
  288.750    6.018    0.300    0.426   78.039
  289.000    6.069    0.308    0.426   78.352
  289.250    6.006    0.304    0.424   78.730
  289.500    6.007    0.312    0.420   76.242
  289.750    6.034    0.315    0.420   72.961
  290.000    6.052    0.313    0.422   70.046
  290.250    6.013    0.306    0.426   72.679
  290.500    5.990    0.295    0.424   72.692
  290.750    5.846    0.288    0.419   75.206
  291.000    5.636    0.288    0.415   75.704
  291.250    5.190    0.299    0.420   75.045
  291.500    4.816    0.311    0.425   72.801
  291.750    4.281    0.321    0.426   70.924
  292.000    3.826    0.336    0.429   69.959
  292.250    3.527    0.349    0.436   69.971
  292.500    3.325    0.348    0.436   72.241
  292.750    3.107    0.341    0.427   73.470
  293.000    3.003    0.331    0.423   75.191
  293.250    2.948    0.314    0.422   76.421
  293.500    2.909    0.298    0.428   76.190
  293.750    2.919    0.284    0.431   75.653
  294.000    2.978    0.282    0.433   74.933
  294.250    2.996    0.294    0.435   74.457
  294.500    3.047    0.309    0.437   74.652
  294.750    3.065    0.319    0.437   74.969
  295.000    3.083    0.326    0.437   76.202
  295.250    3.085    0.334    0.438   77.615
  295.500    3.086    0.333    0.439   80.797
  295.750    3.096    0.329    0.440   83.432
  296.000    3.114    0.332    0.440   85.335
  296.250    3.116    0.334    0.437   86.505
  296.500    3.167    0.337    0.435   87.432
  296.750    3.217    0.328    0.431   87.140
  297.000    3.284    0.328    0.429   85.626
  297.250    3.352    0.330    0.431   81.004
  297.500    3.411    0.316    0.433   77.479
  297.750    3.461    0.306    0.435   76.759
  298.000    3.520    0.298    0.440   80.370
  298.250    3.571    0.300    0.440   83.553
  298.500    3.622    0.313    0.435   87.039
  298.750    3.697    0.315    0.432   91.137
  299.000    3.731    0.300    0.429   95.666
  299.250    3.782    0.286    0.425   97.077
  299.500    3.874    0.274    0.420   93.185
  299.750    3.899    0.281    0.414   84.357
  300.000    3.942    0.293    0.405   78.696
  300.250    3.992    0.299    0.399   73.710
  300.500    4.092    0.303    0.394   70.794
  300.750    4.232    0.289    0.387   68.490
  301.000    4.373    0.273    0.377   67.038
  301.250    4.790    0.259    0.365   65.648
  301.500    4.629    0.241    0.368   64.927
  301.750    4.411    0.252    0.393   68.781
  302.000    4.217    0.270    0.414   72.085
  302.250    4.089    0.289    0.434   74.597
  302.500    3.846    0.313    0.445   76.561
  302.750    3.563    0.308    0.452   78.341
  303.000    3.393    0.292    0.457   80.670
  303.250    3.396    0.280    0.449   85.074
  303.500    3.470    0.264    0.447   90.084
  303.750    3.636    0.247    0.447   96.622
  304.000    3.710    0.234    0.449  101.449
  304.250    3.785    0.218    0.450  105.242
  304.500    3.861    0.226    0.453  108.000
  304.750    3.952    0.236    0.460  109.534
  305.000    3.995    0.232    0.466  112.168
  305.250    4.062    0.216    0.470  115.473
  305.500    4.145    0.206    0.468  119.631
  305.750    4.228    0.206    0.452  124.277
  306.000    4.378    0.221    0.431  125.387
  306.250    4.403    0.235    0.414  123.754
  306.500    4.478    0.241    0.398  110.899
  306.750    4.512    0.244    0.393   98.534
  307.000    4.563    0.252    0.398   93.728
  307.250    4.679    0.260    0.404   94.288
  307.500    4.860    0.268    0.412   97.776
  307.750    5.025    0.264    0.417  103.336
  308.000    5.288    0.258    0.417  109.447
  308.250    5.362    0.248    0.415  112.507
  308.500    5.560    0.239    0.413  113.739
  308.750    5.733    0.225    0.407  113.877
  309.000    5.702    0.206    0.405  113.644
  309.250    5.606    0.192    0.404  113.165
  309.500    5.494    0.195    0.403  110.313
  309.750    5.398    0.204    0.401  110.262
  310.000    5.318    0.215    0.400  114.360
  310.250    5.263    0.220    0.400  117.848
  310.500    5.216    0.219    0.404  120.117
  310.750    5.185    0.219    0.411  120.127
  311.000    5.163    0.220    0.416  118.005
  311.250    5.148    0.227    0.420  117.103
  311.500    5.127    0.235    0.415  116.812
  311.750    5.127    0.245    0.412  116.643
  312.000    5.243    0.256    0.407  116.658
  312.250    5.433    0.241    0.405  116.909
  312.500    5.589    0.215    0.403  117.776
  312.750    5.762    0.205    0.402  119.553
  313.000    5.829    0.202    0.407  122.126
  313.250    5.790    0.192    0.412  124.028
