~VERSION INFORMATION
 VERS.                 2.0:   CWLS LOG ASCII STANDARD -VERSION 2.0
 WRAP.                  NO:   ONE LINE PER DEPTH STEP
~WELL INFORMATION BLOCK
#MNEM.UNIT           DATA                    DESCRIPTION OF MNEMONIC
#---------    -------------------            -------------------------------
# Generated from Intellog Unique Number	CS_69_70/WELL/901
WELL.         MAYNARD EXPLORATION            : Well_name    - WELL
LOC .         00/12-36-070-16W4/0            : Location     - LOCATION
UWI .         00/12-36-070-16W4/0            : Uwi          - UNIQUE WELL ID
ENTR.         SP                             : Entered      - ENTERED BY
SRVC.         SCHLUMBERGER                   : Scn          - SERVICE COMPANY
STRT.M        290                            : top_depth    - START DEPTH
STOP.M        510                            : bot_depth    - STOP DEPTH
STEP.M        0.25                           : increment    - STEP LENGTH
 NULL. -999.2500:NULL Value
~CURVE INFORMATION BLOCK
#MNEM UNIT       ERCB CURVE CODE    CURVE DESCRIPTION
#-----------   ------------------   ----------------------------------
DEPT.M        00 001 00 00         : DEPTH        - DEPTH
DPHI.V/V      00 890 00 00         : PHID         - DENSITY POROSITY (LIMESTONE)
NPHI.V/V      00 330 00 00         : PHIN         - NEUTRON POROSITY (LIMESTONE)
GR  .API      00 310 00 00         : GR           - GAMMA RAY
ILD .OHMM     00 120 00 00         : RESD         - DEEP RESISTIVITY (DIL)
~PARAMETER INFORMATION
#MNEM.UNIT           DATA             DESCRIPTION OF MNEMONIC
#---------         -----------     ------------------------------
GL  .M        589.04               : gl           - GROUND LEVEL ELEVATION
EREF.M        592.24               : kb           - ELEVATION OF DEPTH REFERENCE
DATM.M        589.04               : datum        - DATUM ELEVATION
TDD .M        509                  : tdd          - TOTAL DEPTH DRILLER
RUN .         ONE                  : Run          - RUN NUMBER
ENG .         BILL                 : Engineer     - RECORDING ENGINEER
WIT .         JIM                  : Witness      - WITNESSED BY
MUD .         GEL                  : Mud_type     - MUD TYPE
MATR.         LIMESTONE            : Logunit      - NEUTRON MATRIX
TMAX.C        21                   : BHT          - MAXIMUM RECORDED TEMPERATURE
BHTD.M        509                  : BHTDEP       - MAXIMUM RECORDED TEMPERATURE
MATR.         1                    : LOGUNIT      - NEUTRON MATRIX
RMT .C        25                   : MDTP         - TEMPERATURE OF MUD
NEUT.         1                    : NEUTRON      - NEUTRON TYPE
RESI.         0                    : RESIST       - RESISTIVITY TYPE
RMC .OHMM     0.25                 : RMC          - RESISTIVITY OF MUD CAKE
RMF .OHMM     0.25                 : RMF          - RESISTIVITY OF MUD FILTRATE
SUFT.C        15                   : SUFT         - SURFACE TEMPERATURE
~A  DEPTH     PHID     PHIN       GR     RESD
# ...
  377.000    0.257    0.395   82.623    3.833
  377.250    0.255    0.402   81.963    3.843
  377.500    0.261    0.406   80.268    3.868
  377.750    0.251    0.410   79.362    3.910
  378.000    0.240    0.410   82.540    3.985
  378.250    0.246    0.408   84.560    4.084
  378.500    0.243    0.408   82.986    4.142
  378.750    0.242    0.413   80.498    4.249
  379.000    0.242    0.417   79.654    4.455
  379.250    0.231    0.423   82.894    4.701
  379.500    0.231    0.425   85.768    5.062
  379.750    0.227    0.410   86.752    5.602
  380.000    0.206    0.353   82.740    6.331
  380.250    0.164    0.286   78.485    7.280
  380.500    0.135    0.243   74.412    8.278
  380.750    0.107    0.217   70.220    9.015
  381.000    0.086    0.206   67.669    9.523
  381.250    0.144    0.217   66.278    8.976
  381.500    0.215    0.247   69.639    7.073
  381.750    0.238    0.298   73.670    5.995
  382.000    0.238    0.366   77.030    5.301
  382.250    0.216    0.407   81.248    4.861
  382.500    0.202    0.395   83.021    4.568
  382.750    0.198    0.386   85.896    4.487
  383.000    0.217    0.379   87.915    4.447
  383.250    0.232    0.374   90.119    4.489
  383.500    0.251    0.361   91.773    4.703
  383.750    0.227    0.288   90.565    5.350
  384.000    0.162    0.245   84.362    6.339
  384.250    0.121    0.198   78.339    8.286
  384.500    0.085    0.169   71.706   11.426
  384.750    0.049    0.172   65.745   11.860
  385.000    0.143    0.262   69.350    9.973
  385.250    0.197    0.319   73.990    7.743
  385.500    0.252    0.369   78.816    5.504
  385.750    0.265    0.396   81.628    4.336
  386.000    0.262    0.409   83.097    4.059
  386.250    0.279    0.415   84.753    4.011
  386.500    0.282    0.419   84.459    4.135
  386.750    0.264    0.416   82.884    4.324
  387.000    0.246    0.414   80.882    4.579
  387.250    0.230    0.410   82.416    4.989
  387.500    0.220    0.406   85.107    5.275
  387.750    0.214    0.399   87.492    5.587
  388.000    0.209    0.392   89.512    5.858
  388.250    0.207    0.386   87.878    6.014
  388.500    0.207    0.386   85.148    6.064
  388.750    0.201    0.391   83.877    6.050
  389.000    0.197    0.398   83.764    6.001
  389.250    0.197    0.400   84.078    5.724
  389.500    0.200    0.402   84.760    5.448
  389.750    0.205    0.403   86.048    5.203
  390.000    0.204    0.408   86.606    5.008
  390.250    0.201    0.410   86.676    4.805
  390.500    0.202    0.400   85.834    4.691
  390.750    0.204    0.390   84.566    4.725
  391.000    0.207    0.381   83.477    5.094
  391.250    0.205    0.372   83.669    5.749
  391.500    0.204    0.357   85.019    7.589
  391.750    0.180    0.307   83.080    9.650
  392.000    0.128    0.237   75.414   11.637
  392.250    0.053    0.167   69.208   14.859
  392.500    0.020    0.148   62.517    1.765
  392.750    0.000    0.140   59.175    3.997
  393.000    0.010    0.141   63.876    4.275
  393.250    0.106    0.180   67.969    3.367
  393.500    0.164    0.269   71.207    6.208
  393.750    0.203    0.337   75.361    5.653
  394.000    0.232    0.393   77.685    5.270
  394.250    0.251    0.407   76.537    5.214
  394.500    0.247    0.413   77.643    5.452
  394.750    0.248    0.411   79.360    5.600
  395.000    0.248    0.407   80.587    5.650
  395.250    0.257    0.405   80.231    5.455
  395.500    0.254    0.407   77.015    5.260
  395.750    0.262    0.404   77.510    5.106
  396.000    0.258    0.400   79.226    5.058
  396.250    0.249    0.395   81.672    5.034
  396.500    0.238    0.393   84.912    5.052
  396.750    0.222    0.392   86.322    5.143
  397.000    0.206    0.396   85.723    5.283
  397.250    0.187    0.402   87.499    5.350
  397.500    0.179    0.407   91.046    5.367
  397.750    0.175    0.405   92.820    5.425
  398.000    0.172    0.395   95.085    5.426
  398.250    0.176    0.388   92.718    5.403
  398.500    0.192    0.382   88.831    5.306
  398.750    0.207    0.373   85.307    5.241
  399.000    0.238    0.370   82.573    5.071
  399.250    0.242    0.369   80.755    4.884
  399.500    0.248    0.369   80.339    4.713
  399.750    0.251    0.378   80.226    4.624
  400.000    0.252    0.386   79.200    4.397
  400.250    0.257    0.391   77.747    4.348
  400.500    0.257    0.392   78.854    4.268
  400.750    0.253    0.395   80.204    4.277
  401.000    0.248    0.397   81.676    4.294
  401.250    0.241    0.401   81.625    4.312
  401.500    0.232    0.405   79.077    4.313
  401.750    0.222    0.403   77.989    4.404
  402.000    0.216    0.396   79.705    4.503
  402.250    0.212    0.391   81.603    4.602
  402.500    0.213    0.387   83.502    4.685
  402.750    0.215    0.386   85.951    4.760
  403.000    0.226    0.386   87.058    4.785
  403.250    0.231    0.394   87.129    4.803
  403.500    0.234    0.398   86.653    4.787
  403.750    0.243    0.393   86.414    4.756
  404.000    0.252    0.392   85.145    4.659
  404.250    0.258    0.403   81.743    4.480
  404.500    0.266    0.412   82.788    4.260
  404.750    0.268    0.420   83.712    3.975
  405.000    0.267    0.431   85.367    3.576
  405.250    0.273    0.442   88.485    3.103
  405.500    0.276    0.455   91.906    2.508
  405.750    0.269    0.475   95.634    2.369
  406.000    0.258    0.492   97.653    1.970
  406.250    0.240    0.489   98.029    1.718
  406.500    0.234    0.486   96.515    1.620
  406.750    0.235    0.492   94.575    1.654
  407.000    0.236    0.484   94.340    1.884
  407.250    0.233    0.469   95.875    2.326
  407.500    0.228    0.455   97.346    2.867
  407.750    0.220    0.441   96.807    3.497
  408.000    0.230    0.432   93.896    4.013
  408.250    0.228    0.425   92.443    4.366
  408.500    0.242    0.421   91.901    4.579
  408.750    0.231    0.419   91.426    4.670
  409.000    0.223    0.417   91.617    4.672
  409.250    0.219    0.411   92.480    4.656
  409.500    0.211    0.404   94.196    4.641
  409.750    0.207    0.400   95.302    4.675
  410.000    0.211    0.398   94.947    4.692
  410.250    0.216    0.404   92.947    4.677
  410.500    0.211    0.413   90.823    4.555
  410.750    0.208    0.424   88.276    4.303
  411.000    0.209    0.419   86.822    4.083
  411.250    0.211    0.415   84.821    3.864
  411.500    0.214    0.412   82.457    3.808
  411.750    0.227    0.411   81.489    3.605
  412.000    0.247    0.412   80.830    3.736
  412.250    0.262    0.421   81.935    3.663
  412.500    0.282    0.413   84.202    3.607
  412.750    0.297    0.415   86.221    3.543
  413.000    0.302    0.419   87.691    3.479
  413.250    0.306    0.411   87.946    3.308
  413.500    0.313    0.399   82.045    3.170
  413.750    0.320    0.390   73.890    3.016
  414.000    0.328    0.378   68.294    2.845
  414.250    0.333    0.370   66.295    2.699
  414.500    0.329    0.364   66.853    2.545
  414.750    0.319    0.363   67.289    2.440
  415.000    0.322    0.361   66.631    2.336
  415.250    0.338    0.364   65.909    2.312
  415.500    0.343    0.372   65.188    2.852
  415.750    0.322    0.381   65.137    3.000
  416.000    0.302    0.391   64.964    3.246
  416.250    0.292    0.399   66.740    3.615
  416.500    0.279    0.400   68.456    4.090
  416.750    0.278    0.403   69.073    4.533
  417.000    0.286    0.391   68.901    4.877
  417.250    0.294    0.382   67.753    5.344
  417.500    0.299    0.377   66.849    5.476
  417.750    0.280    0.393   69.235    5.313
  418.000    0.259    0.412   73.021    4.930
  418.250    0.244    0.431   78.639    4.465
  418.500    0.234    0.430   83.400    4.221
  418.750    0.226    0.424   88.831    4.026
  419.000    0.231    0.418   91.340    3.921
  419.250    0.225    0.414   91.777    3.890
  419.500    0.217    0.411   90.812    3.907
  419.750    0.211    0.406   89.967    3.941
  420.000    0.212    0.402   89.064    3.958
  420.250    0.218    0.408   88.281    3.967
