~VERSION INFORMATION
 VERS.                 2.0:   CWLS LOG ASCII STANDARD -VERSION 2.0
 WRAP.                  NO:   ONE LINE PER DEPTH STEP
~WELL INFORMATION BLOCK
#MNEM.UNIT           DATA                    DESCRIPTION OF MNEMONIC
#---------    -------------------            -------------------------------
# Generated from Intellog Unique Number	CS_73_76/WELL/856
WELL.         SULPETRO LIMITED               : Well_name    - WELL
LOC .         00/14-25-073-11W4/0            : Location     - LOCATION
UWI .         00/14-25-073-11W4/0            : Uwi          - UNIQUE WELL ID
ENTR.         SP                             : Entered      - ENTERED BY
SRVC.         SCHLUMBERGER                   : Scn          - SERVICE COMPANY
STRT.M        300                            : top_depth    - START DEPTH
STOP.M        525                            : bot_depth    - STOP DEPTH
STEP.M        0.25                           : increment    - STEP LENGTH
 NULL. -999.2500:NULL Value
~CURVE INFORMATION BLOCK
#MNEM UNIT       ERCB CURVE CODE    CURVE DESCRIPTION
#-----------   ------------------   ----------------------------------
DEPT.M        00 001 00 00         : DEPTH        - DEPTH
ILD .OHMM     00 120 00 00         : RESD         - DEEP RESISTIVITY (DIL)
DPHI.V/V      00 890 00 00         : PHID         - DENSITY POROSITY (LIMESTONE)
NPHI.V/V      00 330 00 00         : PHIN         - NEUTRON POROSITY (LIMESTONE)
GR  .API      00 310 00 00         : GR           - GAMMA RAY
~PARAMETER INFORMATION
#MNEM.UNIT           DATA             DESCRIPTION OF MNEMONIC
#---------         -----------     ------------------------------
GL  .M        654.38               : gl           - GROUND LEVEL ELEVATION
EREF.M        657.23               : kb           - ELEVATION OF DEPTH REFERENCE
DATM.M        654.38               : datum        - DATUM ELEVATION
TDD .M        535                  : tdd          - TOTAL DEPTH DRILLER
RUN .         ONE                  : Run          - RUN NUMBER
ENG .         BILL                 : Engineer     - RECORDING ENGINEER
WIT .         JIM                  : Witness      - WITNESSED BY
MUD .         GEL                  : Mud_type     - MUD TYPE
MATR.         LIMESTONE            : Logunit      - NEUTRON MATRIX
TMAX.C        22                   : BHT          - MAXIMUM RECORDED TEMPERATURE
BHTD.M        535                  : BHTDEP       - MAXIMUM RECORDED TEMPERATURE
MATR.         1                    : LOGUNIT      - NEUTRON MATRIX
RMT .C        25                   : MDTP         - TEMPERATURE OF MUD
NEUT.         1                    : NEUTRON      - NEUTRON TYPE
RESI.         0                    : RESIST       - RESISTIVITY TYPE
RMC .OHMM     0.25                 : RMC          - RESISTIVITY OF MUD CAKE
RMF .OHMM     0.25                 : RMF          - RESISTIVITY OF MUD FILTRATE
SUFT.C        15                   : SUFT         - SURFACE TEMPERATURE
~A  DEPTH     RESD     PHID     PHIN       GR
# ...
  343.500   10.788    0.242    0.455   90.264
  343.750   10.794    0.252    0.461   90.871
  344.000   10.803    0.258    0.459   92.697
  344.250   10.412    0.250    0.465   95.131
  344.500   10.034    0.232    0.467   95.129
  344.750    9.490    0.213    0.454   93.906
  345.000    9.148    0.225    0.438   95.732
  345.250    9.333    0.253    0.425   95.728
  345.500    9.515    0.263    0.416   90.846
  345.750    9.702    0.246    0.420   90.233
  346.000    9.894    0.232    0.412   94.498
  346.250    9.906    0.235    0.404   96.934
  346.500    9.913    0.236    0.406   96.931
  346.750    9.919    0.220    0.437   93.269
  347.000    9.926    0.213    0.453   92.045
  347.250    9.933    0.205    0.461   92.042
  347.500    9.940    0.219    0.466   92.039
  347.750    9.583    0.235    0.455   92.644
  348.000    9.410    0.243    0.450   93.251
  348.250    9.418    0.257    0.467   93.249
  348.500    9.974    0.270    0.495   92.636
  348.750   10.765    0.279    0.473   92.632
  349.000   11.397    0.285    0.442   92.628
  349.250   11.840    0.275    0.468   92.625
  349.500   12.077    0.271    0.481   93.231
  349.750   12.085    0.266    0.470   93.229
  350.000   11.217    0.255    0.488   90.786
  350.250   10.032    0.240    0.503   87.734
  350.500    9.665    0.231    0.483   89.560
  350.750    9.317    0.235    0.477   91.996
  351.000    8.980    0.246    0.466   91.992
  351.250    8.818    0.262    0.440   90.770
  351.500    8.825    0.269    0.423   88.326
  351.750    9.173    0.270    0.427   88.324
  352.000    9.715    0.258    0.433   88.320
  352.250    9.905    0.254    0.426   88.317
  352.500   10.296    0.248    0.411   87.704
  352.750   10.300    0.247    0.409   90.139
  353.000   10.507    0.248    0.421   90.136
  353.250   10.715    0.270    0.427   85.253
  353.500   10.926    0.282    0.430   82.811
  353.750   11.139    0.281    0.422   80.370
  354.000   11.576    0.264    0.408   76.707
  354.250   11.158    0.249    0.414   74.874
  354.500   10.754    0.254    0.439   76.701
  354.750   10.365    0.257    0.459   78.527
  355.000    9.991    0.259    0.461   79.133
  355.250    9.814    0.253    0.453   77.910
  355.500    9.640    0.241    0.442   79.126
  355.750    9.645    0.241    0.441   81.561
  356.000    9.475    0.249    0.439   82.778
  356.250    9.303    0.252    0.443   83.995
  356.500    9.141    0.239    0.445   87.649
  356.750    9.146    0.231    0.447   88.866
  357.000    8.981    0.236    0.436   83.374
  357.250    8.987    0.236    0.432   80.322
  357.500    8.997    0.230    0.428   84.586
  357.750    9.002    0.225    0.435   88.851
  358.000    9.010    0.224    0.442   86.409
  358.250    9.018    0.231    0.445   82.748
  358.500    9.026    0.240    0.453   79.695
  358.750    9.204    0.247    0.459   82.130
  359.000    9.384    0.253    0.456   83.347
  359.250    9.757    0.257    0.453   85.783
  359.500   10.138    0.268    0.449   77.852
  359.750   10.533    0.273    0.437   72.971
  360.000   10.944    0.270    0.419   69.919
  360.250   12.038    0.281    0.408   66.257
  360.500   12.271    0.292    0.399   62.595
  360.750   12.514    0.304    0.409   59.543
  361.000   12.291    0.313    0.403   63.198
  361.250   12.305    0.296    0.393   68.682
  361.500   12.312    0.304    0.421   71.118
  361.750   12.096    0.314    0.407   68.066
  362.000   12.103    0.303    0.398   65.013
  362.250   12.109    0.291    0.388   63.791
  362.500   12.122    0.290    0.398   61.958
  362.750   12.131    0.290    0.405   62.565
  363.000   11.914    0.296    0.401   63.171
  363.250   11.702    0.285    0.387   64.997
  363.500   11.712    0.276    0.380   69.262
  363.750   11.719    0.268    0.394   77.185
  364.000   11.730    0.253    0.404   82.061
  364.250   11.738    0.257    0.419   78.398
  364.500   11.750    0.279    0.419   71.078
  364.750   11.980    0.276    0.399   70.465
  365.000   12.221    0.274    0.391   81.436
  365.250   12.460    0.281    0.410   88.751
  365.500   12.468    0.287    0.412   86.308
  365.750   12.720    0.275    0.408   78.378
  366.000   12.970    0.253    0.405   75.326
  366.250   12.740    0.239    0.415   73.493
  366.500   12.745    0.230    0.427   72.270
  366.750   12.287    0.234    0.431   78.973
  367.000   11.620    0.222    0.430   85.067
  367.250   10.787    0.216    0.419   86.285
  367.500   10.201    0.210    0.410   90.549
  367.750    9.295    0.250    0.421   89.936
  368.000    9.126    0.296    0.435   87.494
  368.250    8.796    0.317    0.446   77.124
  368.500    8.803    0.315    0.454   69.804
  368.750    8.981    0.301    0.453   60.654
  369.000    9.158    0.289    0.449   57.602
  369.250    9.338    0.298    0.442   56.989
  369.500    9.703    0.313    0.445   58.205
  369.750   10.087    0.297    0.435   61.250
  370.000   10.680    0.283    0.426   63.686
  370.250   10.889    0.270    0.418   66.731
  370.500   11.979    0.262    0.432   69.167
  370.750   12.448    0.277    0.440   69.164
  371.000   12.933    0.283    0.448   61.233
  371.250   13.187    0.283    0.418   55.743
  371.500   13.701    0.286    0.398   49.032
  371.750   14.243    0.296    0.391   45.979
  372.000   14.523    0.300    0.384   45.977
  372.250   14.808    0.303    0.385   46.583
  372.500   15.391    0.305    0.397   47.798
  372.750   15.697    0.295    0.408   48.405
  373.000   15.708    0.289    0.409   49.621
  373.250   15.722    0.291    0.402   50.226
  373.500   15.731    0.295    0.401   50.224
  373.750   15.454    0.294    0.404   50.830
  374.000   15.175    0.299    0.393   50.218
  374.250   14.630    0.291    0.378   56.921
  374.500   14.637    0.273    0.380   62.406
  374.750   14.380    0.263    0.408   61.182
  375.000   14.120    0.283    0.421   55.691
  375.250   14.131    0.292    0.429   51.420
  375.500   14.141    0.302    0.423   50.807
  375.750   14.151    0.308    0.413   55.681
  376.000   14.163    0.318    0.426   58.725
  376.250   14.179    0.308    0.432   61.162
  376.500   14.455    0.302    0.428   61.769
  376.750   14.470    0.297    0.419   59.327
  377.000   14.483    0.296    0.401   50.176
  377.250   14.221    0.300    0.384   46.515
  377.500   14.230    0.302    0.405   50.778
  377.750   13.718    0.299    0.428   53.215
  378.000   13.224    0.296    0.422   56.260
  378.250   12.989    0.308    0.415   56.257
  378.500   12.751    0.313    0.430   51.985
  378.750   13.256    0.316    0.435   50.763
  379.000   13.262    0.314    0.429   53.199
  379.250   13.528    0.306    0.424   53.195
  379.500   13.539    0.299    0.414   51.973
  379.750   13.548    0.296    0.424   54.408
  380.000   13.311    0.296    0.428   58.672
  380.250   13.571    0.293    0.429   62.937
  380.500   13.579    0.285    0.422   66.592
  380.750   13.848    0.280    0.430   67.199
  381.000   13.858    0.294    0.446   69.025
  381.250   14.685    0.304    0.451   70.851
  381.500   15.257    0.308    0.451   72.677
  381.750   15.851    0.299    0.444   73.892
  382.000   16.165    0.293    0.435   72.670
  382.250   16.176    0.290    0.431   69.008
  382.500   15.886    0.293    0.425   67.176
  382.750   15.607    0.300    0.418   67.172
  383.000   15.323    0.301    0.427   68.997
  383.250   15.052    0.306    0.435   69.605
  383.500   14.784    0.315    0.440   69.601
  383.750   14.792    0.312    0.451   70.818
  384.000   13.229    0.300    0.458   70.813
  384.250   12.988    0.300    0.478   67.762
  384.500   12.521    0.302    0.459   64.710
  384.750   12.527    0.295    0.462   65.926
  385.000   12.536    0.290    0.453   67.141
  385.250   13.031    0.288    0.438   66.527
  385.500   13.537    0.294    0.425   65.915
  385.750   14.069    0.295    0.430   67.741
  386.000   14.350    0.295    0.436   72.615
  386.250   14.362    0.295    0.450   78.709
  386.500   14.370    0.285    0.464   83.585
  386.750   14.386    0.281    0.469   87.240
