~VERSION INFORMATION
 VERS.                 2.0:   CWLS LOG ASCII STANDARD -VERSION 2.0
 WRAP.                  NO:   ONE LINE PER DEPTH STEP
~WELL INFORMATION BLOCK
#MNEM.UNIT           DATA                    DESCRIPTION OF MNEMONIC
#---------    -------------------            -------------------------------
# Generated from Intellog Unique Number	CW_73_75/WELL/2747
WELL.         GAO ET AL AMADO4 11-31         : Well_name    - WELL
LOC .         00/11-31-073-19W4/0            : Location     - LOCATION
UWI .         00/11-31-073-19W4/0            : Uwi          - UNIQUE WELL ID
ENTR.         JAYE                           : Entered      - ENTERED BY
SRVC.         SCHLUMBERGER                   : Scn          - SERVICE COMPANY
DATE.         10 JAN 74                      : Date         - LOG DATE
STRT.M        353.568                        : top_depth    - START DEPTH
STOP.M        594.318                        : bot_depth    - STOP DEPTH
STEP.M        0.25                           : increment    - STEP LENGTH
 NULL. -999.2500:NULL Value
~CURVE INFORMATION BLOCK
#MNEM UNIT       ERCB CURVE CODE    CURVE DESCRIPTION
#-----------   ------------------   ----------------------------------
DEPT.M        00 001 00 00         : DEPTH        - DEPTH
ILD .OHMM     00 120 00 00         : RESD         - DEEP RESISTIVITY (DIL)
NPHI.V/V      00 330 00 00         : PHIN         - NEUTRON POROSITY (SANDSTONE)
DPHI.V/V      00 890 00 00         : PHID         - DENSITY POROSITY (SANDSTONE)
GR  .API      00 310 00 00         : GR           - GAMMA RAY
CALI.MM       00 280 01 00         : CAL          - CALIPER
~PARAMETER INFORMATION
#MNEM.UNIT           DATA             DESCRIPTION OF MNEMONIC
#---------         -----------     ------------------------------
GL  .M        671.779              : gl           - GROUND LEVEL ELEVATION
EREF.M        674.827              : kb           - ELEVATION OF DEPTH REFERENCE
DATM.M        671.779              : datum        - DATUM ELEVATION
TDD .M        600.456              : tdd          - TOTAL DEPTH DRILLER
RUN .         ONE                  : Run          - RUN NUMBER
BASE.         EDM                  : Branch       - HOME BASE OF LOGGING UNIT
MATR.         SANDSTONE            : Logunit      - NEUTRON MATRIX
TMAX.C        29.4444              : BHT          - MAXIMUM RECORDED TEMPERATURE
BHTD.M        603.504              : BHTDEP       - MAXIMUM RECORDED TEMPERATURE
RMT .C        13.3333              : MDTP         - TEMPERATURE OF MUD
MUDD.KG/M     0                    : MWT          - MUD DENSITY
NEUT.         1                    : NEUTRON      - NEUTRON TYPE
RESI.         0                    : RESIST       - RESISTIVITY TYPE
RM  .OHMM     0.843                : RM           - RESISTIVITY OF MUD
RMC .OHMM     0                    : RMC          - RESISTIVITY OF MUD CAKE
RMF .OHMM     1.17                 : RMF          - RESISTIVITY OF MUD FILTRATE
SUFT.C        -17.7778             : SUFT         - SURFACE TEMPERATURE
~A  DEPTH     RESD     PHIN     PHID       GR      CAL
# ...
  390.068    8.962    0.457    0.309   83.725  178.400
  390.318    9.154    0.495    0.313   88.201  177.687
  390.568    9.248    0.507    0.315   95.552  177.303
  390.818    9.309    0.507    0.322   99.572  177.139
  391.068    8.901    0.488    0.322   96.735  176.869
  391.318    8.702    0.470    0.299   91.084  176.816
  391.568    7.593    0.470    0.276   88.769  177.758
  391.818    6.638    0.499    0.281   94.162  182.245
  392.068    5.594    0.528    0.303   99.552  190.271
  392.318    4.132    0.547    0.319  104.878  193.983
  392.568    3.308    0.566    0.309  107.005  192.380
  392.818    2.962    0.581    0.274  108.346  187.908
  393.068    2.756    0.556    0.270  102.111  181.989
  393.318    2.851    0.517    0.295   92.084  169.771
  393.568    3.453    0.475    0.293   79.972  162.533
  393.818    4.442    0.465    0.278   74.452  160.717
  394.068    5.810    0.456    0.254   79.386  161.001
  394.318    7.179    0.461    0.237   87.394  162.384
  394.568    7.861    0.449    0.252   89.255  164.104
  394.818    8.134    0.433    0.290   85.569  165.702
  395.068    8.098    0.452    0.284   85.668  167.987
  395.318    7.673    0.463    0.275   86.683  169.804
  395.568    6.996    0.472    0.249   92.793  174.843
  395.818    6.105    0.498    0.232   96.355  181.982
  396.068    5.536    0.512    0.231   85.157  188.567
  396.318    5.236    0.474    0.278   69.056  190.842
  396.568    5.407    0.412    0.275   59.161  192.341
  396.818    5.975    0.389    0.255   54.558  194.391
  397.068    6.354    0.383    0.244   47.473  196.439
  397.318    7.009    0.397    0.253   49.078  199.482
  397.568    7.634    0.408    0.260   51.073  203.527
  397.818    8.360    0.415    0.274   51.106  207.014
  398.068    9.037    0.422    0.290   49.969  209.732
  398.318    9.453    0.429    0.298   48.432  213.109
  398.568    9.762    0.435    0.301   47.164  216.263
  398.818   10.045    0.444    0.304   45.829  218.203
  399.068   10.280    0.453    0.307   43.443  219.369
  399.318   10.576    0.436    0.315   41.258  220.534
  399.568   10.725    0.435    0.323   42.602  221.153
  399.818   11.015    0.470    0.330   44.401  221.982
  400.068   11.480    0.465    0.334   45.873  222.709
  400.318   11.899    0.461    0.325   47.734  222.880
  400.568   12.355    0.461    0.314   47.444  223.278
  400.818   12.550    0.468    0.317   45.649  224.215
  401.068   12.704    0.474    0.310   44.251  224.722
  401.318   12.905    0.471    0.299   43.634  224.780
  401.568   13.156    0.465    0.321   43.798  224.278
  401.818   13.414    0.460    0.335   43.767  222.129
  402.068   13.777    0.470    0.327   42.364  218.649
  402.318   14.203    0.491    0.330   40.048  213.953
  402.568   14.561    0.478    0.337   42.891  209.804
  402.818   14.736    0.456    0.333   42.798  205.109
  403.068   14.753    0.443    0.331   45.509  198.863
  403.318   14.631    0.454    0.333   48.810  192.175
  403.568   14.488    0.460    0.339   51.526  185.045
  403.818   14.215    0.454    0.334   51.036  178.252
  404.068   13.844    0.441    0.323   49.573  173.556
  404.318   13.385    0.442    0.315   49.800  170.844
  404.568   12.871    0.447    0.318   50.684  168.136
  404.818   12.443    0.444    0.330   51.115  165.208
  405.068   11.921    0.432    0.324   51.345  161.400
  405.318   11.336    0.425    0.330   50.920  158.359
  405.568   10.781    0.439    0.326   48.868  155.215
  405.818   10.254    0.464    0.317   50.018  151.957
  406.068    9.539    0.463    0.317   51.487  149.473
  406.318    8.924    0.453    0.327   52.177  147.868
  406.568    8.349    0.434    0.319   51.557  146.166
  406.818    7.753    0.424    0.320   51.985  144.900
  407.068    7.279    0.423    0.322   53.388  144.187
  407.318    6.935    0.425    0.318   51.073  143.357
  407.568    6.730    0.410    0.330   51.631  142.306
  407.818    6.554    0.413    0.343   53.559  141.921
  408.068    6.443    0.429    0.337   52.679  141.649
  408.318    6.402    0.436    0.329   53.830  141.499
  408.568    6.468    0.437    0.323   55.038  141.439
  408.818    6.523    0.424    0.317   52.853  141.385
  409.068    6.577    0.421    0.317   49.686  141.775
  409.318    6.596    0.434    0.329   49.660  142.509
  409.568    6.639    0.445    0.320   50.020  143.119
  409.818    6.708    0.451    0.318   50.315  143.952
  410.068    6.789    0.447    0.319   50.742  144.454
  410.318    6.783    0.437    0.315   51.436  144.950
  410.568    6.767    0.440    0.317   51.856  145.232
  410.818    6.761    0.445    0.326   52.152  145.418
  411.068    6.706    0.438    0.334   52.448  145.573
  411.318    6.677    0.438    0.325   52.877  145.523
  411.568    6.634    0.437    0.329   53.629  145.252
  411.818    6.593    0.430    0.326   55.102  144.865
  412.068    6.540    0.417    0.321   54.745  144.375
  412.318    6.523    0.425    0.314   55.567  143.553
  412.568    6.519    0.444    0.306   53.771  143.052
  412.818    6.562    0.440    0.308   51.195  142.561
  413.068    6.568    0.428    0.315   48.745  142.289
  413.318    6.647    0.413    0.318   49.436  142.350
  413.568    6.679    0.423    0.331   51.101  142.295
  413.818    6.674    0.449    0.323   51.988  142.911
  414.068    6.719    0.409    0.310   46.861  143.527
  414.318    6.750    0.381    0.297   45.658  144.245
  414.568    6.781    0.358    0.291   46.411  145.409
  414.818    6.789    0.396    0.312   48.865  147.242
  415.068    6.821    0.426    0.330   52.294  148.409
  415.318    6.892    0.390    0.338   53.114  147.137
  415.568    7.104    0.351    0.318   51.844  148.752
  415.818    7.513    0.295    0.292   49.786  150.136
  416.068    8.333    0.242    0.234   43.162  151.411
  416.318    9.623    0.198    0.130   42.931  153.354
  416.568   10.991    0.194    0.088   44.602  153.855
  416.818   12.303    0.246    0.102   45.617  152.807
  417.068   12.822    0.293    0.137   46.764  150.876
  417.318   12.580    0.344    0.176   48.624  150.383
  417.568   11.555    0.380    0.194   52.710  150.333
  417.818   10.459    0.406    0.212   48.238  151.052
  418.068    9.484    0.442    0.273   43.637  151.887
  418.318    8.111    0.456    0.333   44.127  152.944
  418.568    7.182    0.454    0.342   46.516  153.675
  418.818    6.108    0.461    0.352   45.050  154.055
  419.068    5.559    0.453    0.350   41.684  154.345
  419.318    5.277    0.440    0.350   40.089  154.514
  419.568    5.215    0.450    0.350   40.058  155.018
  419.818    5.241    0.462    0.350   40.095  154.966
  420.068    5.323    0.457    0.346   40.130  155.142
  420.318    5.427    0.447    0.344   40.295  155.412
  420.568    5.553    0.449    0.339   40.329  155.691
  420.818    5.651    0.449    0.332   39.647  155.757
  421.068    5.762    0.443    0.334   41.639  155.811
  421.318    5.897    0.448    0.339   43.177  155.656
  421.568    6.034    0.453    0.334   39.228  155.273
  421.818    6.174    0.463    0.333   37.630  154.440
  422.068    6.250    0.470    0.333   36.689  153.730
  422.318    6.360    0.479    0.326   37.901  152.906
  422.568    6.460    0.469    0.335   40.480  152.295
  422.818    6.528    0.451    0.332   41.952  151.030
  423.068    6.559    0.437    0.328   41.073  149.429
  423.318    6.553    0.444    0.324   39.475  147.938
  423.568    6.573    0.457    0.318   38.334  146.458
  423.818    6.568    0.479    0.336   37.326  144.858
  424.068    6.551    0.469    0.345   36.188  143.473
  424.318    6.509    0.469    0.341   35.178  143.423
  424.568    6.410    0.471    0.346   33.973  144.148
  424.818    6.253    0.464    0.340   33.032  145.863
  425.068    6.170    0.460    0.336   32.469  148.798
  425.318    6.053    0.462    0.333   31.525  148.634
  425.568    5.983    0.482    0.331   30.912  145.597
  425.818    5.891    0.482    0.330   30.232  142.232
  426.068    5.875    0.472    0.328   29.866  143.064
  426.318    5.903    0.230    0.324   30.361  145.451
