~VERSION INFORMATION
 VERS.                 2.0:   CWLS LOG ASCII STANDARD -VERSION 2.0
 WRAP.                  NO:   ONE LINE PER DEPTH STEP
~WELL INFORMATION BLOCK
#MNEM.UNIT           DATA                    DESCRIPTION OF MNEMONIC
#---------    -------------------            -------------------------------
# Generated from Intellog Unique Number	CS_67_68/WELL/2206
WELL.         DOME CAVALIER GRASSLAND        : Well_name    - WELL
LOC .         00/11-10-067-18W4/0            : Location     - LOCATION
UWI .         00/11-10-067-18W4/0            : Uwi          - UNIQUE WELL ID
ENTR.         SUSAN                          : Entered      - ENTERED BY
SRVC.         SCHLUMBERGER                   : Scn          - SERVICE COMPANY
STRT.M        375                            : top_depth    - START DEPTH
STOP.M        571                            : bot_depth    - STOP DEPTH
STEP.M        0.25                           : increment    - STEP LENGTH
 NULL. -999.2500:NULL Value
~CURVE INFORMATION BLOCK
#MNEM UNIT       ERCB CURVE CODE    CURVE DESCRIPTION
#-----------   ------------------   ----------------------------------
DEPT.M        00 001 00 00         : DEPTH        - DEPTH
ILD .OHMM     00 120 00 00         : RESD         - DEEP RESISTIVITY (DIL)
DPHI.V/V      00 890 00 00         : PHID         - DENSITY POROSITY (LIMESTONE)
NPHI.V/V      00 330 00 00         : PHIN         - NEUTRON POROSITY (LIMESTONE)
GR  .API      00 310 00 00         : GR           - GAMMA RAY
CALI.MM       00 280 01 00         : CAL          - CALIPER
~PARAMETER INFORMATION
#MNEM.UNIT           DATA             DESCRIPTION OF MNEMONIC
#---------         -----------     ------------------------------
GL  .M        598.39               : gl           - GROUND LEVEL ELEVATION
EREF.M        602                  : kb           - ELEVATION OF DEPTH REFERENCE
DATM.M        602                  : datum        - DATUM ELEVATION
TDD .M        574                  : tdd          - TOTAL DEPTH DRILLER
RUN .         ONE                  : Run          - RUN NUMBER
ENG .         BILL                 : Engineer     - RECORDING ENGINEER
WIT .         JIM                  : Witness      - WITNESSED BY
MUD .         GEL                  : Mud_type     - MUD TYPE
MATR.         LIMESTONE            : Logunit      - NEUTRON MATRIX
TMAX.C        24                   : BHT          - MAXIMUM RECORDED TEMPERATURE
BHTD.M        573                  : BHTDEP       - MAXIMUM RECORDED TEMPERATURE
MATR.         1                    : LOGUNIT      - NEUTRON MATRIX
RMT .C        25                   : MDTP         - TEMPERATURE OF MUD
NEUT.         1                    : NEUTRON      - NEUTRON TYPE
RESI.         0                    : RESIST       - RESISTIVITY TYPE
RMC .OHMM     0.25                 : RMC          - RESISTIVITY OF MUD CAKE
RMF .OHMM     0.25                 : RMF          - RESISTIVITY OF MUD FILTRATE
SUFT.C        15                   : SUFT         - SURFACE TEMPERATURE
~A  DEPTH     RESD     PHID     PHIN       GR      CAL
# ...
  521.000    4.742    0.103    0.328   82.151  187.801
  521.250    4.111    0.117    0.358   88.501  187.695
  521.500    3.760    0.130    0.359   97.997  187.587
  521.750    3.471    0.139    0.344  106.691  187.378
  522.000    3.248    0.141    0.326  114.152  187.169
  522.250    3.121    0.145    0.315  117.973  186.959
  522.500    3.034    0.151    0.323  106.622  186.852
  522.750    2.988    0.160    0.342  106.434  186.643
  523.000    2.989    0.168    0.359  111.181  186.536
  523.250    3.012    0.174    0.367  116.113  186.017
  523.500    3.105    0.180    0.368  119.935  186.218
  523.750    3.202    0.180    0.374  120.919  186.214
  524.000    3.270    0.178    0.364  120.300  185.799
  524.250    3.372    0.177    0.361  121.901  185.898
  524.500    3.476    0.169    0.361  122.886  185.894
  524.750    3.564    0.156    0.346  118.997  186.610
  525.000    3.599    0.137    0.330  107.954  187.633
  525.250    3.592    0.129    0.338   97.344  188.349
  525.500    3.498    0.141    0.351  102.769  189.064
  525.750    3.387    0.151    0.349  110.476  189.472
  526.000    3.286    0.159    0.344  116.888  189.879
  526.250    3.243    0.164    0.344  120.155  189.977
  526.500    3.243    0.168    0.352  118.425  189.974
  526.750    3.231    0.165    0.359  117.498  189.558
  527.000    3.294    0.158    0.354  121.257  189.040
  527.250    3.383    0.149    0.341  124.894  188.625
  527.500    3.502    0.139    0.327  119.957  188.312
  527.750    3.556    0.128    0.316  116.007  188.000
  528.000    3.543    0.120    0.333  112.058  187.482
  528.250    3.463    0.145    0.356  114.337  186.552
  528.500    3.598    0.170    0.343  131.235  185.932
  528.750    4.073    0.189    0.320  135.549  185.003
  529.000    4.928    0.202    0.295  115.255  183.457
  529.250    6.053    0.208    0.289   93.296  182.424
  529.500    7.023    0.193    0.295   80.341  182.009
  529.750    7.755    0.175    0.294   82.065  182.108
  530.000    8.119    0.156    0.294   87.984  183.440
  530.250    8.260    0.138    0.309   84.466  185.081
  530.500    7.892    0.130    0.320   72.868  185.591
  530.750    7.259    0.161    0.318   68.610  185.382
  531.000    6.588    0.180    0.300   77.181  183.938
  531.250    6.259    0.166    0.294   93.338  182.084
  531.500    6.260    0.176    0.293  106.473  180.229
  531.750    6.899    0.188    0.287   83.958  179.095
  532.000    8.556    0.197    0.284   72.298  178.679
  532.250   10.713    0.208    0.286   60.516  178.059
  532.500   13.261    0.214    0.291   51.940  178.363
  532.750   15.474    0.219    0.294   60.263  179.490
  533.000   17.716    0.226    0.300   63.901  179.897
  533.250   19.193    0.238    0.294   60.814  180.201
  533.500   20.441    0.231    0.286   62.292  180.197
  533.750   17.389    0.207    0.278   66.114  179.678
  534.000   13.500    0.187    0.273   69.318  179.366
  534.250   10.521    0.168    0.273   74.065  178.643
  534.500    9.245    0.157    0.282   79.922  178.125
  534.750    8.766    0.145    0.273   84.237  177.709
  535.000    8.234    0.160    0.253   72.146  177.602
  535.250    7.912    0.171    0.247   51.851  177.702
  535.500    7.661    0.172    0.256   51.849  177.697
  535.750    7.560    0.181    0.264   53.203  177.282
  536.000    7.547    0.213    0.271   45.121  174.914
  536.250    7.533    0.226    0.277   30.501  174.293
  536.500    7.753    0.230    0.285   33.336  174.494
  536.750    7.918    0.233    0.297   51.837  175.004
  537.000    8.242    0.242    0.310   75.950  175.206
  537.250    8.778    0.248    0.307   81.746  175.510
  537.500    9.172    0.243    0.298   61.389  175.301
  537.750    9.565    0.238    0.294   51.765  175.605
  538.000    9.881    0.236    0.293   48.617  175.395
  538.250    9.622    0.243    0.295   57.558  175.699
  538.500    8.585    0.247    0.289   66.129  176.106
  538.750    7.543    0.235    0.284   67.422  176.514
  539.000    6.742    0.215    0.279   59.771  177.332
  539.250    6.273    0.194    0.278   62.606  179.281
  539.500    5.586    0.178    0.272   63.899  181.436
  539.750    5.367    0.167    0.263   63.711  182.974
  540.000    4.946    0.159    0.267   73.207  184.922
  540.250    4.532    0.156    0.277  105.524  185.638
  540.500    4.455    0.159    0.291  113.663  185.737
  540.750    4.241    0.161    0.301  121.185  185.218
  541.000    4.153    0.166    0.307  130.373  184.597
  541.250    4.068    0.170    0.313  137.463  184.183
  541.500    4.045    0.178    0.316  134.068  183.562
  541.750    4.163    0.183    0.311  130.427  183.044
  542.000    4.284    0.180    0.301  131.226  182.835
  542.250    4.367    0.176    0.296  128.633  182.625
  542.500    4.460    0.178    0.300  126.041  182.107
  542.750    4.555    0.181    0.308  129.862  180.972
  543.000    4.556    0.176    0.298  133.499  179.426
  543.250    4.462    0.168    0.290  132.324  177.777
  543.500    4.296    0.170    0.286  128.313  175.922
  543.750    4.058    0.217    0.296  124.857  175.199
  544.000    3.840    0.227    0.309  121.523  174.372
  544.250    3.593    0.230    0.318  118.252  173.752
  544.500    3.349    0.229    0.316  116.029  173.234
  544.750    3.170    0.223    0.306  115.595  172.715
  545.000    3.011    0.220    0.301  118.800  172.506
  545.250    2.823    0.236    0.298  116.454  172.091
  545.500    2.671    0.250    0.295  110.839  171.881
  545.750    2.538    0.263    0.293  107.814  171.259
  546.000    2.425    0.263    0.301  105.221  170.845
  546.250    2.366    0.257    0.299  103.800  170.738
  546.500    2.371    0.251    0.291  104.784  170.837
  546.750    2.412    0.245    0.299  105.707  171.347
  547.000    2.487    0.248    0.307  107.802  172.473
  547.250    2.628    0.247    0.311  109.897  173.292
  547.500    2.826    0.237    0.305  112.423  173.596
  547.750    2.908    0.218    0.297  114.702  174.209
  548.000    3.045    0.198    0.291  116.674  174.924
  548.250    3.151    0.179    0.302  112.292  175.229
  548.500    3.274    0.156    0.311  103.901  175.842
  548.750    3.434    0.133    0.317   97.670  175.529
  549.000    3.616    0.141    0.325   98.346  174.085
  549.250    3.902    0.181    0.338   99.392  171.718
  549.500    4.228    0.199    0.350   90.693  164.209
  549.750    4.624    0.217    0.336   78.293  159.785
  550.000    4.887    0.236    0.326   68.977  156.183
  550.250    5.155    0.195    0.318   53.309  154.843
  550.500    5.265    0.163    0.322   46.830  155.661
  550.750    5.088    0.151    0.321   46.457  159.049
  551.000    4.523    0.152    0.315   47.565  161.718
  551.250    4.183    0.154    0.317   47.563  165.209
  551.500    3.952    0.152    0.323   45.155  168.494
  551.750    3.870    0.140    0.326   42.809  166.742
  552.000    3.827    0.142    0.322   40.401  164.477
  552.250    3.827    0.149    0.318   39.288  164.165
  552.500    3.842    0.157    0.313   39.533  165.908
  552.750    3.865    0.166    0.306   39.099  168.063
  553.000    3.800    0.163    0.303   37.739  169.498
  553.250    3.630    0.172    0.306   36.873  169.905
  553.500    3.429    0.181    0.313   37.056  169.079
  553.750    3.352    0.192    0.317   37.978  167.224
  554.000    3.378    0.208    0.321   39.580  165.164
  554.250    3.591    0.206    0.319   41.366  163.824
  554.500    3.846    0.188    0.308   43.707  162.381
  554.750    4.136    0.169    0.295   46.110  161.246
  555.000    4.354    0.172    0.287   48.945  161.447
  555.250    4.593    0.184    0.283   50.484  163.705
  555.500    4.790    0.204    0.293   53.319  166.888
  555.750    4.958    0.208    0.303   57.141  169.659
  556.000    5.102    0.177    0.310   59.976  172.327
  556.250    5.152    0.162    0.315   53.004  174.378
  556.500    5.065    0.150    0.316   37.520  175.403
  556.750    4.989    0.148    0.308   30.424  175.502
  557.000    4.840    0.148    0.303   24.624  175.498
  557.250    4.686    0.156    0.306   27.644  174.569
