~VERSION INFORMATION
 VERS.                 2.0:   CWLS LOG ASCII STANDARD -VERSION 2.0
 WRAP.                  NO:   ONE LINE PER DEPTH STEP
~WELL INFORMATION BLOCK
#MNEM.UNIT           DATA                    DESCRIPTION OF MNEMONIC
#---------    -------------------            -------------------------------
# Generated from Intellog Unique Number	CS_71_72/WELL/855
WELL.         PEX PHILLIPS AEC WIAU          : Well_name    - WELL
LOC .         00/10-13-071-08W4/0            : Location     - LOCATION
UWI .         00/10-13-071-08W4/0            : Uwi          - UNIQUE WELL ID
ENTR.         SP                             : Entered      - ENTERED BY
SRVC.         SCHLUMBERGER                   : Scn          - SERVICE COMPANY
STRT.M        305                            : top_depth    - START DEPTH
STOP.M        525                            : bot_depth    - STOP DEPTH
STEP.M        0.25                           : increment    - STEP LENGTH
 NULL. -999.2500:NULL Value
~CURVE INFORMATION BLOCK
#MNEM UNIT       ERCB CURVE CODE    CURVE DESCRIPTION
#-----------   ------------------   ----------------------------------
DEPT.M        00 001 00 00         : DEPTH        - DEPTH
ILD .OHMM     00 120 00 00         : RESD         - DEEP RESISTIVITY (DIL)
DPHI.V/V      00 890 00 00         : PHID         - DENSITY POROSITY (LIMESTONE)
NPHI.V/V      00 330 00 00         : PHIN         - NEUTRON POROSITY (LIMESTONE)
GR  .API      00 310 00 00         : GR           - GAMMA RAY
~PARAMETER INFORMATION
#MNEM.UNIT           DATA             DESCRIPTION OF MNEMONIC
#---------         -----------     ------------------------------
GL  .M        663.74               : gl           - GROUND LEVEL ELEVATION
EREF.M        666.7                : kb           - ELEVATION OF DEPTH REFERENCE
DATM.M        663.74               : datum        - DATUM ELEVATION
TDD .M        535                  : tdd          - TOTAL DEPTH DRILLER
RUN .         ONE                  : Run          - RUN NUMBER
ENG .         BILL                 : Engineer     - RECORDING ENGINEER
WIT .         JIM                  : Witness      - WITNESSED BY
MUD .         GEL                  : Mud_type     - MUD TYPE
MATR.         LIMESTONE            : Logunit      - NEUTRON MATRIX
TMAX.C        22                   : BHT          - MAXIMUM RECORDED TEMPERATURE
BHTD.M        535                  : BHTDEP       - MAXIMUM RECORDED TEMPERATURE
MATR.         1                    : LOGUNIT      - NEUTRON MATRIX
RMT .C        25                   : MDTP         - TEMPERATURE OF MUD
NEUT.         1                    : NEUTRON      - NEUTRON TYPE
RESI.         0                    : RESIST       - RESISTIVITY TYPE
RMC .OHMM     0.25                 : RMC          - RESISTIVITY OF MUD CAKE
RMF .OHMM     0.25                 : RMF          - RESISTIVITY OF MUD FILTRATE
SUFT.C        15                   : SUFT         - SURFACE TEMPERATURE
~A  DEPTH     RESD     PHID     PHIN       GR
# ...
  479.000   35.336    0.290    0.354   42.488
  479.250   32.636    0.281    0.360   44.062
  479.500   31.758    0.288    0.358   47.399
  479.750   33.672    0.296    0.356   51.221
  480.000   37.828    0.296    0.355   53.829
  480.250   40.863    0.292    0.362   55.342
  480.500   41.122    0.282    0.371   50.416
  480.750   35.512    0.300    0.379   44.336
  481.000   26.567    0.300    0.386   41.718
  481.250   19.221    0.298    0.379   48.275
  481.500   15.577    0.302    0.347   62.243
  481.750   12.440    0.310    0.326   76.028
  482.000   10.823    0.316    0.314   83.860
  482.250    9.612    0.283    0.328   81.547
  482.500    8.730    0.249    0.351   76.864
  482.750    7.974    0.268    0.378   73.153
  483.000    7.559    0.269    0.378   78.797
  483.250    7.808    0.245    0.355   83.166
  483.500    9.756    0.210    0.378   86.745
  483.750   12.441    0.196    0.404   88.260
  484.000   17.712    0.195    0.416   82.848
  484.250   24.796    0.174    0.429   73.974
  484.500   28.380    0.192    0.442   64.612
  484.750   25.775    0.245    0.409   49.906
  485.000   21.727    0.287    0.385   40.180
  485.250   18.009    0.307    0.362   43.395
  485.500   15.380    0.293    0.345   56.269
  485.750   14.910    0.278    0.342   65.317
  486.000   18.183    0.258    0.355   71.508
  486.250   24.523    0.234    0.367   73.933
  486.500   35.372    0.220    0.385   66.152
  486.750   47.439    0.241    0.402   57.398
  487.000   57.636    0.268    0.417   49.314
  487.250   64.630    0.286    0.400   45.116
  487.500   69.425    0.302    0.378   43.956
  487.750   73.477    0.322    0.364   42.919
  488.000   76.466    0.330    0.361   42.306
  488.250   79.135    0.330    0.357   42.361
  488.500   81.285    0.318    0.355   42.782
  488.750   82.258    0.304    0.352   44.294
  489.000   82.468    0.297    0.349   45.688
  489.250   81.610    0.297    0.356   47.626
  489.500   78.843    0.308    0.358   49.322
  489.750   75.992    0.314    0.358   50.351
  490.000   65.505    0.303    0.357   49.374
  490.250   52.604    0.294    0.356   48.701
  490.500   42.084    0.291    0.365   49.425
  490.750   31.958    0.305    0.375   53.005
  491.000   27.290    0.311    0.381   56.948
  491.250   24.058    0.305    0.369   60.163
  491.500   22.219    0.309    0.362   62.588
  491.750   20.296    0.305    0.368   64.284
  492.000   19.275    0.310    0.380   64.401
  492.250   18.003    0.310    0.388   63.971
  492.500   16.751    0.303    0.399   65.606
  492.750   15.046    0.305    0.404   69.246
  493.000   13.742    0.289    0.405   73.493
  493.250   12.596    0.278    0.398   76.707
  493.500   11.003    0.271    0.399   79.315
  493.750   10.180    0.267    0.398   82.226
  494.000    9.194    0.264    0.392   86.414
  494.250    8.365    0.252    0.387   92.787
  494.500    7.655    0.235    0.386   98.067
  494.750    7.045    0.221    0.392  102.437
  495.000    6.753    0.215    0.393  105.955
  495.250    6.583    0.218    0.383  108.076
  495.500    6.514    0.221    0.379  108.922
  495.750    6.519    0.210    0.382  105.880
  496.000    6.610    0.199    0.374   96.762
  496.250    7.064    0.191    0.370   86.611
  496.500    7.185    0.203    0.370   77.797
  496.750    7.778    0.216    0.354   77.367
  497.000    8.093    0.230    0.340   82.707
  497.250    8.841    0.217    0.343   85.316
  497.500   10.118    0.237    0.370   73.221
  497.750   11.844    0.279    0.398   61.491
  498.000   13.109    0.301    0.421   54.135
  498.250   13.641    0.312    0.375   56.620
  498.500   13.298    0.306    0.355   62.872
  498.750   11.810    0.288    0.342   67.242
  499.000   10.373    0.278    0.340   70.457
  499.250    8.827    0.264    0.342   72.456
  499.500    8.212    0.251    0.340   72.452
  499.750    7.335    0.242    0.337   72.811
  500.000    6.966    0.232    0.334   76.511
  500.250    6.766    0.230    0.334   79.726
  500.500    6.561    0.219    0.342   80.633
  500.750    6.467    0.200    0.350   81.175
  501.000    6.365    0.181    0.343   83.235
  501.250    6.323    0.172    0.336   87.786
  501.500    6.327    0.207    0.346   91.366
  501.750    6.343    0.229    0.354   95.917
  502.000    6.418    0.210    0.358  101.866
  502.250    6.680    0.177    0.370  106.174
  502.500    6.722    0.138    0.382  107.202
  502.750    6.741    0.143    0.388  102.033
  503.000    6.794    0.157    0.383   97.107
  503.250    6.853    0.167    0.378   93.518
  503.500    6.881    0.175    0.375   94.363
  503.750    6.937    0.184    0.374   96.241
  504.000    6.981    0.186    0.375  100.124
  504.250    7.027    0.175    0.381  101.942
  504.500    7.031    0.167    0.391  100.540
  504.750    6.997    0.162    0.399   98.652
  505.000    6.962    0.174    0.400   96.945
  505.250    6.916    0.178    0.397   92.444
  505.500    6.869    0.170    0.390   87.701
  505.750    6.849    0.181    0.404   84.841
  506.000    6.854    0.193    0.396   83.924
  506.250    6.873    0.209    0.386   86.228
  506.500    6.904    0.187    0.377   92.176
  506.750    6.907    0.177    0.373   95.938
  507.000    6.912    0.171    0.389   98.484
  507.250    6.916    0.165    0.399   96.232
  507.500    7.065    0.160    0.406   85.899
  507.750    7.271    0.171    0.394   79.576
  508.000    7.483    0.161    0.380   77.323
  508.250    7.533    0.151    0.364   79.748
  508.500    7.479    0.196    0.372   85.636
  508.750    7.293    0.190    0.375   90.187
  509.000    7.097    0.167    0.371   93.645
  509.250    6.958    0.155    0.367   96.313
  509.500    6.884    0.158    0.377   97.219
  509.750    7.099    0.151    0.390   96.121
  510.000    7.077    0.160    0.399   90.162
  510.250    7.042    0.190    0.375   84.811
  510.500    6.920    0.218    0.360   81.343
  510.750    6.896    0.216    0.360   78.360
  511.000    6.762    0.224    0.365   77.566
  511.250    6.666    0.235    0.365   78.714
  511.500    6.499    0.220    0.361   78.710
  511.750    6.349    0.211    0.360   78.219
  512.000    6.224    0.207    0.368   76.695
  512.250    6.112    0.224    0.370   76.144
  512.500    5.970    0.241    0.363   79.116
  512.750    5.876    0.219    0.356   84.395
  513.000    5.890    0.194    0.369   87.671
  513.250    5.961    0.182    0.383   91.919
  513.500    6.079    0.172    0.397   94.587
  513.750    6.173    0.177    0.391   95.980
  514.000    6.354    0.163    0.395   93.362
  514.250    6.441    0.178    0.393   86.735
  514.500    6.434    0.185    0.384   82.720
  514.750    6.226    0.176    0.370   80.468
  515.000    5.947    0.203    0.366   78.943
  515.250    5.754    0.216    0.375   78.513
  515.500    5.759    0.210    0.371   77.779
  515.750    5.784    0.204    0.361   82.087
  516.000    5.853    0.200    0.357   85.485
  516.250    5.934    0.187    0.354   87.545
  516.500    5.994    0.179    0.357   87.480
  516.750    5.988    0.172    0.360   84.558
  517.000    5.658    0.224    0.359   79.693
  517.250    5.575    0.227    0.368   73.613
  517.500    4.963    0.234    0.380   64.191
  517.750    4.836    0.249    0.389   59.752
  518.000    4.233    0.285    0.400   57.073
  518.250    4.012    0.313    0.392   58.344
  518.500    3.797    0.298    0.398   59.554
  518.750    3.701    0.289    0.400   59.367
  519.000    3.623    0.302    0.390   60.697
  519.250    3.604    0.312    0.392   61.604
  519.500    3.581    0.301    0.401   61.781
  519.750    3.523    0.294    0.410   55.216
  520.000    3.385    0.293    0.426   46.705
  520.250    3.299    0.311    0.435   41.840
  520.500    3.133    0.326    0.420   37.825
  520.750    3.579    0.156    0.148   32.656
  521.000    5.667   -0.001    0.140   28.399
  521.250    8.038   -0.009    0.135   26.996
  521.500   12.330   -0.000    0.140   28.085
  521.750   17.619    0.019    0.153   29.477
  522.000   21.973    0.035    0.164   31.173
  522.250   25.199    0.028    0.160   32.444
