~VERSION INFORMATION
 VERS.                 2.0:   CWLS LOG ASCII STANDARD -VERSION 2.0
 WRAP.                  NO:   ONE LINE PER DEPTH STEP
~WELL INFORMATION BLOCK
#MNEM.UNIT           DATA                    DESCRIPTION OF MNEMONIC
#---------    -------------------            -------------------------------
# Generated from Intellog Unique Number	CC_84_87/WELL/2347
NULL.         -999.25                        : NULL_VALUE
WELL.         PETROREP ET AL HOUSE           : Well_name    - WELL              
LOC .         14-15-084-16W4                 : Location     - LOCATION          
UWI .         00/14-15-084-16W400            : Uwi          - UNIQUE WELL ID    
ENTR.         JHS                            : Entered      - ENTERED BY        
SRVC.         SCHLUMBERGER                   : Scn          - SERVICE COMPANY   
DATE.         11 MAR 80                      : Date         - LOG DATE
STRT.M        100                            : top_depth    - START DEPTH       
STOP.M        286.9                          : bot_depth    - STOP DEPTH        
STEP.M        0.3                            : increment    - STEP LENGTH       
~CURVE INFORMATION BLOCK
#MNEM UNIT       ERCB CURVE CODE    CURVE DESCRIPTION
#-----------   ------------------   ----------------------------------
DEPT.M        00 001 00 00         : DEPTH        - DEPTH                       
DPHI.V/V      00 890 00 00         : PHID         - DENSITY POROSITY (LIMESTONE)
NPHI.V/V      00 330 00 00         : PHIN         - NEUTRON POROSITY (LIMESTONE)
GR  .API      00 310 00 00         : GR           - GAMMA RAY                   
ILD .OHMM     00 120 00 00         : RESD         - DEEP RESISTIVITY (DIL)      
~PARAMETER INFORMATION       
#MNEM.UNIT           DATA             DESCRIPTION OF MNEMONIC
#---------         -----------     ------------------------------
GL  .M        528.6                : gl           - GROUND LEVEL ELEVATION      
EREF.M        531.8                : kb           - ELEVATION OF DEPTH REFERENCE
DATM.M        531.8                : datum        - DATUM ELEVATION             
TDD .M        283                  : tdd          - TOTAL DEPTH DRILLER         
RUN .         ONE                  : Run          - RUN NUMBER                  
ENG .         BILL                 : Engineer     - RECORDING ENGINEER          
WIT .         JIM                  : Witness      - WITNESSED BY                
MUD .         GEL                  : Mud_type     - MUD TYPE                    
MATR.         LIMESTONE            : Logunit      - NEUTRON MATRIX              
TMAX.C        19                   : BHT          - MAXIMUM RECORDED TEMPERATURE
BHTD.M        283                  : BHTDEP       - MAXIMUM RECORDED TEMPERATURE
MATR.         1                    : LOGUNIT      - NEUTRON MATRIX              
RMT .C        25                   : MDTP         - TEMPERATURE OF MUD          
NEUT.         1                    : NEUTRON      - NEUTRON TYPE                
RESI.         0                    : RESIST       - RESISTIVITY TYPE            
RMC .OHMM     0.25                 : RMC          - RESISTIVITY OF MUD CAKE     
RMF .OHMM     0.25                 : RMF          - RESISTIVITY OF MUD FILTRATE 
SUFT.C        15                   : SUFT         - SURFACE TEMPERATURE         
~A  DEPTH     PHID     PHIN       GR     RESD
# ...
  204.401    0.260    0.442   88.720    7.359
  204.701    0.260    0.450   85.733    7.221
  205.001    0.248    0.456   86.351    7.357
  205.301    0.238    0.449   90.590    7.496
  205.601    0.226    0.439   86.394    7.637
  205.901    0.225    0.446   85.816    7.781
  206.201    0.262    0.430   89.450    7.636
  206.501    0.239    0.447   88.869    7.493
  206.801    0.227    0.443   88.893    7.217
  207.101    0.245    0.420   89.518    6.950
  207.401    0.258    0.436   89.541    6.820
  207.701    0.243    0.449   90.158    6.820
  208.001    0.227    0.439   93.793    6.819
  208.301    0.230    0.437   97.429    6.947
  208.601    0.238    0.445   93.235    7.213
  208.901    0.230    0.443   89.037    7.488
  209.201    0.230    0.426   86.652    7.774
  209.501    0.239    0.432   83.056    8.379
  209.801    0.263    0.422   76.448    9.032
  210.101    0.291    0.392   77.071    9.554
  210.401    0.271    0.403   81.915   10.106
  210.701    0.251    0.422   78.924   10.297
  211.001    0.238    0.445   77.740   10.491
  211.301    0.203    0.436   75.953   10.490
  211.601    0.207    0.402   76.575   10.489
  211.901    0.248    0.400   75.998   10.102
  212.201    0.266    0.384   78.428    9.729
  212.501    0.255    0.400   76.038    9.195
  212.801    0.260    0.414   79.070    9.194
  213.101    0.272    0.423   77.888    9.193
  213.401    0.294    0.424   75.497    9.193
  213.701    0.288    0.423   79.137    9.021
  214.001    0.272    0.421   80.965    9.020
  214.301    0.251    0.420   80.985    9.019
  214.601    0.255    0.414   81.609    9.190
  214.901    0.250    0.409   84.643    9.721
  215.201    0.238    0.410   79.242    9.904
  215.501    0.245    0.402   78.057    9.719
  215.801    0.263    0.403   81.092    9.538
  216.101    0.269    0.407   81.115    9.359
  216.401    0.272    0.402   80.535    9.359
  216.701    0.263    0.413   80.551    9.358
  217.001    0.272    0.416   82.981    9.357
  217.301    0.269    0.408   86.619    9.356
  217.601    0.257    0.395   79.412    9.355
  217.901    0.251    0.411   78.228    9.532
  218.201    0.229    0.423   81.861    9.353
  218.501    0.254    0.420   93.332    8.840
  218.801    0.247    0.427   98.174    8.048
  219.101    0.237    0.422  100.004    7.056
  219.401    0.242    0.439  103.035    6.669
  219.701    0.243    0.452  105.468    6.669
  220.001    0.226    0.447  101.873    6.795
  220.301    0.215    0.441   95.871    7.188
  220.601    0.233    0.448   85.647    8.196
  220.901    0.218    0.442   84.464    9.703
  221.201    0.192    0.417   87.496    9.171
  221.501    0.233    0.412   98.968    8.041
  221.801    0.224    0.422  100.793    6.419
  222.101    0.217    0.420  100.816    6.067
  222.401    0.227    0.434  103.847    6.066
  222.701    0.211    0.449  100.858    6.181
  223.001    0.205    0.443  101.482    6.538
  223.301    0.221    0.446  100.904    7.047
  223.601    0.222    0.454  100.321    7.316
  223.901    0.239    0.437  103.353    7.179
  224.201    0.217    0.437  109.396    6.914
  224.501    0.217    0.437  112.434    6.535
  224.801    0.227    0.440  110.045    6.294
  225.101    0.213    0.451  106.448    6.534
  225.401    0.212    0.440   99.243    6.784
  225.701    0.205    0.417   96.256    7.882
  226.001    0.182    0.395   98.082    9.689
  226.301    0.196    0.392  101.111   10.641
  226.601    0.224    0.398   99.931   11.047
  226.901    0.225    0.389  100.551   10.841
  227.201    0.219    0.378  103.585   10.440
  227.501    0.224    0.382  106.017    9.868
  227.801    0.224    0.384  101.826    8.983
  228.101    0.227    0.387  102.450    8.651
  228.401    0.226    0.401  103.067    8.650
  228.701    0.224    0.412   97.066    9.151
  229.001    0.207    0.414   93.474    9.323
  229.301    0.245    0.419   91.082    9.862
  229.601    0.239    0.424   91.707   10.239
  229.901    0.251    0.406   92.333   10.831
  230.201    0.271    0.396   90.543   11.035
  230.501    0.254    0.404   85.147   11.243
  230.801    0.222    0.397   82.154   11.455
  231.101    0.174    0.376   80.366   11.241
  231.401    0.246    0.404   79.182   11.031
  231.701    0.240    0.415   81.613   10.825
  232.001    0.241    0.427   78.018   10.623
  232.301    0.257    0.421   74.431   10.424
  232.601    0.255    0.408   74.450   10.230
  232.901    0.258    0.410   72.057   10.422
  233.201    0.257    0.414   68.465   10.619
  233.501    0.242    0.421   63.064   11.024
  233.801    0.227    0.421   61.880   11.883
  234.101    0.208    0.414   66.722   12.808
  234.401    0.192    0.383   70.967   14.067
  234.701    0.128    0.328   69.180   15.743
  235.001    0.105    0.281   70.406   16.969
  235.301    0.111    0.291   73.437   16.342
  235.601    0.175    0.322   79.478   12.803
  235.901    0.237    0.359   90.346   11.654
  236.201    0.260    0.408   93.986   11.015
  236.501    0.236    0.413   92.802   10.608
  236.801    0.215    0.406   88.000   10.410
  237.101    0.226    0.394   85.609   10.216
  237.401    0.236    0.382   86.841   10.024
  237.701    0.245    0.381   87.461   10.214
  238.001    0.232    0.380   89.287   10.023
  238.301    0.214    0.394   88.104   10.022
  238.601    0.226    0.409   89.934   10.021
  238.901    0.227    0.412   89.956    9.834
  239.201    0.233    0.408   91.179    9.471
  239.501    0.227    0.406   89.998    9.121
  239.801    0.215    0.405   89.415    8.784
  240.101    0.186    0.396   90.042    8.303
  240.401    0.198    0.402   88.855    7.847
  240.701    0.234    0.398   90.685    7.417
  241.001    0.234    0.409   97.934    6.880
  241.301    0.223    0.430  106.996    6.263
  241.601    0.216    0.440  108.220    5.595
  241.901    0.216    0.442  104.024    5.190
  242.201    0.234    0.440  107.057    4.637
  242.501    0.240    0.449  102.860    4.301
  242.801    0.237    0.449  108.908    4.221
  243.101    0.230    0.451  114.350    4.065
  243.401    0.213    0.437  115.576    4.549
  243.701    0.223    0.416  108.370    5.806
  244.001    0.232    0.410   90.917    7.987
  244.301    0.215    0.385   83.106   11.625
  244.601    0.163    0.363   82.531   18.239
  244.901    0.093    0.309   84.360   19.660
  245.201    0.154    0.333   86.784   18.236
  245.501    0.201    0.372   91.625   16.292
  245.801    0.202    0.388   97.674   14.831
  246.101    0.197    0.368   94.082   14.554
  246.401    0.196    0.362   85.064   14.553
  246.701    0.237    0.346   57.973   15.394
  247.001    0.290    0.342   50.765   16.593
  247.301    0.300    0.359   45.966   18.570
  247.602    0.302    0.374   45.385   21.985
  247.902    0.286    0.378   41.795   26.030
  248.202    0.288    0.371   42.420   31.996
  248.502    0.292    0.377   44.245   35.142
  248.802    0.280    0.382   44.268   37.174
  249.102    0.300    0.374   41.877   36.479
  249.402    0.304    0.370   43.711   35.132
  249.702    0.310    0.386   46.136   33.205
  250.002    0.292    0.394   48.567   30.801
  250.302    0.280    0.395   50.998   27.518
  250.602    0.291    0.388   55.841   23.238
  250.902    0.292    0.384   64.296   16.888
  251.202    0.292    0.389   72.753   14.261
  251.502    0.288    0.392   76.386   12.983
  251.802    0.286    0.396   80.022   10.560
  252.102    0.281    0.385   87.876    9.795
  252.402    0.259    0.387   95.731    9.086
  252.702    0.233    0.405  100.570    7.966
  253.002    0.206    0.423  101.193    6.985
  253.302    0.188    0.417  106.038    6.010
  253.602    0.214    0.406  110.273    5.172
  253.902    0.252    0.439  113.910    4.286
  254.202    0.250    0.462  113.327    3.902
  254.502    0.243    0.442  108.533    3.619
  254.802    0.242    0.443  104.937    3.552
  255.102    0.236    0.452  103.154    3.551
  255.402    0.220    0.466  100.161    3.618
  255.702    0.182    0.471   95.359    3.828
  256.002    0.159    0.448   94.781    4.049
  256.302    0.145    0.424  102.031    3.973
