~VERSION INFORMATION
 VERS.                 2.0:   CWLS LOG ASCII STANDARD -VERSION 2.0
 WRAP.                  NO:   ONE LINE PER DEPTH STEP
~WELL INFORMATION BLOCK
#MNEM.UNIT           DATA                    DESCRIPTION OF MNEMONIC
#---------    -------------------            -------------------------------
# Generated from Intellog Unique Number	CS_77_79/WELL/1007
WELL.         CAVALIER ENERGY INC            : Well_name    - WELL
LOC .         00/11-33-077-17W4/0            : Location     - LOCATION
UWI .         00/11-33-077-17W4/0            : Uwi          - UNIQUE WELL ID
ENTR.         SP                             : Entered      - ENTERED BY
SRVC.         SCHLUMBERGER                   : Scn          - SERVICE COMPANY
STRT.M        182.88                         : top_depth    - START DEPTH
STOP.M        389.88                         : bot_depth    - STOP DEPTH
STEP.M        0.25                           : increment    - STEP LENGTH
 NULL. -999.2500:NULL Value
~CURVE INFORMATION BLOCK
#MNEM UNIT       ERCB CURVE CODE    CURVE DESCRIPTION
#-----------   ------------------   ----------------------------------
DEPT.M        00 001 00 00         : DEPTH        - DEPTH
GR  .API      00 310 00 00         : GR           - GAMMA RAY
DPHI.V/V      00 890 00 00         : PHID         - DENSITY POROSITY (SANDSTONE)
NPHI.V/V      00 330 00 00         : PHIN         - NEUTRON POROSITY (SANDSTONE)
ILD .OHMM     00 120 00 00         : RESD         - DEEP RESISTIVITY (DIL)
~PARAMETER INFORMATION
#MNEM.UNIT           DATA             DESCRIPTION OF MNEMONIC
#---------         -----------     ------------------------------
GL  .M        568.452              : gl           - GROUND LEVEL ELEVATION
EREF.M        571.5                : kb           - ELEVATION OF DEPTH REFERENCE
DATM.M        568.452              : datum        - DATUM ELEVATION
TDD .M        389.839              : tdd          - TOTAL DEPTH DRILLER
RUN .         ONE                  : Run          - RUN NUMBER
ENG .         BILL                 : Engineer     - RECORDING ENGINEER
WIT .         JIM                  : Witness      - WITNESSED BY
MUD .         GEL                  : Mud_type     - MUD TYPE
MATR.         SANDSTONE            : Logunit      - NEUTRON MATRIX
TMAX.C        20                   : BHT          - MAXIMUM RECORDED TEMPERATURE
BHTD.M        389.839              : BHTDEP       - MAXIMUM RECORDED TEMPERATURE
MATR.         1                    : LOGUNIT      - NEUTRON MATRIX
RMT .C        25                   : MDTP         - TEMPERATURE OF MUD
NEUT.         1                    : NEUTRON      - NEUTRON TYPE
RESI.         0                    : RESIST       - RESISTIVITY TYPE
RMC .OHMM     0.25                 : RMC          - RESISTIVITY OF MUD CAKE
RMF .OHMM     0.25                 : RMF          - RESISTIVITY OF MUD FILTRATE
SUFT.C        15                   : SUFT         - SURFACE TEMPERATURE
~A  DEPTH       GR     PHID     PHIN     RESD
# ...
  269.880   51.995    0.265    0.442    9.212
  270.130   52.903    0.258    0.445    9.164
  270.380   53.932    0.326    0.445    9.390
  270.630   56.515    0.336    0.446    9.361
  270.880   57.347    0.325    0.443    9.660
  271.130   57.293    0.314    0.437    9.985
  271.380   56.160    0.303    0.439   10.125
  271.630   56.693    0.304    0.440   10.177
  271.880   57.847    0.315    0.428   10.192
  272.130   58.503    0.321    0.424    9.989
  272.380   58.565    0.312    0.432    9.704
  272.630   59.568    0.300    0.433    9.055
  272.880   61.915    0.290    0.426    8.198
  273.130   67.337    0.284    0.421    7.337
  273.380   72.720    0.287    0.415    6.532
  273.630   77.703    0.294    0.420    5.943
  273.880   82.641    0.280    0.447    5.399
  274.130   87.303    0.289    0.469    5.255
  274.380   90.225    0.287    0.482    5.092
  274.630   91.231    0.271    0.500    5.243
  274.880   88.862    0.249    0.488    5.444
  275.130   84.080    0.214    0.478    5.720
  275.380   81.797    0.154    0.445    5.849
  275.630   79.152    0.214    0.423    5.852
  275.880   78.371    0.247    0.444    5.854
  276.130   82.524    0.255    0.468    5.857
  276.380   85.091    0.254    0.470    5.859
  276.630   84.500    0.249    0.471    5.863
  276.880   83.962    0.249    0.471    5.848
  277.130   85.270    0.254    0.461    6.106
  277.380   87.601    0.264    0.456    5.864
  277.630   87.112    0.258    0.454    5.897
  277.880   86.993    0.255    0.465    5.652
  278.130   86.929    0.262    0.472    5.681
  278.380   88.208    0.262    0.472    5.341
  278.630   87.970    0.284    0.471    5.295
  278.880   88.030    0.273    0.464    5.276
  279.130   88.946    0.267    0.465    5.402
  279.380   90.588    0.255    0.473    5.301
  279.630   90.036    0.251    0.470    5.299
  279.880   89.935    0.265    0.464    5.322
  280.130   91.499    0.276    0.478    5.099
  280.380   88.238    0.284    0.488    4.957
  280.630   87.188    0.276    0.480    4.923
  280.880   86.851    0.271    0.475    4.919
  281.130   86.856    0.265    0.491    5.097
  281.380   86.980    0.257    0.501    5.646
  281.630   84.539    0.260    0.489    6.305
  281.880   81.791    0.228    0.458    6.879
  282.130   75.459    0.161    0.425    7.401
  282.380   72.736    0.196    0.377    7.722
  282.630   70.739    0.247    0.388    8.065
  282.880   73.544    0.272    0.437    7.901
  283.130   76.479    0.245    0.448    7.262
  283.380   71.917    0.268    0.440    6.644
  283.630   68.787    0.304    0.475    6.332
  283.880   70.653    0.299    0.486    6.498
  284.130   72.124    0.303    0.484    6.590
  284.380   70.600    0.307    0.469    6.947
  284.630   72.258    0.305    0.457    6.944
  284.880   77.049    0.291    0.461    6.923
  285.130   77.760    0.283    0.471    6.399
  285.380   78.249    0.272    0.459    5.867
  285.630   81.002    0.256    0.468    5.353
  285.880   85.406    0.264    0.469    5.030
  286.130   90.989    0.262    0.458    4.987
  286.380   92.604    0.256    0.453    4.980
  286.630   91.584    0.251    0.446    4.966
  286.880   90.798    0.242    0.441    5.266
  287.130   90.181    0.223    0.449    5.591
  287.380   88.397    0.209    0.452    5.916
  287.630   84.244    0.235    0.451    6.201
  287.880   83.539    0.250    0.453    6.195
  288.130   87.173    0.240    0.451    5.895
  288.380   87.966    0.249    0.459    5.344
  288.630   88.393    0.264    0.463    4.847
  288.880   88.626    0.254    0.466    4.406
  289.130   89.641    0.271    0.478    3.980
  289.380   90.622    0.281    0.493    3.827
  289.630   91.695    0.268    0.515    3.602
  289.880   91.302    0.261    0.528    3.631
  290.130   90.509    0.267    0.522    3.998
  290.380   88.318    0.270    0.509    4.144
  290.630   85.318    0.291    0.498    4.629
  290.880   81.144    0.310    0.474    5.097
  291.130   75.776    0.326    0.467    5.534
  291.380   71.220    0.339    0.456    6.011
  291.630   67.325    0.344    0.446    6.572
  291.880   62.692    0.341    0.427    6.918
  292.130   60.317    0.345    0.416    7.232
  292.380   59.330    0.350    0.421    7.466
  292.630   57.596    0.357    0.429    7.461
  292.880   55.992    0.359    0.431    7.652
  293.130   56.886    0.356    0.432    7.647
  293.380   57.181    0.349    0.430    7.649
  293.630   59.718    0.340    0.427    7.652
  293.880   62.172    0.348    0.424    7.653
  294.130   60.154    0.354    0.431    7.658
  294.380   58.442    0.354    0.430    7.784
  294.630   58.181    0.347    0.439    7.857
  294.880   57.623    0.341    0.428    7.865
  295.130   58.050    0.336    0.426    7.868
  295.380   56.961    0.342    0.430    7.873
  295.630   56.397    0.348    0.428    7.856
  295.880   57.307    0.349    0.421    8.095
  296.130   58.247    0.345    0.426    8.076
  296.380   58.629    0.354    0.430    8.236
  296.630   59.686    0.354    0.426    8.335
  296.880   59.397    0.348    0.421    8.686
  297.130   58.255    0.339    0.430    8.976
  297.380   56.892    0.329    0.414    9.820
  297.630   56.448    0.315    0.391   10.633
  297.880   55.715    0.260    0.342   11.938
  298.130   55.587    0.210    0.313   13.232
  298.380   54.022    0.072    0.254   14.910
  298.630   54.311    0.060    0.194   16.257
  298.880   53.858    0.062    0.189   17.581
  299.130   52.902    0.064    0.196   18.749
  299.380   52.067    0.083    0.202   19.320
  299.630   52.787    0.087    0.206   19.072
  299.880   54.717    0.099    0.206   18.953
  300.130   56.253    0.107    0.205   18.610
  300.380   55.118    0.115    0.223   18.298
  300.630   54.718    0.132    0.266   16.825
  300.880   56.496    0.189    0.305   15.571
  301.130   57.343    0.283    0.338   13.207
  301.380   59.993    0.319    0.417   11.639
  301.630   61.107    0.334    0.450    9.347
  301.880   62.623    0.322    0.453    8.422
  302.130   63.751    0.319    0.448    7.466
  302.380   63.331    0.323    0.442    6.745
  302.630   62.245    0.327    0.463    6.614
  302.880   62.824    0.332    0.479    6.627
  303.130   63.385    0.338    0.495    6.967
  303.380   64.059    0.345    0.482    7.297
  303.630   63.330    0.337    0.462    7.623
  303.880   62.781    0.325    0.451    7.965
  304.130   63.142    0.304    0.445    8.098
  304.380   63.534    0.264    0.429    7.893
  304.630   64.920    0.237    0.421    7.235
  304.880   69.549    0.239    0.433    6.590
  305.130   75.852    0.240    0.435    5.955
  305.380   82.379    0.236    0.440    5.626
  305.630   85.413    0.232    0.441    5.603
  305.880   86.004    0.231    0.442    5.601
  306.130   86.537    0.231    0.453    5.609
  306.380   88.401    0.234    0.469    5.670
  306.630   90.713    0.245    0.470    5.810
  306.880   93.418    0.245    0.463    5.834
  307.130   93.681    0.227    0.467    5.596
  307.380   93.735    0.232    0.463    5.620
  307.630   93.035    0.229    0.461    5.627
  307.880   93.076    0.241    0.465    5.655
  308.130   93.130    0.250    0.474    5.833
  308.380   92.392    0.252    0.473    5.811
  308.630   88.622    0.240    0.461    6.042
  308.880   85.533    0.232    0.445    6.032
  309.130   87.032    0.234    0.446    6.036
  309.380   88.262    0.237    0.445    6.040
  309.630   88.248    0.225    0.440    6.043
  309.880   88.327    0.231    0.438    6.046
  310.130   89.974    0.235    0.440    6.049
  310.380   91.364    0.236    0.443    6.051
  310.630   91.789    0.228    0.439    6.054
  310.880   91.301    0.239    0.441    6.061
  311.130   90.805    0.230    0.450    6.162
  311.380   91.886    0.240    0.455    6.259
  311.630   91.935    0.246    0.448    6.265
  311.880   90.972    0.246    0.438    6.266
  312.130   89.312    0.230    0.429    6.266
  312.380   89.343    0.222    0.421    5.762
  312.630   90.498    0.274    0.430    5.634
  312.880   92.912    0.278    0.452    5.285
  313.130   92.944    0.265    0.448    5.073
