~VERSION INFORMATION
 VERS.                 2.0:   CWLS LOG ASCII STANDARD -VERSION 2.0
 WRAP.                  NO:   ONE LINE PER DEPTH STEP
~WELL INFORMATION BLOCK
#MNEM.UNIT           DATA                    DESCRIPTION OF MNEMONIC
#---------    -------------------            -------------------------------
# Generated from Intellog Unique Number	CW_73_75/WELL/2998
WELL.         COX SOUTHEASTERN MARTEN H      : Well_name    - WELL
LOC .         00/16-15-073-01W5/0            : Location     - LOCATION
UWI .         00/16-15-073-01W5/0            : Uwi          - UNIQUE WELL ID
ENTR.         CAMPBELL                       : Entered      - ENTERED BY
SRVC.         SCHLUMBERGER                   : Scn          - SERVICE COMPANY
DATE.         30 NOV 1966                    : Date         - LOG DATE
STRT.M        521.208                        : top_depth    - START DEPTH
STOP.M        667.458                        : bot_depth    - STOP DEPTH
STEP.M        0.25                           : increment    - STEP LENGTH
 NULL. -999.2500:NULL Value
~CURVE INFORMATION BLOCK
#MNEM UNIT       ERCB CURVE CODE    CURVE DESCRIPTION
#-----------   ------------------   ----------------------------------
DEPT.M        00 001 00 00         : DEPTH        - DEPTH
ILD .OHMM     00 120 00 00         : RESD         - DEEP RESISTIVITY (DIL)
DELT.US/F     00 520 00 00         : DELT         - SONIC TRAVEL TIME
CALI.MM       00 280 01 00         : CAL          - CALIPER
GR  .API      00 310 00 00         : GR           - GAMMA RAY
~PARAMETER INFORMATION
#MNEM.UNIT           DATA             DESCRIPTION OF MNEMONIC
#---------         -----------     ------------------------------
GL  .M        627.583              : gl           - GROUND LEVEL ELEVATION
EREF.M        631.85               : kb           - ELEVATION OF DEPTH REFERENCE
DATM.M        631.85               : datum        - DATUM ELEVATION
TDD .M        1473.4               : tdd          - TOTAL DEPTH DRILLER
RUN .         ONE                  : Run          - RUN NUMBER
ENG .         DUFFY                : Engineer     - RECORDING ENGINEER
WIT .         RANSOM & STEWART     : Witness      - WITNESSED BY
MUD .         GEL                  : Mud_type     - MUD TYPE
MATR.         SANDSTONE            : Logunit      - NEUTRON MATRIX
TMAX.C        37.2222              : BHT          - MAXIMUM RECORDED TEMPERATURE
BHTD.M        1473.4               : BHTDEP       - MAXIMUM RECORDED TEMPERATURE
RMT .C        13.3333              : MDTP         - TEMPERATURE OF MUD
MUDD.KG/M     9800                 : MWT          - MUD DENSITY
NEUT.         1                    : NEUTRON      - NEUTRON TYPE
RESI.         0                    : RESIST       - RESISTIVITY TYPE
RM  .OHMM     1.26                 : RM           - RESISTIVITY OF MUD
RMC .OHMM     1.47                 : RMC          - RESISTIVITY OF MUD CAKE
RMF .OHMM     0.83                 : RMF          - RESISTIVITY OF MUD FILTRATE
SUFT.C        0                    : SUFT         - SURFACE TEMPERATURE
~A  DEPTH     RESD     DELT      CAL       GR
  521.208    9.617  336.049  229.461   53.086
  521.458    8.915  338.297  229.020   54.318
  521.708    8.108  340.544  229.094   51.730
  521.958    7.302  343.775  229.169   54.630
  522.208    6.903  344.378  231.280   51.802
  522.458    6.712  342.687  231.355   50.400
  522.708    6.621  342.974  232.452   50.675
  522.958    6.633  343.589  231.504   51.429
  523.208    6.747  344.854  231.578   52.182
  523.458    7.270  343.824  232.666   49.828
  523.708    7.894  325.091  233.755   47.952
  523.958    8.826  277.178  235.857   44.642
  524.208    9.556  289.591  237.969   46.830
  524.458    8.751  328.556  235.011   49.256
  524.708    8.043  337.686  235.076   49.536
  524.958    7.238  307.477  235.667   51.011
  525.208    6.943  304.480  240.295   54.867
  525.458    7.364  314.266  245.458   58.016
  525.708    7.991  314.219  247.551   56.374
  525.958    8.820  309.912  241.532   52.108
  526.208    9.445  303.639  234.011   49.520
  526.458    9.866  282.612  231.034   49.074
  526.708   10.082  283.870  229.606   54.612
  526.958    9.480  322.180  230.676   56.565
  527.208    8.060  345.742  232.271   57.558
  527.458    7.254  349.956  232.355   54.491
  527.708    6.959  345.315  232.937   52.611
  527.958    6.972  345.596  233.020   53.120
  528.208    6.880  344.567  233.086   56.269
  528.458    6.892  344.848  233.160   60.612
  528.708    6.801  349.068  234.755   60.648
  528.958    6.610  351.315  235.844   59.007
  529.208    6.415  352.246  236.435   58.565
  529.458    6.224  350.561  238.021   62.431
  529.708    6.033  351.498  240.649   64.614
  529.958    5.939  357.356  243.258   65.376
  530.208    5.849  357.310  245.868   62.296
  530.458    5.758  346.114  248.477   61.137
  530.708    5.671  337.541  252.110   63.329
  530.958    5.681  335.850  254.194   51.888
  531.208    5.694  334.498  255.808   48.817
  531.458    5.705  332.485  256.887   50.053
  531.708    5.819  331.778  255.441   53.670
  531.958    5.934  331.081  252.980   55.380
  532.208    6.149  330.374  252.557   51.835
  532.458    6.365  328.688  253.138   51.394
  532.708    6.786  321.432  253.213   48.079
  532.958    7.207  292.205  252.789   43.096
  533.208    7.628  290.848  252.855   45.283
  533.458    8.255  298.995  252.929   48.188
  533.708    8.573  309.769  252.496   47.746
  533.958    8.892  296.280  252.064   45.870
  534.208    9.006  292.628  251.124   47.345
  534.458    8.813  301.430  245.105   51.445
  534.708    8.214  319.087  241.631   51.013
  534.958    7.611  345.271  238.166   50.088
  535.208    7.314  342.269  238.738   53.227
  535.458    7.022  351.727  239.826   54.224
  535.708    6.826  353.980  240.924   57.129
  535.958    6.531  353.934  240.491   60.512
  536.208    6.340  345.688  240.566   56.967
  536.458    6.146  349.246  240.143   56.286
  536.708    6.055  348.872  240.217   57.513
  536.958    6.067  350.459  239.775   61.618
  537.208    6.080  349.429  239.343   56.630
  537.458    6.193  344.144  238.910   55.471
  537.708    6.310  335.237  238.487   56.942
  537.958    6.319  340.118  240.073   59.134
  538.208    6.332  351.870  242.175   61.321
  538.458    6.241  358.700  243.799   61.840
  538.708    6.151  355.710  244.878   58.048
  538.958    6.059  352.386  244.445   58.801
  539.208    5.866  350.040  244.013   60.993
  539.458    5.775  352.615  246.115   63.898
  539.708    5.787  354.868  250.246   69.432
  539.958    5.800  355.799  253.362   67.078
  540.208    5.814  358.053  255.465   60.665
  540.458    5.926  350.135  256.065   61.657
  540.708    5.938  340.912  252.065   59.299
  540.958    6.054  337.910  250.111   57.423
  541.208    6.372  343.768  252.720   59.372
  541.458    6.486  347.321  256.344   62.276
  541.708    6.496  347.608  258.963   67.576
  541.958    6.409  347.561  261.065   61.393
  542.208    6.317  347.843  262.670   58.800
  542.458    6.226  350.740  263.768   61.227
  542.708    6.136  354.304  264.331   60.785
  542.958    6.044  357.863  264.921   58.909
  543.208    5.953  362.077  265.493   60.389
  543.458    5.762  360.392  265.568   59.464
  543.708    5.569  359.690  265.652   60.457
  543.958    5.477  359.643  265.726   59.776
  544.208    5.387  359.597  264.796   59.334
  544.458    5.400  360.200  263.838   58.419
  544.708    5.412  361.798  262.400   58.690
  544.958    5.425  360.440  261.977   60.404
  545.208    5.437  357.760  262.042   60.684
  545.458    5.447  356.408  263.140   61.194
  545.708    5.358  370.788  268.275   60.035
  545.958    5.371  383.201  277.983   61.271
  546.208    5.380  376.266  273.494   60.825
  546.458    5.392  370.964  261.917   60.144
  546.708    6.017  369.613  261.484   55.634
  546.958    6.847  365.961  261.052   53.041
  547.208    7.984  358.049  260.619   53.795
  547.458    9.328  349.476  252.065   53.836
  547.708   10.362  342.219  244.544   53.876
  547.958    9.862  334.957  241.069   53.669
  548.208    9.362  342.454  237.088   51.793
  548.458    9.172  350.273  233.604   49.196
  548.708    9.079  352.848  229.125   46.603
  548.958    8.788  355.423  228.185   46.400
  549.208    8.695  357.993  227.752   51.226
  549.458    8.604  352.709  227.320   51.497
  549.708    8.616  342.502  227.394   51.055
  549.958    8.933  343.767  227.459   52.048
  550.208    9.456  340.109  230.069   53.757
  550.458    9.877  329.248  233.692   53.794
  550.708   10.814  302.643  236.827   44.508
  550.958   11.336  269.812  238.921   39.042
  551.208   12.268  253.694  242.037   35.020
  551.458   12.791  256.270  245.661   35.290
  551.708   11.779  255.240  248.270   38.438
  551.958   10.565  260.771  248.870   41.343
  552.208    9.450  281.377  248.926   45.925
  552.458    8.643  331.819  249.010   48.835
  552.708    7.838  339.972  249.093   51.735
  552.958    7.439  326.155  249.168   54.639
  553.208    6.940  323.480  247.712   56.593
  553.458    6.645  337.860  248.293   54.478
  553.708    6.247  352.239  252.940   52.597
  553.958    5.851  362.353  257.071   53.121
  554.208    5.558  364.272  257.661   55.543
  554.458    5.464  357.344  257.727   56.301
  554.708    5.375  366.801  257.810   54.659
  554.958    5.385  378.887  257.885   52.544
  555.208    5.296  379.496  257.959   50.200
  555.458    5.308  375.844  258.531   52.378
  555.708    5.318  366.609  258.625   55.522
  555.958    5.432  364.930  258.680   59.148
  556.208    5.444  362.250  258.248   59.184
  556.458    5.459  361.220  258.332   60.416
  556.708    5.469  360.858  258.932   62.608
  556.958    5.481  361.794  258.978   60.489
  557.208    5.390  363.381  259.569   53.832
  557.458    5.300  364.639  260.169   51.717
  557.708    5.310  364.604  260.732   52.710
  557.958    5.323  363.241  260.816   54.419
  558.208    5.337  362.861  261.397   53.743
  558.458    5.348  365.770  262.476   54.257
  558.708    5.362  365.717  263.058   53.577
  558.958    5.473  366.988  263.639   52.179
  559.208    5.587  377.107  264.230   47.908
  559.458    5.702  391.480  264.304   47.706
  559.708    5.815  386.518  262.858   51.571
  559.958    6.135  376.967  258.360   48.973
  560.208    6.556  358.889  257.448   46.146
  560.458    6.771  332.940  256.997   44.743
  560.708    6.987  320.434  257.081   44.780
  560.958    6.898  324.648  254.611   49.840
  561.208    6.400  337.717  253.681   53.462
  561.458    6.000  351.768  252.234   57.327
  561.708    5.602  365.820  267.509   59.993
  561.958    5.206  382.155  271.142   68.873
  562.208    5.012  369.988  262.588   64.129
  562.458    5.025  353.876  260.644   60.580
  562.708    5.037  351.536  259.695   59.660
  562.958    5.258  349.517  258.248   58.023
  563.208    5.369  346.843  257.318   57.586
  563.458    5.481  344.174  256.388   55.228
  563.708    5.496  340.523  255.955   54.074
  563.958    5.508  333.922  255.016   53.149
  564.208    5.518  326.665  254.076   51.512
  564.458    5.632  325.308  253.653   51.549
