~VERSION INFORMATION
 VERS.                 2.0:   CWLS LOG ASCII STANDARD -VERSION 2.0
 WRAP.                  NO:   ONE LINE PER DEPTH STEP
~WELL INFORMATION BLOCK
#MNEM.UNIT           DATA                    DESCRIPTION OF MNEMONIC
#---------    -------------------            -------------------------------
# Generated from Intellog Unique Number	CS_77_79/WELL/952
WELL.         PARAMOUNT RESOURCES LTD.       : Well_name    - WELL
LOC .         00/10-14-077-10W4/0            : Location     - LOCATION
UWI .         00/10-14-077-10W4/0            : Uwi          - UNIQUE WELL ID
ENTR.         SP                             : Entered      - ENTERED BY
SRVC.         SCHLUMBERGER                   : Scn          - SERVICE COMPANY
STRT.M        210.25                         : top_depth    - START DEPTH
STOP.M        440                            : bot_depth    - STOP DEPTH
STEP.M        0.25                           : increment    - STEP LENGTH
 NULL. -999.2500:NULL Value
~CURVE INFORMATION BLOCK
#MNEM UNIT       ERCB CURVE CODE    CURVE DESCRIPTION
#-----------   ------------------   ----------------------------------
DEPT.M        00 001 00 00         : DEPTH        - DEPTH
ILD .OHMM     00 120 00 00         : RESD         - DEEP RESISTIVITY (DIL)
DPHI.V/V      00 890 00 00         : PHID         - DENSITY POROSITY (LIMESTONE)
NPHI.V/V      00 330 00 00         : PHIN         - NEUTRON POROSITY (LIMESTONE)
GR  .API      00 310 00 00         : GR           - GAMMA RAY
~PARAMETER INFORMATION
#MNEM.UNIT           DATA             DESCRIPTION OF MNEMONIC
#---------         -----------     ------------------------------
GL  .M        632                  : gl           - GROUND LEVEL ELEVATION
EREF.M        635                  : kb           - ELEVATION OF DEPTH REFERENCE
DATM.M        632                  : datum        - DATUM ELEVATION
TDD .M        470                  : tdd          - TOTAL DEPTH DRILLER
RUN .         ONE                  : Run          - RUN NUMBER
ENG .         BILL                 : Engineer     - RECORDING ENGINEER
WIT .         JIM                  : Witness      - WITNESSED BY
MUD .         GEL                  : Mud_type     - MUD TYPE
MATR.         LIMESTONE            : Logunit      - NEUTRON MATRIX
TMAX.C        22                   : BHT          - MAXIMUM RECORDED TEMPERATURE
BHTD.M        470                  : BHTDEP       - MAXIMUM RECORDED TEMPERATURE
MATR.         1                    : LOGUNIT      - NEUTRON MATRIX
RMT .C        25                   : MDTP         - TEMPERATURE OF MUD
NEUT.         1                    : NEUTRON      - NEUTRON TYPE
RESI.         0                    : RESIST       - RESISTIVITY TYPE
RMC .OHMM     0.25                 : RMC          - RESISTIVITY OF MUD CAKE
RMF .OHMM     0.25                 : RMF          - RESISTIVITY OF MUD FILTRATE
SUFT.C        15                   : SUFT         - SURFACE TEMPERATURE
~A  DEPTH     RESD     PHID     PHIN       GR
# ...
  384.250    4.605    0.236    0.351   82.670
  384.500    4.605    0.231    0.386   84.502
  384.750    4.405    0.237    0.399   79.628
  385.000    4.405    0.238    0.403   82.071
  385.250    4.406    0.238    0.375   84.514
  385.500    4.206    0.232    0.391   75.981
  385.750    4.206    0.221    0.375   73.547
  386.000    4.006    0.236    0.385   75.991
  386.250    3.806    0.234    0.405   78.432
  386.500    3.606    0.226    0.415   81.485
  386.750    3.606    0.217    0.416   80.269
  387.000    3.808    0.240    0.417   79.664
  387.250    4.210    0.244    0.443   78.449
  387.500    4.612    0.244    0.439   75.404
  387.750    5.416    0.233    0.400   71.749
  388.000    5.818    0.226    0.347   70.533
  388.250    6.622    0.223    0.337   76.635
  388.500    7.426    0.212    0.334   81.518
  388.750    8.229    0.193    0.300   72.985
  389.000    8.631    0.090    0.306   66.891
  389.250    9.837    0.021    0.234   60.188
  389.500   10.841    0.112    0.232   55.313
  389.750   12.047    0.252    0.243   57.756
  390.000   14.228    0.283    0.249   63.248
  390.250   14.027    0.290    0.235   60.204
  390.500   14.030    0.280    0.255   59.597
  390.750   14.032    0.272    0.260   62.650
  391.000   14.033    0.265    0.260   55.947
  391.250   14.035    0.255    0.262   59.000
  391.500   14.444    0.245    0.279   64.491
  391.750   14.649    0.226    0.305   65.105
  392.000   15.464    0.209    0.303   66.330
  392.250   16.686    0.206    0.273   66.333
  392.500   18.111    0.206    0.266   62.068
  392.750   20.145    0.218    0.272   63.903
  393.000   26.651    0.227    0.266   64.516
  393.250   38.442    0.243    0.304   58.422
  393.500   38.851    0.267    0.321   51.110
  393.750   36.008    0.294    0.306   49.283
  394.000   33.164    0.306    0.296   43.189
  394.250   29.710    0.303    0.289   38.315
  394.500   27.070    0.300    0.319   63.320
  394.750   26.666    0.292    0.336   63.934
  395.000   27.278    0.274    0.336   66.986
  395.250   27.686    0.260    0.320   70.040
  395.500   27.891    0.260    0.308   68.214
  395.750   27.487    0.268    0.319   70.048
  396.000   26.675    0.269    0.326   68.832
  396.250   24.645    0.261    0.321   70.055
  396.500   21.599    0.251    0.316   71.889
  396.750   19.567    0.257    0.306   70.064
  397.000   17.334    0.234    0.253   63.970
  397.250   14.896    0.139    0.221   67.632
  397.500   12.663    0.106    0.236   75.563
  397.750   11.649    0.222    0.281   76.177
  398.000   11.448    0.226    0.308   79.230
  398.250   11.449    0.219    0.322   91.429
  398.500   11.249    0.213    0.330   96.312
  398.750   11.454    0.209    0.332  102.414
  399.000   11.862    0.224    0.339   94.491
  399.250   12.677    0.239    0.330   78.030
  399.500   13.696    0.216    0.330   71.327
  399.750   14.103    0.219    0.268   67.672
  400.000   14.716    0.283    0.318   52.035
  400.250   14.515    0.289    0.301   50.806
  400.500   14.313    0.246    0.288   88.143
  400.750   13.706    0.181    0.296   87.520
  401.000   13.301    0.198    0.307   85.678
  401.250   12.896    0.209    0.304   79.548
  401.500   12.492    0.225    0.285   75.868
  401.750   12.291    0.201    0.276   65.451
  402.000   12.292    0.196    0.277   70.955
  402.250   12.295    0.191    0.294   80.740
  402.500   11.890    0.173    0.305   84.409
  402.750   11.079    0.168    0.313   85.013
  403.000   10.675    0.168    0.310   88.679
  403.250   10.474    0.175    0.305   84.386
  403.500   10.475    0.178    0.308   81.929
  403.750   10.275    0.188    0.310   83.753
  404.000   10.276    0.191    0.285   83.750
  404.250   10.075    0.183    0.277   73.337
  404.500   10.078    0.174    0.281   86.796
  404.750   10.080    0.174    0.289   91.685
  405.000   10.082    0.180    0.298   91.067
  405.250   10.084    0.177    0.305   89.835
  405.500   10.085    0.169    0.304   95.336
  405.750   10.087    0.179    0.292   96.554
  406.000   10.089    0.185    0.295   88.589
  406.250   10.294    0.169    0.304   80.010
  406.500   10.499    0.167    0.294   80.002
  406.750   11.315    0.179    0.267   62.240
  407.000   12.333    0.206    0.250   51.212
  407.250   14.165    0.236    0.266   44.471
  407.500   14.979    0.278    0.290   43.238
  407.750   18.030    0.307    0.316   43.844
  408.000   21.691    0.282    0.292   45.059
  408.250   25.758    0.299    0.304   44.441
  408.500   33.077    0.318    0.315   39.533
  408.750   47.104    0.319    0.316   34.630
  409.000   49.342    0.313    0.299   43.807
  409.250   43.449    0.312    0.290   44.412
  409.500   37.557    0.316    0.294   45.629
  409.750   27.193    0.319    0.284   47.457
  410.000   21.910    0.316    0.296   43.164
  410.250   19.473    0.319    0.310   35.199
  410.500   18.052    0.323    0.323   30.293
  410.750   17.241    0.324    0.313   30.285
  411.000   18.056    0.319    0.312   31.502
  411.250   18.871    0.308    0.304   32.713
  411.500   30.364    0.293    0.293   32.707
  411.750   38.462    0.300    0.283   32.703
  412.000   56.680    0.307    0.305   32.695
  412.250   97.166    0.316    0.316   35.135
  412.500  147.773    0.313    0.322   40.638
  412.750  202.429    0.301    0.324   43.080
  413.000  220.648    0.299    0.316   41.849
  413.250  206.478    0.317    0.308   36.332
  413.500  218.623    0.325    0.316   32.651
  413.750  251.012    0.328    0.321   31.416
  414.000  275.304    0.318    0.339   31.409
  414.250  307.692    0.312    0.317   34.462
  414.500  263.158    0.329    0.312   35.068
  414.750  271.255    0.334    0.312   33.838
  415.000  291.498    0.330    0.306   31.994
  415.250  180.162    0.324    0.316   36.272
  415.500  121.457    0.318    0.304   38.101
  415.750  107.287    0.324    0.318   39.929
  416.000  107.287    0.305    0.305   50.330
  416.250  107.287    0.260    0.295   61.342
  416.500  109.312    0.281    0.298   55.210
  416.750  149.798    0.299    0.308   46.634
  417.000  200.405    0.311    0.311   41.113
  417.250  305.668    0.310    0.304   42.945
  417.500  467.611    0.305    0.305   33.142
  417.750  481.781    0.318    0.317   33.135
  418.000  487.854    0.327    0.327   36.800
  418.250  485.830    0.327    0.318   33.119
  418.500  481.781    0.321    0.317   34.335
  418.750  475.708    0.323    0.312   34.328
  419.000  461.538    0.323    0.318   31.261
  419.250  445.344    0.325    0.315   39.822
  419.500  398.785    0.325    0.328   39.204
  419.750  329.960    0.312    0.324   33.687
  420.000  317.814    0.310    0.322   36.739
  420.250  273.279    0.299    0.317   38.569
  420.500  218.623    0.302    0.321   42.232
  420.750  186.235    0.317    0.323   45.287
  421.000  147.773    0.325    0.325   44.669
  421.250  123.482    0.317    0.317   44.046
  421.500  109.312    0.293    0.312   45.264
  421.750  101.215    0.290    0.301   44.643
  422.000  105.263    0.293    0.311   40.965
  422.250  109.312    0.306    0.318   37.283
  422.500  107.287    0.311    0.318   38.502
  422.750   97.166    0.310    0.323   51.961
  423.000   85.020    0.284    0.322   58.689
  423.250   70.850    0.263    0.308   64.192
  423.500   64.777    0.261    0.288   65.405
  423.750   60.729    0.261    0.296   64.788
  424.000   56.680    0.261    0.304   67.840
  424.250   44.180    0.270    0.298   70.282
  424.500   42.963    0.261    0.285   77.010
  424.750   42.761    0.240    0.287   87.410
  425.000   44.389    0.246    0.300   80.667
  425.250   50.286    0.266    0.313   34.744
  425.500   52.321    0.312    0.322   27.391
  425.750   52.932    0.325    0.327   24.934
  426.000   53.342    0.340    0.319   26.761
  426.250   53.343    0.342    0.325   29.205
  426.500   52.938    0.345    0.327   32.258
  426.750   40.745    0.350    0.325   17.557
  427.000   30.381    0.338    0.319   13.265
  427.250   19.813    0.339    0.307   14.482
  427.500   14.530    0.328    0.317   22.431
