~VERSION INFORMATION
 VERS.                 2.0:   CWLS LOG ASCII STANDARD -VERSION 2.0
 WRAP.                  NO:   ONE LINE PER DEPTH STEP
~WELL INFORMATION BLOCK
#MNEM.UNIT           DATA                    DESCRIPTION OF MNEMONIC
#---------    -------------------            -------------------------------
# Generated from Intellog Unique Number	CS_73_76/WELL/3260
WELL.         BOW VALLEY INDUSTRIES LTD      : Well_name    - WELL
LOC .         00/11-10-076-14W4/0            : Location     - LOCATION
UWI .         00/11-10-076-14W4/0            : Uwi          - UNIQUE WELL ID
ENTR.         SP                             : Entered      - ENTERED BY
SRVC.         SCHLUMBERGER                   : Scn          - SERVICE COMPANY
STRT.M        315                            : top_depth    - START DEPTH
STOP.M        535                            : bot_depth    - STOP DEPTH
STEP.M        0.25                           : increment    - STEP LENGTH
 NULL. -999.2500:NULL Value
~CURVE INFORMATION BLOCK
#MNEM UNIT       ERCB CURVE CODE    CURVE DESCRIPTION
#-----------   ------------------   ----------------------------------
DEPT.M        00 001 00 00         : DEPTH        - DEPTH
ILD .OHMM     00 120 00 00         : RESD         - DEEP RESISTIVITY (DIL)
DPHI.V/V      00 890 00 00         : PHID         - DENSITY POROSITY (LIMESTONE)
NPHI.V/V      00 330 00 00         : PHIN         - NEUTRON POROSITY (LIMESTONE)
GR  .API      00 310 00 00         : GR           - GAMMA RAY
~PARAMETER INFORMATION
#MNEM.UNIT           DATA             DESCRIPTION OF MNEMONIC
#---------         -----------     ------------------------------
GL  .M        644.9                : gl           - GROUND LEVEL ELEVATION
EREF.M        648.3                : kb           - ELEVATION OF DEPTH REFERENCE
DATM.M        644.9                : datum        - DATUM ELEVATION
TDD .M        537                  : tdd          - TOTAL DEPTH DRILLER
RUN .         ONE                  : Run          - RUN NUMBER
ENG .         BILL                 : Engineer     - RECORDING ENGINEER
WIT .         JIM                  : Witness      - WITNESSED BY
MUD .         GEL                  : Mud_type     - MUD TYPE
MATR.         LIMESTONE            : Logunit      - NEUTRON MATRIX
TMAX.C        26                   : BHT          - MAXIMUM RECORDED TEMPERATURE
BHTD.M        537                  : BHTDEP       - MAXIMUM RECORDED TEMPERATURE
MATR.         1                    : LOGUNIT      - NEUTRON MATRIX
RMT .C        25                   : MDTP         - TEMPERATURE OF MUD
NEUT.         1                    : NEUTRON      - NEUTRON TYPE
RESI.         0                    : RESIST       - RESISTIVITY TYPE
RMC .OHMM     0.25                 : RMC          - RESISTIVITY OF MUD CAKE
RMF .OHMM     0.25                 : RMF          - RESISTIVITY OF MUD FILTRATE
SUFT.C        15                   : SUFT         - SURFACE TEMPERATURE
~A  DEPTH     RESD     PHID     PHIN       GR
# ...
  358.500    8.076    0.281    0.533   79.401
  358.750    9.194    0.298    0.527   70.859
  359.000   10.087    0.304    0.515   62.925
  359.250   11.274    0.309    0.486   58.042
  359.500   11.485    0.309    0.451   50.109
  359.750   11.701    0.322    0.451   52.537
  360.000   11.702    0.332    0.453   53.751
  360.250   11.703    0.340    0.454   53.748
  360.500   11.489    0.346    0.456   54.961
  360.750   11.280    0.349    0.451   54.954
  361.000   11.280    0.346    0.448   54.340
  361.250   11.492    0.343    0.450   54.333
  361.500   11.493    0.328    0.456   54.327
  361.750   11.494    0.328    0.457   55.540
  362.000   11.495    0.333    0.455   56.754
  362.250   11.710    0.345    0.451   59.185
  362.500   11.712    0.343    0.454   59.790
  362.750   11.713    0.333    0.456   59.783
  363.000   11.714    0.332    0.450   59.167
  363.250   11.714    0.334    0.444   59.162
  363.500   11.934    0.340    0.445   59.766
  363.750   11.935    0.346    0.448   59.757
  364.000   11.937    0.350    0.450   58.533
  364.250   11.937    0.355    0.449   56.696
  364.500   11.939    0.357    0.448   56.688
  364.750   11.940    0.359    0.448   57.292
  365.000   11.941    0.360    0.453   57.898
  365.250   11.942    0.359    0.456   59.112
  365.500   11.943    0.353    0.444   60.324
  365.750   11.725    0.349    0.450   60.929
  366.000   11.510    0.353    0.458   59.703
  366.250   11.511    0.348    0.461   59.085
  366.500   11.512    0.344    0.450   58.471
  366.750   11.513    0.354    0.447   58.464
  367.000   11.514    0.362    0.446   58.457
  367.250   11.303    0.368    0.452   58.450
  367.500   10.894    0.374    0.457   58.444
  367.750   10.895    0.378    0.463   57.828
  368.000   10.896    0.378    0.465   57.214
  368.250   10.896    0.361    0.461   55.988
  368.500   10.897    0.353    0.457   55.983
  368.750   11.102    0.347    0.452   55.367
  369.000   11.310    0.348    0.436   54.751
  369.250   11.523    0.350    0.437   54.135
  369.500   11.312    0.353    0.441   52.908
  369.750   11.313    0.354    0.441   52.901
  370.000   11.107    0.361    0.440   53.504
  370.250   11.108    0.367    0.443   54.110
  370.500   10.905    0.369    0.449   55.323
  370.750   10.705    0.370    0.455   55.927
  371.000   10.706    0.370    0.466   57.140
  371.250   10.511    0.371    0.475   57.743
  371.500   10.319    0.371    0.480   57.736
  371.750   10.320    0.364    0.487   56.509
  372.000   10.321    0.366    0.489   55.894
  372.250   10.322    0.369    0.491   54.058
  372.500   10.322    0.370    0.480   52.831
  372.750   10.323    0.378    0.472   51.608
  373.000   10.324    0.371    0.480   50.383
  373.250   10.325    0.375    0.483   49.765
  373.500   10.136    0.375    0.469   49.758
  373.750   10.137    0.374    0.464   49.755
  374.000   10.138    0.366    0.476   51.577
  374.250   10.328    0.366    0.489   52.182
  374.500   10.139    0.369    0.493   52.174
  374.750   10.141    0.375    0.480   50.949
  375.000   10.141    0.364    0.477   50.943
  375.250   10.142    0.358    0.481   50.934
  375.500   10.143    0.368    0.482   50.931
  375.750   10.144    0.370    0.475   50.922
  376.000   10.145    0.369    0.463   51.528
  376.250   10.146    0.366    0.459   52.131
  376.500   10.147    0.360    0.461   52.734
  376.750   10.530    0.358    0.465   53.946
  377.000   10.531    0.356    0.473   53.941
  377.250   10.338    0.363    0.479   55.154
  377.500   10.150    0.362    0.482   57.586
  377.750   10.151    0.354    0.486   59.410
  378.000   10.535    0.350    0.487   60.623
  378.250   10.732    0.346    0.476   60.616
  378.500   10.537    0.341    0.469   60.002
  378.750   10.537    0.333    0.473   61.214
  379.000   10.736    0.327    0.475   61.208
  379.250   10.736    0.334    0.476   61.811
  379.500   10.737    0.342    0.474   61.195
  379.750   10.347    0.342    0.478   61.798
  380.000    9.789    0.332    0.481   61.792
  380.250    8.924    0.321    0.472   61.788
  380.500    9.611    0.295    0.411   60.560
  380.750   11.147    0.260    0.326   59.944
  381.000   14.182    0.078    0.239   59.329
  381.250   16.756    0.050    0.200   59.323
  381.500   22.123    0.048    0.202   58.708
  381.750   26.626    0.043    0.196   56.870
  382.000   32.047    0.056    0.196   55.647
  382.250   27.129    0.077    0.216   54.420
  382.500   23.395    0.098    0.263   55.024
  382.750   20.175    0.154    0.315   55.628
  383.000   17.724    0.282    0.381   57.451
  383.250   15.861    0.344    0.431   59.273
  383.500   14.194    0.368    0.479   60.487
  383.750   11.579    0.368    0.504   60.481
  384.000   10.753    0.360    0.513   60.474
  384.250   10.173    0.352    0.516   59.248
  384.500    9.987    0.344    0.518   58.632
  384.750   10.365    0.355    0.518   58.625
  385.000   10.366    0.358    0.513   59.230
  385.250   10.367    0.361    0.504   59.832
  385.500   10.367    0.358    0.491   60.437
  385.750   10.368    0.349    0.488   61.039
  386.000   10.369    0.346    0.489   61.034
  386.250   10.370    0.350    0.480   61.638
  386.500   10.181    0.351    0.484   62.240
  386.750   10.182    0.349    0.494   62.842
  387.000    9.996    0.352    0.500   63.449
  387.250    9.813    0.350    0.492   65.882
  387.500    9.814    0.349    0.493   65.874
  387.750   10.376    0.343    0.499   64.040
  388.000   10.377    0.331    0.503   61.595
  388.250   10.377    0.318    0.507   60.366
  388.500   10.378    0.338    0.509   61.582
  388.750   10.188    0.359    0.517   62.795
  389.000   10.190    0.372    0.520   62.180
  389.250   10.381    0.368    0.525   60.342
  389.500   10.381    0.368    0.532   59.727
  389.750   10.382    0.368    0.536   59.722
  390.000   10.577    0.365    0.536   60.326
  390.250   10.578    0.360    0.522   60.926
  390.500   10.777    0.357    0.514   61.532
  390.750   10.580    0.356    0.501   62.744
  391.000   10.581    0.357    0.494   63.347
  391.250   10.582    0.365    0.494   63.952
  391.500   10.583    0.368    0.494   63.947
  391.750   10.583    0.358    0.496   62.719
  392.000   10.584    0.358    0.494   61.494
  392.250   10.391    0.367    0.501   61.486
  392.500   10.392    0.373    0.504   62.092
  392.750   10.393    0.366    0.495   63.915
  393.000   10.203    0.364    0.495   64.518
  393.250   10.204    0.362    0.499   65.731
  393.500   10.017    0.361    0.504   65.725
  393.750    9.834    0.364    0.506   66.326
  394.000    9.835    0.364    0.512   66.322
  394.250    9.836    0.364    0.513   65.707
  394.500    9.837    0.362    0.518   63.870
  394.750    9.838    0.359    0.522   63.866
  395.000    9.839    0.354    0.519   65.078
  395.250    9.839    0.356    0.512   67.512
  395.500    9.308    0.358    0.505   65.676
  395.750    9.483    0.347    0.509   64.449
  396.000    9.662    0.343    0.513   63.833
  396.250    9.662    0.344    0.506   64.433
  396.500    9.663    0.348    0.505   65.037
  396.750    9.663    0.358    0.512   65.034
  397.000    9.665    0.360    0.511   65.638
  397.250    9.846    0.357    0.505   66.851
  397.500    9.847    0.349    0.498   67.456
  397.750    9.848    0.349    0.498   67.449
  398.000   10.033    0.355    0.498   66.832
  398.250   10.034    0.353    0.504   66.826
  398.500   10.034    0.345    0.528   66.821
  398.750   10.035    0.349    0.516   68.035
  399.000   10.036    0.358    0.504   69.246
  399.250   10.037    0.351    0.502   69.240
  399.500   10.038    0.348    0.498   68.625
  399.750   10.038    0.347    0.497   68.617
  400.000   10.040    0.345    0.502   69.223
  400.250   10.040    0.342    0.518   69.826
  400.500   10.041    0.337    0.533   69.817
  400.750   10.229    0.331    0.529   69.813
  401.000   10.230    0.330    0.526   70.413
  401.250   10.231    0.328    0.522   70.408
  401.500   10.044    0.317    0.515   69.183
  401.750    9.861    0.310    0.503   70.397
