~VERSION INFORMATION
 VERS.                 2.0:   CWLS LOG ASCII STANDARD -VERSION 2.0
 WRAP.                  NO:   ONE LINE PER DEPTH STEP
~WELL INFORMATION BLOCK
#MNEM.UNIT           DATA                    DESCRIPTION OF MNEMONIC
#---------    -------------------            -------------------------------
# Generated from Intellog Unique Number	CC_80_83/WELL/2409
NULL.         -999.25                        : NULL_VALUE
WELL.         PEX HOUSE                      : Well_name    - WELL
LOC .         11-26-080-16W4                 : Location     - LOCATION          
UWI .         00/11-26-080-16W4/0            : Uwi          - UNIQUE WELL ID    
ENTR.         DW                             : Entered      - ENTERED BY        
SRVC.         SCHLUMBERGER                   : Scn          - SERVICE COMPANY   
DATE.         13 FEB 82                      : Date         - LOG DATE
STRT.M        152                            : top_depth    - START DEPTH       
STOP.M        385.096                        : bot_depth    - STOP DEPTH        
STEP.M        0.3                            : increment    - STEP LENGTH       
~CURVE INFORMATION BLOCK
#MNEM UNIT       ERCB CURVE CODE    CURVE DESCRIPTION
#-----------   ------------------   ----------------------------------
DEPT.M        00 001 00 00         : DEPTH        - DEPTH                       
DPHI.V/V      00 890 00 00         : PHID         - DENSITY POROSITY (LIMESTONE)
NPHI.V/V      00 330 00 00         : PHIN         - NEUTRON POROSITY (LIMESTONE)
GR  .API      00 310 00 00         : GR           - GAMMA RAY                   
ILD .OHMM     00 120 00 00         : RESD         - DEEP RESISTIVITY (DIL)      
~PARAMETER INFORMATION       
#MNEM.UNIT           DATA             DESCRIPTION OF MNEMONIC
#---------         -----------     ------------------------------
GL  .M        566.17               : gl           - GROUND LEVEL ELEVATION      
EREF.M        569.97               : kb           - ELEVATION OF DEPTH REFERENCE
DATM.M        569.97               : datum        - DATUM ELEVATION             
TDD .M        380                  : tdd          - TOTAL DEPTH DRILLER         
RUN .         ONE                  : Run          - RUN NUMBER                  
ENG .         BILL                 : Engineer     - RECORDING ENGINEER          
WIT .         JIM                  : Witness      - WITNESSED BY                
MUD .         GEL                  : Mud_type     - MUD TYPE                    
MATR.         LIMESTONE            : Logunit      - NEUTRON MATRIX              
TMAX.C        19.4                 : BHT          - MAXIMUM RECORDED TEMPERATURE
BHTD.M        380                  : BHTDEP       - MAXIMUM RECORDED TEMPERATURE
MATR.         1                    : LOGUNIT      - NEUTRON MATRIX              
RMT .C        25                   : MDTP         - TEMPERATURE OF MUD          
NEUT.         1                    : NEUTRON      - NEUTRON TYPE                
RESI.         0                    : RESIST       - RESISTIVITY TYPE            
RMC .OHMM     0.25                 : RMC          - RESISTIVITY OF MUD CAKE     
RMF .OHMM     0.25                 : RMF          - RESISTIVITY OF MUD FILTRATE 
SUFT.C        15                   : SUFT         - SURFACE TEMPERATURE         
~A  DEPTH     PHID     PHIN       GR     RESD
  152.000    0.291    0.517   90.501    3.457
  152.300    0.244    0.540   88.646    3.457
  152.600    0.246    0.525   82.453    3.524
  152.900    0.259    0.535   80.598    3.524
  153.200    0.259    0.540   81.223    3.592
  153.500    0.255    0.534   81.227    3.592
  153.800    0.246    0.535   79.992    3.524
  154.100    0.236    0.490   78.138    3.592
  154.400    0.226    0.499   80.621    3.662
  154.700    0.259    0.522   87.444    3.662
  155.000    0.269    0.508   91.168    3.732
  155.300    0.259    0.490   84.975    3.732
  155.600    0.258    0.500   83.119    3.805
  155.900    0.279    0.508   82.504    3.878
  156.200    0.264    0.510   86.228    3.878
  156.500    0.241    0.499   89.331    4.029
  156.800    0.234    0.512   89.336    4.107
  157.100    0.230    0.502   91.820    4.029
  157.400    0.254    0.495   94.924    3.953
  157.700    0.249    0.510   96.169    3.805
  158.000    0.234    0.529   91.835    3.805
  158.300    0.229    0.526   85.021    3.806
  158.600    0.230    0.511   80.686    3.806
  158.900    0.285    0.508   81.931    3.879
  159.200    0.264    0.492   86.894    3.954
  159.500    0.258    0.497   89.998    3.954
  159.800    0.248    0.519   80.085    3.954
  160.100    0.236    0.494   69.552    4.030
  160.400    0.299    0.505   78.854    4.434
  160.700    0.325    0.504   81.959    5.470
  161.000    0.333    0.419   73.286    7.566
  161.300    0.282    0.419   70.191    9.334
  161.600    0.253    0.401   70.195   10.466
  161.900    0.257    0.388   76.398   10.467
  162.200    0.243    0.419   83.223    9.514
  162.500    0.252    0.432   83.846    8.985
  162.800    0.282    0.427   77.653    9.335
  163.100    0.310    0.427   74.558   10.669
  163.400    0.321    0.419   72.704   11.738
  163.700    0.325    0.409   73.327   13.162
  164.000    0.317    0.406   68.993   13.938
  164.300    0.306    0.423   65.278   14.207
  164.600    0.280    0.419   63.424   13.939
  164.900    0.259    0.416   79.545   13.417
  165.200    0.239    0.403   85.749   11.740
  165.500    0.214    0.397   86.372    9.337
  165.800    0.281    0.398   77.699    8.988
  166.100    0.320    0.438   58.488   10.878
  166.400    0.336    0.427   43.615   12.673
  166.700    0.335    0.402   46.720   13.678
  167.000    0.276    0.402   55.403   11.968
  167.300    0.262    0.457   77.723    7.865
  167.600    0.256    0.509   90.125    5.686
  167.900    0.252    0.478   91.989    4.271
  168.200    0.260    0.473   95.093    3.882
  168.500    0.301    0.485   96.957    3.809
  168.800    0.318    0.506   92.623    3.957
  169.100    0.311    0.427   79.610    4.438
  169.400    0.281    0.410   70.937    5.072
  169.700    0.252    0.443   80.859    5.371
  170.000    0.278    0.532   75.285    6.139
  170.300    0.313    0.456   62.272    7.573
  170.600    0.212    0.394   68.476    9.522
  170.900    0.201    0.369   63.522   12.922
  171.200    0.244    0.362   49.889   15.344
  171.500    0.288    0.371   44.316   15.941
  171.800    0.283    0.404   51.139   15.345
  172.100    0.273    0.420   61.681   13.949
  172.400    0.249    0.384   72.223   11.308
  172.700    0.227    0.394   84.005   10.085
  173.000    0.216    0.433   91.449    8.176
  173.300    0.200    0.440   96.412    7.018
  173.600    0.214    0.433   98.277    6.380
  173.900    0.226    0.444   97.041    6.503
  174.200    0.262    0.451   85.889    7.722
  174.500    0.298    0.445   77.215   12.443
  174.800    0.266    0.375   56.764   17.881
  175.100    0.272    0.369   49.331   20.437
  175.400    0.293    0.389   51.195   18.936
  175.700    0.260    0.398   66.076   13.954
  176.000    0.250    0.389   78.478    9.347
  176.300    0.273    0.428   81.582    8.496
  176.600    0.282    0.454   83.447    8.827
  176.900    0.262    0.410   84.690    9.347
  177.200    0.285    0.415   82.835   11.313
  177.500    0.317    0.414   72.922   15.353
  177.800    0.324    0.398   70.449   16.572
  178.100    0.323    0.389   73.552   16.572
  178.400    0.316    0.394   79.755   16.573
  178.700    0.282    0.398   89.678   16.260
  179.000    0.282    0.399   87.823   15.355
  179.300    0.290    0.409   81.630   15.066
  179.600    0.288    0.429   78.534   14.781
  179.900    0.291    0.438   81.639   14.502
  180.200    0.297    0.413   82.263   14.782
  180.500    0.281    0.430   82.888   15.067
  180.800    0.278    0.448   82.272   15.956
  181.100    0.301    0.419   52.523   16.577
  181.400    0.326    0.411   43.229   16.577
  181.700    0.338    0.405   46.954   16.264
  182.000    0.334    0.359   55.017   15.069
  182.300    0.262    0.353   66.799   14.231
  182.600    0.256    0.385   76.102   12.692
  182.900    0.263    0.398   77.966   11.986
  183.200    0.257    0.400   77.970   11.760
  183.500    0.235    0.384   76.115   11.987
  183.800    0.240    0.379   69.921   12.454
  184.100    0.272    0.382   67.447   11.988
  184.400    0.284    0.388   73.650   10.897
  184.700    0.276    0.398   86.052    8.667
  185.000    0.207    0.413   99.694    7.583
  185.300    0.175    0.443   97.220    6.387
  185.600    0.171    0.465   96.605    5.588
  185.900    0.225    0.460   97.849    5.379
  186.200    0.246    0.560  103.431    4.984
  186.500    0.222    0.581  116.454    4.531
  186.800    0.191    0.560  116.458    4.445
  187.100    0.176    0.466  108.405    4.361
  187.400    0.223    0.438  102.211    4.531
  187.700    0.256    0.497  100.976    4.618
  188.000    0.284    0.546   96.021    4.362
  188.300    0.298    0.553   99.126    4.198
  188.600    0.304    0.532  100.371    5.698
  188.900    0.293    0.477   99.134    8.188
  189.200    0.283    0.432   92.941    9.539
  189.500    0.272    0.406   86.748   10.101
  189.800    0.243    0.411   86.751   10.494
  190.100    0.201    0.414   90.476   10.296
  190.400    0.187    0.403   90.481    9.540
  190.700    0.244    0.408   85.526    8.672
  191.000    0.252    0.510   85.530    8.035
  191.300    0.212    0.505   98.552    7.883
  191.600    0.206    0.485  105.995    8.035
  191.900    0.243    0.454  101.661    8.673
  192.200    0.274    0.432   92.988    9.541
  192.500    0.297    0.403   86.795   11.115
  192.800    0.297    0.409   84.939   12.229
  193.100    0.273    0.400   86.803   12.229
  193.400    0.252    0.381   96.106   11.331
  193.700    0.254    0.421   99.210   11.117
  194.000    0.272    0.400   97.355   11.772
  194.300    0.288    0.395   90.541   12.230
  194.600    0.279    0.406   82.487   13.201
  194.900    0.269    0.429   87.451   13.455
  195.200    0.269    0.416   87.455   12.952
  195.500    0.300    0.415   73.823   12.467
  195.800    0.276    0.431   67.010   12.232
  196.100    0.267    0.449   71.973   10.703
  196.400    0.276    0.445   70.739    9.545
  196.700    0.310    0.451   60.824    9.917
  197.000    0.324    0.437   55.871   11.120
  197.300    0.328    0.434   55.875   12.954
  197.600    0.343    0.437   57.739   13.982
  197.900    0.334    0.460   60.223   13.983
  198.200    0.330    0.447   58.989   13.460
  198.500    0.338    0.414   55.274   12.711
  198.800    0.334    0.404   54.039   12.235
  199.100    0.330    0.414   59.003   12.004
  199.400    0.325    0.440   62.106   11.778
  199.700    0.283    0.450   65.831   11.778
  200.000    0.300    0.455   65.835   12.005
  200.300    0.336    0.452   57.781   12.473
  200.600    0.315    0.430   55.307   12.714
  200.900    0.313    0.441   59.650   12.714
  201.201    0.319    0.437   60.275   12.474
  201.501    0.304    0.427   65.239   12.474
  201.801    0.303    0.424   65.243   12.475
  202.101    0.304    0.415   60.289   11.781
  202.401    0.300    0.406   61.533   11.126
  202.701    0.282    0.390   60.919    9.922
  203.001    0.284    0.428   65.261    9.193
  203.301    0.295    0.432   60.307    9.020
  203.601    0.299    0.415   55.355    9.194
  203.901    0.316    0.447   54.119    9.371
