~VERSION INFORMATION
 VERS.                 2.0:   CWLS LOG ASCII STANDARD -VERSION 2.0
 WRAP.                  NO:   ONE LINE PER DEPTH STEP
~WELL INFORMATION BLOCK
#MNEM.UNIT           DATA                    DESCRIPTION OF MNEMONIC
#---------    -------------------            -------------------------------
# Generated from Intellog Unique Number	CW_73_75/WELL/1049
WELL.         SUNCOR MITSUE 11-34            : Well_name    - WELL
LOC .         00/11-34-074-05W5/0            : Location     - LOCATION
UWI .         00/11-34-074-05W5/0            : Uwi          - UNIQUE WELL ID
ENTR.         JAYE                           : Entered      - ENTERED BY
SRVC.         SCHLUMBERGER                   : Scn          - SERVICE COMPANY
DATE.         18 MAR 80                      : Date         - LOG DATE
STRT.M        725                            : top_depth    - START DEPTH
STOP.M        945                            : bot_depth    - STOP DEPTH
STEP.M        0.25                           : increment    - STEP LENGTH
 NULL. -999.2500:NULL Value
~CURVE INFORMATION BLOCK
#MNEM UNIT       ERCB CURVE CODE    CURVE DESCRIPTION
#-----------   ------------------   ----------------------------------
DEPT.M        00 001 00 00         : DEPTH        - DEPTH
ILD .OHMM     00 120 00 00         : RESD         - DEEP RESISTIVITY (DLL)
NPHI.V/V      00 330 00 00         : PHIN         - NEUTRON POROSITY (SANDSTONE)
DPHI.V/V      00 890 00 00         : PHID         - DENSITY POROSITY (SANDSTONE)
GR  .API      00 310 00 00         : GR           - GAMMA RAY
CALI.MM       00 280 01 00         : CAL          - CALIPER
~PARAMETER INFORMATION
#MNEM.UNIT           DATA             DESCRIPTION OF MNEMONIC
#---------         -----------     ------------------------------
GL  .M        977.2                : gl           - GROUND LEVEL ELEVATION
EREF.M        980.3                : kb           - ELEVATION OF DEPTH REFERENCE
DATM.M        977.2                : datum        - DATUM ELEVATION
TDD .M        958                  : tdd          - TOTAL DEPTH DRILLER
RUN .         ONE                  : Run          - RUN NUMBER
ENG .         HOOK                 : Engineer     - RECORDING ENGINEER
WIT .         KEIR                 : Witness      - WITNESSED BY
BASE.         5270                 : Branch       - HOME BASE OF LOGGING UNIT
MUD .         GEL CHEM             : Mud_type     - MUD TYPE
MATR.         SANDSTONE            : Logunit      - NEUTRON MATRIX
TMAX.C        36                   : BHT          - MAXIMUM RECORDED TEMPERATURE
BHTD.M        957                  : BHTDEP       - MAXIMUM RECORDED TEMPERATURE
RMT .C        25.6                 : MDTP         - TEMPERATURE OF MUD
MUDD.KG/M     1066                 : MWT          - MUD DENSITY
NEUT.         0                    : NEUTRON      - NEUTRON TYPE
RESI.         1                    : RESIST       - RESISTIVITY TYPE
RM  .OHMM     3.83                 : RM           - RESISTIVITY OF MUD
RMC .OHMM     0                    : RMC          - RESISTIVITY OF MUD CAKE
RMF .OHMM     0                    : RMF          - RESISTIVITY OF MUD FILTRATE
SUFT.C        0                    : SUFT         - SURFACE TEMPERATURE
~A  DEPTH     RESD     PHIN     PHID       GR      CAL
# ...
  834.500    2.969    0.447    0.275   78.588  150.623
  834.750    3.013    0.438    0.265   81.871  150.440
  835.000    3.040    0.429    0.251   86.081  150.151
  835.250    3.058    0.423    0.241   90.168  149.967
  835.500    3.086    0.417    0.234   93.885  150.912
  835.750    3.094    0.422    0.221   94.021  154.329
  836.000    3.107    0.428    0.226   93.107  156.612
  836.250    3.130    0.437    0.229   91.084  158.901
  836.500    3.159    0.454    0.212   89.119  159.743
  836.750    3.188    0.465    0.224   85.860  160.174
  837.000    3.228    0.475    0.236   80.379  158.756
  837.250    3.274    0.486    0.258   74.034  155.791
  837.500    3.344    0.485    0.269   66.946  153.755
  837.750    3.428    0.476    0.267   67.391  152.440
  838.000    3.572    0.471    0.268   69.626  152.049
  838.250    3.730    0.474    0.292   71.305  152.482
  838.500    3.810    0.448    0.318   71.813  152.706
  838.750    3.768    0.432    0.323   71.207  153.037
  839.000    3.688    0.437    0.323   69.738  153.059
  839.250    3.597    0.447    0.313   68.517  153.079
  839.500    3.485    0.453    0.307   67.973  152.175
  839.750    3.372    0.455    0.316   69.714  152.090
  840.000    3.267    0.455    0.324   71.640  151.704
  840.250    3.193    0.443    0.322   72.579  151.823
  840.500    3.130    0.435    0.319   72.591  151.948
  840.750    3.079    0.444    0.316   71.369  152.689
  841.000    3.014    0.449    0.314   69.777  153.224
  841.250    2.951    0.451    0.315   68.616  153.760
  841.500    2.898    0.449    0.316   67.826  154.197
  841.750    2.891    0.443    0.297   68.085  154.216
  842.000    2.952    0.438    0.285   69.024  154.236
  842.250    3.077    0.431    0.279   69.901  153.945
  842.500    3.427    0.420    0.264   66.951  154.279
  842.750    4.388    0.405    0.233   60.791  154.502
  843.000    5.532    0.380    0.174   56.049  155.039
  843.250    7.991    0.325    0.134   54.334  155.779
  843.500   10.144    0.203    0.034   56.012  158.990
  843.750   10.221    0.287    0.053   61.087  160.039
  844.000    9.555    0.313    0.084   67.274  158.621
  844.250    8.221    0.333    0.239   72.162  157.920
  844.500    6.226    0.398    0.294   74.767  155.782
  844.750    4.435    0.433    0.320   75.028  153.949
  845.000    3.499    0.451    0.327   74.546  153.044
  845.250    2.970    0.463    0.323   74.374  152.654
  845.500    2.853    0.473    0.315   75.003  152.472
  845.750    2.913    0.474    0.306   76.126  152.696
  846.000    2.991    0.465    0.294   77.744  152.716
  846.250    3.045    0.437    0.275   81.029  152.738
  846.500    3.063    0.438    0.263   83.201  152.555
  846.750    3.086    0.445    0.249   84.572  152.264
  847.000    3.120    0.450    0.227   84.587  152.492
  847.250    3.143    0.452    0.222   83.918  152.923
  847.500    3.140    0.456    0.232   82.264  154.899
  847.750    3.106    0.460    0.242   82.215  156.465
  848.000    3.092    0.469    0.260   83.215  156.999
  848.250    3.078    0.465    0.265   85.512  156.404
  848.500    3.106    0.444    0.248   88.426  156.219
  848.750    3.162    0.419    0.235   90.414  158.502
  849.000    3.253    0.414    0.218   90.858  161.610
  849.250    3.243    0.423    0.219   90.191  162.968
  849.500    3.191    0.435    0.231   89.031  163.402
  849.750    3.113    0.443    0.242   88.489  162.599
  850.000    3.037    0.450    0.247   90.106  160.767
  850.250    2.946    0.457    0.245   91.354  157.394
  850.500    2.929    0.467    0.242   91.366  154.944
  850.750    2.932    0.476    0.236   90.267  153.630
  851.000    2.958    0.475    0.224   88.489  153.959
  851.250    3.053    0.467    0.208   87.885  155.009
  851.500    3.101    0.449    0.195   91.170  156.265
  851.750    3.109    0.436    0.195   94.145  157.313
  852.000    3.128    0.438    0.197   96.133  158.468
  852.250    3.119    0.439    0.203   96.701  159.104
  852.500    3.116    0.444    0.208   96.775  159.743
  852.750    3.133    0.452    0.210   95.801  160.279
  853.000    3.206    0.452    0.212   93.838  160.093
  853.250    3.287    0.445    0.213   91.133  159.598
  853.500    3.350    0.441    0.214   89.356  158.900
  853.750    3.515    0.446    0.224   90.109  157.479
  854.000    3.677    0.445    0.236   90.368  156.472
  854.250    3.800    0.433    0.248   89.269  155.259
  854.500    3.849    0.435    0.252   87.677  154.148
  854.750    3.838    0.448    0.249   85.591  153.862
  855.000    3.816    0.463    0.238   83.505  154.091
  855.250    3.792    0.474    0.238   84.260  154.212
  855.500    3.750    0.473    0.243   84.827  154.437
  855.750    3.721    0.467    0.253   85.456  154.972
  856.000    3.656    0.455    0.247   87.012  155.303
  856.250    3.614    0.447    0.237   87.334  156.044
  856.500    3.550    0.441    0.244   85.124  156.991
  856.750    3.487    0.447    0.251   81.617  158.042
  857.000    3.413    0.451    0.256   78.976  158.986
  857.250    3.334    0.455    0.275   76.766  159.215
  857.500    3.226    0.452    0.296   76.532  158.205
  857.750    3.217    0.443    0.295   77.656  156.171
  858.000    3.297    0.420    0.276   79.272  155.059
  858.250    3.425    0.420    0.263   87.866  154.975
  858.500    3.533    0.422    0.251   91.767  155.613
  858.750    3.665    0.430    0.233   92.953  156.975
  859.000    3.763    0.439    0.206   91.608  157.920
  859.250    3.822    0.441    0.198   90.571  159.385
  859.500    3.854    0.434    0.197   89.780  160.534
  859.750    3.855    0.430    0.196   90.410  161.687
  860.000    3.798    0.430    0.194   92.337  162.325
  860.250    3.743    0.420    0.190   94.511  162.759
  860.500    3.658    0.419    0.186   96.746  162.882
  860.750    3.569    0.429    0.189   97.684  163.930
  861.000    3.493    0.440    0.190   97.880  164.672
  861.250    3.408    0.448    0.187   97.276  165.415
  861.500    3.303    0.457    0.182   96.240  165.743
  861.750    3.233    0.476    0.178   95.635  166.076
  862.000    3.148    0.492    0.196   94.906  166.504
  862.250    3.056    0.486    0.204   94.302  166.627
  862.500    2.980    0.468    0.185   94.191  166.650
  862.750    2.988    0.459    0.202   93.956  166.464
  863.000    3.035    0.454    0.206   93.968  166.282
  863.250    3.169    0.444    0.233   93.612  165.584
  863.500    3.249    0.437    0.247   93.131  165.191
  863.750    3.268    0.439    0.241   92.710  164.594
  864.000    3.238    0.447    0.224   91.981  163.895
  864.250    3.168    0.452    0.225   90.081  162.681
  864.500    3.091    0.450    0.241   89.476  162.084
  864.750    2.999    0.449    0.255   91.217  161.590
  865.000    2.857    0.451    0.247   93.328  161.508
  865.250    2.735    0.456    0.235   94.761  161.837
  865.500    2.761    0.460    0.223   95.452  162.477
  865.750    2.812    0.462    0.221   95.899  163.218
  866.000    2.866    0.459    0.217   95.910  163.961
  866.250    2.923    0.453    0.210   95.736  165.010
  866.500    2.953    0.454    0.197   95.255  165.646
  866.750    3.001    0.451    0.196   96.318  166.289
  867.000    3.044    0.442    0.204   97.935  166.716
  867.250    3.094    0.451    0.218   97.577  167.355
  867.500    3.055    0.463    0.220   95.861  167.997
  867.750    3.004    0.467    0.212   98.528  168.428
  868.000    2.927    0.458    0.205  101.195  168.549
  868.250    2.822    0.450    0.196  101.394  169.085
  868.500    2.747    0.463    0.188  101.591  169.210
  868.750    2.694    0.471    0.185  103.455  169.336
  869.000    2.678    0.463    0.187  103.838  169.352
  869.250    2.670    0.450    0.188  102.739  169.176
  869.500    2.695    0.453    0.177  100.036  169.190
  869.750    2.730    0.461    0.179   97.209  169.212
  870.000    2.735    0.462    0.186   95.679  169.130
  870.250    2.738    0.471    0.189   95.382  169.253
  870.500    2.740    0.465    0.185   96.815  169.479
  870.750    2.737    0.453    0.187   98.062  169.910
