~VERSION INFORMATION
 VERS.                 2.0:   CWLS LOG ASCII STANDARD -VERSION 2.0
 WRAP.                  NO:   ONE LINE PER DEPTH STEP
~WELL INFORMATION BLOCK
#MNEM.UNIT           DATA                    DESCRIPTION OF MNEMONIC
#---------    -------------------            -------------------------------
# Generated from Intellog Unique Number	CW_82_90/WELL/3075
WELL.         TEXACO WOODEN                  : Well_name    - WELL
LOC .         00/11-12-087-22W4/0            : Location     - LOCATION
UWI .         00/11-12-087-22W4/0            : Uwi          - UNIQUE WELL ID
ENTR.         MAX                            : Entered      - ENTERED BY
SRVC.         SCHLUMBERGER                   : Scn          - SERVICE COMPANY
STRT.M        145                            : top_depth    - START DEPTH
STOP.M        330                            : bot_depth    - STOP DEPTH
STEP.M        0.25                           : increment    - STEP LENGTH
 NULL. -999.2500:NULL Value
~CURVE INFORMATION BLOCK
#MNEM UNIT       ERCB CURVE CODE    CURVE DESCRIPTION
#-----------   ------------------   ----------------------------------
DEPT.M        00 001 00 00         : DEPTH        - DEPTH
ILD .OHMM     00 120 00 00         : RESD         - DEEP RESISTIVITY (DIL)
NPHI.V/V      00 330 00 00         : PHIN         - NEUTRON POROSITY (SANDSTONE)
DPHI.V/V      00 890 00 00         : PHID         - DENSITY POROSITY (SANDSTONE)
CALI.MM       00 280 01 00         : CAL          - CALIPER
GR  .API      00 310 00 00         : GR           - GAMMA RAY
~PARAMETER INFORMATION
#MNEM.UNIT           DATA             DESCRIPTION OF MNEMONIC
#---------         -----------     ------------------------------
GL  .M        559.47               : gl           - GROUND LEVEL ELEVATION
EREF.M        562.92               : kb           - ELEVATION OF DEPTH REFERENCE
DATM.M        559.47               : datum        - DATUM ELEVATION
TDD .M        337                  : tdd          - TOTAL DEPTH DRILLER
RUN .         ONE                  : Run          - RUN NUMBER
ENG .         BILL                 : Engineer     - RECORDING ENGINEER
WIT .         JIM                  : Witness      - WITNESSED BY
MUD .         GEL                  : Mud_type     - MUD TYPE
MATR.         SANDSTONE            : Logunit      - NEUTRON MATRIX
TMAX.C        22.2                 : BHT          - MAXIMUM RECORDED TEMPERATURE
BHTD.M        337                  : BHTDEP       - MAXIMUM RECORDED TEMPERATURE
MATR.         1                    : LOGUNIT      - NEUTRON MATRIX
RMT .C        20                   : MDTP         - TEMPERATURE OF MUD
NEUT.         1                    : NEUTRON      - NEUTRON TYPE
RESI.         0                    : RESIST       - RESISTIVITY TYPE
RMC .OHMM     5.06                 : RMC          - RESISTIVITY OF MUD CAKE
RMF .OHMM     3.27                 : RMF          - RESISTIVITY OF MUD FILTRATE
SUFT.C        -10                  : SUFT         - SURFACE TEMPERATURE
~A  DEPTH     RESD     PHIN     PHID      CAL       GR
# ...
  291.000   14.326    0.358    0.181  230.122   89.981
  291.250   14.870    0.361    0.189  230.128   88.490
  291.500   15.293    0.365    0.164  231.628   85.503
  291.750   15.441    0.338    0.126  231.634   84.310
  292.000   15.166    0.314    0.059  233.135   84.613
  292.250   14.358    0.349    0.052  232.641   89.698
  292.500   13.222    0.382    0.101  231.650   91.795
  292.750   11.628    0.394    0.148  235.144   91.798
  293.000    9.856    0.405    0.159  239.634   91.203
  293.250    8.354    0.415    0.177  237.149   90.609
  293.500    7.347    0.432    0.183  234.663   90.612
  293.750    6.829    0.438    0.170  235.168   90.018
  294.000    6.706    0.446    0.160  233.678   89.722
  294.250    6.772    0.417    0.148  232.687   87.035
  294.500    7.225    0.388    0.150  230.698   82.254
  294.750    7.925    0.347    0.123  227.216   76.876
  295.000   11.147    0.298    0.044  226.225   75.684
  295.250   12.227    0.330    0.091  225.234   76.883
  295.500   14.044    0.359    0.203  224.243   76.887
  295.750   15.690    0.374    0.183  224.748   75.694
  296.000   16.286    0.356    0.146  227.245   73.904
  296.250   16.596    0.291    0.109  229.244   73.309
  296.500   17.226    0.287    0.067  230.246   74.808
  296.750   16.764    0.329    0.081  231.247   77.501
  297.000   16.313    0.364    0.139  231.751   79.896
  297.250   15.301    0.371    0.166  232.753   83.189
  297.500   14.619    0.373    0.175  233.259   85.584
  297.750   13.840    0.373    0.181  233.264   87.979
  298.000   13.345    0.367    0.172  233.268   90.075
  298.250   12.868    0.378    0.190  232.776   92.171
  298.500   12.639    0.393    0.192  231.785   93.370
  298.750   12.414    0.400    0.165  230.793   91.281
  299.000   12.306    0.399    0.121  229.802   88.892
  299.250   12.310    0.390    0.118  228.812   90.391
  299.500   12.202    0.403    0.168  228.818   93.085
  299.750   12.207    0.406    0.168  228.823   92.789
  300.000   12.213    0.370    0.144  228.330   91.597
  300.250   12.217    0.335    0.092  227.339   91.600
  300.500   12.112    0.311    0.072  226.349   93.696
  300.750   11.895    0.358    0.055  225.857   99.081
  301.000   11.470    0.384    0.089  225.362  103.868
  301.250   11.060    0.388    0.148  224.870  105.666
  301.500   10.470    0.396    0.174  224.378  107.761
  301.750    9.912    0.384    0.189  224.384  107.765
  302.000    9.383    0.374    0.175  224.888  106.871
  302.250    9.047    0.379    0.169  224.892  105.678
  302.500    9.136    0.362    0.153  224.898  102.394
  302.750    9.748    0.337    0.125  224.904  100.004
  303.000   10.594    0.300    0.078  225.408   95.524
  303.250   11.621    0.297    0.025  225.413   95.527
  303.500   12.514    0.313    0.031  225.419   99.716
  303.750   13.728    0.324    0.053  225.923  103.905
  304.000   14.117    0.339    0.139  225.929  105.403
  304.250   13.865    0.337    0.138  225.934  106.303
  304.500   13.005    0.352    0.152  226.437  106.904
  304.750   12.199    0.367    0.161  225.945  105.413
  305.000   12.204    0.384    0.148  224.456  101.231
  305.250   13.142    0.360    0.122  223.964   94.059
  305.500   14.684    0.329    0.137  224.467   89.279
  305.750   16.106    0.244    0.005  226.466   85.993
  306.000   18.498    0.216    0.002  227.469   85.100
  306.250   21.642    0.262    0.014  227.474   88.392
  306.500   24.631    0.288    0.029  227.480   91.086
  306.750   23.751    0.302    0.124  227.485   93.481
  307.000   21.871    0.323    0.147  226.992   94.381
  307.250   18.538    0.344    0.165  226.002   93.787
  307.500   15.286    0.343    0.175  225.010   92.595
  307.750   14.077    0.330    0.166  225.016   91.701
  308.000   13.700    0.319    0.167  225.022   91.106
  308.250   14.090    0.332    0.160  225.526   93.800
  308.500   14.226    0.350    0.139  226.029   94.102
  308.750   14.630    0.356    0.147  226.035   91.116
  309.000   15.184    0.333    0.159  226.040   88.429
  309.250   16.203    0.321    0.144  225.548   86.639
  309.500   17.450    0.293    0.057  225.553   86.044
  309.750   18.447    0.265    0.036  226.058   89.037
  310.000   18.625    0.308    0.017  226.561   92.927
  310.250   18.293    0.345    0.113  226.566   96.817
  310.500   17.317    0.346    0.174  226.572   97.119
  310.750   16.244    0.352    0.174  226.577   98.916
  311.000   13.769    0.368    0.186  226.583  103.105
  311.250   11.888    0.378    0.191  226.589  103.707
  311.500   10.552    0.384    0.191  227.093  103.112
  311.750    9.807    0.395    0.186  227.098  103.415
  312.000    8.866    0.402    0.182  227.104  103.717
  312.250    8.394    0.399    0.172  227.109  103.720
  312.500    8.319    0.387    0.158  226.616  100.434
  312.750    8.172    0.394    0.131  225.627  100.737
  313.000    8.175    0.399    0.109  225.133  101.638
  313.250    8.179    0.401    0.180  224.641  102.239
  313.500    8.334    0.388    0.172  224.148  101.644
  313.750    8.811    0.393    0.157  224.153  100.451
  314.000    9.488    0.394    0.159  224.159   83.413
  314.250   10.602    0.386    0.144  224.165   74.747
  314.500   11.312    0.358    0.090  224.170   76.543
  314.750   12.295    0.345    0.062  224.176   83.124
  315.000   12.760    0.350    0.099  224.181   83.427
  315.250   13.245    0.330    0.160  224.188   82.235
  315.500   13.874    0.349    0.182  224.691   86.423
  315.750   14.669    0.344    0.210  224.696   85.231
  316.000   15.797    0.329    0.252  224.204   74.172
  316.250   17.486    0.308    0.270  224.209   66.402
  316.500   25.518    0.284    0.232  224.215   60.725
  316.750   34.910    0.263    0.199  224.221   57.739
  317.000   46.889    0.241    0.131  224.724   57.443
  317.250   61.829    0.314    0.122  224.731   57.446
  317.500   71.670    0.332    0.194  224.736   58.048
  317.750   64.204    0.308    0.156  225.240   58.649
  318.000   63.646    0.268    0.083  225.245   59.848
  318.250   64.258    0.288    0.177  225.250   62.542
  318.500   58.631    0.349    0.224  224.758   65.236
  318.750   47.463    0.386    0.202  224.265   68.229
  319.000   44.524    0.377    0.177  224.272   72.120
  319.250   41.378    0.364    0.153  224.277   74.814
  319.500   35.724    0.356    0.115  224.283   79.600
  319.750   30.281    0.390    0.141  224.288   86.779
  320.000   29.469    0.373    0.162  224.293   91.566
  320.250   27.138    0.351    0.180  224.299   91.869
  320.500   20.983    0.348    0.177  224.305   89.181
  320.750   18.451    0.338    0.182  223.811   87.391
  321.000   15.640    0.336    0.183  223.817   91.281
  321.250   13.016    0.364    0.167  223.823   92.181
  321.500   10.634    0.384    0.153  223.829   96.071
  321.750    8.374    0.411    0.148  223.835  101.157
  322.000    7.711    0.408    0.162  223.839  104.449
  322.250    7.644    0.393    0.164  223.846  107.741
  322.500    8.082    0.376    0.179  223.851  110.136
  322.750    9.810    0.361    0.186  223.358  108.645
  323.000   10.467    0.367    0.195  223.365  107.751
  323.250   11.694    0.369    0.195  223.371  108.053
  323.500   13.935    0.372    0.154  222.877  111.047
  323.750   15.007    0.371    0.092  222.883  112.545
  324.000   15.292    0.360    0.131  222.888  114.940
  324.250   15.158    0.354    0.153  222.893  118.531
  324.500   14.752    0.353    0.172  222.899  128.400
  324.750   14.623    0.381    0.176  222.904  137.672
  325.000   14.764    0.368    0.171  222.413  138.573
  325.250   14.907    0.328    0.163  221.921  120.039
  325.500   15.190    0.316    0.170  221.925  107.784
  325.750   15.913    0.309    0.188  221.433   99.716
  326.000   16.823    0.284    0.201  220.442   94.337
  326.250   18.284    0.300    0.186  219.948   98.228
  326.500   20.809    0.300    0.176  219.456  103.015
  326.750   20.439    0.291    0.159  219.462  106.307
  327.000   19.170    0.299    0.150  220.962  107.805
  327.250   17.332    0.302    0.132  222.462  101.829
