~VERSION INFORMATION
 VERS.                 2.0:   CWLS LOG ASCII STANDARD -VERSION 2.0
 WRAP.                  NO:   ONE LINE PER DEPTH STEP
~WELL INFORMATION BLOCK
#MNEM.UNIT           DATA                    DESCRIPTION OF MNEMONIC
#---------    -------------------            -------------------------------
# Generated from Intellog Unique Number	CW_79_81/WELL/2476
WELL.         10-32-080-20W4                 : Well_name    - WELL
LOC .         00/10-32-080-20W4/0            : Location     - LOCATION
UWI .         00/10-32-080-20W4/0            : Uwi          - UNIQUE WELL ID
ENTR.         MAX                            : Entered      - ENTERED BY
SRVC.         SCHLUMBERGER                   : Scn          - SERVICE COMPANY
STRT.M        149.602                        : top_depth    - START DEPTH
STOP.M        396.102                        : bot_depth    - STOP DEPTH
STEP.M        0.25                           : increment    - STEP LENGTH
 NULL. -999.2500:NULL Value
~CURVE INFORMATION BLOCK
#MNEM UNIT       ERCB CURVE CODE    CURVE DESCRIPTION
#-----------   ------------------   ----------------------------------
DEPT.M        00 001 00 00         : DEPTH        - DEPTH
ILD .OHMM     00 120 00 00         : RESD         - DEEP RESISTIVITY (DIL)
NPHI.V/V      00 330 00 00         : PHIN         - NEUTRON POROSITY (SANDSTONE)
DPHI.V/V      00 890 00 00         : PHID         - DENSITY POROSITY (SANDSTONE)
GR  .API      00 310 00 00         : GR           - GAMMA RAY
CALI.MM       00 280 01 00         : CAL          - CALIPER
~PARAMETER INFORMATION
#MNEM.UNIT           DATA             DESCRIPTION OF MNEMONIC
#---------         -----------     ------------------------------
GL  .M        578.815              : gl           - GROUND LEVEL ELEVATION
EREF.M        581.254              : kb           - ELEVATION OF DEPTH REFERENCE
DATM.M        578.815              : datum        - DATUM ELEVATION
TDD .M        403.25               : tdd          - TOTAL DEPTH DRILLER
RUN .         ONE                  : Run          - RUN NUMBER
ENG .         BILL                 : Engineer     - RECORDING ENGINEER
WIT .         JIM                  : Witness      - WITNESSED BY
MUD .         GEL                  : Mud_type     - MUD TYPE
MATR.         SANDSTONE            : Logunit      - NEUTRON MATRIX
TMAX.C        21.1111              : BHT          - MAXIMUM RECORDED TEMPERATURE
BHTD.M        403.25               : BHTDEP       - MAXIMUM RECORDED TEMPERATURE
MATR.         1                    : LOGUNIT      - NEUTRON MATRIX
RMT .C        13.3333              : MDTP         - TEMPERATURE OF MUD
NEUT.         1                    : NEUTRON      - NEUTRON TYPE
RESI.         0                    : RESIST       - RESISTIVITY TYPE
RMC .OHMM     8                    : RMC          - RESISTIVITY OF MUD CAKE
RMF .OHMM     4.46                 : RMF          - RESISTIVITY OF MUD FILTRATE
SUFT.C        -20.5556             : SUFT         - SURFACE TEMPERATURE
~A  DEPTH     RESD     PHIN     PHID       GR      CAL
# ...
  368.602   52.697    0.421    0.269   52.086  153.306
  368.852   50.343    0.420    0.257   55.912  153.594
  369.102   47.096    0.418    0.245   59.443  152.983
  369.352   42.919    0.418    0.233   62.913  153.172
  369.602   37.623    0.416    0.218   68.457  154.991
  369.852   33.626    0.416    0.205   72.625  154.148
  370.102   30.107    0.416    0.197   76.155  152.140
  370.352   27.128    0.413    0.188   80.570  151.628
  370.602   24.116    0.398    0.175   85.633  154.809
  370.852   20.733    0.387    0.155   91.581  160.289
  371.102   16.197    0.418    0.128   99.512  163.737
  371.352   13.072    0.417    0.145  101.471  167.053
  371.602   11.024    0.433    0.171  102.879  161.452
  371.852    9.641    0.439    0.158  104.287  156.747
  372.102    9.185    0.434    0.142  105.931  153.541
  372.352    9.514    0.421    0.134  106.750  152.530
  372.602   10.586    0.398    0.120  102.469  154.928
  372.852   12.239    0.373    0.118   92.882  156.999
  373.102   13.810    0.345    0.103   91.459  155.791
  373.352   14.266    0.346    0.091   92.513  155.778
  373.602   13.792    0.383    0.098   96.750  156.565
  373.852   12.793    0.432    0.122  105.644  157.950
  374.102   11.313    0.431    0.142  121.782  159.849
  374.352   10.186    0.427    0.151  123.494  159.423
  374.602    9.052    0.427    0.162  125.845  158.614
  374.852    8.756    0.452    0.184  126.251  154.210
  375.102    9.096    0.464    0.190  124.477  151.602
  375.352   10.099    0.453    0.178  118.813  152.190
  375.602   12.258    0.433    0.172  102.779  153.375
  375.852   13.954    0.422    0.178   86.314  153.364
  376.102   16.879    0.408    0.186   80.882  153.352
  376.352   19.180    0.398    0.180   79.165  153.041
  376.602   20.935    0.395    0.173   79.865  152.831
  376.852   22.198    0.395    0.172   81.097  153.019
  377.102   22.444    0.380    0.178   79.254  153.969
  377.352   22.098    0.371    0.177   73.597  154.787
  377.602   20.382    0.367    0.187   73.117  154.777
  377.852   15.350    0.384    0.193   80.065  155.663
  378.102   12.162    0.408    0.187   89.844  157.050
  378.352   10.329    0.426    0.176   98.622  157.838
  378.602    8.563    0.430    0.174  103.430  156.060
  378.852    7.432    0.452    0.177  103.914  155.219
  379.102    6.956    0.473    0.171  105.792  156.005
  379.352    6.956    0.482    0.168  105.021  155.894
  379.602    7.282    0.475    0.159  102.421  155.683
  379.852    7.907    0.455    0.152   99.465  155.870
  380.102    9.344    0.424    0.168   97.984  156.406
  380.352   12.539    0.413    0.164   96.504  155.144
  380.602   15.802    0.406    0.165   95.317  153.535
  380.852   18.954    0.381    0.165   91.479  153.723
  381.102   23.270    0.344    0.202   88.642  153.713
  381.352   30.217    0.312    0.254   88.340  152.306
  381.602   38.379    0.325    0.239   90.474  149.512
  381.852   43.685    0.357    0.200   92.923  151.582
  382.102   45.926    0.378    0.146   95.037  153.964
  382.352   47.782    0.399    0.155   97.330  154.551
  382.602   50.396    0.402    0.175   96.501  154.740
  382.852   53.812    0.391    0.186   91.720  155.030
  383.102   56.530    0.392    0.200   85.273  154.932
  383.352   58.248    0.422    0.226   88.459  154.505
  383.602   60.794    0.423    0.199   90.576  154.494
  383.852   63.468    0.428    0.174   82.968  153.583
  384.102   68.336    0.433    0.169   69.639  152.971
  384.352   76.212    0.426    0.165   53.891  152.761
  384.602   86.770    0.384    0.104   36.303  152.032
  384.852   96.518    0.360    0.078   26.226  152.437
  385.102  108.162    0.351    0.084   21.972  152.427
  385.352  118.846    0.359    0.088   21.965  152.715
  385.602  126.945    0.369    0.097   25.023  153.101
  385.852  131.855    0.372    0.110   30.028  153.288
  386.102  135.310    0.365    0.128   36.407  152.710
  386.352  138.361    0.360    0.146   38.856  151.868
  386.602  137.303    0.374    0.142   40.735  151.454
  386.852  135.514    0.376    0.149   41.907  151.943
  387.102  132.534    0.383    0.169   41.783  153.130
  387.352  129.185    0.400    0.188   40.362  154.816
  387.602  126.882    0.419    0.181   38.231  156.881
  387.852  124.928    0.434    0.178   38.225  157.285
  388.102  121.302    0.444    0.174   39.396  154.479
  388.352  114.552    0.431    0.182   40.214  152.272
  388.602  106.865    0.404    0.173   40.679  151.263
  388.852   99.383    0.373    0.146   40.496  151.351
  389.102   91.743    0.342    0.117   39.025  151.735
  389.352   88.322    0.341    0.088   38.772  151.724
  389.602   88.287    0.337    0.051   39.001  151.313
  389.852   89.697    0.338    0.043   37.462  151.202
  390.102   91.962    0.336    0.064   36.039  151.190
  390.352   94.305    0.326    0.090   34.500  151.278
  390.602   95.931    0.296    0.068   30.286  151.664
  390.852   97.353    0.288    0.058   29.298  151.652
  391.102   95.913    0.315    0.059   29.999  152.441
  391.352   93.462    0.357    0.070   29.461  152.928
  391.602   89.066    0.373    0.095   29.101  153.315
  391.852   83.589    0.353    0.119   31.334  154.003
  392.102   77.522    0.326    0.115   40.709  155.753
  392.352   71.365    0.332    0.117   46.351  156.571
  392.602   63.423    0.352    0.110   48.702  156.162
  392.852   54.158    0.375    0.099   49.639  155.152
  393.102   44.690    0.401    0.123   51.636  152.745
  393.352   37.761    0.419    0.167   54.990  149.840
  393.602   35.489    0.409    0.153   57.419  149.360
  393.852   37.412    0.407    0.127   55.448  151.012
  394.102   41.925    0.394    0.119   47.660  151.799
  394.352   49.445    0.377    0.109   37.750  151.988
  394.602   58.564    0.362    0.097   31.492  151.178
  394.852   68.188    0.350    0.088   29.423  150.167
  395.102   82.241    0.345    0.097   26.476  151.286
  395.352   86.694    0.354    0.103   24.750  152.935
  395.602   87.291    0.343    0.132   29.459  153.324
  395.852   84.114    0.333    0.106   35.936  153.414
  396.102   73.541    0.308    0.087   60.694  154.388
