~VERSION INFORMATION
 VERS.                 2.0:   CWLS LOG ASCII STANDARD -VERSION 2.0
 WRAP.                  NO:   ONE LINE PER DEPTH STEP
~WELL INFORMATION BLOCK
#MNEM.UNIT           DATA                    DESCRIPTION OF MNEMONIC
#---------    -------------------            -------------------------------
# Generated from Intellog Unique Number	CS_77_79/WELL/951
WELL.         B0W VALLEY EXPLORATION         : Well_name    - WELL
LOC .         00/10-13-077-15W4/0            : Location     - LOCATION
UWI .         00/10-13-077-15W4/0            : Uwi          - UNIQUE WELL ID
ENTR.         SP                             : Entered      - ENTERED BY
SRVC.         SCHLUMBERGER                   : Scn          - SERVICE COMPANY
STRT.M        280                            : top_depth    - START DEPTH
STOP.M        530                            : bot_depth    - STOP DEPTH
STEP.M        0.25                           : increment    - STEP LENGTH
 NULL. -999.2500:NULL Value
~CURVE INFORMATION BLOCK
#MNEM UNIT       ERCB CURVE CODE    CURVE DESCRIPTION
#-----------   ------------------   ----------------------------------
DEPT.M        00 001 00 00         : DEPTH        - DEPTH
GR  .API      00 310 00 00         : GR           - GAMMA RAY
DPHI.V/V      00 890 00 00         : PHID         - DENSITY POROSITY (LIMESTONE)
NPHI.V/V      00 330 00 00         : PHIN         - NEUTRON POROSITY (LIMESTONE)
ILD .OHMM     00 120 00 00         : RESD         - DEEP RESISTIVITY (DIL)
~PARAMETER INFORMATION
#MNEM.UNIT           DATA             DESCRIPTION OF MNEMONIC
#---------         -----------     ------------------------------
GL  .M        675.4                : gl           - GROUND LEVEL ELEVATION
EREF.M        678.9                : kb           - ELEVATION OF DEPTH REFERENCE
DATM.M        675.4                : datum        - DATUM ELEVATION
TDD .M        537                  : tdd          - TOTAL DEPTH DRILLER
RUN .         ONE                  : Run          - RUN NUMBER
ENG .         BILL                 : Engineer     - RECORDING ENGINEER
WIT .         JIM                  : Witness      - WITNESSED BY
MUD .         GEL                  : Mud_type     - MUD TYPE
MATR.         LIMESTONE            : Logunit      - NEUTRON MATRIX
TMAX.C        21                   : BHT          - MAXIMUM RECORDED TEMPERATURE
BHTD.M        537                  : BHTDEP       - MAXIMUM RECORDED TEMPERATURE
MATR.         1                    : LOGUNIT      - NEUTRON MATRIX
RMT .C        25                   : MDTP         - TEMPERATURE OF MUD
NEUT.         1                    : NEUTRON      - NEUTRON TYPE
RESI.         0                    : RESIST       - RESISTIVITY TYPE
RMC .OHMM     0.25                 : RMC          - RESISTIVITY OF MUD CAKE
RMF .OHMM     0.25                 : RMF          - RESISTIVITY OF MUD FILTRATE
SUFT.C        15                   : SUFT         - SURFACE TEMPERATURE
~A  DEPTH       GR     PHID     PHIN     RESD
# ...
  410.500   87.795    0.240    0.448    5.507
  410.750   85.995    0.236    0.477    5.611
  411.000   86.001    0.242    0.484    5.610
  411.250   86.608    0.256    0.473    5.610
  411.500   87.216    0.246    0.458    5.404
  411.750   87.823    0.239    0.451    5.206
  412.000   84.817    0.231    0.445    5.110
  412.250   83.618    0.239    0.448    5.109
  412.500   81.816    0.231    0.445    5.929
  412.750   80.013    0.225    0.445    6.269
  413.000   77.610    0.223    0.444    6.629
  413.250   75.809    0.222    0.426    7.009
  413.500   74.006    0.229    0.410    7.140
  413.750   72.203    0.226    0.420    7.691
  414.000   67.993    0.245    0.425    7.835
  414.250   62.577    0.261    0.433    7.835
  414.500   59.569    0.266    0.428    7.690
  414.750   56.563    0.305    0.411    7.408
  415.000   54.158    0.328    0.416    7.271
  415.250   54.767    0.329    0.419    7.136
  415.500   55.374    0.332    0.416    7.135
  415.750   55.983    0.332    0.407    7.135
  416.000   56.592    0.323    0.397    7.134
  416.250   56.597    0.317    0.396    7.133
  416.500   56.601    0.323    0.404    7.133
  416.750   56.607    0.322    0.414    7.001
  417.000   56.008    0.321    0.422    7.000
  417.250   55.412    0.319    0.425    7.000
  417.500   56.622    0.321    0.423    6.999
  417.750   59.038    0.330    0.411    6.869
  418.000   60.247    0.331    0.409    6.869
  418.250   59.650    0.323    0.402    6.868
  418.500   56.643    0.336    0.400    6.741
  418.750   57.253    0.335    0.410    6.867
  419.000   57.260    0.327    0.409    6.866
  419.250   57.264    0.322    0.397    6.866
  419.500   59.077    0.319    0.392    6.865
  419.750   60.288    0.307    0.403    6.865
  420.000   59.688    0.297    0.411    6.864
  420.250   56.682    0.304    0.420    6.864
  420.500   56.688    0.313    0.411    6.863
  420.750   56.694    0.314    0.395    6.862
  421.000   57.903    0.311    0.400    6.735
  421.250   60.319    0.310    0.415    6.735
  421.500   61.529    0.308    0.414    6.734
  421.750   57.919    0.312    0.403    6.733
  422.000   55.515    0.318    0.405    6.733
  422.250   54.317    0.323    0.417    6.732
  422.500   55.529    0.326    0.418    6.732
  422.750   56.738    0.326    0.418    6.731
  423.000   57.947    0.323    0.416    6.731
  423.250   57.351    0.323    0.407    6.730
  423.500   56.152    0.335    0.401    6.856
  423.750   55.554    0.338    0.413    6.856
  424.000   56.765    0.331    0.399    6.855
  424.250   56.773    0.324    0.392    6.728
  424.500   57.379    0.336    0.401    6.603
  424.750   57.985    0.337    0.409    6.481
  425.000   58.594    0.331    0.418    6.481
  425.250   59.201    0.318    0.427    6.602
  425.500   57.399    0.318    0.432    6.601
  425.750   54.995    0.327    0.434    6.725
  426.000   53.795    0.334    0.429    6.850
  426.250   52.596    0.343    0.422    6.978
  426.500   53.809    0.330    0.421    6.978
  426.750   55.018    0.335    0.433    6.977
  427.000   56.229    0.330    0.434    6.977
  427.250   56.837    0.329    0.428    6.976
  427.500   56.842    0.327    0.427    6.975
  427.750   57.451    0.314    0.435    6.975
  428.000   57.455    0.316    0.434    6.974
  428.250   56.859    0.325    0.424    6.974
  428.500   56.259    0.318    0.417    6.973
  428.750   53.255    0.325    0.425    7.237
  429.000   52.656    0.310    0.434    7.796
  429.250   53.264    0.291    0.425    8.243
  429.500   55.681    0.267    0.394    8.555
  429.750   57.492    0.197    0.335    8.090
  430.000   59.907    0.147    0.312    7.793
  430.250   59.914    0.223    0.383    7.369
  430.500   59.319    0.313    0.424    7.099
  430.750   59.322    0.335    0.422    6.713
  431.000   60.536    0.343    0.422    6.589
  431.250   61.745    0.338    0.439    6.467
  431.500   62.351    0.328    0.443    6.466
  431.750   62.957    0.320    0.430    6.466
  432.000   63.566    0.309    0.440    6.710
  432.250   61.162    0.301    0.451    6.836
  432.500   58.757    0.302    0.445    6.964
  432.750   56.958    0.321    0.419    7.094
  433.000   56.359    0.325    0.417    6.962
  433.250   55.763    0.319    0.408    7.226
  433.500   55.166    0.316    0.412    7.092
  433.750   55.773    0.316    0.415    6.961
  434.000   56.381    0.310    0.407    6.832
  434.250   56.386    0.317    0.412    6.705
  434.500   56.391    0.322    0.420    6.459
  434.750   55.796    0.317    0.444    6.340
  435.000   55.800    0.303    0.449    6.339
  435.250   57.013    0.310    0.456    6.339
  435.500   57.620    0.320    0.450    6.458
  435.750   58.830    0.322    0.442    6.828
  436.000   59.438    0.316    0.425    6.827
  436.250   59.442    0.319    0.419    6.955
  436.500   58.244    0.320    0.413    6.826
  436.750   58.850    0.316    0.409    6.825
  437.000   60.663    0.314    0.433    6.825
  437.250   58.861    0.333    0.443    6.824
  437.500   61.278    0.335    0.437    6.824
  437.750   62.487    0.311    0.419    6.823
  438.000   62.492    0.327    0.406    6.823
  438.250   61.895    0.333    0.410    6.822
  438.500   63.105    0.329    0.413    6.821
  438.750   59.496    0.317    0.414    6.695
  439.000   60.105    0.324    0.404    6.695
  439.250   60.713    0.321    0.396    6.570
  439.500   60.717    0.300    0.403    6.570
  439.750   58.313    0.299    0.416    6.569
  440.000   57.719    0.300    0.421    6.569
  440.250   58.324    0.301    0.421    6.447
  440.500   60.137    0.326    0.422    6.327
  440.750   59.540    0.306    0.414    6.327
  441.000   58.340    0.309    0.404    6.326
  441.250   60.154    0.310    0.422    6.445
  441.500   61.363    0.309    0.431    6.566
  441.750   63.178    0.318    0.433    6.814
  442.000   61.978    0.333    0.434    7.072
  442.250   60.174    0.317    0.433    7.204
  442.500   59.579    0.317    0.421    7.204
  442.750   60.187    0.318    0.413    7.203
  443.000   61.399    0.322    0.402    7.202
  443.250   62.004    0.332    0.399    6.938
  443.500   62.612    0.325    0.410    6.810
  443.750   62.018    0.317    0.410    6.684
  444.000   62.021    0.322    0.413    6.683
  444.250   61.423    0.322    0.415    6.559
  444.500   63.839    0.313    0.402    6.559
  444.750   63.844    0.304    0.392    6.558
  445.000   63.850    0.299    0.396    6.558
  445.250   65.062    0.304    0.400    6.557
  445.500   66.270    0.300    0.415    6.556
  445.750   69.288    0.299    0.428    6.435
  446.000   72.909    0.319    0.435    6.435
  446.250   74.721    0.325    0.444    6.316
  446.500   75.930    0.312    0.454    6.198
  446.750   75.938    0.305    0.448    6.198
  447.000   74.738    0.293    0.449    6.083
  447.250   75.345    0.289    0.456    6.082
  447.500   77.761    0.294    0.446    5.970
  447.750   78.971    0.294    0.431    5.969
  448.000   80.182    0.283    0.420    5.859
  448.250   81.994    0.264    0.415    5.750
  448.500   85.614    0.247    0.423    5.540
  448.750   90.440    0.242    0.428    5.337
  449.000   94.060    0.232    0.453    5.046
  449.250   95.872    0.242    0.464    5.046
  449.500   95.276    0.253    0.475    5.045
  449.750   92.871    0.248    0.457    5.236
  450.000   85.649    0.230    0.415    5.435
  450.250   83.845    0.216    0.418    5.640
  450.500   82.043    0.233    0.432    6.076
  450.750   81.447    0.250    0.444    6.306
  451.000   82.054    0.239    0.449    6.545
  451.250   79.048    0.225    0.451    6.792
  451.500   75.438    0.233    0.441    7.317
  451.750   70.625    0.260    0.433    8.651
  452.000   67.617    0.249    0.422    9.319
  452.250   63.406    0.216    0.407    9.672
  452.500   62.809    0.178    0.363    9.492
  452.750   68.236    0.171    0.325    8.488
  453.000   82.702    0.203    0.367    7.878
  453.250   86.320    0.225    0.388    7.450
  453.500   88.136    0.200    0.410    7.449
  453.750   87.538    0.209    0.417    7.311
