~VERSION INFORMATION
 VERS.                 2.0:   CWLS LOG ASCII STANDARD -VERSION 2.0
 WRAP.                  NO:   ONE LINE PER DEPTH STEP
~WELL INFORMATION BLOCK
#MNEM.UNIT           DATA                    DESCRIPTION OF MNEMONIC
#---------    -------------------            -------------------------------
# Generated from Intellog Unique Number	CW_70_72/WELL/3306
NULL.         -999.25                        : NULL_VALUE
WELL.         CHEVRON SOBC MITSUE            : Well_name    - WELL              
LOC .         10-01-070-04W5                 : Location     - LOCATION          
UWI .         00/10-01-070-04W5/0            : Uwi          - UNIQUE WELL ID    
ENTR.         CAMPBELL                       : Entered      - ENTERED BY        
SRVC.         SCHLUMBERGER                   : Scn          - SERVICE COMPANY   
DATE.         06 SEP 66                      : Date         - LOG DATE
STRT.M        640.08                         : top_depth    - START DEPTH       
STOP.M        774.08                         : bot_depth    - STOP DEPTH        
STEP.M        0.25                           : increment    - STEP LENGTH       
~CURVE INFORMATION BLOCK
#MNEM UNIT       ERCB CURVE CODE    CURVE DESCRIPTION
#-----------   ------------------   ----------------------------------
DEPT.M        00 001 00 00         : DEPTH        - DEPTH                       
ILD .OHMM     00 120 00 00         : RESD         - DEEP RESISTIVITY (DIL)      
CALI.MM       00 280 01 00         : CAL          - CALIPER                     
GR  .API      00 310 00 00         : GR           - GAMMA RAY                   
DELT.US/F     00 520 00 00         : DELT         - SONIC TRAVEL TIME           
~PARAMETER INFORMATION       
#MNEM.UNIT           DATA             DESCRIPTION OF MNEMONIC
#---------         -----------     ------------------------------
GL  .M        665.5                : gl           - GROUND LEVEL ELEVATION      
EREF.M        669.493              : kb           - ELEVATION OF DEPTH REFERENCE
DATM.M        669.493              : datum        - DATUM ELEVATION             
TDD .M        1792.22              : tdd          - TOTAL DEPTH DRILLER         
RUN .         ONE                  : Run          - RUN NUMBER                  
ENG .         McNAUGHTON           : Engineer     - RECORDING ENGINEER          
WIT .         LINKE                : Witness      - WITNESSED BY                
MUD .         GEL                  : Mud_type     - MUD TYPE                    
MATR.         SANDSTONE            : Logunit      - NEUTRON MATRIX              
TMAX.C        50                   : BHT          - MAXIMUM RECORDED TEMPERATURE
BHTD.M        1792.22              : BHTDEP       - MAXIMUM RECORDED TEMPERATURE
RMT .C        25                   : MDTP         - TEMPERATURE OF MUD          
MUDD.KG/M     10000                : MWT          - MUD DENSITY                 
NEUT.         1                    : NEUTRON      - NEUTRON TYPE                
RESI.         0                    : RESIST       - RESISTIVITY TYPE            
RM  .OHMM     1.1                  : RM           - RESISTIVITY OF MUD          
RMC .OHMM     1.34                 : RMC          - RESISTIVITY OF MUD CAKE     
RMF .OHMM     0.93                 : RMF          - RESISTIVITY OF MUD FILTRATE 
SUFT.C        15                   : SUFT         - SURFACE TEMPERATURE         
~A  DEPTH     RESD      CAL       GR     DELT
# ...
  727.080    3.413  306.322   55.005  659.773
  727.330    3.290  276.262   59.318  657.774
  727.580    3.290  249.777   56.475  652.484
  727.830    3.382  291.647   55.062  635.016
  728.080    3.542  313.629   51.506  534.943
  728.330    3.641  337.651   52.718  482.922
  728.580    3.675  338.207   57.986  354.875
  728.830    3.675  338.248   63.254  330.496
  729.080    3.675  338.800   58.981  334.091
  729.330    3.676  339.346   63.769  341.636
  729.580    3.609  340.418   62.119  334.701
  729.830    3.510  341.469   59.752  352.447
  730.080    3.446  346.617   61.208  359.662
  730.330    3.384  345.127   59.796  347.462
  730.580    3.292  345.169   56.234  342.831
  730.830    3.261  345.725   55.781  353.008
  731.080    3.292  345.772   54.841  344.757
  731.330    3.384  345.803   54.861  340.126
  731.580    3.447  334.111   55.119  337.466
  731.830    3.577  335.683   55.615  326.908
  732.080    3.677  344.406   57.784  324.583
  732.330    3.850  343.927   56.846  321.598
  732.580    4.107  344.479   54.721  336.382
  732.830    4.301  357.788   57.606  354.125
  733.080    4.421  353.238   56.909  342.912
  733.330    4.381  344.098   57.883  334.664
  733.580    4.032  351.280   59.095  330.688
  733.830    3.712  366.115   59.114  335.600
  734.080    3.354  359.020   56.989  336.560
  734.330    3.233  360.076   57.719  329.957
  734.580    3.386  358.587   55.355  316.108
  734.830    3.678  349.446   55.375  315.100
  735.080    3.996  343.366   57.300  319.680
  735.330    4.108  341.372   57.324  321.630
  735.580    4.071  341.414   59.252  315.024
  735.830    3.645  332.783   58.792  299.204
  736.080    3.175  333.844   56.903  295.889
  736.330    2.740  352.250   57.879  327.457
  736.580    2.499  374.226   57.180  374.497
  736.830    2.453  382.944   59.823  413.965
  737.080    2.715  367.677   60.322  418.548
  737.330    3.117  353.435   57.715  283.919
  737.580    3.680  345.320   53.679  259.869
  737.830    4.264  341.280   51.076  242.730
  738.080    4.851  334.685   52.288  265.086
  738.330    5.127  343.398   54.455  292.378
  738.580    5.271  353.137   54.954  346.983
  738.830    5.271  370.012   54.496  418.375
  739.080    5.175  378.215   54.035  444.348
  739.330    4.897  365.503   58.111  381.796
  739.580    4.634  350.241   63.617  317.596
  739.830    4.508  342.120   58.867  262.277
  740.080    4.345  337.571   61.988  257.320
  740.330    4.226  334.551   59.145  290.207
  740.580    4.111  332.552   59.164  291.499
  740.830    3.963  332.094   60.853  302.663
  741.080    3.891  332.130   61.829  311.524
  741.330    3.820  332.681   58.267  304.589
  741.580    3.785  335.273   59.480  305.223
  741.830    3.615  341.436   64.270  307.832
  742.080    3.327  350.149   60.952  320.641
  742.330    2.979  352.236   58.345  347.934
  742.580    2.845  355.848   56.219  350.871
  742.830    2.819  352.318   56.475  335.048
  743.080    2.872  353.375   53.631  318.238
  743.330    3.007  352.906   52.937  322.824
  743.580    3.328  352.952   54.391  347.151
  743.830    4.001  367.277   54.171  366.546
  744.080    4.723  372.424   54.429  359.279
  744.330    5.423  368.890   52.299  364.520
  744.580    5.946  353.117   56.135  358.572
  744.830    6.641  367.952   53.769  366.117
  745.080    7.215  383.302   58.321  384.853
  745.330    7.839  369.570   61.447  375.612
  745.580    8.059  352.262   59.796  338.728
  745.830    7.418  337.000   62.199  302.173
  746.080    6.892  329.905   63.172  274.174
  746.330    6.171  325.865   59.377  291.923
  746.580    5.525  322.846   55.577  293.212
  746.830    5.180  321.862   49.632  286.606
  747.080    4.813  320.373   42.017  268.483
  747.330    4.596  318.374   38.217  261.542
  747.580    4.554  316.890   40.147  257.243
  747.830    4.596  313.355   44.461  255.244
  748.080    4.682  310.341   49.251  284.511
  748.330    4.813  306.301   48.316  289.423
  748.580    4.948  309.924   52.871  294.664
  748.830    5.087  314.551   50.505  303.854
  749.080    5.041  316.632   48.377  293.296
  749.330    4.949  316.158   50.305  292.285
  749.580    4.770  312.629   51.755  288.312
  749.830    4.770  307.059   49.150  289.275
  750.080    4.770  296.388   48.454  292.541
  750.330    4.815  261.742   54.201  296.137
  750.580    4.859  255.656   52.789  306.643
  750.830    4.950  252.637   50.182  313.859
  751.080    5.042  256.249   50.440  315.809
  751.330    5.136  268.538   55.471  317.101
  751.580    5.184  283.883   53.821  312.799
  751.830    5.428  291.581   52.647  300.270
  752.080    5.684  278.864   56.484  293.332
  752.330    5.952  272.274   58.175  289.688
  752.580    6.349  290.684   56.286  296.245
  752.830    6.648  301.948   56.067  298.192
  753.080    6.649  305.565   59.903  301.462
  753.330    6.710  305.091   59.925  302.754
  753.580    6.773  302.587   57.556  300.423
  753.830    7.426  299.563   58.053  298.098
  754.080    8.143  294.503   54.019  292.480
  754.330    9.179  287.403   51.173  284.226
  754.580   10.065  282.348   50.002  281.898
  754.830   10.835  279.329   52.882  295.037
  755.080   11.557  277.845   57.675  309.824
  755.330   10.348  275.325   57.697  322.305
  755.580    8.931  272.821   53.655  312.408
  755.830    8.070  268.271   36.259  282.106
  756.080    7.997  263.716   25.307  262.005
  756.330    8.221  261.722   30.334  252.103
  756.580    9.098  260.749   35.365  254.059
  756.830   10.350  259.764   35.146  256.332
  757.080   12.793  257.765   37.071  264.541
  757.330   14.421  256.786   44.012  275.376
  757.580   13.274  263.969   54.289  289.173
  757.830   10.448  266.566   58.364  295.731
  758.080    8.073  266.097   48.602  291.757
  758.330    6.012  264.093   38.840  279.228
  758.580    5.001  262.609   30.987  248.268
  758.830    4.396  262.135   22.654  225.534
  759.080    3.973  261.671   28.878  202.143
  759.330    3.973  262.733   31.761  186.652
  759.580    4.356  266.350   39.653  211.637
  759.830    4.604  276.078   51.603  241.891
  760.080    4.733  292.448   45.658  264.247
  760.330    4.238  311.874   43.292  292.853
  760.580    2.987  318.552   45.938  299.410
  760.830    2.601  321.139   49.058  292.804
  761.080    2.484  324.756   51.938  283.895
  761.330    2.462  328.368   48.617  285.513
  761.580    2.507  333.510   41.003  291.086
  761.830    2.602  349.365   39.352  329.896
  762.080    2.675  374.922   35.793  434.199
  762.330    2.775  375.989   33.904  460.830
  762.580    3.761  376.530   35.116  216.938
  762.830    3.796  376.571   35.376  153.725
  763.080    3.761  376.613   34.680  137.905
  763.330    3.796  375.634   31.359  139.197
  763.580    3.659  375.165   30.424  234.282
  763.830    2.906  375.211   37.123  284.613
  764.080    2.579  374.748   42.153  281.624
  764.330    2.309  374.794   30.482  288.514
  764.580    2.048  374.825   27.877  330.943
  764.830    1.921  374.866   30.521  335.197
  765.080    1.817  374.918   29.827  326.943
  765.330    1.642  374.949   29.844  341.072
  765.580    1.583  374.990   35.352  344.339
  765.830    1.627  375.031   35.372  347.276
  766.080    1.704  375.073   32.767  346.591
  766.330    1.869  374.614   31.355  346.893
  766.580    2.049  374.661   30.420  336.012
  766.830    2.206  374.691   29.964  326.115
  767.080    2.331  374.733   29.265  327.078
  767.330    2.464  374.779   29.523  326.719
  767.580    2.628  374.820   29.545  326.369
  767.830    2.702  374.862   29.805  334.904
  768.080    2.777  374.898   31.251  326.979
  768.330    2.855  374.429   33.423  326.293
  768.580    2.962  373.971   29.863  335.486
  768.830    3.046  374.001   29.644  350.273
  769.080    3.131  374.053   30.618  332.476
  769.330    3.249  374.089   31.591  327.184
  769.580    3.309  374.136   29.700  341.313
  769.830    3.309  374.172   31.389  332.074
  770.080    3.279  373.708   31.888  340.606
  770.330    3.279  373.239   31.905  344.860
