~VERSION INFORMATION
 VERS.                 2.0:   CWLS LOG ASCII STANDARD -VERSION 2.0
 WRAP.                  NO:   ONE LINE PER DEPTH STEP
~WELL INFORMATION BLOCK
#MNEM.UNIT           DATA                    DESCRIPTION OF MNEMONIC
#---------    -------------------            -------------------------------
# Generated from Intellog Unique Number	CW_79_81/WELL/2474
WELL.         GULF AMOCO HOOLE               : Well_name    - WELL
LOC .         00/10-24-081-25W4/0            : Location     - LOCATION
UWI .         00/10-24-081-25W4/0            : Uwi          - UNIQUE WELL ID
ENTR.         MAX                            : Entered      - ENTERED BY
SRVC.         SCHLUMBERGER                   : Scn          - SERVICE COMPANY
STRT.M        198.12                         : top_depth    - START DEPTH
STOP.M        456.87                         : bot_depth    - STOP DEPTH
STEP.M        0.25                           : increment    - STEP LENGTH
 NULL. -999.2500:NULL Value
~CURVE INFORMATION BLOCK
#MNEM UNIT       ERCB CURVE CODE    CURVE DESCRIPTION
#-----------   ------------------   ----------------------------------
DEPT.M        00 001 00 00         : DEPTH        - DEPTH
ILD .OHMM     00 120 00 00         : RESD         - DEEP RESISTIVITY (DIL)
NPHI.V/V      00 330 00 00         : PHIN         - NEUTRON POROSITY (SANDSTONE)
DPHI.V/V      00 890 00 00         : PHID         - DENSITY POROSITY (SANDSTONE)
GR  .API      00 310 00 00         : GR           - GAMMA RAY
CALI.MM       00 280 01 00         : CAL          - CALIPER
~PARAMETER INFORMATION
#MNEM.UNIT           DATA             DESCRIPTION OF MNEMONIC
#---------         -----------     ------------------------------
GL  .M        586.435              : gl           - GROUND LEVEL ELEVATION
EREF.M        589.788              : kb           - ELEVATION OF DEPTH REFERENCE
DATM.M        586.435              : datum        - DATUM ELEVATION
TDD .M        464.515              : tdd          - TOTAL DEPTH DRILLER
RUN .         ONE                  : Run          - RUN NUMBER
ENG .         BILL                 : Engineer     - RECORDING ENGINEER
WIT .         JIM                  : Witness      - WITNESSED BY
MUD .         GEL                  : Mud_type     - MUD TYPE
MATR.         SANDSTONE            : Logunit      - NEUTRON MATRIX
TMAX.C        80                   : BHT          - MAXIMUM RECORDED TEMPERATURE
BHTD.M        1524                 : BHTDEP       - MAXIMUM RECORDED TEMPERATURE
MATR.         1                    : LOGUNIT      - NEUTRON MATRIX
RMT .C        59                   : MDTP         - TEMPERATURE OF MUD
NEUT.         1                    : NEUTRON      - NEUTRON TYPE
RESI.         0                    : RESIST       - RESISTIVITY TYPE
RMC .OHMM     3.71                 : RMC          - RESISTIVITY OF MUD CAKE
RMF .OHMM     3.71                 : RMF          - RESISTIVITY OF MUD FILTRATE
SUFT.C        20                   : SUFT         - SURFACE TEMPERATURE
~A  DEPTH     RESD     PHIN     PHID       GR      CAL
# ...
  344.120   10.968    0.241    0.170   54.332  161.579
  344.370   11.179    0.306    0.214   58.245  161.597
  344.620   10.739    0.380    0.253   60.081  161.513
  344.870    9.793    0.374    0.274   60.052  161.054
  345.120    8.889    0.381    0.281   61.110  160.652
  345.370    8.698    0.387    0.273   63.388  158.674
  345.620    8.513    0.393    0.274   65.285  156.994
  345.870    8.363    0.399    0.273   67.687  156.013
  346.120    8.274    0.403    0.267   70.529  155.730
  346.370    8.277    0.399    0.268   72.911  155.833
  346.620    8.279    0.397    0.270   73.446  156.267
  346.870    8.221    0.393    0.268   70.689  156.286
  347.120    8.119    0.396    0.272   68.310  156.304
  347.370    8.004    0.403    0.273   68.195  156.321
  347.620    7.905    0.419    0.270   69.527  156.637
  347.870    7.838    0.455    0.271   68.156  158.191
  348.120    7.781    0.444    0.273   65.024  159.873
  348.370    7.783    0.438    0.265   65.537  160.292
  348.620    7.912    0.438    0.260   64.918  161.605
  348.870    8.174    0.435    0.255   63.671  162.819
  349.120    8.511    0.428    0.251   62.361  163.137
  349.370    8.817    0.419    0.248   61.987  161.795
  349.620    9.090    0.409    0.242   63.834  160.981
  349.870    9.226    0.382    0.218   66.361  162.597
  350.120    9.211    0.377    0.190   71.341  163.313
  350.370    9.013    0.394    0.196   73.993  163.529
  350.620    8.694    0.416    0.233   73.124  163.546
  350.870    8.350    0.401    0.250   71.179  163.566
  351.120    8.166    0.388    0.243   71.451  163.584
  351.370    7.991    0.375    0.244   71.965  164.001
  351.620    7.907    0.376    0.252   72.667  164.417
  351.870    7.823    0.386    0.257   73.684  164.835
  352.120    7.713    0.399    0.259   74.765  165.353
  352.370    7.569    0.414    0.268   75.281  166.421
  352.620    7.402    0.424    0.269   75.294  167.691
  352.870    7.139    0.436    0.269   75.556  168.905
  353.120    7.077    0.455    0.263   74.687  169.222
  353.370    7.283    0.446    0.257   72.558  167.840
  353.620    7.862    0.409    0.252   69.361  164.961
  353.870    9.374    0.378    0.247   64.605  161.122
  354.120   11.453    0.353    0.271   59.635  157.810
  354.370   13.863    0.339    0.304   58.390  155.433
  354.620   14.477    0.357    0.308   60.162  155.149
  354.870   13.745    0.372    0.293   63.066  155.567
  355.120   12.430    0.373    0.271   66.159  155.886
  355.370   10.530    0.364    0.256   70.335  156.321
  355.620    9.144    0.361    0.245   74.802  158.418
  355.870    7.206    0.373    0.256   75.819  160.434
  356.120    6.476    0.408    0.253   74.949  160.653
  356.370    6.411    0.444    0.245   71.437  160.670
  356.620    6.805    0.448    0.236   65.472  160.585
  356.870    7.673    0.363    0.214   58.766  158.675
  357.120    9.157    0.298    0.172   61.661  157.029
  357.370   11.469    0.390    0.168   65.444  156.648
  357.620   13.666    0.419    0.213   69.041  156.266
  357.870   14.165    0.408    0.246   71.442  156.083
  358.120   12.889    0.381    0.250   72.837  156.102
  358.370   11.448    0.368    0.250   74.716  156.207
  358.620   11.195    0.373    0.243   75.252  156.643
  358.870   11.197    0.393    0.251   74.258  157.457
  359.120   11.078    0.402    0.248   71.753  158.272
  359.370   10.801    0.407    0.242   70.254  159.087
  359.620   10.459    0.409    0.235   70.265  160.003
  359.870   10.190    0.401    0.230   70.069  161.723
  360.120    9.965    0.405    0.237   69.032  164.241
  360.370    9.967    0.405    0.237   69.043  164.255
  360.620    9.970    0.410    0.239   68.109  161.575
  360.870    9.899    0.411    0.237   67.240  160.195
  361.120    9.759    0.406    0.232   66.937  161.013
  361.370    9.593    0.400    0.227   67.201  161.916
  361.620    9.452    0.398    0.220   67.212  162.348
  361.870    9.454    0.412    0.217   67.977  162.765
  362.120    9.456    0.415    0.223   68.932  162.584
  362.370    9.458    0.411    0.231   70.328  162.403
  362.620    9.443    0.405    0.234   72.164  162.619
  362.870    9.378    0.404    0.227   74.031  163.770
  363.120    9.380    0.406    0.232   73.256  165.452
  363.370    9.382    0.407    0.224   73.520  165.871
  363.620    9.333    0.407    0.235   73.971  165.988
  363.870    9.234    0.402    0.246   74.360  166.604
  364.120    9.104    0.399    0.248   74.559  167.722
  364.370    8.934    0.419    0.250   74.468  168.793
  364.620    8.737    0.442    0.265   73.954  170.059
  364.870    8.550    0.450    0.272   72.709  172.072
  365.120    8.414    0.447    0.268   70.706  174.088
  365.370    8.506    0.429    0.264   66.942  172.907
  365.620    8.899    0.401    0.262   61.859  168.030
  365.870    9.797    0.369    0.256   57.709  160.909
  366.120   11.074    0.350    0.266   59.554  157.185
  366.370   12.331    0.360    0.281   60.572  157.200
  366.620   12.971    0.369    0.278   60.268  157.517
  366.870   13.261    0.371    0.271   58.141  157.734
  367.120   13.505    0.363    0.271   55.511  157.751
  367.370   13.971    0.354    0.282   55.261  157.773
  367.620   14.295    0.367    0.280   53.965  157.795
  367.870   14.823    0.366    0.266   52.464  158.211
  368.120   15.620    0.345    0.252   48.323  158.627
  368.370   16.671    0.318    0.229   44.811  159.043
  368.620   18.055    0.293    0.201   43.313  159.660
  368.870   20.529    0.265    0.179   43.588  161.212
  369.120   23.567    0.247    0.162   44.909  162.898
  369.370   27.750    0.251    0.196   48.947  162.916
  369.620   26.864    0.297    0.220   50.718  162.932
  369.870   23.609    0.329    0.222   51.233  162.950
  370.120   19.870    0.332    0.207   51.057  162.967
  370.370   15.858    0.327    0.191   50.000  163.151
  370.620   15.276    0.313    0.179   48.439  164.002
  370.870   15.615    0.288    0.164   45.934  164.019
  371.120   16.306    0.254    0.149   45.127  163.139
  371.370   17.278    0.223    0.130   46.773  162.358
  371.620   18.390    0.219    0.123   49.993  162.473
  371.870   19.211    0.274    0.163   52.845  164.176
  372.120   18.506    0.302    0.188   55.741  164.610
  372.370   16.212    0.312    0.215   60.280  165.827
  372.620   14.134    0.338    0.235   65.574  167.642
  372.870   12.758    0.370    0.248   68.856  169.257
  373.120   11.896    0.397    0.255   69.811  170.271
  373.370   11.085    0.398    0.258   70.423  170.526
  373.620   10.759    0.404    0.255   69.647  169.712
  373.870   10.453    0.403    0.254   70.161  168.531
  374.120   10.212    0.401    0.251   71.620  167.952
  374.370    9.957    0.402    0.245   73.015  167.770
  374.620    9.676    0.405    0.238   74.095  167.786
  374.870    9.316    0.405    0.237   75.210  167.722
  375.120    8.907    0.406    0.242   74.435  167.324
  375.370    8.653    0.400    0.231   71.677  166.944
  375.620    8.547    0.396    0.225   69.864  166.860
  375.870    8.487    0.398    0.226   68.994  166.877
  376.120    8.412    0.404    0.233   68.627  166.894
  376.370    8.269    0.407    0.239   67.886  166.915
  376.620    8.147    0.403    0.237   67.898  166.933
  376.870    8.032    0.400    0.231   68.411  166.951
  377.120    7.918    0.404    0.229   67.983  166.968
  377.370    7.834    0.416    0.238   67.239  166.986
  377.620    7.793    0.424    0.249   67.500  167.003
  377.870    7.819    0.394    0.244   71.415  167.027
  378.120    7.940    0.378    0.239   74.573  167.046
  378.370    8.116    0.373    0.228   76.846  167.060
  378.620    8.296    0.372    0.220   77.990  167.077
  378.870    8.450    0.370    0.213   77.121  167.095
  379.120    8.606    0.367    0.207   74.929  167.014
  379.370    8.929    0.372    0.209   73.475  166.633
  379.620    9.277    0.386    0.220   72.438  166.652
  379.870    9.482    0.387    0.226   70.940  166.671
  380.120    9.797    0.376    0.227   70.384  166.687
  380.370   10.161    0.367    0.227   71.904  166.704
