~VERSION INFORMATION
 VERS.                 2.0:   CWLS LOG ASCII STANDARD -VERSION 2.0
 WRAP.                  NO:   ONE LINE PER DEPTH STEP
~WELL INFORMATION BLOCK
#MNEM.UNIT           DATA                    DESCRIPTION OF MNEMONIC
#---------    -------------------            -------------------------------
# Generated from Intellog Unique Number	CW_76_78/WELL/3588
WELL.         MARK RESOURCES INC.            : Well_name    - WELL
LOC .         00/14-03-077-19W4/0            : Location     - LOCATION
UWI .         00/14-03-077-19W4/0            : Uwi          - UNIQUE WELL ID
ENTR.         JOETTE                         : Entered      - ENTERED BY
SRVC.         SCHLUMBERGER                   : Scn          - SERVICE COMPANY
DATE.         08/26/92                       : Date         - LOG DATE
STRT.M        210                            : top_depth    - START DEPTH
STOP.M        455                            : bot_depth    - STOP DEPTH
STEP.M        0.25                           : increment    - STEP LENGTH
 NULL. -999.2500:NULL Value
~CURVE INFORMATION BLOCK
#MNEM UNIT       ERCB CURVE CODE    CURVE DESCRIPTION
#-----------   ------------------   ----------------------------------
DEPT.M        00 001 00 00         : DEPTH        - DEPTH
GR  .API      00 310 00 00         : GR           - GAMMA RAY
NPHI.V/V      00 330 00 00         : PHIN         - NEUTRON POROSITY (SANDSTONE)
DPHI.V/V      00 890 00 00         : PHID         - DENSITY POROSITY (SANDSTONE)
ILD .OHMM     00 120 00 00         : RESD         - DEEP RESISTIVITY (DIL)
~PARAMETER INFORMATION
#MNEM.UNIT           DATA             DESCRIPTION OF MNEMONIC
#---------         -----------     ------------------------------
GL  .M        561                  : gl           - GROUND LEVEL ELEVATION
EREF.M        564.3                : kb           - ELEVATION OF DEPTH REFERENCE
DATM.M        564.3                : datum        - DATUM ELEVATION
TDD .M        458                  : tdd          - TOTAL DEPTH DRILLER
RUN .         ONE                  : Run          - RUN NUMBER
ENG .         BILL                 : Engineer     - RECORDING ENGINEER
WIT .         JIM                  : Witness      - WITNESSED BY
MUD .         GEL                  : Mud_type     - MUD TYPE
MATR.         SANDSTONE            : Logunit      - NEUTRON MATRIX
TMAX.C        28                   : BHT          - MAXIMUM RECORDED TEMPERATURE
BHTD.M        458                  : BHTDEP       - MAXIMUM RECORDED TEMPERATURE
MATR.         1                    : LOGUNIT      - NEUTRON MATRIX
RMT .C        21                   : MDTP         - TEMPERATURE OF MUD
NEUT.         1                    : NEUTRON      - NEUTRON TYPE
RESI.         0                    : RESIST       - RESISTIVITY TYPE
RMC .OHMM     4.75                 : RMC          - RESISTIVITY OF MUD CAKE
RMF .OHMM     4.75                 : RMF          - RESISTIVITY OF MUD FILTRATE
SUFT.C        15                   : SUFT         - SURFACE TEMPERATURE
~A  DEPTH       GR     PHIN     PHID     RESD
# ...
  297.000   47.564    0.428    0.330   11.895
  297.250   50.556    0.432    0.335   11.680
  297.500   51.752    0.445    0.336   11.686
  297.750   54.146    0.441    0.332   11.690
  298.000   55.367    0.431    0.334   11.481
  298.250   57.754    0.437    0.335   11.483
  298.500   59.561    0.439    0.334   11.277
  298.750   57.222    0.443    0.327   11.281
  299.000   56.647    0.446    0.323   10.877
  299.250   56.665    0.447    0.320   10.296
  299.500   59.657    0.444    0.315    9.745
  299.750   62.643    0.441    0.304    9.395
  300.000   66.215    0.436    0.223    9.058
  300.250   71.570    0.432    0.227    9.062
  300.500   79.295    0.444    0.247    9.065
  300.750   90.580    0.466    0.274    9.237
  301.000   85.272    0.489    0.298    9.587
  301.250   77.003    0.494    0.302    9.769
  301.500   71.104    0.482    0.302    9.955
  301.750   65.796    0.452    0.298    9.956
  302.000   63.451    0.448    0.303   10.147
  302.250   62.883    0.451    0.309   10.150
  302.500   64.097    0.450    0.301    9.969
  302.750   65.300    0.444    0.287    9.972
  303.000   67.107    0.447    0.258    9.794
  303.250   69.501    0.445    0.270    9.796
  303.500   72.480    0.439    0.289    9.444
  303.750   76.058    0.440    0.291    9.275
  304.000   75.490    0.480    0.293    8.779
  304.250   73.743    0.476    0.294    8.310
  304.500   73.767    0.466    0.290    7.865
  304.750   75.568    0.472    0.279    7.177
  305.000   76.184    0.480    0.263    6.793
  305.250   76.203    0.481    0.275    6.670
  305.500   75.634    0.474    0.279    6.086
  305.750   78.632    0.461    0.262    5.976
  306.000   79.248    0.450    0.254    5.761
  306.250   79.272    0.464    0.245    5.555
  306.500   81.660    0.487    0.245    5.455
  306.750   82.868    0.495    0.247    5.457
  307.000   82.306    0.483    0.251    5.771
  307.250   81.738    0.447    0.259    5.879
  307.500   83.539    0.432    0.262    6.102
  307.750   85.926    0.425    0.260    6.452
  308.000   85.364    0.433    0.254    6.453
  308.250   83.605    0.436    0.247    6.456
  308.500   81.259    0.436    0.240    6.458
  308.750   82.474    0.433    0.245    6.226
  309.000   84.269    0.432    0.249    6.004
  309.250   87.853    0.453    0.259    5.896
  309.500   86.692    0.497    0.257    6.119
  309.750   83.162    0.469    0.246    6.964
  310.000   81.403    0.457    0.232    7.500
  310.250   74.911    0.442    0.311    7.784
  310.500   64.865    0.441    0.324    5.386
  310.750   62.520    0.446    0.323    3.796
  311.000   61.365    0.454    0.308    3.216
  311.250   66.714    0.474    0.268    2.676
  311.500   75.629    0.474    0.243    2.353
  311.750   77.437    0.475    0.246    2.031
  312.000   79.244    0.469    0.267    2.108
  312.250   79.848    0.475    0.273    2.312
  312.500   82.834    0.506    0.267    2.631
  312.750   87.004    0.507    0.245    3.107
  313.000   86.442    0.493    0.234    3.808
  313.250   84.689    0.474    0.221    4.026
  313.500   85.897    0.466    0.207    4.178
  313.750   88.285    0.457    0.203    4.104
  314.000   88.315    0.459    0.209    3.884
  314.250   87.741    0.463    0.230    3.291
  314.500   85.999    0.469    0.225    2.738
  314.750   84.252    0.472    0.225    2.592
  315.000   83.672    0.472    0.231    2.740
  315.250   87.250    0.509    0.243    1.697
  315.500   90.236    0.509    0.252    1.091
  315.750   95.591    0.522    0.253    0.959
  316.000   93.838    0.526    0.242    0.960
  316.250   88.531    0.496    0.232    1.092
  316.500   82.631    0.468    0.226    1.579
  316.750   84.438    0.452    0.219    2.459
  317.000   88.609    0.438    0.217    3.973
  317.250   85.665    0.452    0.210    5.963
  317.500   79.765    0.465    0.201    6.421
  317.750   71.496    0.451    0.245    6.914
  318.000   70.342    0.424    0.277    7.585
  318.250   74.512    0.410    0.285    8.321
  318.500   76.307    0.414    0.285    8.636
  318.750   75.153    0.418    0.284    8.799
  319.000   71.622    0.428    0.285    8.966
  319.250   68.678    0.429    0.289    8.969
  319.500   66.333    0.433    0.293    8.972
  319.750   65.178    0.432    0.302    8.976
  320.000   66.973    0.424    0.308    8.978
  320.250   69.965    0.410    0.275    8.819
  320.500   72.957    0.405    0.250    8.820
  320.750   73.573    0.416    0.225    8.663
  321.000   70.043    0.312    0.198    8.665
  321.250   58.214    0.254    0.146   10.233
  321.500   54.684    0.251    0.061   15.359
  321.750   52.338    0.268    0.074   16.235
  322.000   51.178    0.264    0.061   17.483
  322.250   50.609    0.259    0.048   16.549
  322.500   53.595    0.306    0.078   14.822
  322.750   61.320    0.302    0.091   11.244
  323.000   67.267    0.393    0.109   10.450
  323.250   71.444    0.413    0.196    9.710
  323.500   75.016    0.425    0.238    8.859
  323.750   82.741    0.422    0.237    8.385
  324.000   86.911    0.413    0.236    8.083
  324.250   85.750    0.414    0.231    7.939
  324.500   85.188    0.435    0.230    7.797
  324.750   85.810    0.431    0.238    7.656
  325.000   84.650    0.422    0.232    7.659
  325.250   84.075    0.415    0.219    7.522
  325.500   82.921    0.425    0.223    7.524
  325.750   81.760    0.426    0.233    7.667
  326.000   81.191    0.419    0.241    7.669
  326.250   80.617    0.417    0.239    7.673
  326.500   80.641    0.450    0.230    7.677
  326.750   80.079    0.448    0.220    7.678
  327.000   78.924    0.448    0.217    7.681
  327.250   78.344    0.453    0.222    7.684
  327.500   77.183    0.455    0.215    7.687
  327.750   79.576    0.451    0.212    7.548
  328.000   83.753    0.442    0.213    7.551
  328.250   84.369    0.432    0.214    7.281
  328.500   83.795    0.428    0.216    7.020
  328.750   82.646    0.461    0.217    6.767
  329.000   82.658    0.472    0.223    6.405
  329.250   84.471    0.475    0.224    5.737
  329.500   86.266    0.471    0.218    4.861
  329.750   87.487    0.456    0.212    4.196
  330.000   86.906    0.446    0.212    3.900
  330.250   88.115    0.451    0.215    4.278
  330.500   88.731    0.444    0.219    4.606
  330.750   86.978    0.434    0.225    5.243
  331.000   83.448    0.433    0.234    5.751
  331.250   79.930    0.442    0.242    6.545
  331.500   78.165    0.467    0.245    7.588
  331.750   77.597    0.480    0.239    8.324
  332.000   79.398    0.438    0.243    8.327
  332.250   80.014    0.426    0.241    8.177
  332.500   80.038    0.414    0.231    7.886
  332.750   79.470    0.413    0.226    7.887
  333.000   81.875    0.426    0.218    7.891
  333.250   83.078    0.436    0.210    7.893
  333.500   85.465    0.443    0.206    7.896
  333.750   88.451    0.439    0.205    8.045
  334.000   86.710    0.438    0.206    8.198
  334.250   82.581    0.442    0.210    8.200
  334.500   82.617    0.440    0.214    8.355
  334.750   85.005    0.432    0.220    8.358
  335.000   84.436    0.433    0.223    8.361
  335.250   83.270    0.440    0.218    8.520
  335.500   83.886    0.446    0.214    8.523
  335.750   83.910    0.444    0.211    8.685
  336.000   84.526    0.433    0.202    8.688
  336.250   83.958    0.424    0.198    8.534
  336.500   78.651    0.410    0.201    8.379
  336.750   81.637    0.421    0.208    7.644
  337.000   86.405    0.429    0.209    6.974
  337.250   87.016    0.430    0.204    6.849
  337.500   87.638    0.416    0.205    6.851
  337.750   87.070    0.394    0.211    6.981
  338.000   87.094    0.428    0.221    7.113
  338.250   87.118    0.420    0.227    7.803
  338.500   84.772    0.395    0.217    8.403
  338.750   80.644    0.374    0.181    9.389
  339.000   73.559    0.339    0.109   10.491
  339.250   68.252    0.334    0.088   14.096
  339.500   70.053    0.334    0.118   14.628
  339.750   74.230    0.285    0.140   16.046
  340.000   73.069    0.265    0.085   17.603
  340.250   67.756    0.267    0.076   17.937
