~VERSION INFORMATION
 VERS.                 2.0:   CWLS LOG ASCII STANDARD -VERSION 2.0
 WRAP.                  NO:   ONE LINE PER DEPTH STEP
~WELL INFORMATION BLOCK
#MNEM.UNIT           DATA                    DESCRIPTION OF MNEMONIC
#---------    -------------------            -------------------------------
# Generated from Intellog Unique Number	CS_71_72/WELL/910
WELL.         PEX PHILLIPS AEC KIRBY         : Well_name    - WELL
LOC .         00/11-31-072-07W4/0            : Location     - LOCATION
UWI .         00/11-31-072-07W4/0            : Uwi          - UNIQUE WELL ID
ENTR.         SP                             : Entered      - ENTERED BY
SRVC.         SCHLUMBERGER                   : Scn          - SERVICE COMPANY
STRT.M        310                            : top_depth    - START DEPTH
STOP.M        530                            : bot_depth    - STOP DEPTH
STEP.M        0.25                           : increment    - STEP LENGTH
 NULL. -999.2500:NULL Value
~CURVE INFORMATION BLOCK
#MNEM UNIT       ERCB CURVE CODE    CURVE DESCRIPTION
#-----------   ------------------   ----------------------------------
DEPT.M        00 001 00 00         : DEPTH        - DEPTH
ILD .OHMM     00 120 00 00         : RESD         - DEEP RESISTIVITY (DIL)
DPHI.V/V      00 890 00 00         : PHID         - DENSITY POROSITY (LIMESTONE)
NPHI.V/V      00 330 00 00         : PHIN         - NEUTRON POROSITY (LIMESTONE)
GR  .API      00 310 00 00         : GR           - GAMMA RAY
~PARAMETER INFORMATION
#MNEM.UNIT           DATA             DESCRIPTION OF MNEMONIC
#---------         -----------     ------------------------------
GL  .M        682.8                : gl           - GROUND LEVEL ELEVATION
EREF.M        685.88               : kb           - ELEVATION OF DEPTH REFERENCE
DATM.M        682.8                : datum        - DATUM ELEVATION
TDD .M        536                  : tdd          - TOTAL DEPTH DRILLER
RUN .         ONE                  : Run          - RUN NUMBER
ENG .         BILL                 : Engineer     - RECORDING ENGINEER
WIT .         JIM                  : Witness      - WITNESSED BY
MUD .         GEL                  : Mud_type     - MUD TYPE
MATR.         LIMESTONE            : Logunit      - NEUTRON MATRIX
TMAX.C        26                   : BHT          - MAXIMUM RECORDED TEMPERATURE
BHTD.M        536                  : BHTDEP       - MAXIMUM RECORDED TEMPERATURE
MATR.         1                    : LOGUNIT      - NEUTRON MATRIX
RMT .C        25                   : MDTP         - TEMPERATURE OF MUD
NEUT.         1                    : NEUTRON      - NEUTRON TYPE
RESI.         0                    : RESIST       - RESISTIVITY TYPE
RMC .OHMM     0.25                 : RMC          - RESISTIVITY OF MUD CAKE
RMF .OHMM     0.25                 : RMF          - RESISTIVITY OF MUD FILTRATE
SUFT.C        15                   : SUFT         - SURFACE TEMPERATURE
~A  DEPTH     RESD     PHID     PHIN       GR
# ...
  397.000    5.443    0.314    0.408   96.934
  397.250    4.514    0.298    0.416   99.394
  397.500    3.960    0.281    0.409  101.238
  397.750    3.816    0.266    0.417  102.474
  398.000    4.520    0.262    0.415  100.649
  398.250    5.455    0.268    0.415   93.925
  398.500    5.994    0.251    0.424   90.264
  398.750    6.585    0.246    0.415   87.826
  399.000    7.654    0.271    0.407   86.613
  399.250    8.570    0.279    0.393   86.012
  399.500    9.070    0.278    0.386   87.247
  399.750    9.246    0.267    0.387   89.096
  400.000    9.249    0.262    0.394   90.331
  400.250    9.252    0.258    0.408   90.954
  400.500    8.917    0.259    0.412   90.356
  400.750    8.753    0.262    0.408   90.365
  401.000    8.595    0.266    0.407   89.770
  401.250    8.439    0.265    0.402   89.170
  401.500    8.441    0.270    0.391   89.179
  401.750    8.288    0.273    0.386   89.187
  402.000    7.987    0.251    0.381   89.196
  402.250    7.552    0.237    0.377   91.051
  402.500    7.008    0.240    0.394   92.283
  402.750    5.705    0.270    0.405   93.514
  403.000    4.912    0.263    0.414   97.201
  403.250    4.309    0.247    0.416  102.723
  403.500    3.852    0.231    0.430  107.017
  403.750    3.711    0.237    0.442  111.315
  404.000    3.381    0.239    0.442  113.165
  404.250    3.319    0.231    0.438  113.787
  404.500    3.383    0.223    0.431  113.801
  404.750    3.581    0.228    0.422  112.583
  405.000    3.790    0.244    0.423  109.531
  405.250    3.863    0.249    0.426  106.484
  405.500    4.013    0.244    0.416  104.656
  405.750    3.939    0.234    0.414  102.835
  406.000    3.867    0.232    0.421  106.520
  406.250    3.657    0.240    0.429  108.976
  406.500    3.209    0.248    0.438  111.437
  406.750    3.150    0.261    0.447  112.671
  407.000    3.093    0.270    0.445  111.458
  407.250    3.212    0.272    0.439  112.081
  407.500    3.665    0.266    0.453  112.706
  407.750    4.423    0.271    0.451  111.492
  408.000    4.860    0.292    0.438  103.543
  408.250    5.866    0.299    0.426   99.881
  408.500    6.325    0.288    0.412   95.608
  408.750    6.819    0.237    0.392   92.557
  409.000    7.927    0.222    0.394   93.180
  409.250    8.548    0.217    0.395   94.416
  409.500    8.879    0.219    0.385   94.425
  409.750    9.049    0.212    0.381   93.826
  410.000    8.721    0.216    0.375   92.613
  410.250    8.724    0.228    0.376   91.400
  410.500    8.565    0.234    0.376   91.411
  410.750    8.253    0.196    0.375   92.033
  411.000    8.256    0.187    0.379   93.883
  411.250    8.108    0.192    0.391   93.892
  411.500    8.110    0.196    0.396   92.068
  411.750    7.962    0.198    0.407   92.078
  412.000    7.390    0.208    0.409   93.316
  412.250    6.731    0.217    0.402   93.325
  412.500    6.017    0.228    0.391   95.174
  412.750    5.379    0.235    0.390   96.407
  413.000    5.086    0.245    0.398   97.642
  413.250    4.633    0.244    0.399   97.043
  413.500    4.464    0.250    0.390   95.828
  413.750    4.905    0.251    0.378   95.228
  414.000    5.491    0.225    0.376   93.406
  414.250    6.504    0.182    0.369   92.193
  414.500    7.013    0.191    0.362   90.978
  414.750    7.852    0.180    0.350   90.379
  415.000    8.004    0.166    0.340   89.772
  415.250    7.712    0.197    0.367   92.845
  415.500    7.026    0.200    0.408   97.758
  415.750    6.769    0.183    0.425  100.216
  416.000    6.401    0.168    0.420  103.291
  416.250    5.409    0.184    0.418  103.299
  416.500    4.657    0.202    0.410  100.861
  416.750    4.086    0.211    0.403  100.258
  417.000    3.584    0.225    0.406  104.560
  417.250    3.265    0.251    0.408  105.791
  417.500    3.146    0.238    0.420  107.027
  417.750    3.147    0.251    0.428  107.039
  418.000    3.208    0.268    0.448  108.893
  418.250    3.270    0.276    0.463  110.124
  418.500    3.333    0.255    0.458  111.362
  418.750    3.335    0.239    0.446  111.369
  419.000    3.400    0.216    0.437  109.548
  419.250    3.531    0.205    0.428  108.329
  419.500    3.808    0.199    0.423  104.666
  419.750    4.029    0.237    0.421  102.229
  420.000    4.264    0.252    0.422  100.404
  420.250    4.513    0.266    0.415   98.580
  420.500    4.776    0.286    0.410   96.754
  420.750    5.056    0.280    0.402   96.153
  421.000    5.251    0.266    0.410   97.388
  421.250    5.352    0.286    0.413   98.012
  421.500    5.456    0.292    0.404   95.572
  421.750    5.458    0.277    0.400   90.686
  422.000    5.563    0.270    0.399   88.248
  422.250    5.779    0.281    0.397   86.422
  422.500    5.890    0.265    0.397   88.271
  422.750    6.004    0.257    0.400   89.509
  423.000    6.006    0.270    0.402   89.516
  423.250    6.009    0.261    0.389   85.241
  423.500    5.899    0.250    0.387   87.094
  423.750    5.902    0.240    0.390   88.943
  424.000    5.905    0.241    0.390   88.336
  424.250    5.906    0.257    0.385   82.838
  424.500    6.252    0.293    0.376   77.953
  424.750    6.372    0.301    0.374   76.737
  425.000    6.375    0.321    0.390   79.197
  425.250    6.621    0.332    0.400   81.661
  425.500    6.749    0.333    0.411   82.897
  425.750    6.879    0.326    0.403   82.905
  426.000    7.013    0.320    0.393   81.690
  426.250    7.284    0.299    0.380   81.701
  426.500    7.565    0.285    0.374   88.453
  426.750    8.159    0.269    0.369   90.296
  427.000    8.634    0.260    0.364   90.307
  427.250    9.668    0.266    0.360   86.033
  427.500   10.231    0.300    0.355   83.594
  427.750   10.427    0.327    0.349   80.545
  428.000   10.830    0.338    0.335   78.718
  428.250    9.502    0.283    0.307   74.450
  428.500    8.182    0.121    0.274   73.844
  428.750    7.592    0.051    0.240   72.018
  429.000    6.662    0.029    0.295   72.028
  429.250    6.418    0.253    0.349   74.490
  429.500    6.070    0.276    0.381   78.179
  429.750    6.187    0.290    0.389   80.025
  430.000    6.427    0.280    0.391   81.260
  430.250    6.551    0.248    0.392   81.882
  430.500    6.553    0.230    0.389   81.891
  430.750    6.434    0.219    0.383   85.579
  431.000    6.199    0.204    0.376   86.810
  431.250    5.862    0.190    0.372   88.662
  431.500    5.544    0.198    0.388   89.898
  431.750    5.444    0.231    0.399   92.355
  432.000    5.549    0.291    0.408   94.815
  432.250    5.552    0.304    0.398   96.054
  432.500    5.555    0.304    0.390   94.225
  432.750    5.557    0.325    0.383   93.625
  433.000    5.559    0.340    0.372   95.474
  433.250    5.561    0.264    0.385   96.094
  433.500    5.668    0.210    0.402   96.719
  433.750    5.778    0.296    0.412   93.673
  434.000    6.000    0.371    0.401   91.847
  434.250    6.594    0.366    0.394   90.022
  434.500    6.848    0.285    0.383   87.583
  434.750    7.386    0.251    0.372   83.917
  435.000    7.528    0.253    0.370   81.480
  435.250    7.673    0.256    0.373   83.334
  435.500    7.676    0.258    0.379   83.341
  435.750    7.679    0.246    0.388   83.349
  436.000    7.682    0.235    0.391   81.526
  436.250    7.544    0.241    0.394   80.312
  436.500    7.546    0.249    0.381   79.711
  436.750    6.258    0.250    0.370   80.947
  437.000    4.725    0.224    0.362   84.630
  437.250    3.846    0.217    0.358   91.383
  437.500    3.311    0.212    0.363   93.225
  437.750    3.073    0.205    0.380   94.460
  438.000    2.799    0.257    0.400   94.469
  438.250    2.748    0.283    0.423   98.768
  438.500    2.749    0.298    0.444  100.614
  438.750    2.910    0.299    0.450   98.177
  439.000    3.447    0.283    0.449   96.355
  439.250    3.787    0.273    0.429   95.751
  439.500    4.239    0.284    0.413   96.985
  439.750    4.746    0.296    0.403   97.610
  440.000    5.415    0.277    0.395   92.111
  440.250    5.730    0.266    0.387   89.671
