~VERSION INFORMATION
 VERS.                 2.0:   CWLS LOG ASCII STANDARD -VERSION 2.0
 WRAP.                  NO:   ONE LINE PER DEPTH STEP
~WELL INFORMATION BLOCK
#MNEM.UNIT           DATA                    DESCRIPTION OF MNEMONIC
#---------    -------------------            -------------------------------
# Generated from Intellog Unique Number	CW_82_90/WELL/1032
WELL.         13-33-083-23W4                 : Well_name    - WELL
LOC .         00/13-33-083-23W4/0            : Location     - LOCATION
UWI .         00/13-33-083-23W4/0            : Uwi          - UNIQUE WELL ID
ENTR.         JAYE                           : Entered      - ENTERED BY
SRVC.         SCHLUMBERGER                   : Scn          - SERVICE COMPANY
DATE.         21 FEB 86                      : Date         - LOG DATE
STRT.M        200                            : top_depth    - START DEPTH
STOP.M        425                            : bot_depth    - STOP DEPTH
STEP.M        0.25                           : increment    - STEP LENGTH
 NULL. -999.2500:NULL Value
~CURVE INFORMATION BLOCK
#MNEM UNIT       ERCB CURVE CODE    CURVE DESCRIPTION
#-----------   ------------------   ----------------------------------
DEPT.M        00 001 00 00         : DEPTH        - DEPTH
CALI.MM       00 280 01 00         : CAL          - CALIPER
GR  .API      00 310 00 00         : GR           - GAMMA RAY
NPHI.V/V      00 330 00 00         : PHIN         - NEUTRON POROSITY (SANDSTONE)
DPHI.V/V      00 890 00 00         : PHID         - DENSITY POROSITY (SANDSTONE)
ILD .OHMM     00 120 00 00         : RESD         - DEEP RESISTIVITY (DIL)
~PARAMETER INFORMATION
#MNEM.UNIT           DATA             DESCRIPTION OF MNEMONIC
#---------         -----------     ------------------------------
GL  .M        593.3                : gl           - GROUND LEVEL ELEVATION
EREF.M        596.9                : kb           - ELEVATION OF DEPTH REFERENCE
DATM.M        593.3                : datum        - DATUM ELEVATION
TDD .M        424                  : tdd          - TOTAL DEPTH DRILLER
RUN .         ONE                  : Run          - RUN NUMBER
ENG .         MURRAY               : Engineer     - RECORDING ENGINEER
WIT .         KOSS                 : Witness      - WITNESSED BY
BASE.         S.L.                 : Branch       - HOME BASE OF LOGGING UNIT
MUD .         GEL CHEM             : Mud_type     - MUD TYPE
MATR.         SANDSTONE            : Logunit      - NEUTRON MATRIX
TMAX.C        22                   : BHT          - MAXIMUM RECORDED TEMPERATURE
BHTD.M        424                  : BHTDEP       - MAXIMUM RECORDED TEMPERATURE
RMT .C        10                   : MDTP         - TEMPERATURE OF MUD
MUDD.KG/M     1120                 : MWT          - MUD DENSITY
NEUT.         1                    : NEUTRON      - NEUTRON TYPE
RESI.         0                    : RESIST       - RESISTIVITY TYPE
RM  .OHMM     4.3                  : RM           - RESISTIVITY OF MUD
RMC .OHMM     0                    : RMC          - RESISTIVITY OF MUD CAKE
RMF .OHMM     3.8                  : RMF          - RESISTIVITY OF MUD FILTRATE
SUFT.C        0                    : SUFT         - SURFACE TEMPERATURE
~A  DEPTH      CAL       GR     PHIN     PHID     RESD
# ...
  273.000  247.044   64.937    0.516    0.341   15.230
  273.250  246.561   65.327    0.531    0.347   14.295
  273.500  246.697   65.100    0.534    0.355   14.114
  273.750  247.754   64.688    0.526    0.357   14.205
  274.000  249.533   63.839    0.472    0.318   14.319
  274.250  250.274   62.248    0.411    0.253   14.543
  274.500  247.129   61.401    0.405    0.244   14.912
  274.750  243.880   65.011    0.483    0.311   15.204
  275.000  240.837   68.614    0.509    0.361   15.098
  275.250  240.557   69.811    0.504    0.357   14.909
  275.500  241.413   69.273    0.487    0.351   14.696
  275.750  242.060   71.392    0.471    0.343   14.538
  276.000  242.501   71.665    0.461    0.346   13.983
  276.250  242.530   71.371    0.464    0.354   13.781
  276.500  242.261   71.821    0.515    0.349   13.816
  276.750  241.879   70.480    0.485    0.342   13.720
  277.000  241.917   67.715    0.480    0.335   13.471
  277.250  241.642   67.238    0.514    0.327   13.226
  277.500  241.469   70.106    0.534    0.342   12.770
  277.750  240.881   73.341    0.504    0.356   12.052
  278.000  240.297   75.832    0.488    0.337    9.821
  278.250  239.912   78.636    0.484    0.300    9.392
  278.500  239.338   80.572    0.488    0.290    9.469
  278.750  239.156   76.136    0.489    0.298    9.637
  279.000  238.575   73.932    0.484    0.307    9.697
  279.250  237.684   74.568    0.487    0.312    9.610
  279.500  236.794   76.629    0.487    0.309    8.413
  279.750  237.752   77.636    0.457    0.293    7.490
  280.000  239.418   78.894    0.474    0.275    6.338
  280.250  242.732   80.520    0.502    0.269    5.537
  280.500  245.638   84.002    0.487    0.273    4.651
  280.750  247.205   88.599    0.490    0.275    4.292
  281.000  248.369   87.259    0.506    0.272    4.158
  281.250  248.704   86.597    0.494    0.271    4.083
  281.500  248.633   86.490    0.464    0.267    4.116
  281.750  248.051   86.695    0.483    0.267    4.277
  282.000  247.465   85.973    0.491    0.272    4.693
  282.250  247.397   83.888    0.482    0.277    5.228
  282.500  247.635   82.114    0.495    0.285    5.704
  282.750  247.971   80.900    0.511    0.289    5.904
  283.000  248.624   80.109    0.506    0.294    5.986
  283.250  249.266   76.912    0.516    0.297    6.079
  283.500  249.506   77.922    0.521    0.298    6.425
  283.750  248.612   80.973    0.521    0.299    6.776
  284.000  245.569   83.031    0.515    0.299    7.324
  284.250  242.009   82.742    0.487    0.293    7.976
  284.500  240.092   79.915    0.461    0.279    8.396
  284.750  240.022   79.253    0.452    0.272    8.433
  285.000  240.772   79.583    0.456    0.276    8.218
  285.250  242.648   79.233    0.465    0.266    8.301
  285.500  245.144   78.445    0.477    0.249    8.495
  285.750  247.537   66.400    0.433    0.229    8.531
  286.000  249.107   55.348    0.409    0.196    8.283
  286.250  250.166   70.088    0.500    0.182    8.133
  286.500  250.294   84.458    0.502    0.224    7.882
  286.750  249.713   81.077    0.487    0.223    7.753
  287.000  248.310   80.231    0.478    0.231    7.584
  287.250  246.292   78.270    0.484    0.248    7.322
  287.500  244.782   75.566    0.482    0.266    6.593
  287.750  243.686   72.122    0.481    0.260    5.970
  288.000  243.721   73.749    0.481    0.246    5.417
  288.250  245.189   79.952    0.474    0.229    4.942
  288.500  246.243   86.961    0.467    0.235    4.517
  288.750  246.272   88.836    0.487    0.250    4.145
  289.000  245.178   89.414    0.524    0.258    4.178
  289.250  244.186   90.546    0.549    0.262    4.734
  289.500  243.909   87.965    0.504    0.264    5.394
  289.750  243.845   82.170    0.473    0.267    6.077
  290.000  243.880   79.591    0.463    0.272    6.693
  290.250  244.006   78.063    0.481    0.283    7.247
  290.500  243.940   75.177    0.521    0.294    7.982
  290.750  244.070   71.792    0.516    0.306    9.095
  291.000  244.099   67.048    0.505    0.337   10.188
  291.250  244.540   60.822    0.445    0.349   11.033
  291.500  244.781   60.656    0.501    0.350   11.814
  291.750  244.611   60.919    0.500    0.345   12.136
  292.000  244.333   58.216    0.484    0.345   11.938
  292.250  243.539   57.248    0.464    0.351   10.851
  292.500  242.752   57.453    0.444    0.352   10.128
  292.750  243.200   58.339    0.426    0.347    9.926
  293.000  245.277   60.150    0.499    0.333    9.950
  293.250  247.264   60.972    0.510    0.323   10.318
  293.500  247.294   60.867    0.526    0.314   11.090
  293.750  245.989   57.298    0.498    0.312   12.031
  294.000  243.458   54.657    0.460    0.327   13.077
  294.250  242.768   55.666    0.446    0.344   14.109
  294.500  242.802   55.254    0.439    0.347   14.658
  294.750  243.349   54.407    0.449    0.349   14.392
  295.000  243.894   55.476    0.460    0.350   13.661
  295.250  244.545   58.465    0.473    0.349   12.232
  295.500  244.980   62.815    0.487    0.344    9.782
  295.750  246.239   66.790    0.511    0.335    8.184
  296.000  248.018   65.882    0.564    0.323    7.164
  296.250  248.974   65.841    0.550    0.312    6.074
  296.500  249.413   68.829    0.474    0.300    4.731
  296.750  250.269   75.096    0.490    0.297    4.087
  297.000  250.811   74.808    0.505    0.295    3.894
  297.250  251.457   74.269    0.479    0.292    4.281
  297.500  251.899   75.403    0.467    0.280    4.905
  297.750  252.031   76.345    0.458    0.248    5.738
  298.000  252.377   79.089    0.452    0.222    6.202
  298.250  252.714   82.633    0.478    0.220    6.566
  298.500  252.748   85.309    0.489    0.227    6.607
  298.750  253.086   87.309    0.476    0.228    6.501
  299.000  253.320   89.063    0.470    0.226    6.382
  299.250  253.562   87.967    0.466    0.228    6.162
  299.500  253.590   84.458    0.468    0.234    5.903
  299.750  253.215   80.957    0.489    0.237    5.520
  300.000  252.528   80.168    0.505    0.247    5.200
  300.250  251.123   79.877    0.507    0.255    4.880
  300.500  249.717   80.453    0.519    0.256    4.685
  300.750  248.517   79.728    0.554    0.243    4.913
  301.000  247.222   75.480    0.545    0.198    6.002
  301.250  246.127   71.912    0.478    0.138    9.946
  301.500  245.641   63.888    0.197    0.025   15.031
  301.750  245.979   63.597    0.224    0.033   18.852
  302.000  247.650   64.482    0.241    0.057   20.186
  302.250  249.529   63.760    0.264    0.085   19.636
  302.500  251.510   63.718    0.282    0.098   18.018
  302.750  252.568   65.530    0.295    0.106   15.980
  303.000  253.217   68.394    0.301    0.115   14.307
  303.250  252.731   67.052    0.312    0.127   12.454
  303.500  251.429   68.184    0.334    0.153   11.235
  303.750  249.721   73.957    0.362    0.261    9.965
  304.000  249.340   77.317    0.474    0.283    8.990
  304.250  250.709   78.080    0.493    0.271    8.469
  304.500  251.971   83.726    0.485    0.251    8.254
  304.750  252.314   81.022    0.479    0.233    8.367
  305.000  251.726   75.597    0.469    0.239    8.826
  305.250  250.114   73.207    0.455    0.254    9.187
  305.500  248.000   68.893    0.448    0.264    9.209
  305.750  247.616   68.108    0.452    0.255    9.009
  306.000  247.850   68.808    0.479    0.245    8.600
  306.250  248.809   74.828    0.473    0.245    7.950
  306.500  249.250   79.918    0.448    0.236    7.378
  306.750  248.975   87.483    0.436    0.226    6.911
  307.000  248.083   88.926    0.432    0.234    6.474
  307.250  246.887   86.717    0.459    0.242    5.907
  307.500  245.995   87.108    0.486    0.255    5.409
  307.750  245.514   95.600    0.502    0.260    5.001
  308.000  245.132  101.746    0.517    0.254    4.765
  308.250  244.756  102.443    0.534    0.246    4.758
  308.500  244.482  103.022    0.543    0.236    5.192
  308.750  243.903   95.430    0.529    0.225    6.499
  309.000  243.419   84.995    0.505    0.218    7.660
  309.250  242.728   78.581    0.485    0.259    9.046
