~VERSION INFORMATION
 VERS.                 2.0:   CWLS LOG ASCII STANDARD -VERSION 2.0
 WRAP.                  NO:   ONE LINE PER DEPTH STEP
~WELL INFORMATION BLOCK
#MNEM.UNIT           DATA                    DESCRIPTION OF MNEMONIC
#---------    -------------------            -------------------------------
# Generated from Intellog Unique Number	CS_67_68/WELL/845
WELL.         INTER-CITY MANUFACTURING       : Well_name    - WELL
LOC .         00/11-29-068-12W4/0            : Location     - LOCATION
UWI .         00/11-29-068-12W4/0            : Uwi          - UNIQUE WELL ID
ENTR.         SP                             : Entered      - ENTERED BY
SRVC.         SCHLUMBERGER                   : Scn          - SERVICE COMPANY
STRT.M        304.8                          : top_depth    - START DEPTH
STOP.M        496.550                        : bot_depth    - STOP DEPTH
STEP.M        0.25                           : increment    - STEP LENGTH
 NULL. -999.2500:NULL Value
~CURVE INFORMATION BLOCK
#MNEM UNIT       ERCB CURVE CODE    CURVE DESCRIPTION
#-----------   ------------------   ----------------------------------
DEPT.M        00 001 00 00         : DEPTH        - DEPTH
GR  .API      00 310 00 00         : GR           - GAMMA RAY
DPHI.V/V      00 890 00 00         : PHID         - DENSITY POROSITY (SANDSTONE)
NPHI.V/V      00 330 00 00         : PHIN         - NEUTRON POROSITY (SANDSTONE)
ILD .OHMM     00 120 00 00         : RESD         - DEEP RESISTIVITY (DIL)
~PARAMETER INFORMATION
#MNEM.UNIT           DATA             DESCRIPTION OF MNEMONIC
#---------         -----------     ------------------------------
GL  .M        604.114              : gl           - GROUND LEVEL ELEVATION
EREF.M        576.377              : kb           - ELEVATION OF DEPTH REFERENCE
DATM.M        604.114              : datum        - DATUM ELEVATION
TDD .M        502.006              : tdd          - TOTAL DEPTH DRILLER
RUN .         ONE                  : Run          - RUN NUMBER
ENG .         BILL                 : Engineer     - RECORDING ENGINEER
WIT .         JIM                  : Witness      - WITNESSED BY
MUD .         GEL                  : Mud_type     - MUD TYPE
MATR.         SANDSTONE            : Logunit      - NEUTRON MATRIX
TMAX.C        22.2222              : BHT          - MAXIMUM RECORDED TEMPERATURE
BHTD.M        502.006              : BHTDEP       - MAXIMUM RECORDED TEMPERATURE
MATR.         1                    : LOGUNIT      - NEUTRON MATRIX
RMT .C        25                   : MDTP         - TEMPERATURE OF MUD
NEUT.         1                    : NEUTRON      - NEUTRON TYPE
RESI.         0                    : RESIST       - RESISTIVITY TYPE
RMC .OHMM     0.25                 : RMC          - RESISTIVITY OF MUD CAKE
RMF .OHMM     0.25                 : RMF          - RESISTIVITY OF MUD FILTRATE
SUFT.C        15                   : SUFT         - SURFACE TEMPERATURE
~A  DEPTH       GR     PHID     PHIN     RESD
# ...
  348.300   68.174    0.332    0.456    2.190
  348.550   68.820    0.329    0.449    1.976
  348.800   69.285    0.333    0.445    1.953
  349.050   68.559    0.339    0.456    1.979
  349.300   68.235    0.340    0.459    2.013
  349.550   71.179    0.340    0.464    2.028
  349.800   72.825    0.342    0.473    2.066
  350.050   74.781    0.343    0.477    2.092
  350.300   76.514    0.335    0.473    2.117
  350.550   75.003    0.328    0.469    2.131
  350.800   68.409    0.332    0.464    2.126
  351.050   68.663    0.335    0.458    2.095
  351.300   71.084    0.335    0.451    2.064
  351.550   72.507    0.331    0.445    2.036
  351.800   73.034    0.327    0.439    2.006
  352.050   72.005    0.322    0.434    1.977
  352.300   70.470    0.320    0.435    1.953
  352.550   69.016    0.325    0.441    1.939
  352.800   67.649    0.322    0.431    1.929
  353.050   68.343    0.311    0.426    1.934
  353.300   70.102    0.324    0.435    1.937
  353.550   71.456    0.331    0.446    1.962
  353.800   72.550    0.332    0.449    1.996
  354.050   72.773    0.330    0.440    2.042
  354.300   73.466    0.335    0.435    2.094
  354.550   75.261    0.347    0.458    2.150
  354.800   76.820    0.358    0.487    2.214
  355.050   77.809    0.385    0.510    2.284
  355.300   75.889    0.420    0.529    2.350
  355.550   76.820    0.320    0.508    2.423
  355.800   79.551    0.297    0.479    2.465
  356.050   80.786    0.303    0.448    2.516
  356.300   80.937    0.313    0.426    2.559
  356.550   81.712    0.290    0.414    2.619
  356.800   83.924    0.277    0.408    2.756
  357.050   86.271    0.271    0.404    2.939
  357.300   89.960    0.242    0.401    3.167
  357.550   92.238    0.230    0.400    3.361
  357.800   90.424    0.223    0.410    3.536
  358.050   91.860    0.238    0.419    3.653
  358.300   95.180    0.242    0.422    3.736
  358.550   96.974    0.234    0.422    3.822
  358.800   98.483    0.234    0.421    3.895
  359.050   97.333    0.225    0.420    3.947
  359.300   95.778    0.217    0.421    3.997
  359.550   98.894    0.210    0.431    4.048
  359.800  100.689    0.212    0.444    4.080
  360.050  102.138    0.218    0.447    4.074
  360.300  103.736    0.202    0.448    3.901
  360.550  104.037    0.185    0.463    3.593
  360.800  101.430    0.214    0.479    3.280
  361.050   91.255    0.250    0.496    3.030
  361.300   80.172    0.277    0.477    2.824
  361.550   79.071    0.296    0.451    2.732
  361.800   80.483    0.293    0.431    2.745
  362.050   79.447    0.292    0.412    2.780
  362.300   78.411    0.283    0.406    2.789
  362.550   77.178    0.274    0.417    2.691
  362.800   74.282    0.266    0.430    2.545
  363.050   71.465    0.271    0.432    2.561
  363.300   67.561    0.281    0.426    2.454
  363.550   65.594    0.288    0.419    2.350
  363.800   62.910    0.299    0.413    2.296
  364.050   60.267    0.303    0.404    2.245
  364.300   57.594    0.310    0.397    2.203
  364.550   61.826    0.325    0.395    2.181
  364.800   67.553    0.320    0.398    2.186
  365.050   72.652    0.303    0.412    2.281
  365.300   77.284    0.287    0.431    2.547
  365.550   81.421    0.273    0.438    2.825
  365.800   85.196    0.262    0.408    3.090
  366.050   88.742    0.239    0.391    3.382
  366.300   92.038    0.241    0.392    3.521
  366.550   93.282    0.242    0.404    3.652
  366.800   93.616    0.245    0.403    3.723
  367.050   92.297    0.248    0.399    3.676
  367.300   89.068    0.239    0.411    3.291
  367.550   81.344    0.252    0.416    2.872
  367.800   74.293    0.273    0.429    2.541
  368.050   70.168    0.291    0.434    2.333
  368.300   67.100    0.309    0.428    2.181
  368.550   67.625    0.321    0.424    2.119
  368.800   69.780    0.303    0.422    2.135
  369.050   71.139    0.282    0.415    2.208
  369.300   70.067    0.282    0.408    2.319
  369.550   67.909    0.279    0.412    2.379
  369.800   69.492    0.277    0.420    2.434
  370.050   72.327    0.278    0.425    2.470
  370.300   74.150    0.287    0.429    2.474
  370.550   74.035    0.285    0.443    2.490
  370.800   69.584    0.273    0.435    2.550
  371.050   67.050    0.271    0.423    2.631
  371.300   72.841    0.269    0.413    2.737
  371.550   77.189    0.263    0.416    2.790
  371.800   80.552    0.265    0.437    2.823
  372.050   80.454    0.292    0.459    2.839
  372.300   78.590    0.286    0.476    2.803
  372.550   82.286    0.290    0.489    2.741
  372.800   86.858    0.294    0.479    2.665
  373.050   90.084    0.292    0.468    2.684
  373.300   92.540    0.269    0.460    2.760
  373.550   94.671    0.245    0.460    2.875
  373.800   96.175    0.252    0.442    2.947
  374.050   99.444    0.250    0.430    2.984
  374.300  102.976    0.249    0.459    2.959
  374.550  100.964    0.249    0.545    2.866
  374.800   87.576    0.270    0.546    2.675
  375.050   80.653    0.295    0.526    2.463
  375.300   76.073    0.311    0.501    2.308
  375.550   70.144    0.320    0.478    2.236
  375.800   72.240    0.327    0.460    2.211
  376.050   75.823    0.332    0.451    2.206
  376.300   77.458    0.335    0.447    2.257
  376.550   77.933    0.326    0.453    2.318
  376.800   77.873    0.317    0.466    2.379
  377.050   78.267    0.316    0.456    2.425
  377.300   78.407    0.319    0.445    2.450
  377.550   78.108    0.319    0.441    2.485
  377.800   77.849    0.314    0.446    2.510
  378.050   77.749    0.318    0.451    2.529
  378.300   77.326    0.303    0.451    2.553
  378.550   75.418    0.305    0.448    2.556
  378.800   73.014    0.314    0.460    2.548
  379.050   71.873    0.309    0.453    2.517
  379.300   70.770    0.311    0.450    2.492
  379.550   69.871    0.307    0.461    2.462
  379.800   71.265    0.299    0.455    2.434
  380.050   73.700    0.298    0.444    2.501
  380.300   77.902    0.290    0.434    2.617
  380.550   81.592    0.281    0.435    2.726
  380.800   85.042    0.277    0.445    2.857
  381.050   87.635    0.281    0.437    3.029
  381.300   90.719    0.257    0.425    3.267
  381.550   92.276    0.236    0.411    3.412
  381.800   92.213    0.242    0.417    3.498
  382.050   93.474    0.249    0.479    3.330
  382.300   94.228    0.239    0.533    2.975
  382.550   87.378    0.248    0.541    2.628
  382.800   74.188    0.274    0.506    2.289
  383.050   68.531    0.306    0.450    2.012
  383.300   68.719    0.332    0.432    1.805
  383.550   70.051    0.327    0.443    1.658
  383.800   70.014    0.334    0.451    1.667
  384.050   69.150    0.338    0.460    1.723
  384.300   68.575    0.341    0.467    1.799
  384.550   68.720    0.336    0.441    1.860
  384.800   69.200    0.323    0.424    1.918
  385.050   69.911    0.305    0.412    1.981
  385.300   70.438    0.284    0.410    2.036
  385.550   70.338    0.308    0.419    2.095
  385.800   69.396    0.313    0.427    2.130
  386.050   66.975    0.299    0.431    2.133
  386.300   67.742    0.317    0.433    2.136
  386.550   70.297    0.315    0.437    2.145
  386.800   72.648    0.312    0.450    2.148
  387.050   75.282    0.328    0.461    2.156
  387.300   78.582    0.335    0.474    2.172
  387.550   82.204    0.328    0.486    2.231
  387.800   83.319    0.336    0.465    2.409
  388.050   80.884    0.337    0.451    2.542
  388.300   75.044    0.333    0.435    2.689
  388.550   70.788    0.329    0.423    2.910
  388.800   69.025    0.319    0.424    3.028
  389.050   69.560    0.319    0.423    3.113
  389.300   70.210    0.331    0.423    3.109
  389.550   70.999    0.325    0.423    2.963
  389.800   71.342    0.324    0.421    2.749
  390.050   70.109    0.327    0.418    2.535
  390.300   69.515    0.327    0.415    2.436
  390.550   69.225    0.323    0.409    2.651
  390.800   67.402    0.267    0.398    2.847
  391.050   63.568    0.149    0.306    3.238
  391.300   59.097    0.043    0.187    3.513
  391.550   57.054    0.001    0.170    3.833
