~VERSION INFORMATION
 VERS.                 2.0:   CWLS LOG ASCII STANDARD -VERSION 2.0
 WRAP.                  NO:   ONE LINE PER DEPTH STEP
~WELL INFORMATION BLOCK
#MNEM.UNIT           DATA                    DESCRIPTION OF MNEMONIC
#---------    -------------------            -------------------------------
# Generated from Intellog Unique Number	CS_71_72/WELL/3327
WELL.         ALLIED ROXANA MINERALS LTD.    : Well_name    - WELL
LOC .         00/10-32-072-13W4/0            : Location     - LOCATION
UWI .         00/10-32-072-13W4/0            : Uwi          - UNIQUE WELL ID
ENTR.         JOETTE                         : Entered      - ENTERED BY
SRVC.         SCHLUMBERGER                   : Scn          - SERVICE COMPANY
DATE.         05/13/92                       : Date         - LOG DATE
STRT.M        320.04                         : top_depth    - START DEPTH
STOP.M        533.29                         : bot_depth    - STOP DEPTH
STEP.M        0.25                           : increment    - STEP LENGTH
 NULL. -999.2500:NULL Value
~CURVE INFORMATION BLOCK
#MNEM UNIT       ERCB CURVE CODE    CURVE DESCRIPTION
#-----------   ------------------   ----------------------------------
DEPT.M        00 001 00 00         : DEPTH        - DEPTH
NPHI.V/V      00 330 00 00         : PHIN         - NEUTRON POROSITY (SANDSTONE)
GR  .API      00 310 00 00         : GR           - GAMMA RAY
CALI.MM       00 280 01 00         : CAL          - CALIPER
DPHI.V/V      00 890 00 00         : PHID         - DENSITY POROSITY (SANDSTONE)
ILD .OHMM     00 120 00 00         : RESD         - DEEP RESISTIVITY (DIL)
~PARAMETER INFORMATION
#MNEM.UNIT           DATA             DESCRIPTION OF MNEMONIC
#---------         -----------     ------------------------------
GL  .M        656.692              : gl           - GROUND LEVEL ELEVATION
EREF.M        659.74               : kb           - ELEVATION OF DEPTH REFERENCE
DATM.M        659.74               : datum        - DATUM ELEVATION
TDD .M        554.126              : tdd          - TOTAL DEPTH DRILLER
RUN .         ONE                  : Run          - RUN NUMBER
ENG .         BILL                 : Engineer     - RECORDING ENGINEER
WIT .         JIM                  : Witness      - WITNESSED BY
MUD .         GEL                  : Mud_type     - MUD TYPE
MATR.         SANDSTONE            : Logunit      - NEUTRON MATRIX
TMAX.C        25.5556              : BHT          - MAXIMUM RECORDED TEMPERATURE
BHTD.M        554.126              : BHTDEP       - MAXIMUM RECORDED TEMPERATURE
MATR.         1                    : LOGUNIT      - NEUTRON MATRIX
RMT .C        21.1111              : MDTP         - TEMPERATURE OF MUD
NEUT.         1                    : NEUTRON      - NEUTRON TYPE
RESI.         0                    : RESIST       - RESISTIVITY TYPE
RMC .OHMM     3.41                 : RMC          - RESISTIVITY OF MUD CAKE
RMF .OHMM     3.47                 : RMF          - RESISTIVITY OF MUD FILTRATE
SUFT.C        4                    : SUFT         - SURFACE TEMPERATURE
~A  DEPTH     PHIN       GR      CAL     PHID     RESD
# ...
  356.540    0.586  115.776  178.971    0.229   15.688
  356.790    0.606  113.379  179.040    0.244   15.086
  357.040    0.599  110.971  178.072    0.240   14.889
  357.290    0.602  106.717  177.087    0.252   14.089
  357.540    0.578  100.025  174.064    0.249   13.694
  357.790    0.546   95.782  172.043    0.238   13.710
  358.040    0.556   98.281  169.003    0.244   14.129
  358.290    0.588  102.606  169.089    0.248   14.952
  358.540    0.560  105.707  170.228    0.239   15.982
  358.790    0.554  107.583  172.335    0.237   16.808
  359.040    0.558  106.400  173.475    0.240   17.430
  359.290    0.526  102.166  173.527    0.255   17.649
  359.540    0.517   99.147  173.630    0.262   17.056
  359.790    0.500   98.576  173.664    0.262   16.455
  360.040    0.489  102.299  172.697    0.254   15.246
  360.290    0.518  104.777  172.783    0.251   14.848
  360.540    0.541  108.490  171.798    0.240   14.049
  360.790    0.554  110.989  171.884    0.231   13.860
  361.040    0.553  111.662  170.899    0.231   14.079
  361.290    0.544  111.693  171.003    0.232   14.288
  361.540    0.546  109.897  171.071    0.233   14.914
  361.790    0.570  108.092  171.140    0.240   15.333
  362.040    0.577  110.580  173.299    0.240   15.549
  362.290    0.550  107.571  173.351    0.227   15.764
  362.540    0.554  100.267  176.546    0.229   15.573
  362.790    0.593   96.034  179.724    0.234   15.588
  363.040    0.593   92.392  181.848    0.233   15.396
  363.290    0.579   91.219  183.990    0.219   15.409
  363.540    0.564   93.697  185.113    0.224   15.424
  363.790    0.556  101.093  184.145    0.232   15.430
  364.040    0.587  101.143  181.105    0.247   15.448
  364.290    0.573   99.348  178.081    0.266   15.660
  364.540    0.548   98.154  175.058    0.272   15.675
  364.790    0.537   96.971  173.037    0.276   15.891
  365.040    0.512   93.339  172.052    0.298   16.107
  365.290    0.523   87.882  171.119    0.303   16.119
  365.540    0.537   86.688  171.171    0.300   16.334
  365.790    0.533   86.749  172.276    0.294   16.756
  366.040    0.537   88.004  173.381    0.288   16.768
  366.290    0.561   91.727  175.523    0.278   16.981
  366.540    0.563   93.593  175.592    0.276   16.996
  366.790    0.558   96.694  173.605    0.273   17.008
  367.040    0.558   96.755  171.601    0.271   16.820
  367.290    0.570   94.970  171.670    0.265   16.628
  367.540    0.576   93.164  170.702    0.263   16.230
  367.790    0.531   90.757  171.842    0.263   15.635
  368.040    0.523   91.399  173.949    0.266   15.240
  368.290    0.523   93.888  178.164    0.263   15.048
  368.540    0.528   95.765  179.286    0.250   14.860
  368.790    0.515   93.377  177.282    0.259   14.872
  369.040    0.541   89.746  174.242    0.264   15.291
  369.290    0.566   88.552  172.238    0.269   15.504
  369.540    0.576   92.265  171.287    0.277   16.129
  369.790    0.543   92.316  171.339    0.277   16.749
  370.040    0.493   89.286  172.496    0.268   17.171
  370.290    0.462   86.277  172.530    0.268   17.183
  370.540    0.510   86.317  170.544    0.268   17.195
  370.790    0.549   88.194  168.557    0.272   17.207
  371.040    0.567   91.305  168.591    0.287   17.219
  371.290    0.561   88.888  166.605    0.294   17.237
  371.540    0.561   84.032  166.656    0.306   17.246
  371.790    0.563   74.280  166.742    0.314   17.468
  372.040    0.556   67.588  166.863    0.319   17.477
  372.290    0.513   60.896  166.897    0.326   17.492
  372.540    0.467   58.489  166.966    0.323   17.498
  372.790    0.470   59.141  167.035    0.320   17.510
  373.040    0.502   62.864  167.121    0.314   17.525
  373.290    0.532   66.588  167.172    0.305   17.537
  373.540    0.541   67.240  167.258    0.305   17.549
  373.790    0.530   69.127  166.308    0.304   17.561
  374.040    0.531   70.984  166.343    0.300   17.576
  374.290    0.544   75.941  166.429    0.299   17.588
  374.540    0.550   78.430  166.497    0.304   17.604
  374.790    0.524   72.340  166.566    0.313   17.816
  375.040    0.495   68.106  166.669    0.330   18.238
  375.290    0.531   66.311  166.721    0.343   18.451
  375.540    0.557   68.177  166.773    0.346   18.463
  375.790    0.555   71.911  166.859    0.354   18.274
  376.040    0.556   71.951  166.910    0.356   17.879
  376.290    0.569   70.758  167.014    0.357   17.688
  376.540    0.547   69.574  167.065    0.359   17.296
  376.790    0.530   69.615  167.151    0.365   17.311
  377.040    0.508   65.993  166.184    0.348   17.113
  377.290    0.541   62.964  166.270    0.340   17.132
  377.540    0.561   65.463  166.304    0.336   17.132
  377.790    0.577   69.176  165.354    0.340   17.153
  378.040    0.585   72.287  165.423    0.340   15.950
  378.290    0.573   72.338  165.509    0.331   15.956
  378.540    0.562   71.756  164.541    0.336   15.974
  378.790    0.569   69.359  164.627    0.339   15.983
  379.040    0.575   65.717  164.662    0.339   15.992
  379.290    0.569   63.330  163.729    0.332   16.010
  379.540    0.545   65.818  163.815    0.327   16.010
  379.790    0.535   64.635  163.849    0.325   17.665
  380.040    0.532   60.983  163.918    0.323   16.857
  380.290    0.548   57.351  163.987    0.317   16.869
  380.540    0.534   61.064  164.073    0.321   17.088
  380.790    0.529   66.624  164.159    0.323   17.106
  381.040    0.548   69.112  164.228    0.330   16.909
  381.290    0.556   69.163  164.279    0.331   16.924
  381.540    0.569   68.592  164.348    0.330   16.735
  381.790    0.594   69.857  165.470    0.325   16.541
  382.040    0.565   74.794  165.539    0.318   16.352
  382.290    0.558   76.069  166.662    0.316   16.158
  382.540    0.553   77.333  167.767    0.304   15.559
  382.790    0.552   84.719  167.819    0.286   15.164
  383.040    0.558   92.104  169.977    0.272   14.572
  383.290    0.543   94.603  171.083    0.280   14.174
  383.540    0.561   90.961  173.242    0.290   13.985
  383.790    0.579   88.553  175.366    0.279   13.788
  384.040    0.570   94.123  177.559    0.270   13.599
  384.290    0.559   96.010  177.611    0.261   13.408
  384.540    0.563   96.030  178.699    0.250   13.420
  384.790    0.596   95.459  178.751    0.250   13.842
  385.040    0.556   91.225  177.800    0.251   14.264
  385.290    0.520   88.818  175.796    0.249   14.474
  385.540    0.473   87.644  172.790    0.246   14.899
  385.790    0.460   88.909  171.788    0.247   15.114
  386.040    0.469   90.786  170.838    0.257   15.333
  386.290    0.521   88.980  170.890    0.267   15.339
  386.540    0.558   84.737  173.066    0.270   15.351
  386.790    0.586   86.613  175.190    0.262   15.366
  387.040    0.619   94.621  177.332    0.264   15.378
  387.290    0.619   95.885  176.364    0.264   14.986
  387.540    0.597   92.254  174.360    0.253   13.978
  387.790    0.603   91.682  171.320    0.257   11.754
  388.040    0.629   91.111  172.442    0.261   10.542
  388.290    0.647   85.653  175.620    0.266    9.339
  388.540    0.592   88.142  175.689    0.271    8.941
  388.790    0.562   88.805  175.758    0.271    8.543
  389.040    0.524   83.327  174.808    0.261    7.950
  389.290    0.461   68.669  171.767    0.244    7.959
  389.540    0.383   57.080  170.800    0.209    7.975
  389.790    0.304   59.579  172.959    0.199    8.798
  390.040    0.328   62.078  174.064    0.182    9.827
  390.290    0.432   63.333  174.133    0.219   11.878
  390.540    0.554   64.608  172.146    0.314   13.721
  390.790    0.545   64.648  172.197    0.330   15.972
  391.040    0.538   62.241  171.213    0.333   20.465
  391.290    0.531   59.833  170.280    0.332   22.308
  391.540    0.543   59.262  170.331    0.328   24.763
  391.790    0.539   59.313  170.417    0.327   22.536
  392.040    0.540   58.139  170.486    0.327   19.902
  392.290    0.545   57.568  170.538    0.331   17.475
  392.540    0.547   61.261  170.607    0.335   16.269
  392.790    0.541   67.442  170.727    0.340   15.671
