~VERSION INFORMATION
 VERS.                 2.0:   CWLS LOG ASCII STANDARD -VERSION 2.0
 WRAP.                  NO:   ONE LINE PER DEPTH STEP
~WELL INFORMATION BLOCK
#MNEM.UNIT           DATA                    DESCRIPTION OF MNEMONIC
#---------    -------------------            -------------------------------
# Generated from Intellog Unique Number	CS_77_79/WELL/931
WELL.         ASHLAND OIL CANADA LIMITED     : Well_name    - WELL
LOC .         00/10-05-077-18W4/0            : Location     - LOCATION
UWI .         00/10-05-077-18W4/0            : Uwi          - UNIQUE WELL ID
ENTR.         SP                             : Entered      - ENTERED BY
SRVC.         SCHLUMBERGER                   : Scn          - SERVICE COMPANY
STRT.M        207.264                        : top_depth    - START DEPTH
STOP.M        399.014                        : bot_depth    - STOP DEPTH
STEP.M        0.25                           : increment    - STEP LENGTH
 NULL. -999.2500:NULL Value
~CURVE INFORMATION BLOCK
#MNEM UNIT       ERCB CURVE CODE    CURVE DESCRIPTION
#-----------   ------------------   ----------------------------------
DEPT.M        00 001 00 00         : DEPTH        - DEPTH
GR  .API      00 310 00 00         : GR           - GAMMA RAY
DPHI.V/V      00 890 00 00         : PHID         - DENSITY POROSITY (SANDSTONE)
NPHI.V/V      00 330 00 00         : PHIN         - NEUTRON POROSITY (SANDSTONE)
ILD .OHMM     00 120 00 00         : RESD         - DEEP RESISTIVITY (DIL)
~PARAMETER INFORMATION
#MNEM.UNIT           DATA             DESCRIPTION OF MNEMONIC
#---------         -----------     ------------------------------
GL  .M        567.842              : gl           - GROUND LEVEL ELEVATION
EREF.M        572.11               : kb           - ELEVATION OF DEPTH REFERENCE
DATM.M        567.842              : datum        - DATUM ELEVATION
TDD .M        416.662              : tdd          - TOTAL DEPTH DRILLER
RUN .         ONE                  : Run          - RUN NUMBER
ENG .         BILL                 : Engineer     - RECORDING ENGINEER
WIT .         JIM                  : Witness      - WITNESSED BY
MUD .         GEL                  : Mud_type     - MUD TYPE
MATR.         SANDSTONE            : Logunit      - NEUTRON MATRIX
TMAX.C        22.2222              : BHT          - MAXIMUM RECORDED TEMPERATURE
BHTD.M        416.662              : BHTDEP       - MAXIMUM RECORDED TEMPERATURE
MATR.         1                    : LOGUNIT      - NEUTRON MATRIX
RMT .C        25                   : MDTP         - TEMPERATURE OF MUD
NEUT.         1                    : NEUTRON      - NEUTRON TYPE
RESI.         0                    : RESIST       - RESISTIVITY TYPE
RMC .OHMM     0.25                 : RMC          - RESISTIVITY OF MUD CAKE
RMF .OHMM     0.25                 : RMF          - RESISTIVITY OF MUD FILTRATE
SUFT.C        15                   : SUFT         - SURFACE TEMPERATURE
~A  DEPTH       GR     PHID     PHIN     RESD
# ...
  337.764   92.044    0.192    0.478    8.166
  338.014   91.441    0.203    0.479    8.320
  338.264   91.135    0.199    0.472    8.533
  338.514   90.096    0.204    0.464    8.759
  338.764   89.110    0.196    0.458    8.748
  339.014   88.153    0.194    0.454    8.779
  339.264   87.226    0.199    0.452    8.564
  339.514   88.290    0.193    0.441    8.278
  339.764   89.495    0.163    0.452    7.899
  340.014   93.187    0.177    0.457    7.791
  340.264   90.663    0.187    0.460    7.473
  340.514   93.237    0.180    0.461    7.213
  340.764   94.449    0.189    0.466    7.028
  341.014   87.770    0.220    0.472    6.910
  341.264   83.295    0.198    0.473    6.835
  341.514   81.339    0.219    0.443    7.034
  341.764   80.340    0.223    0.462    7.247
  342.014   78.500    0.200    0.475    7.700
  342.264   71.983    0.184    0.454    8.679
  342.514   65.965    0.195    0.417   10.310
  342.764   63.870    0.177    0.341   12.191
  343.014   64.256    0.132    0.268   14.381
  343.264   65.079    0.013    0.246   16.494
  343.514   65.661    0.053    0.290   16.077
  343.764   66.287    0.072    0.343   12.779
  344.014   66.246    0.246    0.388   10.724
  344.264   66.281    0.277    0.441    8.792
  344.514   63.745    0.290    0.464    7.784
  344.764   60.646    0.295    0.484    7.348
  345.014   60.339    0.278    0.481    7.366
  345.264   58.685    0.294    0.473    7.372
  345.514   58.576    0.304    0.454    7.382
  345.764   60.158    0.297    0.466    7.390
  346.014   61.149    0.290    0.471    7.399
  346.264   61.453    0.275    0.474    7.408
  346.514   61.007    0.280    0.495    7.415
  346.764   60.657    0.279    0.501    7.423
  347.014   57.331    0.276    0.470    7.430
  347.264   56.037    0.271    0.477    7.438
  347.514   56.263    0.261    0.475    7.446
  347.764   58.317    0.272    0.487    7.456
  348.014   60.049    0.290    0.506    7.463
  348.264   60.215    0.310    0.514    7.471
  348.514   60.691    0.327    0.489    7.481
  348.764   61.481    0.326    0.478    7.487
  349.014   61.446    0.322    0.504    7.496
  349.264   60.564    0.318    0.523    7.506
  349.514   59.528    0.316    0.512    7.508
  349.764   60.840    0.325    0.500    7.521
  350.014   62.387    0.309    0.509    7.316
  350.264   64.187    0.295    0.537    7.336
  350.514   65.579    0.281    0.485    7.347
  350.764   65.595    0.267    0.465    7.355
  351.014   65.651    0.258    0.459    7.362
  351.264   64.108    0.255    0.469    7.372
  351.514   61.516    0.257    0.464    7.377
  351.764   62.041    0.251    0.466    7.368
  352.014   61.977    0.256    0.474    7.188
  352.264   61.831    0.267    0.476    7.192
  352.514   60.822    0.277    0.476    7.428
  352.764   62.441    0.270    0.467    8.253
  353.014   63.203    0.263    0.465    9.082
  353.264   63.208    0.250    0.451   11.000
  353.514   56.939    0.212    0.370   12.583
  353.764   49.993    0.149    0.331   14.175
  354.014   47.730    0.107    0.263   16.532
  354.264   48.585    0.076    0.236   16.703
  354.514   51.094    0.082    0.263   14.770
  354.764   54.455    0.139    0.314   12.630
  355.014   59.288    0.223    0.384   11.034
  355.264   63.359    0.260    0.458    9.437
  355.514   63.287    0.276    0.471    8.657
  355.764   63.181    0.267    0.478    8.366
  356.014   63.159    0.269    0.468    8.727
  356.264   61.993    0.242    0.466    8.873
  356.514   60.835    0.244    0.470    8.978
  356.764   62.493    0.241    0.469    9.342
  357.014   63.763    0.230    0.479    9.331
  357.264   65.656    0.217    0.466    9.573
  357.514   67.664    0.221    0.448    9.736
  357.764   71.165    0.231    0.433    9.994
  358.014   74.591    0.231    0.398    9.986
  358.264   76.151    0.214    0.380   10.009
  358.514   74.339    0.209    0.403    9.735
  358.764   71.414    0.224    0.419    9.198
  359.014   70.894    0.230    0.444    8.741
  359.264   71.047    0.235    0.439    8.372
  359.514   72.077    0.222    0.426    8.047
  359.764   74.865    0.201    0.433    7.862
  360.014   76.420    0.203    0.459    7.632
  360.264   76.816    0.223    0.452    7.859
  360.514   78.427    0.200    0.448    7.873
  360.764   79.240    0.200    0.452    7.879
  361.014   80.278    0.209    0.449    8.067
  361.264   80.630    0.211    0.447    8.097
  361.514   81.684    0.227    0.440    8.108
  361.764   82.998    0.221    0.449    8.277
  362.014   85.141    0.211    0.452    8.339
  362.264   85.253    0.220    0.436    8.134
  362.514   89.307    0.198    0.450    8.006
  362.764   92.683    0.186    0.461    7.930
  363.014   95.913    0.195    0.468    7.375
  363.264   95.941    0.203    0.451    7.254
  363.514   94.816    0.204    0.439    7.151
  363.764   96.336    0.169    0.436    6.972
  364.014   98.740    0.116    0.431    7.200
  364.264   99.594    0.128    0.434    7.438
  364.514  101.548    0.169    0.443    7.768
  364.764  103.682    0.177    0.453    8.080
  365.014  104.268    0.171    0.458    8.636
  365.264  103.323    0.162    0.444    8.902
  365.514  101.454    0.183    0.427    9.238
  365.764   99.529    0.191    0.430    9.446
  366.014   95.499    0.187    0.441    9.665
  366.264   93.338    0.175    0.435    9.655
  366.514   92.418    0.162    0.431    9.850
  366.764   90.705    0.153    0.429   10.070
  367.014   89.550    0.142    0.427   10.296
  367.264   86.884    0.130    0.425   10.451
  367.514   88.761    0.138    0.429   10.713
  367.764   89.906    0.164    0.438   10.704
  368.014   91.766    0.153    0.443   10.879
  368.264   92.949    0.135    0.447   10.986
  368.514   92.287    0.148    0.442   11.345
  368.764   89.813    0.162    0.432   11.876
  369.014   87.011    0.157    0.431   12.546
  369.264   81.043    0.141    0.427   13.144
  369.514   78.122    0.111    0.398   13.460
  369.764   76.419    0.077    0.334   13.688
  370.014   81.816    0.065    0.310   13.388
  370.264   85.252    0.067    0.365   12.435
  370.514   87.046    0.126    0.394   11.709
  370.764   89.064    0.135    0.399   10.882
  371.014   90.608    0.146    0.389   10.313
  371.264   90.514    0.147    0.403   10.010
  371.514   92.653    0.142    0.407    9.713
  371.764   96.931    0.141    0.421    9.155
  372.014  100.057    0.137    0.436    8.856
  372.264   97.560    0.173    0.453    8.546
  372.514   96.226    0.146    0.460    8.274
  372.764   96.969    0.148    0.424    8.100
  373.014   98.085    0.101    0.450    8.126
  373.264   97.584    0.145    0.458    7.912
  373.514   97.694    0.152    0.446    8.278
  373.764   95.004    0.172    0.444    8.514
  374.014   91.392    0.159    0.424    8.741
  374.264   86.454    0.095    0.401    8.731
  374.514   89.775    0.066    0.371    8.737
  374.764   92.911    0.122    0.397    8.743
  375.014   93.816    0.167    0.405    8.563
  375.264   95.843    0.160    0.421    8.309
  375.514   97.641    0.155    0.421    7.790
  375.764   97.112    0.170    0.427    6.901
  376.014  100.370    0.185    0.433    6.124
  376.264  100.153    0.183    0.447    5.271
  376.514   97.472    0.203    0.481    4.497
  376.764   95.377    0.227    0.514    4.015
  377.014   91.808    0.257    0.541    3.519
  377.264   90.064    0.244    0.569    3.245
  377.514   89.841    0.258    0.556    3.265
  377.764   90.257    0.249    0.567    3.272
  378.014   91.322    0.238    0.544    3.295
  378.264   90.398    0.217    0.533    4.297
  378.514   85.438    0.193    0.495    5.295
  378.764   84.237    0.165    0.429    6.032
  379.014   84.391    0.133    0.404    7.422
  379.264   84.729    0.128    0.373    8.726
  379.514   84.443    0.101    0.361    9.836
  379.764   87.671    0.051    0.377   10.291
  380.014   88.639    0.132    0.386   10.267
  380.264   88.740    0.152    0.387    9.458
  380.514   90.273    0.165    0.389    8.856
  380.764   92.087    0.148    0.392    8.051
  381.014   90.992    0.151    0.403    7.544
