~VERSION INFORMATION
 VERS.                 2.0:   CWLS LOG ASCII STANDARD -VERSION 2.0
 WRAP.                  NO:   ONE LINE PER DEPTH STEP
~WELL INFORMATION BLOCK
#MNEM.UNIT           DATA                    DESCRIPTION OF MNEMONIC
#---------    -------------------            -------------------------------
# Generated from Intellog Unique Number	CW_79_81/WELL/2900
WELL.         MOBIL WABASCA 10-26            : Well_name    - WELL
LOC .         00/10-26-080-26W4/0            : Location     - LOCATION
UWI .         00/10-26-080-26W4/0            : Uwi          - UNIQUE WELL ID
ENTR.         JJ                             : Entered      - ENTERED BY
SRVC.         SCHLUMBERGER                   : Scn          - SERVICE COMPANY
DATE.         1 JAN 67                       : Date         - LOG DATE
STRT.M        329.184                        : top_depth    - START DEPTH
STOP.M        456.684                        : bot_depth    - STOP DEPTH
STEP.M        0.25                           : increment    - STEP LENGTH
 NULL. -999.2500:NULL Value
~CURVE INFORMATION BLOCK
#MNEM UNIT       ERCB CURVE CODE    CURVE DESCRIPTION
#-----------   ------------------   ----------------------------------
DEPT.M        00 001 00 00         : DEPTH        - DEPTH
DELT.US/F     00 520 00 00         : DELT         - SONIC TRAVEL TIME
GR  .API      00 310 00 00         : GR           - GAMMA RAY
RHOB.KG/M3    00 350 00 00         : DENS         - BULK DENSITY
ILD .OHMM     00 120 00 00         : RESD         - DEEP RESISTIVITY (DIL)
~PARAMETER INFORMATION
#MNEM.UNIT           DATA             DESCRIPTION OF MNEMONIC
#---------         -----------     ------------------------------
GL  .M        550.713              : gl           - GROUND LEVEL ELEVATION
EREF.M        554.706              : kb           - ELEVATION OF DEPTH REFERENCE
DATM.M        554.706              : datum        - DATUM ELEVATION
TDD .M        464.21               : tdd          - TOTAL DEPTH DRILLER
RUN .         ONE                  : Run          - RUN NUMBER
ENG .         CUFFY                : Engineer     - RECORDING ENGINEER
WIT .         SMITH                : Witness      - WITNESSED BY
BASE.         S.L.                 : Branch       - HOME BASE OF LOGGING UNIT
MUD .         GEL                  : Mud_type     - MUD TYPE
MATR.         LIMESTONE            : Logunit      - NEUTRON MATRIX
TMAX.C        33.8889              : BHT          - MAXIMUM RECORDED TEMPERATURE
BHTD.M        464.21               : BHTDEP       - MAXIMUM RECORDED TEMPERATURE
RMT .C        33.8889              : MDTP         - TEMPERATURE OF MUD
MUDD.KG/M     1140                 : MWT          - MUD DENSITY
NEUT.         1                    : NEUTRON      - NEUTRON TYPE
RESI.         0                    : RESIST       - RESISTIVITY TYPE
RM  .OHMM     0                    : RM           - RESISTIVITY OF MUD
RMC .OHMM     4.68                 : RMC          - RESISTIVITY OF MUD CAKE
RMF .OHMM     2.84                 : RMF          - RESISTIVITY OF MUD FILTRATE
SUFT.C        5                    : SUFT         - SURFACE TEMPERATURE
~A  DEPTH     DELT       GR     DENS     RESD
  329.184  306.135   45.124 2150.890   30.367
  329.434  345.327   45.947 2155.340   27.497
  329.684  372.697   48.603 2178.900   22.881
  329.934  393.418   53.350 2216.200   20.750
  330.184  386.072   56.349 2267.930   18.660
  330.434  376.708   62.038 2188.690   16.549
  330.684  374.728   62.011 2163.120   15.423
  330.934  384.713   57.021 2156.040   15.428
  331.184  381.798   55.456 2170.790   15.227
  331.434  388.953   55.823 2198.840   14.943
  331.684  395.307   57.436 2239.260   14.475
  331.934  386.615   60.289 2270.190   13.309
  332.184  378.057   64.688 2235.570   12.121
  332.434  372.524   68.882 2200.540   11.037
  332.684  381.831   80.087 2210.730   11.021
  332.934  382.406   85.081 2205.710   11.332
  333.184  380.964   77.751 2211.190   11.563
  333.434  381.879   73.053 2235.760   11.690
  333.684  381.179   73.571 2241.840   12.064
  333.934  389.010   76.526 2332.200   13.258
  334.184  396.370   79.784 2394.190   15.172
  334.434  350.274   85.765 2437.060   18.071
  334.684  291.552   76.546 2363.390   20.908
  334.934  256.737   67.177 2295.670   31.466
  335.184  265.103   57.360 2294.350   37.424
  335.434  279.045   51.419 2284.390   37.243
  335.684  288.217   50.846 2233.540   34.126
  335.934  317.063   54.102 2168.480   29.860
  336.184  328.655   51.192 2122.980   23.602
  336.434  377.044   51.614 2141.600   19.828
  336.684  418.655   57.051 2179.750   17.819
  336.934  417.748   60.607 2210.280   16.407
  337.184  409.397   62.864 2244.110   15.713
  337.434  412.996   62.290 2260.670   15.039
  337.684  395.574   64.303 2221.740   14.057
  337.934  369.490   66.363 2232.130   12.830
  338.184  380.342   64.346 2287.970   11.992
  338.434  388.168   68.052 2259.300   11.051
  338.684  376.792   72.891 2209.670   10.255
  338.934  383.746   77.834 2223.980    9.848
  339.184  397.755   74.631 2207.030    9.770
  339.434  408.877   74.006 2187.430   10.267
  339.684  408.511   76.615 2203.160   10.373
  339.934  404.923   80.463 2223.230   10.007
  340.184  404.089   76.758 2214.500    9.601
  340.434  405.809   72.457 2207.830    9.380
  340.684  404.841   77.897 2211.240    9.362
  340.934  400.114   84.678 2215.690    9.469
  341.184  398.944   76.056 2200.380    9.966
  341.434  406.162   72.351 2216.320   10.565
  341.684  410.036   75.960 2201.840   11.164
  341.934  406.580   77.269 2197.470   12.668
  342.184  385.464   71.028 2205.160   14.212
  342.434  377.715   65.188 2231.180   15.735
  342.684  381.915   61.287 2266.040   16.375
  342.934  389.742   63.445 2259.590   14.511
  343.184  397.575   68.141 2251.690   12.297
  343.434  406.815   73.382 2255.920    9.571
  343.684  414.307   77.334 2258.930    8.076
  343.934  413.542   79.789 2280.410    6.848
  344.184  406.058   77.078 2273.350    6.174
  344.434  401.465   72.829 2262.970    6.569
  344.684  403.386   72.204 2270.080    6.717
  344.934  407.856   75.061 2263.820    6.864
  345.184  408.300   76.677 2272.580    7.135
  345.434  405.784   78.590 2242.290    7.365
  345.684  402.662   80.397 2235.610    7.574
  345.934  401.498   79.228 2239.220    7.475
  346.184  403.012   79.052 2263.000    7.275
  346.434  404.594   84.893 2276.660    7.031
  346.684  402.686   88.491 2280.300    6.769
  346.934  399.032   90.255 2292.110    6.650
  347.184  394.911   86.502 2298.200    6.900
  347.434  388.035   75.988 2311.680    7.541
  347.684  375.717   65.428 2263.900    8.140
  347.934  375.690   67.487 2221.670    9.541
  348.184  383.049   78.992 2245.640   10.776
  348.434  389.536   80.604 2308.240   12.628
  348.684  381.850   77.546 2527.910   14.356
  348.934  349.724   72.302 2599.770   17.872
  349.184  282.942   64.772 2584.270   22.270
  349.434  215.627   58.732 2583.160   36.893
  349.684  203.241   54.380 2563.540   42.050
  349.934  208.182   47.598 2567.150   34.334
  350.184  207.680   44.884 2549.590   61.144
  350.434  207.183   50.387 2508.590   53.596
  350.684  208.100   52.982 2423.190   40.253
  350.934  213.376   50.618 2274.080   25.997
  351.184  227.451   44.877 2228.760   20.861
  351.434  367.844   46.989 2195.170   17.243
  351.684  394.545   58.641 2209.490   14.362
  351.934  396.463   67.162 2219.060   13.101
  352.184  384.078   66.689 2213.010   12.925
  352.434  355.511   60.499 2206.960   13.199
  352.684  336.274   55.304 2215.300   13.413
  352.934  326.309   60.049 2227.350   13.894
  353.184  333.196   64.146 2244.730   14.558
  353.434  363.519   61.090 2257.790   15.386
  353.684  365.780   62.703 2280.930   16.297
  353.934  359.436   60.935 2289.900   17.516
  354.184  350.277   58.626 2302.540   18.713
  354.434  336.214   58.150 2325.700   20.054
  354.684  324.231   60.908 2326.020   20.063
  354.934  310.839   64.806 2302.490   17.490
  355.184  320.148   68.159 2284.320   15.817
  355.434  347.989   62.516 2269.430   13.778
  355.684  364.750   61.645 2272.440   12.432
  355.934  376.271   67.283 2287.550   11.336
  356.184  375.705   72.829 2281.710   10.731
  356.434  365.806   75.884 2254.080   10.532
  356.684  376.991   77.492 2256.460   10.787
  356.934  382.605   72.944 2294.200   11.226
  357.184  374.453   73.015 2310.750   11.747
  357.434  359.786   75.969 2290.940   12.086
  357.684  348.675   78.627 2282.010   12.175
  357.934  358.317   71.743 2290.160   12.001
  358.184  367.554   76.689 2299.510   11.700
  358.434  361.015   76.512 2258.120   10.911
  358.684  371.396   71.863 2244.280   10.244
  358.934  381.438   69.698 2246.840    9.800
  359.184  386.241   75.138 2262.980    9.420
  359.434  384.336   79.337 2285.720    9.182
  359.684  381.559   78.565 2261.990    9.151
  359.934  380.255   71.781 2243.810    9.284
  360.184  387.277   71.108 2279.290    9.394
  360.434  388.389   75.056 2345.600    9.874
  360.684  379.497   79.851 2369.170   10.538
  360.934  356.840   78.083 2370.710   11.756
  361.184  337.741   75.424 2348.010   12.155
  361.434  331.737   73.608 2315.030   12.061
  361.684  353.868   69.456 2287.400   11.538
  361.934  369.213   63.318 2282.610   10.830
  362.184  377.920   65.080 2287.650   10.386
  362.434  387.763   69.923 2282.430    9.680
  362.684  388.746   72.480 2289.520    9.441
  362.934  388.380   75.188 2302.210    9.244
  363.184  388.149   78.639 2305.790    8.969
  363.434  388.659   78.662 2302.820    8.894
  363.684  389.504   78.239 2285.480    8.721
  363.934  389.544   81.046 2278.190    8.603
  364.184  391.800   80.472 2295.780    8.448
  364.434  397.142   76.171 2293.850    8.253
  364.684  395.973   75.302 2303.220    8.037
  364.934  394.533   81.287 2299.230    8.086
  365.184  395.112   85.485 2304.680    8.443
  365.434  397.434   87.595 2307.270    9.293
  365.684  396.128   84.388 2307.590   10.428
  365.934  390.059   80.833 2299.690   12.445
  366.184  377.003   71.464 2253.560   16.183
  366.434  377.913   63.386 2277.730   18.079
  366.684  373.121   66.242 2267.580   18.252
  366.934  378.661   69.942 2251.040   18.464
  367.184  378.368   68.526 2279.520   19.006
  367.434  386.666   67.604 2232.160   18.973
  367.684  380.194   69.819 2188.290   18.778
  367.934  375.062   72.872 2225.610   19.893
  368.184  391.416   75.972 2268.700   22.136
  368.434  386.952   77.189 2236.540   22.760
  368.684  380.348   70.204 2198.420   22.113
  368.934  375.756   65.708 2210.050   22.367
  369.184  385.869   66.528 2242.850   22.519
  369.434  390.673   67.789 2251.190   21.257
  369.684  385.072   70.346 2255.850   19.954
  369.934  378.331   68.779 2276.120   19.636
  370.184  377.228   68.305 2295.130   20.484
  370.434  357.588   75.336 2284.150   21.845
  370.684  344.668   80.329 2313.670   21.261
  370.934  329.731   75.382 2312.340   20.654
  371.184  334.338   64.771 2219.140   20.274
  371.434  207.387   60.622 2245.770   20.816
  371.684  226.633   63.527 2241.570   22.689
  371.934  281.133   71.102 2505.230   41.492
  372.184  350.210   76.691 2591.480   49.965
  372.434  305.860   75.074 2615.660   50.486
