~VERSION INFORMATION
 VERS.                 2.0:   CWLS LOG ASCII STANDARD -VERSION 2.0
 WRAP.                  NO:   ONE LINE PER DEPTH STEP
~WELL INFORMATION BLOCK
#MNEM.UNIT           DATA                    DESCRIPTION OF MNEMONIC
#---------    -------------------            -------------------------------
# Generated from Intellog Unique Number	CW_76_78/WELL/879
WELL.         NORTHSTAR ET AL MARTEN HILLS 1 : Well_name    - WELL
LOC .         00/10-18-076-03W5/0            : Location     - LOCATION
UWI .         00/10-18-076-03W5/0            : Uwi          - UNIQUE WELL ID
ENTR.         JAYE                           : Entered      - ENTERED BY
SRVC.         COMPUTALOG                     : Scn          - SERVICE COMPANY
DATE.         13 MAR 81                      : Date         - LOG DATE
STRT.M        575                            : top_depth    - START DEPTH
STOP.M        790                            : bot_depth    - STOP DEPTH
STEP.M        0.25                           : increment    - STEP LENGTH
 NULL. -999.2500:NULL Value
~CURVE INFORMATION BLOCK
#MNEM UNIT       ERCB CURVE CODE    CURVE DESCRIPTION
#-----------   ------------------   ----------------------------------
DEPT.M        00 001 00 00         : DEPTH        - DEPTH
ILD .OHMM     00 120 00 00         : RESD         - DEEP RESISTIVITY (DIL)
NPHI.V/V      00 330 00 00         : PHIN         - NEUTRON POROSITY (SANDSTONE)
DPHI.V/V      00 890 00 00         : PHID         - DENSITY POROSITY (SANDSTONE)
GR  .API      00 310 00 00         : GR           - GAMMA RAY
CALI.MM       00 280 01 00         : CAL          - CALIPER
~PARAMETER INFORMATION
#MNEM.UNIT           DATA             DESCRIPTION OF MNEMONIC
#---------         -----------     ------------------------------
GL  .M        861                  : gl           - GROUND LEVEL ELEVATION
EREF.M        865.1                : kb           - ELEVATION OF DEPTH REFERENCE
DATM.M        861                  : datum        - DATUM ELEVATION
TDD .M        798                  : tdd          - TOTAL DEPTH DRILLER
RUN .         ONE                  : Run          - RUN NUMBER
ENG .         GUNDERSON            : Engineer     - RECORDING ENGINEER
WIT .         FITZSIMMONS          : Witness      - WITNESSED BY
BASE.         EDM                  : Branch       - HOME BASE OF LOGGING UNIT
MUD .         GEL CHEM             : Mud_type     - MUD TYPE
MATR.         SANDSTONE            : Logunit      - NEUTRON MATRIX
TMAX.C        27                   : BHT          - MAXIMUM RECORDED TEMPERATURE
BHTD.M        799.6                : BHTDEP       - MAXIMUM RECORDED TEMPERATURE
RMT .C        16                   : MDTP         - TEMPERATURE OF MUD
MUDD.KG/M     1140                 : MWT          - MUD DENSITY
NEUT.         1                    : NEUTRON      - NEUTRON TYPE
RESI.         0                    : RESIST       - RESISTIVITY TYPE
RM  .OHMM     3.8                  : RM           - RESISTIVITY OF MUD
RMC .OHMM     3                    : RMC          - RESISTIVITY OF MUD CAKE
RMF .OHMM     0                    : RMF          - RESISTIVITY OF MUD FILTRATE
SUFT.C        0                    : SUFT         - SURFACE TEMPERATURE
~A  DEPTH     RESD     PHIN     PHID       GR      CAL
  575.000    1.823    0.468    0.214  116.766  201.376
  575.250    1.891    0.493    0.202  113.007  203.069
  575.500    1.928    0.506    0.186  110.737  205.592
  575.750    1.956    0.517    0.168  113.861  207.596
  576.000    1.951    0.513    0.162  117.667  209.288
  576.250    1.996    0.478    0.171  117.815  210.257
  576.500    2.040    0.425    0.186  114.738  210.503
  576.750    2.060    0.404    0.188  110.113  209.720
  577.000    2.063    0.391    0.188  105.858  208.311
  577.250    2.075    0.394    0.194  103.586  205.666
  577.500    2.095    0.408    0.201  104.169  203.537
  577.750    2.098    0.414    0.207  112.998  202.435
  578.000    2.118    0.432    0.204  123.441  203.203
  578.250    2.171    0.455    0.206  128.859  205.106
  578.500    2.215    0.470    0.212  122.685  205.761
  578.750    2.309    0.479    0.214  116.071  205.288
  579.000    2.386    0.479    0.211  111.135  204.706
  579.250    2.447    0.478    0.191  105.142  204.328
  579.500    2.516    0.473    0.168   98.408  204.171
  579.750    2.660    0.454    0.158   96.695  203.998
  580.000    2.810    0.431    0.159   98.082  204.146
  580.250    3.002    0.421    0.180  102.820  204.075
  580.500    3.227    0.420    0.194  102.968  204.012
  580.750    3.444    0.418    0.207   98.465  203.539
  581.000    3.989    0.404    0.221   93.033  202.541
  581.250    4.838    0.418    0.220   89.522  201.136
  581.500    5.613    0.406    0.208   85.080  199.523
  581.750    7.816    0.368    0.253   80.640  197.913
  582.000   10.331    0.325    0.277   75.208  196.914
  582.250   12.681    0.292    0.308   72.254  195.822
  582.500   13.128    0.271    0.332   71.410  195.861
  582.750   12.220    0.258    0.344   68.891  197.658
  583.000   10.402    0.253    0.350   67.241  196.869
  583.250    9.314    0.335    0.349   63.916  196.296
  583.500    8.570    0.350    0.341   60.468  195.922
  583.750    7.868    0.375    0.316   61.553  195.435
  584.000    7.724    0.426    0.297   63.494  194.861
  584.250    7.957    0.449    0.297   67.175  194.897
  584.500    8.396    0.464    0.300   69.431  195.354
  584.750    8.711    0.486    0.302   66.913  195.595
  585.000    9.100    0.510    0.304   63.715  196.883
  585.250    9.497    0.520    0.293   63.736  198.468
  585.500    9.977    0.506    0.292   65.869  200.484
  585.750   10.350    0.489    0.294   65.832  200.921
  586.000   10.123    0.485    0.293   63.375  201.171
  586.250    9.782    0.469    0.286   60.297  201.016
  586.500   10.007    0.462    0.283   59.268  200.748
  586.750   10.199    0.465    0.286   59.851  200.466
  587.000   10.104    0.465    0.291   62.974  200.504
  587.250    7.292    0.449    0.291   67.649  199.197
  587.500    5.416    0.436    0.275   67.672  197.583
  587.750    4.230    0.428    0.255   65.094  197.737
  588.000    3.470    0.444    0.232   64.247  198.183
  588.250    2.956    0.449    0.212   70.101  200.397
  588.500    2.894    0.444    0.186   84.015  204.153
  588.750    2.971    0.454    0.179   93.651  210.086
  589.000    3.451    0.462    0.194  107.688  212.601
  589.250    4.193    0.468    0.221  109.823  212.649
  589.500    4.533    0.497    0.239  106.558  211.651
  589.750    4.906    0.490    0.256  100.569  209.526
  590.000    5.286    0.468    0.254   95.754  207.292
  590.250    5.791    0.460    0.248   85.981  205.469
  590.500    6.377    0.448    0.251   70.193  204.061
  590.750    6.561    0.429    0.263   63.643  202.964
  591.000    6.679    0.422    0.274   59.697  201.980
  591.250    6.863    0.432    0.270   59.910  201.191
  591.500    7.096    0.442    0.255   62.536  200.815
  591.750    7.395    0.454    0.249   67.149  200.344
  592.000    8.359    0.465    0.258   68.539  200.174
  592.250   10.422    0.474    0.271   64.902  199.901
  592.500   12.929    0.476    0.283   60.338  199.631
  592.750   14.467    0.457    0.290   57.261  199.464
  593.000   15.972    0.448    0.285   53.627  199.196
  593.250   17.002    0.447    0.278   51.169  199.123
  593.500   17.407    0.456    0.281   52.434  199.578
  593.750   17.435    0.467    0.284   54.752  199.829
  594.000   17.037    0.482    0.290   58.374  200.180
  594.250   16.507    0.488    0.300   60.755  200.320
  594.500   15.878    0.480    0.304   61.461  200.564
  594.750   15.217    0.475    0.301   60.182  200.601
  595.000   14.555    0.462    0.290   57.106  200.855
  595.250   13.689    0.441    0.279   57.501  200.991
  595.500   12.716    0.445    0.272   61.432  201.141
  595.750   11.808    0.439    0.270   61.890  201.183
  596.000   10.958    0.448    0.274   59.248  201.215
  596.250   10.477    0.457    0.279   56.728  201.155
  596.500   10.161    0.437    0.281   54.646  201.195
  596.750    9.910    0.423    0.275   52.993  201.129
  597.000    9.609    0.430    0.268   50.909  201.380
  597.250    9.137    0.415    0.262   47.894  201.517
  597.500    9.058    0.432    0.253   54.431  201.660
  597.750    8.988    0.460    0.245   60.096  201.705
  598.000    7.924    0.455    0.243   64.584  202.055
  598.250    6.885    0.407    0.243   69.013  202.399
  598.500    5.608    0.372    0.243   68.291  203.271
  598.750    4.438    0.368    0.220   68.130  204.449
  599.000    3.900    0.408    0.200   81.051  206.346
  599.250    3.756    0.431    0.175   98.996  208.763
  599.500    3.899    0.459    0.188  117.002  211.074
  599.750    5.724    0.445    0.203  106.113  213.082
  600.000    9.207    0.402    0.221   89.209  213.531
  600.250   16.507    0.377    0.239   69.451  211.506
  600.500   17.528    0.370    0.255   53.910  206.689
  600.750   18.213    0.369    0.261   44.074  202.080
  601.000   15.976    0.387    0.258   40.068  198.602
  601.250   11.957    0.380    0.250   47.658  196.678
  601.500    9.819    0.367    0.239   59.711  197.544
  601.750    8.107    0.376    0.222   72.200  197.379
  602.000    6.764    0.379    0.200   83.942  204.134
  602.250    5.471    0.373    0.175   98.664  209.241
  602.500    4.941    0.432    0.162  104.206  211.553
  602.750    4.912    0.448    0.158  108.633  209.010
  603.000    4.891    0.435    0.166  110.456  203.471
  603.250    4.779    0.416    0.167  109.923  199.477
  603.500    4.323    0.402    0.165  109.388  197.967
  603.750    3.752    0.376    0.178  111.273  198.421
  604.000    3.164    0.360    0.193  114.770  201.048
  604.250    2.749    0.449    0.227  116.840  203.675
  604.500    2.884    0.507    0.256  117.419  205.674
  604.750    3.126    0.537    0.270  100.019  206.641
  605.000    3.638    0.532    0.274   89.998  203.891
  605.250    4.889    0.491    0.271   74.084  200.727
  605.500   10.104    0.464    0.263   62.141  198.599
  605.750   12.421    0.437    0.274   58.877  197.812
  606.000   14.132    0.418    0.287   57.787  197.543
  606.250   15.432    0.426    0.296   59.113  197.786
  606.500   16.700    0.423    0.297   60.625  197.824
  606.750   17.770    0.428    0.292   59.656  197.970
  607.000   19.357    0.455    0.294   57.075  197.595
  607.250   20.411    0.466    0.305   57.223  197.328
  607.500   20.735    0.473    0.310   58.053  196.544
  607.750   20.944    0.482    0.309   55.287  195.959
  608.000   20.980    0.495    0.303   55.066  195.589
  608.250   21.024    0.488    0.303   56.451  195.523
  608.500   21.036    0.473    0.309   59.577  196.184
  608.750   20.974    0.490    0.313   62.390  197.673
  609.000   20.911    0.484    0.317   63.777  198.847
  609.250   20.923    0.490    0.319   61.755  200.024
  609.500   20.976    0.534    0.319   58.866  200.478
  609.750   21.004    0.522    0.318   56.347  200.514
  610.000   20.802    0.497    0.316   54.263  200.869
  610.250   20.551    0.474    0.315   53.108  201.320
  610.500   20.390    0.464    0.317   52.946  201.674
  610.750   19.926    0.464    0.322   53.963  201.605
  611.000   18.050    0.465    0.326   57.273  201.444
  611.250   15.952    0.462    0.329   60.583  200.963
