~VERSION INFORMATION
 VERS.                 2.0:   CWLS LOG ASCII STANDARD -VERSION 2.0
 WRAP.                  NO:   ONE LINE PER DEPTH STEP
~WELL INFORMATION BLOCK
#MNEM.UNIT           DATA                    DESCRIPTION OF MNEMONIC
#---------    -------------------            -------------------------------
# Generated from Intellog Unique Number	CS_73_76/WELL/3248
WELL.         BOW VALLEY INDUSTRIES LTD.     : Well_name    - WELL
LOC .         00/10-30-075-12W4/0            : Location     - LOCATION
UWI .         00/10-30-075-12W4/0            : Uwi          - UNIQUE WELL ID
ENTR.         SP                             : Entered      - ENTERED BY
SRVC.         SCHLUMBERGER                   : Scn          - SERVICE COMPANY
STRT.M        320                            : top_depth    - START DEPTH
STOP.M        531                            : bot_depth    - STOP DEPTH
STEP.M        0.25                           : increment    - STEP LENGTH
 NULL. -999.2500:NULL Value
~CURVE INFORMATION BLOCK
#MNEM UNIT       ERCB CURVE CODE    CURVE DESCRIPTION
#-----------   ------------------   ----------------------------------
DEPT.M        00 001 00 00         : DEPTH        - DEPTH
ILD .OHMM     00 120 00 00         : RESD         - DEEP RESISTIVITY (DIL)
DPHI.V/V      00 890 00 00         : PHID         - DENSITY POROSITY (LIMESTONE)
NPHI.V/V      00 330 00 00         : PHIN         - NEUTRON POROSITY (LIMESTONE)
GR  .API      00 310 00 00         : GR           - GAMMA RAY
~PARAMETER INFORMATION
#MNEM.UNIT           DATA             DESCRIPTION OF MNEMONIC
#---------         -----------     ------------------------------
GL  .M        694.33               : gl           - GROUND LEVEL ELEVATION
EREF.M        697.68               : kb           - ELEVATION OF DEPTH REFERENCE
DATM.M        694.33               : datum        - DATUM ELEVATION
TDD .M        537                  : tdd          - TOTAL DEPTH DRILLER
RUN .         ONE                  : Run          - RUN NUMBER
ENG .         BILL                 : Engineer     - RECORDING ENGINEER
WIT .         JIM                  : Witness      - WITNESSED BY
MUD .         GEL                  : Mud_type     - MUD TYPE
MATR.         LIMESTONE            : Logunit      - NEUTRON MATRIX
TMAX.C        23.9                 : BHT          - MAXIMUM RECORDED TEMPERATURE
BHTD.M        537                  : BHTDEP       - MAXIMUM RECORDED TEMPERATURE
MATR.         1                    : LOGUNIT      - NEUTRON MATRIX
RMT .C        25                   : MDTP         - TEMPERATURE OF MUD
NEUT.         1                    : NEUTRON      - NEUTRON TYPE
RESI.         0                    : RESIST       - RESISTIVITY TYPE
RMC .OHMM     0.25                 : RMC          - RESISTIVITY OF MUD CAKE
RMF .OHMM     0.25                 : RMF          - RESISTIVITY OF MUD FILTRATE
SUFT.C        15                   : SUFT         - SURFACE TEMPERATURE
~A  DEPTH     RESD     PHID     PHIN       GR
# ...
  363.500    6.104    0.183    0.387   92.117
  363.750    5.773    0.223    0.429   95.752
  364.000    5.882    0.251    0.472   99.383
  364.250    6.104    0.237    0.490   99.374
  364.500    6.699    0.222    0.477   95.716
  364.750    7.772    0.229    0.466   90.849
  365.000    8.851    0.249    0.468   84.156
  365.250   10.461    0.256    0.490   79.895
  365.500   11.914    0.281    0.501   73.809
  365.750   13.569    0.327    0.476   68.334
  366.000   14.347    0.374    0.483   61.643
  366.250   14.617    0.424    0.501   57.991
  366.500   15.170    0.479    0.523   71.944
  366.750   15.745    0.533    0.552   86.506
  367.000   16.341    0.298    0.580   98.033
  367.250   16.648    0.276    0.626  108.345
  367.500   16.961    0.284    0.453  113.191
  367.750   16.962    0.293    0.467  108.319
  368.000   16.962    0.303    0.477  104.056
  368.250   16.963    0.296    0.487  100.401
  368.500   16.963    0.286    0.501   95.534
  368.750   16.652    0.285    0.515   87.629
  369.000   16.653    0.311    0.518   78.506
  369.250   16.654    0.321    0.498   72.424
  369.500   16.966    0.343    0.492   66.950
  369.750   16.968    0.318    0.483   60.258
  370.000   16.656    0.320    0.479   55.384
  370.250   16.657    0.325    0.457   53.555
  370.500   16.351    0.320    0.446   53.538
  370.750   16.352    0.319    0.436   54.138
  371.000   16.352    0.332    0.430   55.340
  371.250   16.353    0.329    0.439   55.936
  371.500   16.354    0.324    0.447   55.926
  371.750   16.355    0.326    0.437   55.911
  372.000   16.355    0.334    0.435   55.296
  372.250   16.356    0.342    0.441   55.277
  372.500   16.056    0.330    0.446   55.269
  372.750   16.358    0.335    0.447   54.655
  373.000   16.358    0.338    0.451   54.644
  373.250   16.359    0.340    0.453   55.845
  373.500   16.360    0.325    0.453   55.837
  373.750   16.360    0.308    0.447   54.609
  374.000   16.361    0.303    0.444   54.599
  374.250   16.061    0.301    0.444   57.011
  374.500   16.363    0.316    0.450   58.217
  374.750   16.363    0.330    0.457   59.422
  375.000   16.364    0.327    0.463   61.230
  375.250   16.672    0.322    0.455   61.221
  375.500   16.672    0.313    0.448   59.994
  375.750   16.673    0.307    0.452   59.376
  376.000   16.674    0.315    0.456   59.363
  376.250   16.674    0.321    0.442   59.352
  376.500   16.988    0.324    0.429   58.125
  376.750   16.988    0.311    0.434   56.898
  377.000   16.989    0.317    0.448   56.282
  377.250   16.990    0.328    0.442   56.876
  377.500   16.990    0.335    0.433   58.681
  377.750   16.991    0.344    0.432   59.278
  378.000   16.992    0.332    0.427   60.483
  378.250   16.993    0.334    0.433   60.475
  378.500   17.312    0.326    0.438   61.072
  378.750   17.313    0.315    0.448   61.058
  379.000   17.314    0.321    0.461   59.225
  379.250   17.315    0.334    0.472   59.822
  379.500   17.315    0.340    0.485   61.633
  379.750   17.316    0.352    0.493   62.834
  380.000   17.317    0.358    0.477   62.215
  380.250   17.317    0.361    0.459   61.598
  380.500   17.318    0.357    0.448   61.585
  380.750   17.319    0.335    0.443   63.395
  381.000   17.320    0.327    0.446   65.811
  381.250   17.320    0.342    0.453   67.625
  381.500   17.321    0.346    0.467   68.826
  381.750   17.322    0.344    0.476   71.245
  382.000   17.323    0.340    0.483   73.662
  382.250   17.648    0.331    0.485   71.823
  382.500   17.649    0.327    0.463   68.777
  382.750   17.980    0.322    0.451   66.336
  383.000   18.662    0.326    0.439   64.507
  383.250   19.369    0.332    0.454   62.067
  383.500   20.102    0.313    0.460   61.446
  383.750   20.864    0.297    0.462   63.252
  384.000   21.256    0.299    0.453   63.246
  384.250   21.655    0.308    0.436   61.414
  384.500   22.062    0.314    0.429   60.796
  384.750   22.063    0.308    0.423   61.999
  385.000   22.064    0.306    0.429   64.409
  385.250   22.065    0.317    0.438   65.011
  385.500   22.066    0.304    0.450   62.572
  385.750   22.067    0.303    0.444   59.523
  386.000   21.662    0.314    0.440   58.903
  386.250   21.264    0.312    0.450   58.285
  386.500   21.265    0.306    0.457   58.273
  386.750   20.875    0.315    0.466   57.654
  387.000   20.491    0.319    0.474   57.033
  387.250   20.116    0.301    0.451   57.025
  387.500   19.746    0.309    0.443   56.404
  387.750   19.747    0.319    0.432   56.392
  388.000   19.385    0.335    0.430   56.384
  388.250   19.029    0.331    0.437   56.370
  388.500   19.030    0.317    0.440   56.361
  388.750   19.030    0.311    0.450   56.347
  389.000   18.681    0.316    0.458   56.338
  389.250   18.682    0.322    0.452   56.324
  389.500   18.683    0.324    0.454   55.704
  389.750   18.684    0.329    0.456   55.090
  390.000   18.341    0.333    0.456   54.472
  390.250   18.341    0.335    0.457   55.673
  390.500   18.342    0.336    0.457   56.873
  390.750   18.006    0.339    0.456   57.472
  391.000   17.676    0.329    0.454   56.855
  391.250   17.676    0.316    0.453   54.412
  391.500   17.677    0.309    0.449   53.188
  391.750   17.352    0.305    0.456   54.387
  392.000   17.353    0.317    0.461   56.803
  392.250   17.354    0.324    0.468   59.223
  392.500   17.035    0.327    0.473   62.855
  392.750   17.036    0.327    0.466   66.484
  393.000   17.037    0.327    0.456   60.404
  393.250   17.038    0.327    0.454   57.359
  393.500   17.038    0.320    0.454   54.915
  393.750   17.039    0.311    0.439   54.300
  394.000   17.040    0.304    0.450   54.893
  394.250   17.041    0.315    0.446   55.489
  394.500   17.041    0.321    0.436   56.694
  394.750   17.042    0.311    0.432   56.679
  395.000   17.043    0.316    0.425   56.670
  395.250   17.044    0.322    0.424   57.267
  395.500   17.044    0.328    0.438   58.466
  395.750   17.045    0.332    0.447   59.669
  396.000   17.046    0.316    0.447   61.481
  396.250   16.733    0.308    0.443   62.685
  396.500   16.734    0.301    0.440   63.280
  396.750   16.735    0.297    0.462   62.663
  397.000   16.735    0.304    0.477   68.724
  397.250   16.428    0.311    0.491   75.995
  397.500   16.429    0.298    0.487   80.838
  397.750   16.429    0.290    0.479   82.047
  398.000   16.128    0.297    0.473   85.680
  398.250   16.129    0.310    0.471   89.312
  398.500   16.129    0.306    0.467   89.901
  398.750   15.833    0.290    0.463   90.500
  399.000   15.543    0.280    0.470   94.134
  399.250   15.258    0.284    0.478   88.050
  399.500   14.977    0.291    0.485   81.359
  399.750   14.432    0.298    0.486   74.666
  400.000   13.906    0.306    0.468   72.224
  400.250   13.400    0.315    0.464   69.783
  400.500   13.400    0.324    0.481   68.563
  400.750   12.913    0.328    0.496   66.729
  401.000   12.675    0.334    0.502   65.498
  401.250   12.443    0.336    0.483   65.493
  401.500   12.214    0.340    0.467   64.871
  401.750   11.990    0.342    0.469   62.429
  402.000   11.554    0.351    0.489   61.813
  402.250   11.341    0.342    0.496   62.411
  402.500   10.727    0.330    0.472   65.434
  402.750    9.960    0.336    0.477   66.637
  403.000    9.247    0.343    0.485   65.409
  403.250    8.586    0.330    0.491   64.185
  403.500    8.273    0.333    0.479   63.563
  403.750    7.825    0.345    0.482   63.553
  404.000    7.682    0.330    0.476   63.544
  404.250    7.540    0.318    0.478   64.742
  404.500    7.541    0.318    0.483   64.736
  404.750    7.541    0.330    0.497   62.898
  405.000    7.541    0.327    0.505   64.101
  405.250    7.267    0.319    0.493   66.517
  405.500    6.747    0.328    0.499   68.332
  405.750    6.501    0.338    0.521   70.141
  406.000    5.816    0.346    0.536   72.559
  406.250    5.301    0.357    0.550   75.579
  406.500    4.655    0.367    0.562   76.787
  406.750    4.012    0.391    0.572   81.635
