~VERSION INFORMATION
 VERS.                 2.0:   CWLS LOG ASCII STANDARD -VERSION 2.0
 WRAP.                  NO:   ONE LINE PER DEPTH STEP
~WELL INFORMATION BLOCK
#MNEM.UNIT           DATA                    DESCRIPTION OF MNEMONIC
#---------    -------------------            -------------------------------
# Generated from Intellog Unique Number	CS_77_79/WELL/978
WELL.         TRANS-PRAIRIE PIPLINES         : Well_name    - WELL
LOC .         00/10-32-077-12W4/0            : Location     - LOCATION
UWI .         00/10-32-077-12W4/0            : Uwi          - UNIQUE WELL ID
ENTR.         SP                             : Entered      - ENTERED BY
SRVC.         SCHLUMBERGER                   : Scn          - SERVICE COMPANY
STRT.M        264.566                        : top_depth    - START DEPTH
STOP.M        469.066                        : bot_depth    - STOP DEPTH
STEP.M        0.25                           : increment    - STEP LENGTH
 NULL. -999.2500:NULL Value
~CURVE INFORMATION BLOCK
#MNEM UNIT       ERCB CURVE CODE    CURVE DESCRIPTION
#-----------   ------------------   ----------------------------------
DEPT.M        00 001 00 00         : DEPTH        - DEPTH
GR  .API      00 310 00 00         : GR           - GAMMA RAY
DPHI.V/V      00 890 00 00         : PHID         - DENSITY POROSITY (SANDSTONE)
NPHI.V/V      00 330 00 00         : PHIN         - NEUTRON POROSITY (SANDSTONE)
ILD .OHMM     00 120 00 00         : RESD         - DEEP RESISTIVITY (DIL)
~PARAMETER INFORMATION
#MNEM.UNIT           DATA             DESCRIPTION OF MNEMONIC
#---------         -----------     ------------------------------
GL  .M        669.188              : gl           - GROUND LEVEL ELEVATION
EREF.M        672.846              : kb           - ELEVATION OF DEPTH REFERENCE
DATM.M        669.188              : datum        - DATUM ELEVATION
TDD .M        475.488              : tdd          - TOTAL DEPTH DRILLER
RUN .         ONE                  : Run          - RUN NUMBER
ENG .         BILL                 : Engineer     - RECORDING ENGINEER
WIT .         JIM                  : Witness      - WITNESSED BY
MUD .         GEL                  : Mud_type     - MUD TYPE
MATR.         SANDSTONE            : Logunit      - NEUTRON MATRIX
TMAX.C        60                   : BHT          - MAXIMUM RECORDED TEMPERATURE
BHTD.M        475.488              : BHTDEP       - MAXIMUM RECORDED TEMPERATURE
MATR.         1                    : LOGUNIT      - NEUTRON MATRIX
RMT .C        25                   : MDTP         - TEMPERATURE OF MUD
NEUT.         1                    : NEUTRON      - NEUTRON TYPE
RESI.         0                    : RESIST       - RESISTIVITY TYPE
RMC .OHMM     0.25                 : RMC          - RESISTIVITY OF MUD CAKE
RMF .OHMM     0.25                 : RMF          - RESISTIVITY OF MUD FILTRATE
SUFT.C        15                   : SUFT         - SURFACE TEMPERATURE
~A  DEPTH       GR     PHID     PHIN     RESD
  264.566   80.076    0.190    0.582    0.000
  264.816   69.303    0.156    0.494   12.559
  265.066   61.186    0.156    0.455   16.292
  265.316   50.695    0.331    0.546   21.272
  265.566   45.304    0.353    0.543   23.672
  265.816   47.842    0.360    0.539   23.923
  266.066   48.818    0.361    0.552   23.913
  266.316   49.902    0.358    0.531   23.705
  266.566   52.436    0.352    0.505   23.478
  266.816   51.829    0.337    0.491   23.105
  267.066   56.950    0.319    0.503   22.988
  267.316   59.698    0.335    0.517   23.441
  267.566   63.565    0.319    0.529   22.838
  267.816   63.473    0.317    0.512   21.126
  268.066   60.807    0.309    0.494   17.502
  268.316   57.765    0.305    0.469   14.466
  268.566   56.510    0.314    0.469   11.730
  268.816   60.100    0.301    0.466    9.637
  269.066   69.631    0.270    0.482    8.136
  269.316   76.811    0.224    0.519    7.581
  269.566   82.353    0.157    0.506    7.327
  269.816   83.616    0.185    0.480    7.730
  270.066   83.194    0.200    0.455    8.389
  270.316   80.554    0.194    0.475   10.073
  270.566   79.375    0.204    0.484   12.124
  270.816   75.476    0.196    0.464   13.658
  271.066   67.620    0.217    0.457   16.770
  271.316   59.962    0.227    0.470   19.613
  271.566   50.193    0.249    0.452   21.453
  271.816   43.261    0.267    0.415   23.350
  272.066   35.973    0.287    0.394   23.620
  272.316   35.769    0.273    0.385   23.233
  272.566   36.635    0.278    0.411   22.075
  272.816   32.083    0.286    0.400   19.039
  273.066   31.659    0.264    0.403   16.158
  273.316   37.897    0.253    0.388   13.586
  273.566   50.659    0.245    0.400   11.237
  273.816   67.338    0.214    0.425    9.925
  274.066   82.271    0.179    0.467    8.795
  274.316   95.419    0.181    0.495    8.712
  274.566  102.643    0.199    0.530    9.334
  274.816  102.423    0.201    0.542   10.524
  275.066   99.827    0.205    0.554   13.035
  275.316   94.819    0.225    0.579   17.120
  275.566   86.676    0.261    0.507   20.948
  275.816   77.522    0.302    0.498   23.236
  276.066   71.957    0.325    0.506   23.696
  276.316   72.424    0.331    0.513   22.914
  276.566   74.694    0.330    0.510   21.576
  276.816   73.490    0.309    0.502   19.870
  277.066   75.741    0.291    0.491   18.735
  277.316   74.277    0.290    0.481   17.912
  277.566   73.385    0.292    0.471   17.649
  277.816   74.466    0.306    0.477   17.386
  278.066   74.766    0.284    0.479   17.576
  278.316   75.796    0.300    0.496   17.749
  278.566   79.349    0.287    0.509   17.976
  278.816   84.331    0.279    0.511   18.877
  279.066   88.508    0.277    0.504   19.381
  279.316   88.537    0.269    0.505   19.327
  279.566   89.868    0.255    0.491   19.030
  279.816   93.463    0.236    0.521   16.592
  280.066   87.562    0.214    0.470   14.274
  280.316   77.331    0.207    0.405   12.318
  280.566   70.747    0.168    0.381   10.938
  280.816   73.799    0.182    0.377    9.476
  281.066   80.647    0.202    0.448    8.584
  281.316   85.293    0.192    0.471    7.860
  281.566   89.184    0.180    0.495    7.146
  281.816   93.127    0.167    0.510    6.980
  282.066   95.326    0.147    0.552    6.643
  282.316   98.807    0.107    0.584    6.450
  282.566   99.941    0.112    0.575    6.262
  282.816  101.555    0.151    0.573    6.184
  283.066  107.915    0.175    0.594    6.001
  283.316  113.037    0.163    0.611    5.702
  283.566  108.915    0.185    0.609    5.410
  283.816  101.559    0.158    0.588    4.907
  284.066  104.919    0.131    0.583    4.414
  284.316  110.224    0.154    0.596    4.103
  284.566  113.432    0.161    0.609    3.928
  284.816  113.919    0.169    0.617    3.807
  285.066  113.073    0.139    0.609    3.712
  285.316  110.087    0.153    0.630    3.898
  285.566  114.511    0.161    0.625    4.134
  285.816  113.649    0.192    0.609    4.934
  286.066  114.060    0.158    0.610    7.076
  286.316  115.416    0.185    0.619   10.057
  286.566  117.298    0.239    0.600   11.725
  286.816  109.869    0.252    0.546   12.703
  287.066  103.593    0.265    0.556   13.210
  287.316  100.384    0.224    0.540   13.173
  287.566  102.889    0.231    0.520   13.171
  287.816  101.843    0.221    0.518   12.677
  288.066   98.948    0.245    0.513   11.947
  288.316   98.484    0.256    0.504   10.398
  288.566   94.538    0.263    0.502    8.936
  288.816   90.375    0.268    0.497    8.095
  289.066   92.641    0.204    0.540    7.457
  289.316   96.716   -0.006    0.587    7.657
  289.566   99.491   -0.000    0.631    8.298
  289.816  101.206    0.102    0.582    9.597
  290.066  101.914    0.179    0.564   10.816
  290.316  110.561    0.203    0.527   11.905
  290.566  113.473    0.209    0.538   12.661
  290.816  108.993    0.197    0.543   13.119
  291.066  104.853    0.225    0.524   13.546
  291.316  104.961    0.236    0.501   13.152
  291.566  101.947    0.245    0.506   12.720
  291.816   99.654    0.242    0.530   11.920
  292.066   96.082    0.253    0.529   11.496
  292.316   88.728    0.273    0.501   11.042
  292.566   82.731    0.270    0.471   10.880
  292.816   86.843    0.243    0.493   11.196
  293.066   93.270    0.217    0.534   11.652
  293.316   98.632    0.221    0.576   12.411
  293.566  100.701    0.213    0.563   13.656
  293.816   95.884    0.226    0.515   14.723
  294.066   89.082    0.254    0.524   15.336
  294.316   81.325    0.275    0.548   15.909
  294.566   73.912    0.288    0.567   15.434
  294.816   70.091    0.300    0.547   13.696
  295.066   68.679    0.303    0.509   12.110
  295.316   69.654    0.290    0.494   10.341
  295.566   74.627    0.270    0.476    9.452
  295.816   84.401    0.241    0.475    8.455
  296.066   93.059    0.230    0.506    7.872
  296.316   99.647    0.212    0.544    7.133
  296.566  105.503    0.195    0.568    6.666
  296.816  107.230    0.190    0.597    6.392
  297.066  105.544    0.190    0.603    6.160
  297.316  107.698    0.195    0.586    6.594
  297.566  111.020    0.206    0.577    7.126
  297.816  108.064    0.226    0.607    8.066
  298.066  104.330    0.228    0.575    8.524
  298.316   98.252    0.214    0.576    9.017
  298.566   94.485    0.212    0.602    9.972
  298.816   89.849    0.193    0.617   10.543
  299.066   87.691    0.191    0.600   10.955
  299.316   85.704    0.209    0.586   11.081
  299.566   83.387    0.225    0.574   10.788
  299.816   83.278    0.232    0.564    9.661
  300.066   83.807    0.256    0.581    9.061
  300.316   85.687    0.218    0.610    8.519
  300.566   88.353    0.190    0.620    8.347
  300.816   89.740    0.198    0.596    8.221
  301.066   91.042    0.207    0.574    8.489
  301.316   95.414    0.241    0.560    9.413
  301.566   96.992    0.228    0.564   10.121
  301.816   93.018    0.240    0.573   10.781
  302.066   87.749    0.249    0.584   11.451
  302.316   83.148    0.268    0.563   12.175
  302.566   77.796    0.255    0.507   12.598
  302.816   74.730    0.236    0.464   12.743
  303.066   76.656    0.266    0.507   12.241
  303.316   75.131    0.273    0.536   11.556
  303.566   71.168    0.292    0.546   10.854
  303.816   70.446    0.309    0.561   10.007
  304.066   70.484    0.299    0.569    9.231
  304.316   70.457    0.301    0.577    9.352
  304.566   70.161    0.280    0.571   10.761
  304.816   69.784    0.273    0.582   12.134
  305.066   67.467    0.269    0.599   13.927
  305.316   61.877    0.284    0.612   15.810
  305.566   55.370    0.305    0.575   16.690
  305.816   48.817    0.308    0.514   16.970
  306.066   45.050    0.364    0.563   17.407
  306.316   42.935    0.396    0.575   17.602
  306.566   41.296    0.398    0.585   17.599
  306.816   40.216    0.338    0.587   17.636
  307.066   43.324    0.318    0.558   17.910
  307.316   44.403    0.324    0.523   18.056
  307.566   43.942    0.314    0.489   18.203
  307.816   43.497    0.303    0.472   18.201
