~VERSION INFORMATION
 VERS.                 2.0:   CWLS LOG ASCII STANDARD -VERSION 2.0
 WRAP.                  NO:   ONE LINE PER DEPTH STEP
~WELL INFORMATION BLOCK
#MNEM.UNIT           DATA                    DESCRIPTION OF MNEMONIC
#---------    -------------------            -------------------------------
# Generated from Intellog Unique Number	CW_70_72/WELL/1029
NULL.         -999.25                        : NULL_VALUE
WELL.         SUNDANCE ET AL SMITH 10-01     : Well_name    - WELL              
LOC .         10-01-071-23W4                 : Location     - LOCATION          
UWI .         00/10-01-071-23W4/0            : Uwi          - UNIQUE WELL ID    
ENTR.         J                              : Entered      - ENTERED BY        
SRVC.         SCHLUMBERGER                   : Scn          - SERVICE COMPANY   
DATE.         20 FEB 76                      : Date         - LOG DATE          
STRT.M        414.528                        : top_depth    - START DEPTH       
STOP.M        594.278                        : bot_depth    - STOP DEPTH        
STEP.M        0.25                           : increment    - STEP LENGTH       
~CURVE INFORMATION BLOCK
#MNEM UNIT       ERCB CURVE CODE    CURVE DESCRIPTION
#-----------   ------------------   ----------------------------------
DEPT.M        00 001 00 00         : DEPTH        - DEPTH                       
DPHI.V/V      00 890 00 00         : PHID         - DENSITY POROSITY (SANDSTONE)
NPHI.V/V      00 330 00 00         : PHIN         - NEUTRON POROSITY (SANDSTONE)
GR  .API      00 310 00 00         : GR           - GAMMA RAY                   
CALI.MM       00 280 01 00         : CAL          - CALIPER                     
ILD .OHMM     00 120 00 00         : RESD         - DEEP RESISTIVITY (DIL)      
~PARAMETER INFORMATION       
#MNEM.UNIT           DATA             DESCRIPTION OF MNEMONIC
#---------         -----------     ------------------------------
GL  .M        658.216              : gl           - GROUND LEVEL ELEVATION      
EREF.M        661.416              : kb           - ELEVATION OF DEPTH REFERENCE
DATM.M        658.216              : datum        - DATUM ELEVATION             
TDD .M        622.097              : tdd          - TOTAL DEPTH DRILLER         
RUN .         ONE                  : Run          - RUN NUMBER                  
BASE.         EDM                  : Branch       - HOME BASE OF LOGGING UNIT   
MUD .         GEL                  : Mud_type     - MUD TYPE                    
MATR.         SANDSTONE            : Logunit      - NEUTRON MATRIX              
TMAX.C        26.6667              : BHT          - MAXIMUM RECORDED TEMPERATURE
BHTD.M        622.097              : BHTDEP       - MAXIMUM RECORDED TEMPERATURE
RMT .C        18.8889              : MDTP         - TEMPERATURE OF MUD          
MUDD.KG/M     0                    : MWT          - MUD DENSITY                 
NEUT.         1                    : NEUTRON      - NEUTRON TYPE                
RESI.         0                    : RESIST       - RESISTIVITY TYPE            
RM  .OHMM     1.56                 : RM           - RESISTIVITY OF MUD          
RMC .OHMM     0                    : RMC          - RESISTIVITY OF MUD CAKE     
RMF .OHMM     1.85                 : RMF          - RESISTIVITY OF MUD FILTRATE 
SUFT.C        -17.7778             : SUFT         - SURFACE TEMPERATURE         
~A  DEPTH     PHID     PHIN       GR      CAL     RESD
# ...
  451.028    0.127    0.307   76.768  150.794    9.716
  451.278    0.122    0.296   72.351  151.612   10.845
  451.528    0.108    0.304   68.961  152.304   11.651
  451.778    0.124    0.277   68.473  152.799   12.046
  452.028    0.150    0.338   73.593  153.171   11.964
  452.278    0.167    0.370   79.485  153.543   11.691
  452.528    0.191    0.357   82.800  153.919   11.525
  452.778    0.213    0.373   83.988  154.516   10.936
  453.028    0.240    0.440   85.373  154.882    9.422
  453.278    0.248    0.461   88.238  155.362    7.315
  453.528    0.244    0.485   90.909  157.705    6.042
  453.778    0.248    0.486   92.093  159.824    4.919
  454.028    0.250    0.482   93.088  160.532    4.419
  454.278    0.241    0.475   93.954  160.140    4.381
  454.528    0.232    0.468   95.274  159.316    4.480
  454.778    0.250    0.461   97.554  159.151    4.590
  455.028    0.245    0.448  101.644  159.627    4.635
  455.278    0.249    0.443   99.419  160.330    4.536
  455.528    0.263    0.443   97.189  160.808    4.313
  455.778    0.276    0.431   94.315  161.513    4.033
  456.028    0.286    0.428   91.506  161.562    3.813
  456.278    0.273    0.456   90.050  161.279    3.705
  456.528    0.308    0.441   90.529  161.004    3.714
  456.778    0.257    0.436   94.554  160.614    3.743
  457.028    0.244    0.459  101.286  160.329    3.891
  457.278    0.248    0.477  104.666  159.936    4.150
  457.528    0.245    0.483  105.404  160.206    4.314
  457.778    0.236    0.490  105.558  160.040    4.379
  458.028    0.231    0.488  105.973  159.757    4.358
  458.278    0.237    0.474  106.387  159.042    4.321
  458.528    0.224    0.463  102.485  159.081    4.306
  458.778    0.212    0.454   99.228  159.901    4.317
  459.028    0.182    0.447  100.349  160.818    4.327
  459.278    0.200    0.436  102.376  162.497    4.305
  459.528    0.192    0.446  101.756  165.053    4.253
  459.778    0.211    0.461   99.593  167.284    4.239
  460.028    0.203    0.468   96.078  167.551    4.203
  460.278    0.209    0.468   93.010  167.708    4.243
  460.528    0.245    0.485   88.206  168.529    4.316
  460.778    0.287    0.477   81.786  169.773    4.437
  461.028    0.317    0.490   68.276  169.265    4.953
  461.278    0.341    0.476   55.284  166.152    6.024
  461.528    0.352    0.463   51.446  164.450    7.654
  461.778    0.358    0.454   52.696  164.176    9.292
  462.028    0.341    0.456   55.371  164.657   10.777
  462.278    0.333    0.463   57.717  165.256   12.229
  462.528    0.326    0.469   62.770  165.619   12.712
  462.778    0.332    0.473   68.923  165.777   11.112
  463.028    0.326    0.471   71.531  165.721    8.738
  463.278    0.318    0.469   70.396  165.543    7.088
  463.528    0.307    0.468   65.591  165.158    5.306
  463.778    0.311    0.478   58.140  165.530    4.521
  464.028    0.351    0.497   51.143  165.682    4.649
  464.278    0.408    0.489   44.403  165.955    5.086
  464.528    0.453    0.488   40.368  165.560    5.750
  464.778    0.491    0.563   38.849  163.319    6.841
  465.028    0.566    0.598   44.033  159.104    9.149
  465.278    0.382    0.609   54.375  159.154   10.175
  465.528    0.290    0.572   61.492  157.123    9.360
  465.778    0.294    0.541   63.132  151.497    6.943
  466.028    0.295    0.416   62.902  148.595    5.927
  466.278    0.297    0.424   60.611  147.878    5.106
  466.528    0.296    0.429   56.385  148.151    4.638
  466.778    0.273    0.425   52.609  147.105    4.648
  467.028    0.285    0.420   49.609  145.953    4.659
  467.278    0.298    0.421   47.958  145.346    4.569
  467.528    0.303    0.423   47.278  144.741    4.456
  467.778    0.294    0.420   47.368  143.704    4.228
  468.028    0.291    0.413   48.045  143.295    4.049
  468.278    0.313    0.412   49.426  143.025    3.815
  468.528    0.304    0.417   51.255  143.175    3.633
  468.778    0.299    0.429   51.798  143.660    3.511
  469.028    0.310    0.434   50.474  143.595    3.362
  469.278    0.313    0.435   49.533  143.647    3.279
  469.528    0.311    0.435   49.369  143.579    3.180
  469.778    0.306    0.431   50.493  143.959    3.057
  470.028    0.302    0.424   51.744  143.681    2.965
  470.278    0.312    0.417   51.837  143.398    2.844
  470.528    0.317    0.412   51.541  143.119    2.789
  470.778    0.326    0.411   51.571  142.947    2.745
  471.028    0.339    0.425   51.920  142.771    2.677
  471.278    0.332    0.415   52.786  142.607    2.621
  471.528    0.320    0.411   54.169  142.323    2.579
  471.778    0.323    0.416   55.360  142.267    2.543
  472.028    0.324    0.435   55.900  142.088    2.512
  472.278    0.332    0.448   56.380  141.804    2.477
  472.528    0.335    0.454   56.866  141.308    2.455
  472.778    0.341    0.451   56.948  140.704    2.430
  473.028    0.341    0.447   57.234  140.639    2.409
  473.278    0.326    0.435   57.392  141.018    2.388
  473.528    0.336    0.434   57.677  141.605    2.376
  473.778    0.335    0.444   57.447  142.093    2.360
  474.028    0.330    0.442   57.669  142.141    2.340
  474.278    0.328    0.434   60.597  142.291    2.328
  474.528    0.326    0.423   65.138  142.564    2.351
  474.778    0.322    0.414   65.873  142.608    2.382
  475.028    0.310    0.412   64.225  142.987    2.441
  475.278    0.278    0.421   62.706  143.143    2.473
  475.528    0.293    0.437   61.511  143.516    2.492
  475.778    0.324    0.453   61.152  143.671    2.507
  476.028    0.322    0.461   60.663  143.711    2.509
  476.278    0.312    0.468   60.050  143.873    2.510
  476.528    0.315    0.479   58.912  143.920    2.539
  476.778    0.312    0.481   56.944  144.075    2.620
  477.028    0.293    0.427   54.715  144.228    2.851
  477.278    0.212    0.371   52.294  144.601    3.325
  477.528    0.159    0.320   49.549  146.290    3.814
  477.778    0.097    0.256   46.163  148.631    4.750
  478.028    0.114    0.277   43.868  151.073    5.429
  478.278    0.198    0.340   44.801  147.522    4.609
  478.528    0.238    0.408   46.699  145.713    3.849
  478.778    0.285    0.436   48.656  144.567    3.128
  479.028    0.326    0.452   51.846  143.851    2.631
  479.278    0.323    0.475   55.095  143.454    2.390
  479.528    0.326    0.474   58.216  143.505    2.231
  479.778    0.329    0.462   59.341  143.885    2.172
  480.028    0.333    0.461   58.207  144.032    2.165
  480.278    0.337    0.468   58.816  144.409    2.202
  480.528    0.338    0.470   60.002  144.564    2.219
  480.778    0.330    0.463   60.610  144.832    2.220
  481.028    0.330    0.462   59.993  145.089    2.218
  481.278    0.339    0.460   59.311  145.361    2.222
  481.528    0.342    0.448   59.860  145.300    2.228
  481.778    0.322    0.429   60.205  145.239    2.253
  482.028    0.333    0.434   61.526  145.284    2.271
  482.278    0.321    0.451   62.519  145.224    2.327
  482.528    0.300    0.470   63.898  145.264    2.375
  482.778    0.312    0.475   66.634  145.426    2.447
  483.028    0.312    0.464   69.498  145.358    2.488
  483.278    0.305    0.452   70.754  145.515    2.559
  483.528    0.295    0.447   71.165  145.454    2.616
  483.778    0.294    0.451   70.741  145.283    2.671
  484.028    0.292    0.438   71.607  145.230    2.736
  484.278    0.280    0.446   74.151  145.270    2.793
  484.528    0.282    0.451   76.368  145.421    2.820
  484.778    0.289    0.446   71.497  145.690    2.837
  485.028    0.286    0.426   66.047  146.066    2.828
  485.278    0.293    0.411   64.591  146.216    2.835
  485.528    0.294    0.416   65.265  140.924    2.836
  485.778    0.303    0.427   65.551  140.308    2.827
  486.028    0.291    0.434   64.932  140.028    2.808
  486.278    0.304    0.432   62.188  140.516    2.809
  486.528    0.312    0.412   59.900  141.437    2.770
  486.778    0.328    0.423   60.635  142.791    2.741
  487.028    0.318    0.430   62.595  143.820    2.717
  487.278    0.302    0.443   63.589  142.452    2.704
