~VERSION INFORMATION
 VERS.                 2.0:   CWLS LOG ASCII STANDARD -VERSION 2.0
 WRAP.                  NO:   ONE LINE PER DEPTH STEP
~WELL INFORMATION BLOCK
#MNEM.UNIT           DATA                    DESCRIPTION OF MNEMONIC
#---------    -------------------            -------------------------------
# Generated from Intellog Unique Number	CW_76_78/WELL/2816
NULL.         -999.25                        : NULL_VALUE
WELL.         WOODS ET AQL MARTEN HILLS 11-1 : Well_name    - WELL              
LOC .         00/11-16-077-02W5/0            : Location     - LOCATION          
UWI .         00/11-16-077-02W5/0            : Uwi          - UNIQUE WELL ID    
ENTR.         JJ                             : Entered      - ENTERED BY        
SRVC.         SCHLUMBERGER                   : Scn          - SERVICE COMPANY   
DATE.         28 JAN 75                      : Date         - LOG DATE          
STRT.M        499.872                        : top_depth    - START DEPTH       
STOP.M        627.872                        : bot_depth    - STOP DEPTH        
STEP.M        0.25                           : increment    - STEP LENGTH       
~CURVE INFORMATION BLOCK
#MNEM UNIT       ERCB CURVE CODE    CURVE DESCRIPTION
#-----------   ------------------   ----------------------------------
DEPT.M        00 001 00 00         : DEPTH        - DEPTH                       
GR  .API      00 310 00 00         : GR           - GAMMA RAY                   
ILD .OHMM     00 120 00 00         : RESD         - DEEP RESISTIVITY (DIL)      
DELT.US/F     00 520 00 00         : DELT         - SONIC TRAVEL TIME           
NPHI.V/V      00 330 00 00         : PHIN         - NEUTRON POROSITY (SANDSTONE)
~PARAMETER INFORMATION       
#MNEM.UNIT           DATA             DESCRIPTION OF MNEMONIC
#---------         -----------     ------------------------------
GL  .M        702.869              : gl           - GROUND LEVEL ELEVATION      
EREF.M        706.222              : kb           - ELEVATION OF DEPTH REFERENCE
DATM.M        706.222              : datum        - DATUM ELEVATION             
TDD .M        624.84               : tdd          - TOTAL DEPTH DRILLER         
RUN .         ONE                  : Run          - RUN NUMBER                  
ENG .         CURRIE               : Engineer     - RECORDING ENGINEER          
WIT .         MATHESON             : Witness      - WITNESSED BY                
BASE.         EDMONTON             : Branch       - HOME BASE OF LOGGING UNIT   
MUD .         GEL                  : Mud_type     - MUD TYPE                    
MATR.         SANDSTONE            : Logunit      - NEUTRON MATRIX              
TMAX.C        26.6667              : BHT          - MAXIMUM RECORDED TEMPERATURE
BHTD.M        626.059              : BHTDEP       - MAXIMUM RECORDED TEMPERATURE
RMT .C        12.7778              : MDTP         - TEMPERATURE OF MUD          
MUDD.KG/M     1140                 : MWT          - MUD DENSITY                 
NEUT.         1                    : NEUTRON      - NEUTRON TYPE                
RESI.         0                    : RESIST       - RESISTIVITY TYPE            
RM  .OHMM     6.3                  : RM           - RESISTIVITY OF MUD          
RMC .OHMM     0                    : RMC          - RESISTIVITY OF MUD CAKE     
RMF .OHMM     0                    : RMF          - RESISTIVITY OF MUD FILTRATE 
SUFT.C        5                    : SUFT         - SURFACE TEMPERATURE         
~A  DEPTH       GR     RESD     DELT     PHIN
  499.872   76.635    5.583  377.223    0.475
  500.122   77.737    5.417  386.786    0.474
  500.372   78.412    5.291  385.755    0.485
  500.622   78.583    5.364  381.506    0.472
  500.872   77.417    5.615  383.571    0.490
  501.122   75.518    5.662  376.686    0.491
  501.372   78.214    5.558  367.837    0.464
  501.622   81.271    5.454  392.070    0.451
  501.872   80.220    5.361  397.225    0.471
  502.122   77.649    5.255  388.096    0.473
  502.372   79.542    5.212  383.781    0.495
  502.622   81.315    5.180  395.853    0.466
  502.872   79.601    5.162  401.335    0.488
  503.122   83.392    5.139  393.593    0.492
  503.372   82.166    5.070  387.371    0.479
  503.622   78.374    4.966  381.612    0.465
  503.872   81.180    4.865  395.908    0.450
  504.122   85.156    4.803  404.483    0.483
  504.372   83.933    4.799  407.539    0.522
  504.622   82.959    4.958  397.432    0.535
  504.872   82.945    5.227  390.818    0.510
  505.122   83.195    5.381  383.799    0.494
  505.372   83.251    5.519  389.091    0.471
  505.622   81.779    5.535  389.106    0.471
  505.872   78.653    5.402  385.585    0.464
  506.122   74.972    5.158  383.510    0.451
  506.372   75.839    5.036  389.322    0.464
  506.622   77.243    5.079  387.039    0.472
  506.872   77.349    5.543  382.004    0.486
  507.122   73.374    6.584  386.307    0.507
  507.372   67.862    8.354  396.191    0.479
  507.622   62.172   14.642  394.446    0.477
  507.872   56.045   20.360  379.606    0.464
  508.122   51.752   25.690  335.229    0.357
  508.372   55.011   19.257  183.836    0.305
  508.622   57.746   15.243  175.835    0.251
  508.872   61.296   10.794  204.672    0.328
  509.122   64.666    9.027  231.204    0.443
  509.372   66.245    7.229  300.362    0.425
  509.622   67.843    6.423  284.010    0.413
  509.872   69.240    5.454  306.198    0.425
  510.122   73.463    5.019  341.415    0.462
  510.372   80.195    4.810  393.670    0.483
  510.622   82.942    4.618  396.454    0.495
  510.872   82.937    4.591  390.627    0.479
  511.122   80.253    4.794  379.860    0.440
  511.372   78.040    5.301  370.550    0.448
  511.622   75.960    6.017  379.522    0.472
  511.872   74.299    6.412  397.889    0.453
  512.122   70.501    7.038  388.448    0.474
  512.372   67.327    7.839  386.110    0.497
  512.622   64.204    8.262  391.066    0.488
  512.872   62.289    8.567  390.761    0.475
  513.122   62.964    8.393  386.046    0.464
  513.372   66.570    8.070  384.498    0.470
  513.622   70.977    7.621  391.366    0.495
  513.872   72.566    7.174  389.016    0.462
  514.122   71.640    7.114  385.430    0.451
  514.372   66.565    7.274  381.175    0.465
  514.622   67.531    8.242  389.489    0.483
  514.872   68.637    8.745  379.453    0.495
  515.122   64.590   10.103  386.055    0.366
  515.372   59.201   12.910  323.128    0.308
  515.622   59.017   16.563  241.390    0.262
  515.872   63.548   11.344  237.606    0.301
  516.122   67.394    9.049  262.231    0.401
  516.372   68.555    7.868  328.359    0.448
  516.622   64.815    6.954  380.089    0.447
  516.872   67.581    6.273  372.748    0.450
  517.122   70.076    5.977  364.352    0.453
  517.372   75.832    5.931  374.769    0.445
  517.622   83.970    6.105  388.874    0.447
  517.872   80.352    6.284  381.664    0.455
  518.122   75.272    6.294  394.383    0.474
  518.372   74.731    6.222  404.796    0.476
  518.622   76.743    6.028  383.580    0.466
  518.872   78.748    5.807  310.658    0.409
  519.122   81.512    5.514  364.883    0.441
  519.372   82.658    5.094  374.108    0.467
  519.622   83.644    4.681  368.483    0.463
  519.872   82.536    4.331  377.851    0.497
  520.122   74.883    3.835  400.629    0.519
  520.372   75.792    3.440  413.485    0.571
  520.622   82.044    2.969  414.422    0.602
  520.872   88.397    2.727  403.535    0.577
  521.122   93.109    2.478  398.103    0.553
  521.372   92.922    2.319  400.299    0.492
  521.622   85.694    2.234  398.544    0.467
  521.872   78.347    2.229  401.332    0.463
  522.122   81.424    2.381  398.726    0.472
  522.372   83.561    2.656  395.336    0.498
  522.622   85.570    3.019  397.195    0.504
  522.872   88.742    3.451  407.617    0.471
  523.122   87.642    3.821  409.146    0.495
  523.372   83.600    4.433  405.303    0.510
  523.622   82.365    5.019  398.022    0.487
  523.872   78.391    5.590  392.065    0.449
  524.122   73.304    5.958  401.628    0.479
  524.372   72.631    5.978  419.677    0.443
  524.622   77.826    5.392  392.865    0.449
  524.872   83.085    5.063  394.664    0.474
  525.122   83.268    5.006  398.309    0.489
  525.372   78.982    5.078  379.850    0.473
  525.622   83.200    5.303  382.428    0.487
  525.872   81.485    5.747  386.206    0.457
  526.122   72.062    6.331  386.964    0.456
  526.372   65.568    7.092  393.304    0.473
  526.622   67.712    7.489  304.989    0.412
  526.872   71.438    7.431  302.050    0.399
  527.122   70.399    6.777  351.873    0.424
  527.372   70.452    6.375  294.471    0.391
  527.622   73.755    5.900  372.117    0.467
  527.872   76.696    5.411  394.561    0.482
  528.122   77.664    5.091  394.401    0.469
  528.372   76.869    4.968  401.200    0.476
  528.622   78.271    4.894  395.106    0.436
  528.872   82.001    4.900  405.720    0.475
  529.122   81.571    4.970  391.869    0.477
  529.372   83.961    5.032  395.380    0.457
  529.622   85.182    5.013  386.131    0.463
  529.872   81.694    4.973  382.272    0.463
  530.122   80.526    4.917  383.545    0.467
  530.372   81.019    4.861  388.705    0.479
  530.622   83.946    4.876  391.229    0.465
  530.872   88.161    4.992  388.027    0.455
  531.122   90.364    5.271  388.582    0.469
  531.372   81.979    5.765  398.342    0.494
  531.622   77.076    6.191  395.536    0.464
  531.872   75.368    6.721  392.209    0.435
  532.122   78.125    7.375  400.393    0.443
  532.372   78.232    8.184  418.836    0.457
  532.622   70.392    9.269  420.166    0.480
  532.872   62.322   10.534  312.720    0.408
  533.122   58.031   12.490  260.846    0.344
  533.372   57.593   13.735  244.819    0.300
  533.622   62.739   14.240  260.632    0.346
  533.872   66.776   13.673  327.947    0.370
  534.122   69.643   12.538  304.160    0.383
  534.372   70.433   11.539  296.752    0.397
  534.622   69.704   10.637  363.084    0.439
  534.872   66.886    9.880  392.972    0.507
  535.122   64.980    9.858  394.174    0.501
  535.372   63.822   10.337  388.285    0.477
  535.622   65.216   10.777  383.505    0.469
  535.872   68.947   10.871  388.334    0.493
  536.122   68.585   10.650  384.542    0.500
  536.372   68.516   10.260  380.753    0.483
  536.622   71.572    9.689  381.370    0.511
  536.872   74.078    9.200  380.215    0.472
  537.122   68.700    8.689  379.446    0.461
  537.372   65.510    8.281  379.012    0.490
  537.622   73.840    7.890  380.157    0.504
  537.872   67.708    7.504  378.466    0.474
  538.122   66.302    6.945  377.446    0.469
  538.372   66.965    6.345  376.477    0.479
  538.622   69.104    5.840  375.588    0.487
  538.872   71.927    5.394  374.952    0.475
  539.122   74.606    5.003  375.966    0.458
  539.372   78.588    4.873  370.726    0.450
  539.622   82.314    4.817  390.555    0.498
  539.872   86.291    4.921  384.988    0.502
  540.122   88.126    5.067  390.012    0.475
  540.372   84.273    5.139  385.829    0.482
  540.622   81.266    5.202  381.117    0.461
  540.872   80.215    5.191  379.553    0.452
  541.122   79.966    4.939  376.235    0.452
  541.372   80.032    4.784  387.442    0.446
  541.622   82.121    4.635  383.978    0.455
  541.872   84.562    4.591  391.044    0.483
  542.122   86.943    4.639  393.897    0.458
  542.372   90.363    4.741  386.884    0.463
  542.622   91.519    4.943  385.329    0.481
  542.872   82.404    5.192  385.355    0.492
  543.122   79.403    5.534  385.171    0.506
