~VERSION INFORMATION
 VERS.                 2.0:   CWLS LOG ASCII STANDARD -VERSION 2.0
 WRAP.                  NO:   ONE LINE PER DEPTH STEP
~WELL INFORMATION BLOCK
#MNEM.UNIT           DATA                    DESCRIPTION OF MNEMONIC
#---------    -------------------            -------------------------------
# Generated from Intellog Unique Number	CS_77_79/WELL/948
LOC .         00/10-11-079-07W4/0            : Location     - LOCATION
UWI .         00/10-11-079-07W4/0            : Uwi          - UNIQUE WELL ID
ENTR.         JHS                            : Entered      - ENTERED BY
SRVC.         SCHLUMBERGER                   : Scn          - SERVICE COMPANY
STRT.M        110                            : top_depth    - START DEPTH
STOP.M        345                            : bot_depth    - STOP DEPTH
STEP.M        0.25                           : increment    - STEP LENGTH
 NULL. -999.2500:NULL Value
~CURVE INFORMATION BLOCK
#MNEM UNIT       ERCB CURVE CODE    CURVE DESCRIPTION
#-----------   ------------------   ----------------------------------
DEPT.M        00 001 00 00         : DEPTH        - DEPTH
DPHI.V/V      00 890 00 00         : PHID         - DENSITY POROSITY (LIMESTONE)
NPHI.V/V      00 330 00 00         : PHIN         - NEUTRON POROSITY (LIMESTONE)
GR  .API      00 310 00 00         : GR           - GAMMA RAY
ILD .OHMM     00 120 00 00         : RESD         - DEEP RESISTIVITY (DIL)
RHOB.KG/M3    00 350 00 00         : DENS         - BULK DENSITY
~PARAMETER INFORMATION
#MNEM.UNIT           DATA             DESCRIPTION OF MNEMONIC
#---------         -----------     ------------------------------
GL  .M        550.24               : gl           - GROUND LEVEL ELEVATION
EREF.M        553.62               : kb           - ELEVATION OF DEPTH REFERENCE
DATM.M        553.62               : datum        - DATUM ELEVATION
TDD .M        349                  : tdd          - TOTAL DEPTH DRILLER
RUN .         ONE                  : Run          - RUN NUMBER
ENG .         BILL                 : Engineer     - RECORDING ENGINEER
WIT .         JIM                  : Witness      - WITNESSED BY
MUD .         GEL                  : Mud_type     - MUD TYPE
MATR.         LIMESTONE            : Logunit      - NEUTRON MATRIX
TMAX.C        15                   : BHT          - MAXIMUM RECORDED TEMPERATURE
BHTD.M        349                  : BHTDEP       - MAXIMUM RECORDED TEMPERATURE
MATR.         1                    : LOGUNIT      - NEUTRON MATRIX
RMT .C        25                   : MDTP         - TEMPERATURE OF MUD
NEUT.         1                    : NEUTRON      - NEUTRON TYPE
RESI.         0                    : RESIST       - RESISTIVITY TYPE
RMC .OHMM     0.25                 : RMC          - RESISTIVITY OF MUD CAKE
RMF .OHMM     0.25                 : RMF          - RESISTIVITY OF MUD FILTRATE
SUFT.C        15                   : SUFT         - SURFACE TEMPERATURE
~A  DEPTH     PHID     PHIN       GR     RESD     DENS
# ...
  183.000    0.296    0.396   77.135   32.471    0.000
  183.250    0.294    0.386   66.579   33.106    0.000
  183.500    0.293    0.375   65.359   34.400    0.000
  183.750    0.297    0.371   71.606   35.738    0.000
  184.000    0.298    0.395   71.627   36.438    0.000
  184.250    0.297    0.398   64.183   37.860    0.000
  184.500    0.303    0.407   71.053   37.886    0.000
  184.750    0.310    0.401   76.058   37.905    0.000
  185.000    0.309    0.397   77.947   37.941    0.000
  185.250    0.309    0.396   80.459   37.956    0.000
  185.500    0.306    0.383   77.370   37.986    0.000
  185.750    0.310    0.378   84.865   37.297    0.000
  186.000    0.317    0.381   86.131   36.622    0.000
  186.250    0.319    0.368   79.931   35.965    0.000
  186.500    0.314    0.384   81.198   35.991    0.000
  186.750    0.310    0.395   76.245   36.012    0.000
  187.000    0.310    0.399   75.643   35.363    0.000
  187.250    0.311    0.385   76.912   36.055    0.000
  187.500    0.311    0.394   75.696   36.767    0.000
  187.750    0.310    0.401   75.716   36.787    0.000
  188.000    0.311    0.390   77.602   36.813    0.000
  188.250    0.316    0.379   68.290   36.150    0.000
  188.500    0.317    0.381   70.180   34.840    0.000
  188.750    0.317    0.404   75.805   34.212    0.000
  189.000    0.316    0.415   73.964   32.351    0.000
  189.250    0.314    0.427   73.366   30.597    0.000
  189.500    0.313    0.419   72.765   28.934    0.000
  189.750    0.313    0.396   76.523   27.359    0.000
  190.000    0.313    0.405   71.566   24.924    0.000
  190.250    0.310    0.396   70.344   23.572    0.000
  190.500    0.309    0.391   70.367   23.145    0.000
  190.750    0.308    0.406   75.372   23.162    0.000
  191.000    0.302    0.381   74.770   23.169    0.000
  191.250    0.309    0.389   76.038   23.625    0.000
  191.500    0.311    0.404   77.306   24.089    0.000
  191.750    0.311    0.420   79.198   25.031    0.000
  192.000    0.314    0.413   81.711   25.523    0.000
  192.250    0.318    0.402   82.354   26.025    0.000
  192.500    0.321    0.402   76.778   26.043    0.000
  192.750    0.317    0.399   71.199   26.058    0.000
  193.000    0.307    0.411   71.846   25.112    0.000
  193.250    0.304    0.418   82.450   23.751    0.000
  193.500    0.305    0.419   81.852   22.886    0.000
  193.750    0.309    0.405   75.651   22.900    0.000
  194.000    0.310    0.404   73.809   23.792    0.000
  194.250    0.304    0.426   80.060   25.195    0.000
  194.500    0.310    0.414   80.075   25.684    0.000
  194.750    0.312    0.420   73.880   27.195    0.000
  195.000    0.312    0.422   73.904   28.257    0.000
  195.250    0.317    0.401   71.436   29.362    0.000
  195.500    0.322    0.396   69.588   29.945    0.000
  195.750    0.326    0.391   70.235   29.960    0.000
  196.000    0.322    0.385   69.014   29.983    0.000
  196.250    0.316    0.380   78.376   29.998    0.000
  196.500    0.317    0.384   79.643   30.012    0.000
  196.750    0.320    0.402   71.572   29.485    0.000
  197.000    0.320    0.397   65.372   28.954    0.000
  197.250    0.320    0.391   64.772   28.429    0.000
  197.500    0.323    0.397   68.529   28.444    0.000
  197.750    0.325    0.404   73.532   27.930    0.000
  198.000    0.326    0.413   75.424   27.945    0.000
  198.250    0.324    0.433   68.603   27.959    0.000
  198.500    0.320    0.441   62.400   27.989    0.000
  198.750    0.315    0.420   68.025   28.000    0.000
  199.000    0.313    0.420   74.272   28.015    0.000
  199.250    0.311    0.416   71.183   27.513    0.000
  199.500    0.311    0.404   69.961   27.533    0.000
  199.750    0.314    0.421   65.629   27.036    0.000
  200.000    0.316    0.414   74.989   26.544    0.000
  200.250    0.319    0.413   74.390   26.560    0.000
  200.500    0.320    0.406   76.279   26.083    0.000
  200.750    0.321    0.393   69.457   26.100    0.000
  201.000    0.321    0.389   71.349   25.634    0.000
  201.250    0.322    0.384   69.501   25.167    0.000
  201.500    0.322    0.376   68.282   24.255    0.000
  201.750    0.318    0.407   67.682   22.509    0.000
  202.000    0.317    0.402   71.439   20.117    0.000
  202.250    0.322    0.391   78.309   14.895    0.000
  202.500    0.339    0.401   82.688   10.424    0.000
  202.750    0.327    0.353   77.110   10.235    0.000
  203.000    0.303    0.325   75.893   11.684    0.000
  203.250    0.223    0.294   81.514   14.113    0.000
  203.500    0.162    0.270   64.734   18.037    0.000
  203.750    0.103    0.224   52.932   25.327    0.000
  204.000    0.009    0.153   46.730   33.609    0.000
  204.250    0.000    0.141   48.623   42.155    0.000
  204.500    0.041    0.159   63.586   45.487    0.000
  204.750    0.128    0.236   71.077   40.654    0.000
  205.000    0.179    0.285   84.167   27.396    0.000
  205.250    0.229    0.413   77.344   21.463    0.000
  205.500    0.279    0.418   76.123   18.825    0.000
  205.750    0.277    0.408   83.617   18.145    0.000
  206.000    0.274    0.404   81.150   17.815    0.000
  206.250    0.280    0.431   79.931   18.164    0.000
  206.500    0.294    0.410   77.461   18.877    0.000
  206.750    0.304    0.453   81.847   19.614    0.000
  207.000    0.309    0.451   78.753   19.999    0.000
  207.250    0.315    0.441   70.064   20.391    0.000
  207.500    0.315    0.436   70.086   20.021    0.000
  207.750    0.308    0.428   69.488   19.660    0.000
  208.000    0.305    0.419   80.093   16.607    0.000
  208.250    0.310    0.444   85.720   10.380    0.000
  208.500    0.310    0.474   91.965    7.402    0.000
  208.750    0.307    0.479  100.700    6.022    0.000
  209.000    0.300    0.447  113.171    5.914    0.000
  209.250    0.262    0.436  108.839    5.917    0.000
  209.500    0.249    0.450  115.707    6.148    0.000
  209.750    0.247    0.457  120.085    6.889    0.000
  210.000    0.247    0.461  121.352    7.293    0.000
  210.250    0.239    0.474  115.775    7.296    0.000
  210.500    0.245    0.481  119.537    6.902    0.000
  210.750    0.250    0.493  123.912    6.527    0.000
  211.000    0.247    0.506  125.181    6.291    0.000
  211.250    0.245    0.483  122.714    6.293    0.000
  211.500    0.238    0.502  130.207    6.065    0.000
  211.750    0.236    0.525  135.213    5.629    0.000
  212.000    0.240    0.564  118.431    5.223    0.000
  212.250    0.245    0.564  122.807    4.757    0.000
  212.500    0.246    0.570  125.943    4.332    0.000
  212.750    0.243    0.555  117.252    4.098    0.000
  213.000    0.237    0.544  124.122    4.178    0.000
  213.250    0.231    0.550  132.236    4.180    0.000
  213.500    0.227    0.533  137.240    4.263    0.000
  213.750    0.239    0.537  127.926    4.347    0.000
  214.000    0.255    0.528  126.083    4.349    0.000
  214.250    0.259    0.532  126.113    4.271    0.000
  214.500    0.256    0.576  124.885    4.194    0.000
  214.750    0.253    0.584  124.286    4.277    0.000
  215.000    0.253    0.556  123.689    4.443    0.000
  215.250    0.258    0.540  126.825    4.886    0.000
  215.500    0.256    0.540  123.111    5.172    0.000
  215.750    0.253    0.521  120.024    5.374    0.000
  216.000    0.251    0.518  123.163    5.377    0.000
  216.250    0.249    0.542  112.601    5.280    0.000
  216.500    0.247    0.580  114.492    4.902    0.000
  216.750    0.262    0.588  122.604    4.722    0.000
  217.000    0.280    0.596  130.722    4.301    0.000
  217.250    0.297    0.610  133.854    4.067    0.000
  217.500    0.364    0.615  121.434    3.775    0.000
  217.750    0.401    0.618  120.830    3.707    0.000
  218.000    0.386    0.621  113.386    3.640    0.000
  218.250    0.352    0.621  104.700    3.575    0.000
  218.500    0.344    0.621  112.190    3.576    0.000
  218.750    0.351    0.619  114.091    3.579    0.000
  219.000    0.356    0.609  115.347    3.514    0.000
  219.250    0.355    0.597  115.372    3.517    0.000
