~VERSION INFORMATION
 VERS.                 2.0:   CWLS LOG ASCII STANDARD -VERSION 2.0
 WRAP.                  NO:   ONE LINE PER DEPTH STEP
~WELL INFORMATION BLOCK
#MNEM.UNIT           DATA                    DESCRIPTION OF MNEMONIC
#---------    -------------------            -------------------------------
# Generated from Intellog Unique Number	CS_67_68/WELL/2402
WELL.         MERLAND TWEEDIE                : Well_name    - WELL
LOC .         00/11-27-068-11W4/0            : Location     - LOCATION
UWI .         00/11-27-068-11W4/0            : Uwi          - UNIQUE WELL ID
ENTR.         TIM                            : Entered      - ENTERED BY
SRVC.         SCHLUMBERGER                   : Scn          - SERVICE COMPANY
STRT.M        300                            : top_depth    - START DEPTH
STOP.M        505                            : bot_depth    - STOP DEPTH
STEP.M        0.25                           : increment    - STEP LENGTH
 NULL. -999.2500:NULL Value
~CURVE INFORMATION BLOCK
#MNEM UNIT       ERCB CURVE CODE    CURVE DESCRIPTION
#-----------   ------------------   ----------------------------------
DEPT.M        00 001 00 00         : DEPTH        - DEPTH
DPHI.V/V      00 890 00 00         : PHID         - DENSITY POROSITY (SANDSTONE)
NPHI.V/V      00 330 00 00         : PHIN         - NEUTRON POROSITY (SANDSTONE)
CALI.MM       00 280 01 00         : CAL          - CALIPER
GR  .API      00 310 00 00         : GR           - GAMMA RAY
ILD .OHMM     00 120 00 00         : RESD         - DEEP RESISTIVITY (DIL)
~PARAMETER INFORMATION
#MNEM.UNIT           DATA             DESCRIPTION OF MNEMONIC
#---------         -----------     ------------------------------
GL  .M        615.5                : gl           - GROUND LEVEL ELEVATION
EREF.M        619                  : kb           - ELEVATION OF DEPTH REFERENCE
DATM.M        619                  : datum        - DATUM ELEVATION
TDD .M        516                  : tdd          - TOTAL DEPTH DRILLER
RUN .         ONE                  : Run          - RUN NUMBER
ENG .         BILL                 : Engineer     - RECORDING ENGINEER
WIT .         JIM                  : Witness      - WITNESSED BY
MUD .         GEL                  : Mud_type     - MUD TYPE
MATR.         SANDSTONE            : Logunit      - NEUTRON MATRIX
TMAX.C        22                   : BHT          - MAXIMUM RECORDED TEMPERATURE
BHTD.M        516                  : BHTDEP       - MAXIMUM RECORDED TEMPERATURE
MATR.         1                    : LOGUNIT      - NEUTRON MATRIX
RMT .C        22                   : MDTP         - TEMPERATURE OF MUD
NEUT.         1                    : NEUTRON      - NEUTRON TYPE
RESI.         0                    : RESIST       - RESISTIVITY TYPE
RMC .OHMM     4                    : RMC          - RESISTIVITY OF MUD CAKE
RMF .OHMM     4                    : RMF          - RESISTIVITY OF MUD FILTRATE
SUFT.C        5                    : SUFT         - SURFACE TEMPERATURE
~A  DEPTH     PHID     PHIN      CAL       GR     RESD
# ...
  336.500    0.301    0.441  162.856   97.424    3.912
  336.750    0.303    0.430  162.008   98.081    4.060
  337.000    0.293    0.434  162.101   98.174    4.459
  337.250    0.271    0.442  163.196   97.647    4.717
  337.500    0.257    0.433  163.381   97.156    4.989
  337.750    0.217    0.392  163.474   95.444    4.894
  338.000    0.230    0.340  164.600   90.289    4.801
  338.250    0.261    0.354  165.696   89.197    4.367
  338.500    0.305    0.387  165.789   91.585    4.204
  338.750    0.322    0.433  165.912   95.759    3.897
  339.000    0.319    0.443  166.067   97.018    3.823
  339.250    0.316    0.456  166.221   95.343    3.893
  339.500    0.314    0.461  165.311   94.853    3.892
  339.750    0.312    0.457  165.435   95.492    3.964
  340.000    0.311    0.460  164.618   96.713    3.963
  340.250    0.311    0.467  163.769   97.972    3.961
  340.500    0.311    0.470  163.924   98.028    3.960
  340.750    0.308    0.458  163.986   98.121    3.958
  341.000    0.304    0.435  165.143   97.028    3.957
  341.250    0.301    0.417  165.267   95.936    3.955
  341.500    0.300    0.421  165.390   95.992    3.880
  341.750    0.282    0.428  165.514   96.668    3.878
  342.000    0.274    0.443  165.637   98.491    3.876
  342.250    0.283    0.456  165.730  100.898    3.874
  342.500    0.290    0.468  166.857  102.138    3.872
  342.750    0.289    0.462  166.949  101.629    3.871
  343.000    0.275    0.455  168.107   99.954    3.870
  343.250    0.277    0.448  168.230   99.445    3.942
  343.500    0.277    0.454  168.292  100.686    4.015
  343.750    0.256    0.457  168.446  101.926    4.013
  344.000    0.261    0.460  168.570  101.417    4.012
  344.250    0.273    0.454  169.635   99.159    4.086
  344.500    0.283    0.439  169.789   95.753    4.162
  344.750    0.281    0.431  170.885   92.893    4.485
  345.000    0.279    0.422  171.008   88.303    4.569
  345.250    0.271    0.403  171.163   81.981    4.655
  345.500    0.260    0.383  171.317   82.638    4.741
  345.750    0.252    0.397  171.379   80.982    4.830
  346.000    0.262    0.427  169.590   79.853    4.919
  346.250    0.290    0.444  167.770   78.761    4.918
  346.500    0.304    0.464  165.919   77.687    4.915
  346.750    0.334    0.474  165.071   77.178    4.913
  347.000    0.354    0.475  165.194   76.651    4.911
  347.250    0.344    0.474  164.408   76.744    4.817
  347.500    0.321    0.470  164.470   76.799    4.815
  347.750    0.322    0.462  164.593   76.874    4.813
  348.000    0.325    0.450  164.748   79.863    4.811
  348.250    0.330    0.451  165.843   88.721    4.901
  348.500    0.307    0.451  165.967   91.692    4.899
  348.750    0.268    0.446  162.172   94.117    4.990
  349.000    0.257    0.438  162.327   92.442    5.082
  349.250    0.247    0.431  163.391   90.767    5.081
  349.500    0.258    0.428  165.490   88.509    5.175
  349.750    0.289    0.432  165.644   86.232    5.173
  350.000    0.320    0.435  164.765   84.575    5.171
  350.250    0.337    0.438  161.973   86.982    5.168
  350.500    0.312    0.439  162.097   90.555    5.167
  350.750    0.300    0.436  165.198   93.544    5.165
  351.000    0.282    0.427  166.231   97.700    5.163
  351.250    0.254    0.428  167.389  100.690    5.160
  351.500    0.258    0.439  168.422   94.951    5.158
  351.750    0.272    0.443  169.580   90.342    5.156
  352.000    0.259    0.442  169.641   85.187    5.252
  352.250    0.237    0.435  169.796   85.844    5.250
  352.500    0.231    0.433  168.979   89.399    5.348
  352.750    0.238    0.435  168.069   92.990    5.447
  353.000    0.253    0.440  165.339   95.980    5.444
  353.250    0.260    0.440  163.488   96.054    5.443
  353.500    0.275    0.430  161.637   91.445    5.543
  353.750    0.283    0.421  158.907   86.854    5.541
  354.000    0.292    0.418  158.027   82.282    5.538
  354.250    0.292    0.412  157.179   80.588    5.535
  354.500    0.289    0.393  155.359   79.515    5.534
  354.750    0.285    0.382  153.539   78.987    5.532
  355.000    0.274    0.389  151.719   77.933    5.529
  355.250    0.275    0.399  150.902   77.386    5.527
  355.500    0.279    0.399  150.085   78.645    5.526
  355.750    0.285    0.394  149.205   80.469    5.523
  356.000    0.283    0.392  149.360   81.709    5.418
  356.250    0.274    0.399  149.422   81.182    5.416
  356.500    0.274    0.408  149.607   78.340    5.312
  356.750    0.284    0.407  150.672   78.415    5.310
  357.000    0.292    0.399  150.826   80.840    5.308
  357.250    0.296    0.399  151.891   83.829    5.406
  357.500    0.293    0.405  151.984   85.088    5.404
  357.750    0.292    0.414  153.141   83.996    5.401
  358.000    0.289    0.407  154.205   87.550    5.501
  358.250    0.285    0.400  154.298   89.374    5.500
  358.500    0.284    0.392  156.427   90.633    5.603
  358.750    0.277    0.383  157.523   91.290    5.707
  359.000    0.267    0.391  158.618   90.198    6.036
  359.250    0.260    0.398  159.713   88.523    6.266
  359.500    0.259    0.403  160.778   88.014    6.503
  359.750    0.264    0.393  161.873   89.273    6.624
  360.000    0.269    0.384  164.003   91.115    6.622
  360.250    0.271    0.386  165.067   92.318    6.744
  360.500    0.272    0.394  166.193   94.142    6.616
  360.750    0.267    0.402  167.320   95.984    6.612
  361.000    0.265    0.409  168.384   98.390    6.487
  361.250    0.264    0.407  169.449  101.982    6.483
  361.500    0.259    0.401  171.547  104.370    6.361
  361.750    0.250    0.399  172.612  107.961    6.240
  362.000    0.243    0.395  172.735  110.367    6.120
  362.250    0.227    0.404  172.890  109.877    6.004
  362.500    0.222    0.413  172.982  107.582    5.889
  362.750    0.231    0.420  171.162  100.076    5.777
  363.000    0.246    0.440  165.455   95.485    5.666
  363.250    0.265    0.456  157.804   87.396    5.664
  363.500    0.279    0.462  153.069   83.971    5.662
  363.750    0.293    0.460  150.308   81.130    5.660
  364.000    0.320    0.457  149.459   77.706    5.765
  364.250    0.320    0.450  149.583   74.864    5.655
  364.500    0.315    0.440  148.704   72.606    5.653
  364.750    0.319    0.432  148.828   70.931    5.441
  365.000    0.322    0.417  148.982   69.237    5.337
  365.250    0.326    0.409  148.165   67.562    5.235
  365.500    0.327    0.402  148.227   67.655    5.135
  365.750    0.323    0.389  147.440   67.729    5.038
  366.000    0.313    0.380  147.533   69.534    5.036
  366.250    0.287    0.375  149.600   73.125    5.033
  366.500    0.267    0.379  150.665   79.049    5.032
  366.750    0.262    0.380  152.763   81.437    5.029
  367.000    0.256    0.386  155.833   85.010    5.028
  367.250    0.258    0.388  157.869   83.936    5.121
  367.500    0.269    0.382  159.937   79.929    5.216
  367.750    0.279    0.378  161.032   77.069    5.312
  368.000    0.279    0.373  161.156   77.726    5.412
  368.250    0.265    0.383  161.279   81.901    5.410
  368.500    0.256    0.395  159.490   85.510    5.510
  368.750    0.258    0.394  157.701   86.714    5.508
  369.000    0.260    0.386  156.791   86.825    5.506
  369.250    0.258    0.376  156.945   86.298    5.504
  369.500    0.252    0.378  158.072   86.372    5.502
  369.750    0.243    0.384  159.136   88.195    5.397
  370.000    0.241    0.390  160.263   89.436    5.395
  370.250    0.238    0.396  161.389   89.491    5.291
  370.500    0.249    0.399  162.454   86.104    5.289
  370.750    0.257    0.395  163.580   85.558    5.287
  371.000    0.253    0.393  163.673   85.651    5.284
  371.250    0.244    0.397  164.799   86.928    5.282
  371.500    0.234    0.399  164.892   88.150    5.280
  371.750    0.224    0.400  165.987   88.789    5.277
  372.000    0.215    0.398  166.080   90.631    5.275
  372.250    0.218    0.403  167.175   92.454    5.274
  372.500    0.221    0.406  167.361   93.694    5.271
  372.750    0.244    0.403  167.484   90.270    5.170
