~VERSION INFORMATION
 VERS.                 2.0:   CWLS LOG ASCII STANDARD -VERSION 2.0
 WRAP.                  NO:   ONE LINE PER DEPTH STEP
~WELL INFORMATION BLOCK
#MNEM.UNIT           DATA                    DESCRIPTION OF MNEMONIC
#---------    -------------------            -------------------------------
# Generated from Intellog Unique Number	CW_70_72/WELL/3030
NULL.         -999.25                        : NULL_VALUE
WELL.         MESA SULPETRO MEYER 11-22      : Well_name    - WELL              
LOC .         11-22-070-24W4                 : Location     - LOCATION          
UWI .         00/11-22-070-24W4/0            : Uwi          - UNIQUE WELL ID    
ENTR.         jj                             : Entered      - ENTERED BY        
SRVC.         SCHLUMBERGER                   : Scn          - SERVICE COMPANY   
DATE.         20 JAN 77                      : Date         - LOG DATE          
STRT.M        411.48                         : top_depth    - START DEPTH       
STOP.M        633.98                         : bot_depth    - STOP DEPTH        
STEP.M        0.25                           : increment    - STEP LENGTH       
~CURVE INFORMATION BLOCK
#MNEM UNIT       ERCB CURVE CODE    CURVE DESCRIPTION
#-----------   ------------------   ----------------------------------
DEPT.M        00 001 00 00         : DEPTH        - DEPTH                       
ILD .OHMM     00 120 00 00         : RESD         - DEEP RESISTIVITY (DIL)      
CALI.MM       00 280 01 00         : CAL          - CALIPER                     
GR  .API      00 310 00 00         : GR           - GAMMA RAY                   
NPHI.V/V      00 330 00 00         : PHIN         - NEUTRON POROSITY (SANDSTONE)
DPHI.V/V      00 890 00 00         : PHID         - DENSITY POROSITY (SANDSTONE)
~PARAMETER INFORMATION       
#MNEM.UNIT           DATA             DESCRIPTION OF MNEMONIC
#---------         -----------     ------------------------------
GL  .M        619.049              : gl           - GROUND LEVEL ELEVATION      
EREF.M        624.23               : kb           - ELEVATION OF DEPTH REFERENCE
DATM.M        619.049              : datum        - DATUM ELEVATION             
TDD .M        649.224              : tdd          - TOTAL DEPTH DRILLER         
RUN .         ONE                  : Run          - RUN NUMBER                  
ENG .         LAGASSE              : Engineer     - RECORDING ENGINEER          
BASE.         EDM                  : Branch       - HOME BASE OF LOGGING UNIT   
MUD .         GEL CHEM             : Mud_type     - MUD TYPE                    
MATR.         SANDSTONE            : Logunit      - NEUTRON MATRIX              
TMAX.C        28.8889              : BHT          - MAXIMUM RECORDED TEMPERATURE
BHTD.M        647.395              : BHTDEP       - MAXIMUM RECORDED TEMPERATURE
RMT .C        13.3333              : MDTP         - TEMPERATURE OF MUD          
MUDD.KG/M     1080                 : MWT          - MUD DENSITY                 
NEUT.         1                    : NEUTRON      - NEUTRON TYPE                
RESI.         0                    : RESIST       - RESISTIVITY TYPE            
RM  .OHMM     1.45                 : RM           - RESISTIVITY OF MUD          
RMC .OHMM     0.25                 : RMC          - RESISTIVITY OF MUD CAKE     
RMF .OHMM     2.11                 : RMF          - RESISTIVITY OF MUD FILTRATE 
SUFT.C        -17.7778             : SUFT         - SURFACE TEMPERATURE         
~A  DEPTH     RESD      CAL       GR     PHIN     PHID
# ...
  484.480    3.778  168.417   81.550    0.425    0.234
  484.730    3.446  165.650   77.855    0.396    0.250
  484.980    3.190  165.345   72.645    0.450    0.232
  485.230    2.937  165.760   68.768    0.488    0.291
  485.480    2.684  165.353   69.740    0.452    0.321
  485.730    2.521  165.561   71.196    0.429    0.300
  485.980    2.381  166.077   67.865    0.425    0.301
  486.230    2.274  166.799   67.625    0.437    0.269
  486.480    2.313  167.623   67.203    0.406    0.230
  486.730    2.489  169.475   65.871    0.341    0.176
  486.980    2.785  170.914   63.509    0.294    0.152
  487.230    3.256  172.251   58.966    0.283    0.141
  487.480    3.684  171.126   56.483    0.322    0.181
  487.730    3.857  167.743   57.818    0.411    0.218
  487.980    3.610  166.721   60.547    0.418    0.280
  488.230    3.251  166.211   64.307    0.413    0.275
  488.480    2.740  166.110   64.673    0.415    0.293
  488.730    2.348  166.217   62.493    0.411    0.274
  488.980    2.222  166.529   61.586    0.406    0.288
  489.230    2.193  166.840   63.345    0.402    0.275
  489.480    2.185  167.253   67.772    0.420    0.271
  489.730    2.222  167.359   68.804    0.430    0.277
  489.980    2.247  168.183   67.473    0.441    0.283
  490.230    2.263  169.419   66.808    0.451    0.286
  490.480    2.276  169.832   66.689    0.444    0.291
  490.730    2.361  169.832   66.570    0.418    0.302
  490.980    2.464  169.832   66.632    0.406    0.297
  491.230    2.589  168.407   66.634    0.395    0.282
  491.480    2.772  168.615   64.697    0.388    0.279
  491.730    2.940  168.413   62.517    0.398    0.290
  491.980    3.050  168.212   64.276    0.425    0.298
  492.230    3.141  168.009   69.793    0.442    0.283
  492.480    3.165  168.012   74.038    0.440    0.265
  492.730    3.107  167.297   71.616    0.429    0.258
  492.980    3.006  167.297   68.891    0.421    0.253
  493.230    2.919  167.297   68.165    0.418    0.255
  493.480    2.850  166.899   68.228    0.419    0.280
  493.730    2.803  167.209   69.018    0.417    0.275
  493.980    2.702  168.648   70.838    0.416    0.268
  494.230    2.511  173.988   80.537    0.422    0.254
  494.480    2.367  196.981   89.690    0.511    0.295
  494.730    2.273  204.372   94.783    0.546    0.343
  494.980    2.171  210.122   90.300    0.477    0.298
  495.230    2.105  171.846   88.908    0.454    0.258
  495.480    2.066  171.542   89.153    0.483    0.255
  495.730    2.044  173.392   87.397    0.515    0.288
  495.980    2.033  171.343   84.793    0.528    0.287
  496.230    2.078  166.215   80.916    0.455    0.278
  496.480    2.132  162.729   79.039    0.430    0.256
  496.730    2.188  165.195   81.587    0.432    0.228
  496.980    2.287  167.867   82.619    0.444    0.249
  497.230    2.386  170.847   81.106    0.437    0.273
  497.480    2.480  170.645   77.896    0.437    0.303
  497.730    2.563  170.648   76.807    0.451    0.274
  497.980    2.422  170.652   78.627    0.453    0.285
  498.230    2.356  170.655   79.478    0.440    0.268
  498.480    2.330  170.555   80.085    0.426    0.271
  498.730    2.321  169.738   78.875    0.411    0.270
  498.980    2.309  169.229   73.059    0.419    0.269
  499.230    2.300  169.335   72.334    0.426    0.273
  499.480    2.288  168.825   74.094    0.410    0.291
  499.730    2.275  169.546   78.823    0.393    0.273
  499.980    2.288  171.500   86.825    0.396    0.239
  500.230    2.356  172.529   92.646    0.412    0.204
  500.480    2.490  173.661   95.496    0.427    0.189
  500.730    2.695  174.075   95.255    0.441    0.195
  500.980    2.917  175.208   94.833    0.445    0.187
  501.230    3.288  176.135   96.593    0.448    0.199
  501.480    3.612  176.754   99.019    0.449    0.197
  501.730    3.803  177.270  102.233    0.449    0.181
  501.980    3.902  177.889  104.962    0.432    0.180
  502.230    3.938  178.201  107.267    0.434    0.198
  502.480    3.960  178.409  109.996    0.450    0.182
  502.730    3.968  178.823  111.695    0.459    0.167
  502.980    3.982  179.031  111.697    0.458    0.182
  503.230    4.012  178.829  108.972    0.451    0.173
  503.480    4.012  179.141  106.853    0.446    0.163
  503.730    4.012  179.248  104.431    0.443    0.187
  503.980    4.035  179.148  101.584    0.440    0.185
  504.230    4.020  179.148  100.314    0.438    0.188
  504.480    4.013  177.309  100.315    0.438    0.180
  504.730    3.889  176.695  101.893    0.452    0.185
  504.980    3.728  175.364   97.834    0.479    0.203
  505.230    3.496  173.315   84.564    0.473    0.251
  505.480    3.290  170.445   75.414    0.432    0.268
  505.730    3.029  167.985   71.113    0.423    0.268
  505.980    2.778  162.754   71.115    0.419    0.271
  506.230    2.562  162.963   73.299    0.416    0.268
  506.480    2.389  164.403   76.270    0.415    0.261
  506.730    2.274  165.639   78.636    0.414    0.258
  506.980    2.266  166.462   82.335    0.410    0.279
  507.230    2.342  167.082   85.246    0.412    0.261
  507.480    2.443  167.187   89.309    0.426    0.255
  507.730    2.596  167.602   91.614    0.449    0.252
  507.980    2.810  168.016   88.040    0.430    0.237
  508.230    3.053  169.764   90.951    0.409    0.216
  508.480    3.341  170.485   92.226    0.417    0.176
  508.730    3.636  171.104   91.198    0.435    0.181
  508.980    3.964  171.517   91.381    0.448    0.194
  509.230    4.106  171.932   91.504    0.441    0.212
  509.480    4.068  170.806   88.415    0.422    0.226
  509.730    3.950  168.244   85.023    0.425    0.239
  509.980    3.879  166.810   86.177    0.435    0.267
  510.230    3.801  168.250   87.997    0.444    0.256
  510.480    3.739  171.846   90.121    0.438    0.233
  510.730    3.664  173.901   91.819    0.451    0.227
  510.980    3.578  172.571   90.852    0.449    0.220
  511.230    3.538  168.161   88.551    0.440    0.236
  511.480    3.519  167.138   89.583    0.423    0.245
  511.730    3.545  167.347   91.100    0.421    0.215
  511.980    3.558  168.479   92.435    0.430    0.180
  512.230    3.559  171.048   94.740    0.437    0.182
  512.480    3.533  174.336   98.137    0.449    0.208
  512.730    3.405  177.007   97.957    0.460    0.241
  512.980    3.187  173.419   92.444    0.461    0.274
  513.230    2.972  168.188   88.082    0.449    0.284
  513.480    2.844  166.858   81.296    0.430    0.281
  513.730    2.711  167.682   78.692    0.434    0.271
  513.980    2.599  168.302   79.906    0.459    0.264
  514.230    2.561  168.099   86.635    0.447    0.259
  514.480    2.556  167.590   90.152    0.430    0.245
  514.730    2.515  167.695   85.063    0.419    0.236
  514.980    2.424  167.596   79.611    0.403    0.274
  515.230    2.362  166.881   75.249    0.406    0.263
  515.480    2.358  166.577   72.766    0.395    0.249
  515.730    2.497  166.785   80.404    0.387    0.236
  515.980    2.840  167.712   84.406    0.368    0.214
  516.230    3.426  170.179   76.954    0.341    0.119
  516.480    4.424  174.390   70.956    0.259    0.086
  516.730    5.672  172.238   67.322    0.253    0.079
  516.980    7.365  168.752   64.414    0.259    0.090
  517.230    8.165  168.037   63.325    0.324    0.069
  517.480    7.958  167.937   67.085    0.410    0.146
  517.730    6.488  167.223   70.299    0.438    0.192
  517.980    4.933  167.021   73.150    0.401    0.266
  518.230    3.820  166.614   75.273    0.397    0.271
  518.480    2.991  166.001   77.154    0.400    0.244
  518.730    2.723  165.491   82.065    0.393    0.219
  518.980    2.689  166.008   87.279    0.404    0.175
  519.230    2.852  167.243   91.705    0.422    0.153
  519.480    3.132  168.786   98.980    0.424    0.161
  519.730    3.517  170.431   96.800    0.411    0.180
  519.980    3.814  173.924   92.923    0.398    0.194
  520.230    4.151  174.953   90.441    0.397    0.204
  520.480    4.291  174.649   89.412    0.395    0.184
  520.730    4.213  173.523   87.838    0.417    0.184
