~VERSION INFORMATION
 VERS.                 2.0:   CWLS LOG ASCII STANDARD -VERSION 2.0
 WRAP.                  NO:   ONE LINE PER DEPTH STEP
~WELL INFORMATION BLOCK
#MNEM.UNIT           DATA                    DESCRIPTION OF MNEMONIC
#---------    -------------------            -------------------------------
# Generated from Intellog Unique Number	CS_69_70/WELL/2903
WELL.         HUSKY OIL OPERATIONS LTD.      : Well_name    - WELL
LOC .         00/12-31-069-08W4/0            : Location     - LOCATION
UWI .         00/12-31-069-08W4/0            : Uwi          - UNIQUE WELL ID
ENTR.         JOETTE                         : Entered      - ENTERED BY
SRVC.         SCHLUMBERGER                   : Scn          - SERVICE COMPANY
DATE.         05/15/92                       : Date         - LOG DATE
STRT.M        350                            : top_depth    - START DEPTH
STOP.M        560                            : bot_depth    - STOP DEPTH
STEP.M        0.25                           : increment    - STEP LENGTH
 NULL. -999.2500:NULL Value
~CURVE INFORMATION BLOCK
#MNEM UNIT       ERCB CURVE CODE    CURVE DESCRIPTION
#-----------   ------------------   ----------------------------------
DEPT.M        00 001 00 00         : DEPTH        - DEPTH
GR  .API      00 310 00 00         : GR           - GAMMA RAY
NPHI.V/V      00 330 00 00         : PHIN         - NEUTRON POROSITY (SANDSTONE)
DPHI.V/V      00 890 00 00         : PHID         - DENSITY POROSITY (SANDSTONE)
ILD .OHMM     00 120 00 00         : RESD         - DEEP RESISTIVITY (DIL)
CALI.MM       00 280 01 00         : CAL          - CALIPER
~PARAMETER INFORMATION
#MNEM.UNIT           DATA             DESCRIPTION OF MNEMONIC
#---------         -----------     ------------------------------
GL  .M        683.4                : gl           - GROUND LEVEL ELEVATION
EREF.M        687.1                : kb           - ELEVATION OF DEPTH REFERENCE
DATM.M        687.1                : datum        - DATUM ELEVATION
TDD .M        561.7                : tdd          - TOTAL DEPTH DRILLER
RUN .         ONE                  : Run          - RUN NUMBER
ENG .         BILL                 : Engineer     - RECORDING ENGINEER
WIT .         JIM                  : Witness      - WITNESSED BY
MUD .         GEL                  : Mud_type     - MUD TYPE
MATR.         SANDSTONE            : Logunit      - NEUTRON MATRIX
TMAX.C        23                   : BHT          - MAXIMUM RECORDED TEMPERATURE
BHTD.M        561.7                : BHTDEP       - MAXIMUM RECORDED TEMPERATURE
RMT .C        14.4                 : MDTP         - TEMPERATURE OF MUD
MUDD.KG/M     1100                 : MWT          - MUD DENSITY
NEUT.         1                    : NEUTRON      - NEUTRON TYPE
RESI.         0                    : RESIST       - RESISTIVITY TYPE
RM  .OHMM     4.51                 : RM           - RESISTIVITY OF MUD
RMC .OHMM     5.23                 : RMC          - RESISTIVITY OF MUD CAKE
RMF .OHMM     5.23                 : RMF          - RESISTIVITY OF MUD FILTRATE
SUFT.C        4                    : SUFT         - SURFACE TEMPERATURE
~A  DEPTH       GR     PHIN     PHID     RESD      CAL
# ...
  532.500   78.922    0.333    0.240    4.488  159.156
  532.750   76.504    0.349    0.254    4.414  159.259
  533.000   75.931    0.351    0.266    4.344  158.303
  533.250   75.972    0.345    0.264    4.275  158.372
  533.500   77.858    0.335    0.251    4.352  158.424
  533.750   81.598    0.325    0.234    4.511  158.527
  534.000   86.568    0.335    0.221    4.591  158.579
  534.250   92.133    0.340    0.205    4.840  158.648
  534.500  103.866    0.336    0.197    5.101  158.699
  534.750  106.992    0.339    0.208    5.471  159.793
  535.000  110.722    0.354    0.211    5.667  159.913
  535.250  115.057    0.377    0.210    5.872  159.948
  535.500  120.631    0.379    0.209    5.778  160.016
  535.750  125.601    0.368    0.204    5.306  160.085
  536.000  126.258    0.355    0.205    4.792  159.147
  536.250  116.462    0.328    0.220    4.714  158.191
  536.500  103.581    0.327    0.239    4.800  156.210
  536.750   79.030    0.339    0.247    5.515  155.237
  537.000   74.768    0.351    0.253    5.814  155.306
  537.250   77.893    0.344    0.268    5.720  155.375
  537.500   77.935    0.335    0.248    4.989  155.461
  537.750   79.195    0.341    0.207    4.995  156.572
  538.000   89.699    0.351    0.178    5.357  159.714
  538.250   99.577    0.356    0.176    5.547  160.791
  538.500  106.382    0.383    0.185    5.748  162.926
  538.750  108.278    0.381    0.192    5.657  165.044
  539.000  110.778    0.388    0.197    5.285  165.113
  539.250  112.049    0.408    0.187    4.380  166.207
  539.500  114.550    0.458    0.186    4.024  165.234
  539.750  117.665    0.462    0.193    3.891  164.295
  540.000  115.247    0.459    0.199    3.828  164.364
  540.250  117.748    0.448    0.207    3.702  164.450
  540.500  120.873    0.416    0.210    3.643  163.494
  540.750  113.537    0.409    0.205    3.646  161.514
  541.000  104.346    0.382    0.200    3.909  158.526
  541.250  101.928    0.362    0.199    4.193  157.552
  541.500  106.283    0.369    0.195    4.345  156.579
  541.750  108.179    0.363    0.192    4.349  156.648
  542.000  108.220    0.352    0.188    4.430  157.759
  542.250  107.022    0.336    0.184    4.509  158.853
  542.500  107.063    0.343    0.173    4.513  158.921
  542.750  109.574    0.356    0.170    4.518  158.990
  543.000  112.679    0.365    0.175    4.446  158.052
  543.250  113.971    0.363    0.185    4.451  158.103
  543.500  109.708    0.362    0.185    4.456  158.206
  543.750  110.979    0.363    0.176    4.458  157.233
  544.000  112.250    0.360    0.166    4.463  157.285
  544.250  111.051    0.358    0.176    4.469  157.388
  544.500   98.807    0.368    0.188    4.473  157.423
  544.750  102.526    0.359    0.189    4.327  157.509
  545.000  103.797    0.353    0.194    4.257  157.578
  545.250   98.920    0.353    0.203    4.188  157.664
  545.500  102.036    0.358    0.208    4.050  157.732
  545.750  102.077    0.352    0.218    3.985  156.794
  546.000   94.126    0.347    0.216    3.791  156.828
  546.250   90.488    0.353    0.207    3.664  156.931
  546.500   92.364    0.363    0.221    3.425  156.983
  546.750   88.716    0.360    0.245    3.256  157.035
  547.000   75.846    0.344    0.262    3.317  157.104
  547.250   57.443    0.331    0.264    3.435  157.190
  547.500   64.247    0.275    0.202    3.747  157.276
  547.750   64.288    0.200    0.143    5.201  157.344
  548.000   57.567    0.178    0.107    5.387  157.396
  548.250   49.001    0.180    0.081    5.978  157.482
  548.500   42.894    0.173   -0.010   12.534  157.551
  548.750   38.017    0.162   -0.004   14.397  157.620
  549.000   41.132    0.185    0.012   13.927  157.689
  549.250   44.862    0.210    0.027   12.790  158.765
  549.500   51.052    0.233    0.034   11.556  158.885
  549.750   59.096    0.236    0.041   11.171  158.920
  550.000   62.211    0.245    0.039   10.807  158.989
  550.250   62.253    0.251    0.037   10.630  159.075
  550.500   65.983    0.255    0.053   10.281  159.126
  550.750   67.264    0.259    0.070    9.608  159.230
  551.000   70.994    0.263    0.067    8.980  159.281
  551.250   70.421    0.276    0.060    8.836  159.367
  551.500   59.385    0.260    0.051    9.474  159.402
  551.750   51.444    0.234    0.054    9.813  159.505
  552.000   43.482    0.156    0.048   10.890  159.574
  552.250   34.916    0.138    0.031   13.633  159.643
  552.500   42.950    0.127    0.021   15.133  158.704
  552.750   46.691    0.122    0.005   16.222  158.738
  553.000   42.428    0.127   -0.013   17.098  157.800
  553.250   33.237    0.126    0.014   18.974  157.869
  553.500   28.360    0.125    0.030   21.809  156.913
  553.750   29.036    0.134    0.038   22.583  156.999
  554.000   29.682    0.143    0.048   23.807  157.033
  554.250   30.953    0.138    0.053   19.054  157.119
  554.500   30.994    0.138    0.039   15.786  156.198
  554.750   29.191    0.142    0.031   14.010  156.232
  555.000   27.398    0.240    0.060   12.222  155.294
  555.250   26.825    0.312    0.073   10.302  155.345
  555.500   26.866    0.349    0.061    8.538  155.414
  555.750   26.907    0.347    0.035    7.978  155.500
  556.000   27.564    0.348    0.021   10.332  155.569
  556.250   28.220    0.353    0.001   17.031  155.638
  556.500   28.271    0.354    0.015   19.901  155.707
  556.750   28.302    0.349    0.028   22.468  155.775
  557.000   28.354    0.344    0.029   22.885  155.844
  557.250   28.385    0.345    0.023   21.016  155.930
  557.500   28.426    0.346    0.021   18.026  155.999
  557.750   28.468    0.346    0.030   16.553  156.068
  558.000   28.519    0.345    0.028   14.953  156.154
  558.250   28.550    0.344    0.028   14.209  155.164
  558.500   28.612    0.344    0.031   13.054  154.208
  558.750   28.643    0.347    0.040   11.991  150.178
  559.000   28.695    0.348    0.053   11.594  147.173
  559.250   28.736    0.353    0.044   11.022  144.167
  559.500   28.173    0.354    0.038   10.481  138.088
  559.750   28.204    0.354    0.033   10.313  135.100
  560.000   28.245    0.354    0.033   10.149  134.144
