~VERSION INFORMATION
 VERS.                 2.0:   CWLS LOG ASCII STANDARD -VERSION 2.0
 WRAP.                  NO:   ONE LINE PER DEPTH STEP
~WELL INFORMATION BLOCK
#MNEM.UNIT           DATA                    DESCRIPTION OF MNEMONIC
#---------    -------------------            -------------------------------
# Generated from Intellog Unique Number	CW_79_81/WELL/2468
WELL.         10-18-080-20W4                 : Well_name    - WELL
LOC .         00/10-18-080-20W4/0            : Location     - LOCATION
UWI .         00/10-18-080-20W4/0            : Uwi          - UNIQUE WELL ID
ENTR.         MAX                            : Entered      - ENTERED BY
SRVC.         SCHLUMBERGER                   : Scn          - SERVICE COMPANY
STRT.M        152.4                          : top_depth    - START DEPTH
STOP.M        408.15                         : bot_depth    - STOP DEPTH
STEP.M        0.25                           : increment    - STEP LENGTH
 NULL. -999.2500:NULL Value
~CURVE INFORMATION BLOCK
#MNEM UNIT       ERCB CURVE CODE    CURVE DESCRIPTION
#-----------   ------------------   ----------------------------------
DEPT.M        00 001 00 00         : DEPTH        - DEPTH
ILD .OHMM     00 120 00 00         : RESD         - DEEP RESISTIVITY (DIL)
NPHI.V/V      00 330 00 00         : PHIN         - NEUTRON POROSITY (SANDSTONE)
DPHI.V/V      00 890 00 00         : PHID         - DENSITY POROSITY (SANDSTONE)
GR  .API      00 310 00 00         : GR           - GAMMA RAY
CALI.MM       00 280 01 00         : CAL          - CALIPER
~PARAMETER INFORMATION
#MNEM.UNIT           DATA             DESCRIPTION OF MNEMONIC
#---------         -----------     ------------------------------
GL  .M        579.272              : gl           - GROUND LEVEL ELEVATION
EREF.M        582.778              : kb           - ELEVATION OF DEPTH REFERENCE
DATM.M        579.272              : datum        - DATUM ELEVATION
TDD .M        411.48               : tdd          - TOTAL DEPTH DRILLER
RUN .         ONE                  : Run          - RUN NUMBER
ENG .         BILL                 : Engineer     - RECORDING ENGINEER
WIT .         JIM                  : Witness      - WITNESSED BY
MUD .         GEL                  : Mud_type     - MUD TYPE
MATR.         SANDSTONE            : Logunit      - NEUTRON MATRIX
TMAX.C        23.3333              : BHT          - MAXIMUM RECORDED TEMPERATURE
BHTD.M        411.48               : BHTDEP       - MAXIMUM RECORDED TEMPERATURE
MATR.         1                    : LOGUNIT      - NEUTRON MATRIX
RMT .C        10                   : MDTP         - TEMPERATURE OF MUD
NEUT.         1                    : NEUTRON      - NEUTRON TYPE
RESI.         0                    : RESIST       - RESISTIVITY TYPE
RMC .OHMM     7.01                 : RMC          - RESISTIVITY OF MUD CAKE
RMF .OHMM     3.48                 : RMF          - RESISTIVITY OF MUD FILTRATE
SUFT.C        -15                  : SUFT         - SURFACE TEMPERATURE
~A  DEPTH     RESD     PHIN     PHID       GR      CAL
# ...
  371.400   16.579    0.427    0.172  111.068  212.310
  371.650   15.864    0.423    0.180  112.739  215.140
  371.900   15.013    0.417    0.182  112.269  215.552
  372.150   14.269    0.415    0.178  112.632  214.151
  372.400   13.633    0.421    0.173  114.303  212.246
  372.650   12.958    0.440    0.179  114.370  212.442
  372.900   12.959    0.440    0.184  109.912  215.391
  373.150   14.135    0.420    0.192   88.021  215.802
  373.400   15.588    0.412    0.201   76.486  216.516
  373.650   18.463    0.411    0.212   68.637  215.721
  373.900   24.184    0.415    0.232   61.265  213.213
  374.150   34.544    0.430    0.276   54.360  210.318
  374.400   42.947    0.442    0.285   53.126  209.907
  374.650   55.375    0.436    0.287   51.941  212.335
  374.900   67.022    0.427    0.288   50.936  211.136
  375.150   75.906    0.419    0.286   50.585  209.936
  375.400   81.025    0.411    0.283   51.006  209.845
  375.650   81.850    0.403    0.287   52.411  209.034
  375.900   80.013    0.396    0.292   54.649  206.945
  376.150   77.132    0.402    0.278   55.607  206.953
  376.400   71.887    0.409    0.276   56.385  208.473
  376.650   65.819    0.408    0.278   57.461  208.080
  376.900   59.646    0.404    0.278   59.430  205.270
  377.150   52.345    0.418    0.274   63.305  201.955
  377.400   47.109    0.415    0.272   64.798  199.446
  377.650   42.473    0.405    0.275   68.850  197.442
  377.900   38.097    0.410    0.273   74.329  196.342
  378.150   34.139    0.420    0.269   80.284  195.545
  378.400   30.555    0.426    0.261   87.072  194.952
  378.650   26.113    0.415    0.244   97.253  194.961
  378.900   21.669    0.401    0.223  101.722  194.970
  379.150   18.958    0.388    0.197  105.297  195.384
  379.400   16.895    0.395    0.160  109.408  195.494
  379.650   15.020    0.411    0.148  113.697  195.301
  379.900   12.938    0.427    0.165  117.749  194.806
  380.150   10.152    0.432    0.183  121.187  193.845
  380.400    8.611    0.419    0.170  121.688  193.015
  380.650    8.363    0.408    0.166  119.552  192.622
  380.900    8.624    0.373    0.150  117.772  193.436
  381.150    9.425    0.358    0.130  120.277  195.662
  381.400   10.746    0.376    0.123  128.493  197.384
  381.650   12.408    0.419    0.152  144.128  194.659
  381.900   13.608    0.440    0.158  158.018  195.088
  382.150   13.216    0.437    0.169  159.688  195.903
  382.400   12.480    0.430    0.179  159.397  197.021
  382.650   11.234    0.422    0.187  157.618  196.629
  382.900    9.748    0.423    0.193  154.708  194.925
  383.150    8.321    0.453    0.199  149.964  194.298
  383.400    8.012    0.458    0.191  145.260  195.146
  383.650    8.370    0.429    0.192  139.316  196.768
  383.900    9.218    0.404    0.199  129.623  197.785
  384.150   10.501    0.390    0.199  120.704  198.400
  384.400   12.230    0.387    0.190  115.176  199.014
  384.650   15.198    0.382    0.170  112.664  200.318
  384.900   19.818    0.380    0.143  107.216  200.748
  385.150   21.771    0.387    0.153  104.841  201.161
  385.400   23.309    0.392    0.173   92.114  201.271
  385.650   24.019    0.385    0.201   83.789  201.280
  385.900   23.191    0.377    0.227   87.304  201.289
  386.150   19.684    0.401    0.233  104.715  201.300
  386.400   16.820    0.436    0.216  114.390  201.310
  386.650   13.328    0.440    0.204  116.537  201.320
  386.900   10.525    0.441    0.200  126.538  201.027
  387.150    8.039    0.459    0.196  135.350  200.633
  387.400    6.438    0.490    0.188  137.677  200.340
  387.650    6.043    0.503    0.179  129.046  200.351
  387.900    6.327    0.475    0.177  114.424  200.362
  388.150    6.754    0.455    0.180  106.577  199.565
  388.400    7.405    0.428    0.180  102.476  198.769
  388.650    8.259    0.412    0.183   94.391  197.771
  388.900    9.426    0.407    0.192   82.496  195.966
  389.150   11.674    0.386    0.223   73.548  191.846
  389.400   13.520    0.324    0.270   66.860  189.338
  389.650   14.747    0.325    0.256   67.579  189.749
  389.900   17.284    0.341    0.252   69.549  191.976
  390.150   20.579    0.356    0.251   71.697  195.007
  390.400   23.067    0.364    0.250   73.963  197.535
  390.650   22.215    0.366    0.246   78.391  198.204
  390.900   20.600    0.364    0.240   83.851  199.473
  391.150   20.451    0.362    0.233   87.903  199.884
  391.400   20.528    0.366    0.235   92.491  199.994
  391.650   20.755    0.375    0.239   94.995  199.198
  391.900   20.871    0.382    0.247   96.606  197.897
  392.150   20.166    0.368    0.274  105.300  197.674
  392.400   18.983    0.357    0.254  120.179  198.522
  392.650   17.898    0.375    0.245  127.801  200.949
  392.900   16.783    0.381    0.231  134.531  201.564
  393.150   15.896    0.378    0.224  134.181  200.769
  393.400   15.388    0.372    0.226  126.332  199.368
  393.650   15.390    0.372    0.226  117.979  198.655
  393.900   15.391    0.366    0.212  126.164  199.085
  394.150   15.392    0.361    0.204  135.452  199.900
  394.400   14.973    0.355    0.192  142.776  199.205
  394.650   14.219    0.359    0.180  149.207  198.811
  394.900   13.292    0.372    0.170  153.557  199.625
  395.150   12.190    0.386    0.163  152.127  201.821
  395.400   11.389    0.395    0.171  150.894  202.670
  395.650   11.060    0.386    0.167  151.850  202.276
  395.900   10.921    0.377    0.160  152.807  202.185
  396.150   10.922    0.373    0.155  152.694  202.194
  396.400   11.063    0.373    0.154  151.451  202.203
  396.650   11.479    0.377    0.161  150.079  202.217
  396.900   11.928    0.383    0.163  150.331  202.227
  397.150   12.193    0.375    0.156  149.147  202.235
  397.400   12.464    0.363    0.150  146.179  202.243
  397.650   12.695    0.362    0.150  141.663  202.253
  397.900   12.907    0.374    0.149  135.718  202.263
  398.150   13.235    0.384    0.128  126.859  202.273
  398.400   13.440    0.372    0.121  119.429  202.283
  398.650   13.940    0.362    0.131  121.813  201.889
  398.900   14.381    0.372    0.141  125.625  201.194
  399.150   14.650    0.383    0.137  127.416  200.398
  399.400   14.732    0.384    0.124  125.518  199.803
  399.650   14.733    0.370    0.117  119.358  200.151
  399.900   14.734    0.364    0.106  115.892  201.838
  400.150   15.062    0.350    0.091  108.758  201.848
  400.400   15.397    0.346    0.092  105.551  201.857
  400.650   15.569    0.361    0.108  104.961  202.068
  400.900   15.455    0.394    0.128  106.037  202.178
  401.150   14.826    0.436    0.137  108.831  201.048
  401.400   13.956    0.455    0.162  112.059  199.378
  401.650   12.772    0.426    0.154  115.634  197.373
  401.900   11.164    0.399    0.137  114.927  196.879
  402.150   10.189    0.375    0.122  110.768  198.299
  402.400    9.952    0.366    0.136  105.239  200.727
  402.650   10.507    0.404    0.224   99.743  202.030
  402.900   11.524    0.416    0.226   90.081  202.459
  403.150   13.396    0.413    0.238   85.325  202.469
  403.400   15.836    0.410    0.265   81.643  202.781
  403.650   18.638    0.408    0.284   79.268  202.993
  403.900   21.363    0.407    0.290   78.261  203.002
  404.150   23.733    0.409    0.287   79.001  203.097
  404.400   24.851    0.412    0.275   81.486  203.525
  404.650   25.035    0.418    0.268   88.156  203.132
  404.900   23.991    0.424    0.269   94.467  202.436
  405.150   22.802    0.429    0.263   99.115  201.640
  405.400   22.194    0.428    0.251  101.025  200.943
  405.650   22.893    0.411    0.240   98.721  200.384
  405.900   23.971    0.424    0.234   95.504  199.554
  406.150   22.939    0.420    0.260   95.510  199.161
  406.400   21.463    0.410    0.260   94.981  198.767
  406.650   20.027    0.407    0.265   93.796  198.575
  406.900   18.939    0.413    0.277   92.491  198.484
  407.150   18.425    0.416    0.274   92.707  198.092
  407.400   18.567    0.416    0.259   94.944  198.102
  407.650   18.980    0.415    0.249   98.757  198.112
