~VERSION INFORMATION
 VERS.                 2.0:   CWLS LOG ASCII STANDARD -VERSION 2.0
 WRAP.                  NO:   ONE LINE PER DEPTH STEP
~WELL INFORMATION BLOCK
#MNEM.UNIT           DATA                    DESCRIPTION OF MNEMONIC
#---------    -------------------            -------------------------------
# Generated from Intellog Unique Number	CW_70_72/WELL/3027
NULL.         -999.25                        : NULL_VALUE
WELL.         MANNVILLE ET AL DECBENE        : Well_name    - WELL              
LOC .         11-07-070-01W5                 : Location     - LOCATION          
UWI .         00/11-07-070-01W5/0            : Uwi          - UNIQUE WELL ID    
ENTR.         JAYE                           : Entered      - ENTERED BY        
SRVC.         SCHLUMBERGER                   : Scn          - SERVICE COMPANY   
DATE.         11 JAN 85                      : Date         - LOG DATE          
STRT.M        425                            : top_depth    - START DEPTH       
STOP.M        630                            : bot_depth    - STOP DEPTH        
STEP.M        0.25                           : increment    - STEP LENGTH       
~CURVE INFORMATION BLOCK
#MNEM UNIT       ERCB CURVE CODE    CURVE DESCRIPTION
#-----------   ------------------   ----------------------------------
DEPT.M        00 001 00 00         : DEPTH        - DEPTH                       
ILD .OHMM     00 120 00 00         : RESD         - DEEP RESISTIVITY (DIL)      
CALI.MM       00 280 01 00         : CAL          - CALIPER                     
GR  .API      00 310 00 00         : GR           - GAMMA RAY                   
NPHI.V/V      00 330 00 00         : PHIN         - NEUTRON POROSITY (SANDSTONE)
DPHI.V/V      00 890 00 00         : PHID         - DENSITY POROSITY (SANDSTONE)
~PARAMETER INFORMATION       
#MNEM.UNIT           DATA             DESCRIPTION OF MNEMONIC
#---------         -----------     ------------------------------
GL  .M        583                  : gl           - GROUND LEVEL ELEVATION      
EREF.M        586                  : kb           - ELEVATION OF DEPTH REFERENCE
DATM.M        583                  : datum        - DATUM ELEVATION             
TDD .M        642                  : tdd          - TOTAL DEPTH DRILLER         
RUN .         ONE                  : Run          - RUN NUMBER                  
ENG .         HOWARD               : Engineer     - RECORDING ENGINEER          
WIT .         KRYWICKI             : Witness      - WITNESSED BY                
BASE.         EDM                  : Branch       - HOME BASE OF LOGGING UNIT   
MUD .         GEL CHEM             : Mud_type     - MUD TYPE                    
MATR.         SANDSTONE            : Logunit      - NEUTRON MATRIX              
TMAX.C        30                   : BHT          - MAXIMUM RECORDED TEMPERATURE
BHTD.M        642                  : BHTDEP       - MAXIMUM RECORDED TEMPERATURE
RMT .C        17                   : MDTP         - TEMPERATURE OF MUD          
MUDD.KG/M     1160                 : MWT          - MUD DENSITY                 
NEUT.         1                    : NEUTRON      - NEUTRON TYPE                
RESI.         0                    : RESIST       - RESISTIVITY TYPE            
RM  .OHMM     4.92                 : RM           - RESISTIVITY OF MUD          
RMC .OHMM     0.25                 : RMC          - RESISTIVITY OF MUD CAKE     
RMF .OHMM     5.72                 : RMF          - RESISTIVITY OF MUD FILTRATE 
SUFT.C        10                   : SUFT         - SURFACE TEMPERATURE         
~A  DEPTH     RESD      CAL       GR     PHIN     PHID
# ...
  571.000    2.953  157.337   66.295    0.382    0.211
  571.250    3.059  157.326   70.450    0.312    0.192
  571.500    3.223  157.521   74.976    0.283    0.216
  571.750    3.403  156.993   76.398    0.330    0.236
  572.000    3.409  155.739   76.019    0.388    0.251
  572.250    3.216  155.832   75.888    0.400    0.258
  572.500    2.934  155.819   76.689    0.386    0.255
  572.750    2.789  155.603   78.172    0.384    0.254
  573.000    2.742  155.695   77.669    0.403    0.262
  573.250    2.809  155.682   77.229    0.411    0.268
  573.500    2.916  155.984   78.215    0.388    0.255
  573.750    2.993  156.488   81.003    0.368    0.254
  574.000    2.982  156.790   79.816    0.356    0.260
  574.250    2.888  156.984   78.505    0.372    0.260
  574.500    2.823  157.282   78.934    0.387    0.253
  574.750    2.797  157.480   76.505    0.397    0.241
  575.000    2.807  157.573   73.020    0.367    0.213
  575.250    2.887  157.458   74.441    0.341    0.213
  575.500    3.013  157.034   79.404    0.346    0.228
  575.750    3.052  156.712   75.174    0.375    0.239
  576.000    3.069  156.597   70.758    0.398    0.249
  576.250    3.012  156.380   71.869    0.402    0.256
  576.500    2.928  156.161   70.496    0.389    0.261
  576.750    2.778  155.942   73.159    0.369    0.265
  577.000    2.666  155.931   76.694    0.354    0.250
  577.250    2.631  156.438   74.947    0.354    0.226
  577.500    2.606  156.634   70.966    0.377    0.232
  577.750    2.616  156.830   68.102    0.379    0.242
  578.000    2.645  157.026   66.916    0.358    0.246
  578.250    2.700  157.427   70.014    0.356    0.220
  578.500    2.876  158.038   74.728    0.355    0.181
  578.750    3.315  158.648   72.423    0.351    0.147
  579.000    3.937  159.154   69.994    0.327    0.103
  579.250    4.918  159.661   70.795    0.312    0.080
  579.500    6.019  160.272   75.633    0.294    0.090
  579.750    7.202  160.779   80.843    0.279    0.093
  580.000    7.160  161.182   83.260    0.281    0.092
  580.250    6.412  161.688   84.122    0.306    0.159
  580.500    5.268  162.091   83.680    0.338    0.181
  580.750    4.725  162.493   87.277    0.341    0.169
  581.000    4.145  163.001   90.935    0.329    0.157
  581.250    4.022  163.506   94.963    0.318    0.144
  581.500    4.067  163.910   96.635    0.307    0.139
  581.750    4.350  164.210  100.045    0.307    0.132
  582.000    4.857  164.302  103.578    0.313    0.124
  582.250    5.004  164.499  106.676    0.324    0.119
  582.500    5.031  164.174  108.223    0.338    0.134
  582.750    4.947  163.958  105.172    0.349    0.143
  583.000    4.882  163.426   96.657    0.354    0.120
  583.250    4.854  163.211   88.016    0.321    0.109
  583.500    4.917  162.890   81.241    0.318    0.101
  583.750    5.104  162.465   73.346    0.343    0.078
  584.000    5.418  162.040   62.222    0.326    0.050
  584.250    6.106  161.511   63.830    0.303    0.032
  584.500    7.185  161.499   81.338    0.288    0.014
  584.750    8.158  161.798   87.481    0.262    0.040
  585.000    8.500  162.616   91.262    0.303    0.087
  585.250    7.625  163.640   93.180    0.359    0.118
  585.500    6.311  164.457   95.038    0.354    0.127
  585.750    5.547  164.860   97.205    0.348    0.131
  586.000    4.976  165.470   93.720    0.350    0.139
  586.250    4.704  165.770   94.147    0.355    0.148
  586.500    4.530  165.860   95.942    0.351    0.149
  586.750    4.355  165.953  100.283    0.350    0.140
  587.000    4.371  165.941  103.942    0.364    0.130
  587.250    4.470  165.828  101.885    0.369    0.123
  587.500    4.622  165.404   97.468    0.356    0.133
  587.750    4.861  165.391   93.488    0.356    0.134
  588.000    5.084  165.692   88.823    0.351    0.125
  588.250    5.287  165.472   91.238    0.339    0.107
  588.500    5.416  165.151   96.138    0.330    0.106
  588.750    5.425  164.933   97.871    0.327    0.121
  589.000    5.374  164.715   97.925    0.326    0.138
  589.250    5.343  164.809  101.211    0.336    0.145
  589.500    5.343  164.589  103.999    0.335    0.136
  589.750    5.342  164.372  106.353    0.335    0.141
  590.000    5.483  163.946  106.222    0.334    0.128
  590.250    5.788  163.832  110.253    0.319    0.104
  590.500    6.042  163.821  113.910    0.295    0.096
  590.750    6.086  163.913  113.468    0.287    0.110
  591.000    5.895  164.316  113.150    0.300    0.130
  591.250    5.594  165.031  113.580    0.314    0.141
  591.500    5.458  165.640  111.461    0.326    0.134
  591.750    5.407  166.042  112.075    0.316    0.103
  592.000    5.346  166.239  118.653    0.317    0.096
  592.250    5.266  166.434  125.541    0.331    0.116
  592.500    5.236  166.424  128.825    0.339    0.132
  592.750    5.177  166.516  119.502    0.349    0.136
  593.000    5.099  166.712  109.993    0.346    0.132
  593.250    4.921  167.425  106.756    0.337    0.142
  593.500    4.158  168.243  112.402    0.315    0.179
  593.750    3.309  176.305  115.563    0.354    0.225
  594.000    2.724  182.713  115.245    0.451    0.258
  594.250    2.345  184.770  114.183    0.477    0.224
  594.500    2.076  179.896  112.872    0.475    0.204
  594.750    1.970  178.125  115.722    0.452    0.196
  595.000    1.926  183.290  119.505    0.436    0.189
  595.250    1.948  177.688  104.530    0.428    0.175
  595.500    2.106  177.159   96.821    0.464    0.132
  595.750    2.516  177.770   94.268    0.460    0.082
  596.000    3.336  170.824   94.757    0.356    0.061
  596.250    3.977  167.603   96.427    0.331    0.028
  596.500    4.831  166.349   99.466    0.314    0.005
  596.750    5.726  166.027  107.533    0.309    0.069
  597.000    6.205  166.223  108.705    0.312    0.104
  597.250    5.965  166.523  105.843    0.317    0.108
  597.500    5.650  166.719  108.941    0.338    0.063
  597.750    5.421  166.912  116.698    0.352    0.057
  598.000    5.222  167.215  119.735    0.343    0.086
  598.250    5.086  167.306  117.244    0.340    0.104
  598.500    5.047  167.295  117.920    0.352    0.103
  598.750    5.018  167.285  117.293    0.359    0.105
  599.000    5.046  167.480  116.230    0.366    0.085
  599.250    5.141  167.469  116.224    0.358    0.080
  599.500    5.247  167.562  115.782    0.349    0.101
  599.750    5.365  168.068  113.975    0.347    0.108
  600.000    5.486  168.160  110.055    0.339    0.100
  600.250    5.569  168.357  106.446    0.345    0.100
  600.500    5.684  168.654  107.929    0.341    0.047
  600.750    5.694  168.437  113.265    0.325    0.061
  601.000    5.556  167.907  121.332    0.319    0.092
  601.250    5.223  167.379  122.567    0.329    0.114
  601.500    5.068  166.955  117.220    0.340    0.115
  601.750    5.030  166.322  111.375    0.344    0.089
  602.000    5.020  165.899  110.063    0.334    0.071
  602.250    5.133  165.266  113.162    0.331    0.089
  602.500    5.348  164.738  105.827    0.324    0.037
  602.750    5.656  162.966   93.709    0.303    0.003
  603.000    5.937  162.126  100.596    0.242    0.020
  603.250    6.256  161.599  106.676    0.271    0.089
  603.500    6.628  160.864   93.440    0.326    0.004
  603.750    6.984  160.231   78.217    0.343   -0.003
  604.000    7.427  160.634  106.284    0.244    0.038
  604.250    7.666  161.554  117.643    0.260    0.103
  604.500    7.623  163.821  122.170    0.322    0.128
  604.750    5.988  169.398  116.946    0.384    0.136
  605.000    5.097  174.254  112.157    0.399    0.122
  605.250    4.720  169.791  114.075    0.375    0.116
  605.500    4.572  166.882  115.871    0.348    0.113
  605.750    4.710  165.731  108.597    0.345    0.106
  606.000    5.152  165.203  100.330    0.337    0.083
  606.250    5.939  164.569   95.541    0.320    0.054
  606.500    6.532  164.560   92.553    0.303    0.041
  606.750    6.870  164.961   95.031    0.321    0.032
  607.000    6.920  165.367  104.714    0.319    0.068
  607.250    6.932  165.561  103.154    0.311    0.086
