~VERSION INFORMATION
 VERS.                 2.0:   CWLS LOG ASCII STANDARD -VERSION 2.0
 WRAP.                  NO:   ONE LINE PER DEPTH STEP
~WELL INFORMATION BLOCK
#MNEM.UNIT           DATA                    DESCRIPTION OF MNEMONIC
#---------    -------------------            -------------------------------
# Generated from Intellog Unique Number	CW_70_72/WELL/1037
NULL.         -999.25                        : NULL_VALUE
WELL.         SULPETRO SMITH 10-15           : Well_name    - WELL              
LOC .         10-15-071-26W4                 : Location     - LOCATION          
UWI .         00/10-15-071-26W4/0            : Uwi          - UNIQUE WELL ID    
ENTR.         JAYE                           : Entered      - ENTERED BY        
SRVC.         SCHLUMBERGER                   : Scn          - SERVICE COMPANY   
DATE.         24 FEB 72                      : Date         - LOG DATE          
STRT.M        426.11                         : top_depth    - START DEPTH       
STOP.M        685.86                         : bot_depth    - STOP DEPTH        
STEP.M        0.25                           : increment    - STEP LENGTH       
~CURVE INFORMATION BLOCK
#MNEM UNIT       ERCB CURVE CODE    CURVE DESCRIPTION
#-----------   ------------------   ----------------------------------
DEPT.M        00 001 00 00         : DEPTH        - DEPTH                       
DPHI.V/V      00 890 00 00         : PHID         - DENSITY POROSITY (SANDSTONE)
NPHI.V/V      00 330 00 00         : PHIN         - NEUTRON POROSITY (SANDSTONE)
GR  .API      00 310 00 00         : GR           - GAMMA RAY                   
CALI.MM       00 280 01 00         : CAL          - CALIPER                     
ILD .OHMM     00 120 00 00         : RESD         - DEEP RESISTIVITY (DIL)      
~PARAMETER INFORMATION       
#MNEM.UNIT           DATA             DESCRIPTION OF MNEMONIC
#---------         -----------     ------------------------------
GL  .M        617.22               : gl           - GROUND LEVEL ELEVATION      
EREF.M        620.573              : kb           - ELEVATION OF DEPTH REFERENCE
DATM.M        617.22               : datum        - DATUM ELEVATION             
TDD .M        701.04               : tdd          - TOTAL DEPTH DRILLER         
RUN .         ONE                  : Run          - RUN NUMBER                  
ENG .         ASHTON               : Engineer     - RECORDING ENGINEER          
WIT .         DRUMMOND             : Witness      - WITNESSED BY                
BASE.         LLOYD                : Branch       - HOME BASE OF LOGGING UNIT   
MUD .         CHEM GEL             : Mud_type     - MUD TYPE                    
MATR.         SANDSTONE            : Logunit      - NEUTRON MATRIX              
TMAX.C        26.6667              : BHT          - MAXIMUM RECORDED TEMPERATURE
BHTD.M        701.04               : BHTDEP       - MAXIMUM RECORDED TEMPERATURE
RMT .C        15.5556              : MDTP         - TEMPERATURE OF MUD          
MUDD.KG/M     1224                 : MWT          - MUD DENSITY                 
NEUT.         1                    : NEUTRON      - NEUTRON TYPE                
RESI.         0                    : RESIST       - RESISTIVITY TYPE            
RM  .OHMM     3.04                 : RM           - RESISTIVITY OF MUD          
RMC .OHMM     2.3                  : RMC          - RESISTIVITY OF MUD CAKE     
RMF .OHMM     2.66                 : RMF          - RESISTIVITY OF MUD FILTRATE 
SUFT.C        0                    : SUFT         - SURFACE TEMPERATURE         
~A  DEPTH     PHID     PHIN       GR      CAL     RESD
  426.110    0.227    0.421  102.411  217.110    1.636
  426.360    0.229    0.422  100.111  215.081    1.812
  426.610    0.218    0.423   97.506  212.636    2.212
  426.860    0.228    0.408   92.706  208.740    2.660
  427.110    0.246    0.411   79.237  202.777    2.995
  427.360    0.291    0.396   79.865  195.682    3.076
  427.610    0.236    0.365   79.214  187.346    3.149
  427.860    0.167    0.406   77.404  180.555    3.309
  428.110    0.223    0.393   74.555  176.456    3.517
  428.360    0.194    0.405   70.363  174.220    3.629
  428.610    0.174    0.425   65.075  172.598    3.510
  428.860    0.149    0.395   65.578  173.560    3.152
  429.110    0.117    0.406   67.005  179.796    2.898
  429.360    0.204    0.397   64.095  185.613    2.843
  429.610    0.289    0.405   64.421  184.615    2.843
  429.860    0.286    0.408   65.051  184.030    2.900
  430.110    0.276    0.390   67.451  183.650    2.981
  430.360    0.267    0.396   66.493  183.370    2.934
  430.610    0.251    0.371   73.166  183.408    2.863
  430.860    0.225    0.426   79.106  183.641    2.888
  431.110    0.211    0.406   87.305  184.189    2.968
  431.360    0.225    0.424   92.145  185.363    2.977
  431.610    0.222    0.442   96.741  187.051    2.962
  431.860    0.197    0.457   98.531  189.156    2.994
  432.110    0.182    0.444  101.665  204.074    3.315
  432.360    0.205    0.450   98.202  197.700    3.722
  432.610    0.201    0.454   93.647  194.010    3.954
  432.860    0.304    0.456   87.258  188.258    4.067
  433.110    0.356    0.447   83.068  184.981    3.781
  433.360    0.371    0.404   80.402  181.915    3.527
  433.610    0.244    0.381   78.164  178.838    3.407
  433.860    0.237    0.394   77.572  178.253    3.368
  434.110    0.245    0.408   80.706  177.987    3.329
  434.360    0.235    0.422   76.454  178.330    3.363
  434.610    0.244    0.407   74.887  178.978    3.434
  434.860    0.234    0.401   72.159  179.947    3.491
  435.110    0.252    0.412   71.325  180.598    3.516
  435.360    0.242    0.372   75.312  181.351    3.685
  435.610    0.249    0.381   79.355  182.418    3.965
  435.860    0.233    0.401   82.797  182.871    4.253
  436.110    0.200    0.418   86.050  183.623    4.333
  436.360    0.186    0.435   87.779  183.754    4.302
  436.610    0.174    0.431   82.366  183.794    4.088
  436.860    0.184    0.436   79.764  183.934    3.801
  437.110    0.202    0.442   81.123  183.659    3.770
  437.360    0.221    0.442   84.745  183.073    3.899
  437.610    0.228    0.453   88.000  182.789    4.059
  437.860    0.216    0.452   90.156  182.313    4.188
  438.110    0.219    0.430   91.520  182.760    4.212
  438.360    0.213    0.435   93.184  184.136    4.221
  438.610    0.210    0.420   95.160  185.512    4.263
  438.860    0.184    0.408   95.119  187.510    4.239
  439.110    0.165    0.402   88.973  188.575    4.192
  439.360    0.186    0.361   87.284  188.917    4.057
  439.610    0.186    0.425   82.176  191.533    3.747
  439.860    0.219    0.456   75.424  196.426    3.293
  440.110    0.269    0.392   66.958  194.603    2.847
  440.360    0.258    0.354   59.714  181.613    2.497
  440.610    0.262    0.337   56.624  179.580    2.306
  440.860    0.281    0.328   52.370  179.510    2.196
  441.110    0.287    0.315   55.626  179.018    2.148
  441.360    0.270    0.333   52.044  179.883    2.101
  441.610    0.256    0.355   48.586  180.335    2.126
  441.860    0.273    0.342   47.507  180.676    2.191
  442.110    0.275    0.338   53.020  181.023    2.336
  442.360    0.278    0.332   55.854  178.469    2.456
  442.610    0.279    0.335   59.689  179.469    2.536
  442.860    0.273    0.318   50.856  179.539    2.386
  443.110    0.260    0.325   44.103  178.781    2.179
  443.360    0.262    0.318   40.106  177.915    2.020
  443.610    0.275    0.308   39.351  176.847    1.925
  443.860    0.282    0.309   40.798  175.982    1.935
  444.110    0.272    0.306   42.983  175.638    1.944
  444.360    0.278    0.309   46.695  176.330    1.952
  444.610    0.264    0.312   48.573  177.745    2.001
  444.860    0.243    0.314   50.326  179.059    2.010
  445.110    0.245    0.312   57.039  161.805    2.114
  445.360    0.261    0.316   62.736  178.990    2.498
  445.610    0.278    0.319   69.957  178.728    2.961
  445.860    0.262    0.309   80.473  178.355    3.465
  446.110    0.216    0.294   93.063  177.665    3.864
  446.360    0.164    0.330   99.675  177.188    3.897
  446.610    0.150    0.336  105.678  177.432    3.890
  446.860    0.176    0.349  104.115  177.375    3.827
  447.110    0.178    0.359  101.942  177.417    3.796
  447.360    0.185    0.331  108.494  178.079    3.885
  447.610    0.193    0.329  114.496  178.735    3.997
  447.860    0.178    0.361  118.180  180.222    4.150
  448.110    0.156    0.393  120.278  182.430    4.381
  448.360    0.157    0.398  117.920  185.566    4.733
  448.610    0.174    0.378  115.261  192.740    4.862
  448.860    0.190    0.358  111.441  196.281    4.097
  449.110    0.189    0.371  110.978  192.612    3.181
  449.360    0.173    0.413  121.796  190.066    2.495
  449.610    0.178    0.449  126.092  189.386    2.057
  449.860    0.184    0.459  128.982  189.427    1.947
  450.110    0.181    0.460  129.800  190.499    2.075
  450.360    0.177    0.458  130.188  191.366    2.316
  450.610    0.196    0.458  126.431  193.158    2.539
  450.860    0.189    0.452  125.656  195.576    2.796
  451.110    0.194    0.440  122.020  197.476    3.091
  451.360    0.200    0.399  115.762  194.211    3.363
  451.610    0.202    0.384  108.102  193.630    3.316
  451.860    0.187    0.406   91.531  196.148    3.014
  452.110    0.223    0.429   77.828  195.363    2.903
  452.360    0.262    0.444   66.079  181.665    2.864
  452.610    0.297    0.415   70.983  179.534    2.913
  452.860    0.291    0.391   71.612  179.265    3.050
  453.110    0.273    0.408   75.235  179.200    3.170
  453.360    0.254    0.404   78.557  179.134    3.266
  453.610    0.237    0.381   84.190  179.282    3.307
  453.860    0.227    0.398   86.471  179.218    3.388
  454.110    0.221    0.416   85.214  179.052    3.452
  454.360    0.218    0.442   79.990  179.190    3.549
  454.610    0.232    0.425   75.746  179.331    3.614
  454.860    0.256    0.425   72.842  179.682    3.622
  455.110    0.264    0.399   77.073  180.651    3.480
  455.360    0.266    0.432   83.380  181.515    3.258
  455.610    0.263    0.448   81.697  181.556    3.146
  455.860    0.243    0.417   76.472  180.979    3.147
  456.110    0.259    0.402   74.728  180.403    3.278
  456.360    0.257    0.396   77.435  180.131    3.421
  456.610    0.235    0.390   81.302  179.546    3.692
  456.860    0.230    0.414   84.560  179.283    3.933
  457.110    0.221    0.440   86.901  179.215    4.125
  457.360    0.209    0.438   88.629  179.561    4.198
  457.610    0.215    0.433   89.266  180.434    4.126
  457.860    0.217    0.425   90.019  180.263    3.967
  458.110    0.205    0.430   91.263  180.200    3.777
  458.360    0.192    0.416   92.628  180.551    3.610
  458.610    0.178    0.421   95.215  183.794    3.484
  458.860    0.216    0.440   97.438  185.487    3.429
  459.110    0.234    0.424   88.066  183.877    3.398
  459.360    0.222    0.398   84.856  181.948    3.343
  459.610    0.208    0.381   86.892  181.271    3.295
  459.860    0.216    0.412   89.474  181.723    3.296
  460.110    0.225    0.419   87.122  182.692    3.115
  460.360    0.231    0.409   88.793  183.351    3.075
  460.610    0.222    0.411   88.937  183.497    3.116
  460.860    0.211    0.430   88.901  182.704    3.204
  461.110    0.253    0.463   90.448  182.026    3.317
  461.360    0.244    0.446   94.194  181.240    3.660
  461.610    0.209    0.411   99.281  182.202    3.908
  461.860    0.205    0.404  106.622  183.376    3.981
  462.110    0.204    0.393  110.065  184.767    3.894
  462.360    0.187    0.367  113.140  186.563    3.863
