~VERSION INFORMATION
 VERS.                 2.0:   CWLS LOG ASCII STANDARD -VERSION 2.0
 WRAP.                  NO:   ONE LINE PER DEPTH STEP
~WELL INFORMATION BLOCK
#MNEM.UNIT           DATA                    DESCRIPTION OF MNEMONIC
#---------    -------------------            -------------------------------
# Generated from Intellog Unique Number	CS_77_79/WELL/937
WELL.         AMOCO B-1 LEISMER              : Well_name    - WELL
LOC .         00/10-09-078-09W4/0            : Location     - LOCATION
UWI .         00/10-09-078-09W4/0            : Uwi          - UNIQUE WELL ID
ENTR.         JHS                            : Entered      - ENTERED BY
SRVC.         SCHLUMBERGER                   : Scn          - SERVICE COMPANY
STRT.M        179.832                        : top_depth    - START DEPTH
STOP.M        402.082                        : bot_depth    - STOP DEPTH
STEP.M        0.25                           : increment    - STEP LENGTH
 NULL. -999.2500:NULL Value
~CURVE INFORMATION BLOCK
#MNEM UNIT       ERCB CURVE CODE    CURVE DESCRIPTION
#-----------   ------------------   ----------------------------------
DEPT.M        00 001 00 00         : DEPTH        - DEPTH
RHOB.KG/M3    00 350 00 00         : DENS         - BULK DENSITY
GR  .API      00 310 00 00         : GR           - GAMMA RAY
DPHI.V/V      00 890 00 00         : PHID         - DENSITY POROSITY (SANDSTONE)
NPHI.V/V      00 330 00 00         : PHIN         - NEUTRON POROSITY (SANDSTONE)
ILD .OHMM     00 120 00 00         : RESD         - DEEP RESISTIVITY (DIL)
~PARAMETER INFORMATION
#MNEM.UNIT           DATA             DESCRIPTION OF MNEMONIC
#---------         -----------     ------------------------------
GL  .M        599.953              : gl           - GROUND LEVEL ELEVATION
EREF.M        602.59               : kb           - ELEVATION OF DEPTH REFERENCE
DATM.M        602.59               : datum        - DATUM ELEVATION
TDD .M        417.576              : tdd          - TOTAL DEPTH DRILLER
RUN .         ONE                  : Run          - RUN NUMBER
ENG .         BILL                 : Engineer     - RECORDING ENGINEER
WIT .         JIM                  : Witness      - WITNESSED BY
MUD .         GEL                  : Mud_type     - MUD TYPE
MATR.         SANDSTONE            : Logunit      - NEUTRON MATRIX
TMAX.C        22.2222              : BHT          - MAXIMUM RECORDED TEMPERATURE
BHTD.M        417.576              : BHTDEP       - MAXIMUM RECORDED TEMPERATURE
MATR.         1                    : LOGUNIT      - NEUTRON MATRIX
RMT .C        25                   : MDTP         - TEMPERATURE OF MUD
NEUT.         1                    : NEUTRON      - NEUTRON TYPE
RESI.         0                    : RESIST       - RESISTIVITY TYPE
RMC .OHMM     0.25                 : RMC          - RESISTIVITY OF MUD CAKE
RMF .OHMM     0.25                 : RMF          - RESISTIVITY OF MUD FILTRATE
SUFT.C        15                   : SUFT         - SURFACE TEMPERATURE
~A  DEPTH     DENS       GR     PHID     PHIN     RESD
# ...
  362.332 2371.610   71.316    0.198    0.384   11.424
  362.582 2299.960   69.406    0.240    0.379   12.127
  362.832 2254.780   74.536    0.266    0.368   12.535
  363.082 2292.650   80.242    0.244    0.358   12.365
  363.332 2320.100   83.156    0.228    0.372   12.087
  363.582 2328.960   82.593    0.223    0.399   11.971
  363.832 2294.590   71.579    0.243    0.386   12.646
  364.082 2295.010   63.639    0.243    0.371   14.483
  364.332 2283.010   57.526    0.250    0.392   16.887
  364.582 2301.850   50.159    0.239    0.400   18.602
  364.832 2216.640   52.527    0.289    0.373   19.485
  365.082 2233.640   59.651    0.279    0.361   20.058
  365.332 2253.770   65.822    0.267    0.370   18.774
  365.582 2268.330   67.989    0.258    0.397   18.304
  365.832 2263.070   63.606    0.261    0.400   18.070
  366.082 2287.880   53.557    0.247    0.408   20.588
  366.332 2268.050   45.142    0.258    0.400   25.701
  366.582 2181.230   43.640    0.309    0.379   30.331
  366.832 2178.900   44.544    0.311    0.372   32.880
  367.082 2176.260   49.466    0.312    0.373   28.628
  367.332 2196.040   55.325    0.301    0.359   21.401
  367.582 2255.290   64.933    0.266    0.352   14.631
  367.832 2302.740   78.713    0.238    0.340   12.138
  368.082 2372.310   85.501    0.197    0.345   10.800
  368.332 2398.000   86.866    0.182    0.396   10.190
  368.582 2374.870   83.051    0.196    0.419   10.258
  368.832 2364.500   78.278    0.202    0.400   10.591
  369.082 2334.600   76.614    0.220    0.385   10.805
  369.332 2348.950   79.252    0.211    0.384   10.211
  369.582 2312.010   86.559    0.233    0.373    9.822
  369.832 2300.510   92.745    0.239    0.374    9.337
  370.082 2348.640   94.490    0.211    0.409    9.311
  370.332 2370.330   90.770    0.199    0.433    9.483
  370.582 2349.180   85.915    0.211    0.415    9.664
  370.832 2368.660   82.374    0.200    0.397    9.868
  371.082 2360.910   84.173    0.204    0.421   10.025
  371.332 2336.620   82.942    0.218    0.394    9.943
  371.582 2344.100   82.566    0.214    0.344    9.849
  371.832 2357.220   82.999    0.206    0.341    9.718
  372.082 2376.130   86.185    0.195    0.377    9.269
  372.332 2394.550   94.208    0.184    0.367    8.836
  372.582 2421.310   97.254    0.169    0.370    8.481
  372.832 2396.110  101.289    0.184    0.426    7.973
  373.082 2399.770  100.657    0.181    0.417    7.657
  373.332 2414.550   99.229    0.173    0.402    7.662
  373.582 2385.200  102.601    0.190    0.399    7.656
  373.832 2379.710  103.882    0.193    0.418    7.804
  374.082 2384.150   99.040    0.191    0.405    7.811
  374.332 2391.420   95.124    0.186    0.409    7.816
  374.582 2406.580   93.683    0.177    0.424    7.833
  374.832 2424.790   96.003    0.167    0.411    7.683
  375.082 2455.130   99.943    0.149    0.403    7.539
  375.332 2425.770  100.045    0.166    0.425    7.546
  375.582 2425.200   94.014    0.167    0.448    7.800
  375.832 2420.630   85.323    0.169    0.433    8.472
  376.082 2425.190   77.025    0.167    0.403    9.809
  376.332 2370.220   70.353    0.199    0.396   11.770
  376.582 2345.510   65.835    0.213    0.373   13.826
  376.832 2271.460   62.538    0.256    0.368   17.220
  377.082 2254.320   58.271    0.266    0.381   21.207
  377.332 2216.090   50.148    0.289    0.407   25.284
  377.582 2185.440   49.163    0.307    0.415   29.150
  377.832 2209.260   55.054    0.293    0.385   31.983
  378.082 2239.260   55.321    0.275    0.402   32.482
  378.332 2237.320   49.144    0.276    0.419   30.333
  378.582 2215.230   53.837    0.289    0.395   26.257
  378.832 2242.890   62.220    0.273    0.368   21.913
  379.082 2296.790   68.549    0.242    0.355   18.374
  379.332 2302.270   72.213    0.238    0.354   15.848
  379.582 2311.800   73.395    0.233    0.359   14.113
  379.832 2322.750   66.858    0.226    0.372   15.265
  380.082 2300.210   55.911    0.240    0.396   19.996
  380.332 2230.460   45.466    0.280    0.471   25.186
  380.582 2160.620   40.288    0.321    0.451   37.475
  380.832 2124.760   39.353    0.342    0.413   50.029
  381.082 2144.270   41.948    0.331    0.402   49.886
  381.332 2147.910   44.711    0.329    0.398   43.633
  381.582 2154.460   53.842    0.325    0.379   33.402
  381.832 2196.340   61.411    0.300    0.365   27.350
  382.082 2246.010   64.870    0.271    0.363   22.088
  382.332 2277.270   63.580    0.253    0.374   18.198
  382.582 2261.770   65.270    0.262    0.365   15.237
  382.832 2287.110   72.647    0.247    0.362   13.816
  383.082 2312.500   76.346    0.232    0.369   12.365
  383.332 2321.920   76.548    0.227    0.363   11.639
  383.582 2329.800   79.775    0.222    0.361   11.309
  383.832 2355.220   81.967    0.207    0.371   11.480
  384.082 2359.460   79.859    0.205    0.395   12.522
  384.332 2322.280   70.355    0.227    0.397   13.675
  384.582 2279.790   60.767    0.252    0.385   15.091
  384.832 2220.710   62.041    0.286    0.369   15.471
  385.082 2240.760   67.201    0.274    0.356   14.838
  385.332 2297.830   73.090    0.241    0.344   13.319
  385.582 2371.970   80.414    0.198    0.337   11.959
  385.832 2418.740   84.314    0.170    0.336   10.205
  386.082 2441.090   86.878    0.157    0.342    9.133
  386.332 2430.160   92.889    0.164    0.352    8.476
  386.582 2406.030   96.379    0.178    0.357    8.320
  386.832 2400.210  101.579    0.181    0.396    8.151
  387.082 2417.240  104.521    0.171    0.411    8.170
  387.332 2446.630  102.916    0.154    0.406    8.175
  387.582 2464.960   98.099    0.143    0.387    8.177
  387.832 2455.600   93.411    0.149    0.363    8.183
  388.082 2417.840   88.715    0.171    0.348    8.186
  388.332 2392.660   90.439    0.186    0.355    8.191
  388.582 2381.710   94.880    0.192    0.376    8.194
  388.832 2402.350   98.605    0.180    0.389    8.197
  389.082 2417.970   98.243    0.171    0.389    8.203
  389.332 2418.430   96.458    0.171    0.380    7.882
  389.582 2422.740   92.035    0.168    0.385    7.423
  389.832 2415.210   86.401    0.172    0.408    6.872
  390.082 2325.200   66.775    0.225    0.418    6.264
  390.332 2257.670   47.812    0.265    0.430    6.010
  390.582 2185.490   49.388    0.307    0.357    6.120
  390.832 2213.250   57.451    0.290    0.343    6.186
  391.082 2263.880   62.165    0.261    0.357    6.253
  391.332 2270.970   63.473    0.257    0.343    6.110
  391.582 2265.750   55.010    0.260    0.350    5.673
  391.832 2248.520   43.341    0.270    0.378    5.201
  392.082 2173.900   40.536    0.314    0.413    4.835
  392.332 2112.470   37.771    0.349    0.417    4.625
  392.582 2084.060   38.664    0.366    0.416    4.427
  392.832 2069.390   42.039    0.375    0.454    4.346
  393.082 2079.090   43.016    0.369    0.445    4.243
  393.332 2084.620   41.015    0.366    0.421    4.196
  393.582 2111.000   35.742    0.350    0.397    4.109
  393.832 2128.520   32.821    0.340    0.399    4.117
  394.082 2098.270   33.799    0.358    0.391    4.188
  394.332 2108.390   37.082    0.352    0.381    4.234
  394.582 2110.450   37.228    0.351    0.371    4.284
  394.832 2116.020   36.627    0.347    0.351    4.369
  395.082 2133.850   37.758    0.337    0.358    4.369
  395.332 2140.120   39.169    0.333    0.368    4.287
  395.582 2166.050   38.443    0.318    0.383    4.213
  395.832 2191.760   37.234    0.303    0.391    4.110
  396.082 2186.830   34.553    0.306    0.359    4.062
  396.332 2146.620   36.022    0.329    0.350    4.026
  396.582 2134.560   39.740    0.337    0.361    4.009
  396.832 2145.070   39.717    0.330    0.363    4.063
  397.082 2142.270   36.378    0.330    0.347    4.296
  397.332 2173.510   39.259    0.305    0.331    4.662
  397.582 2451.280   47.782    0.277    0.319    5.233
  397.832 -240.418   52.338    0.226    0.300    6.194
  398.082   -3.750   52.207    0.153    0.280    7.809
  398.332    2.942   56.526    0.067    0.265    9.486
  398.582    0.327   59.740    0.009    0.265   11.908
