~VERSION INFORMATION
 VERS.                 2.0:   CWLS LOG ASCII STANDARD -VERSION 2.0
 WRAP.                  NO:   ONE LINE PER DEPTH STEP
~WELL INFORMATION BLOCK
#MNEM.UNIT           DATA                    DESCRIPTION OF MNEMONIC
#---------    -------------------            -------------------------------
# Generated from Intellog Unique Number	CW_73_75/WELL/1047
WELL.         ATCOR ET AL MARTEN H 11-33     : Well_name    - WELL
LOC .         00/11-33-074-23W4/0            : Location     - LOCATION
UWI .         00/11-33-074-23W4/0            : Uwi          - UNIQUE WELL ID
ENTR.         JAYE                           : Entered      - ENTERED BY
SRVC.         COMPUTALOG                     : Scn          - SERVICE COMPANY
DATE.         26 FEB 85                      : Date         - LOG DATE
STRT.M        450                            : top_depth    - START DEPTH
STOP.M        695                            : bot_depth    - STOP DEPTH
STEP.M        0.25                           : increment    - STEP LENGTH
 NULL. -999.2500:NULL Value
~CURVE INFORMATION BLOCK
#MNEM UNIT       ERCB CURVE CODE    CURVE DESCRIPTION
#-----------   ------------------   ----------------------------------
DEPT.M        00 001 00 00         : DEPTH        - DEPTH
ILD .OHMM     00 120 00 00         : RESD         - DEEP RESISTIVITY (DIL)
DPHI.V/V      00 890 00 00         : PHID         - DENSITY POROSITY (SANDSTONE)
NPHI.V/V      00 330 00 00         : PHIN         - NEUTRON POROSITY (SANDSTONE)
CALI.MM       00 280 01 00         : CAL          - CALIPER
GR  .API      00 310 00 00         : GR           - GAMMA RAY
~PARAMETER INFORMATION
#MNEM.UNIT           DATA             DESCRIPTION OF MNEMONIC
#---------         -----------     ------------------------------
GL  .M        708                  : gl           - GROUND LEVEL ELEVATION
EREF.M        711                  : kb           - ELEVATION OF DEPTH REFERENCE
DATM.M        708                  : datum        - DATUM ELEVATION
TDD .M        697                  : tdd          - TOTAL DEPTH DRILLER
RUN .         ONE                  : Run          - RUN NUMBER
ENG .         BERUDE               : Engineer     - RECORDING ENGINEER
WIT .         HICKS                : Witness      - WITNESSED BY
BASE.         EDM                  : Branch       - HOME BASE OF LOGGING UNIT
MUD .         GEL CHEM             : Mud_type     - MUD TYPE
MATR.         SANDSTONE            : Logunit      - NEUTRON MATRIX
TMAX.C        24                   : BHT          - MAXIMUM RECORDED TEMPERATURE
BHTD.M        695.6                : BHTDEP       - MAXIMUM RECORDED TEMPERATURE
RMT .C        24                   : MDTP         - TEMPERATURE OF MUD
MUDD.KG/M     1130                 : MWT          - MUD DENSITY
NEUT.         1                    : NEUTRON      - NEUTRON TYPE
RESI.         0                    : RESIST       - RESISTIVITY TYPE
RM  .OHMM     3.9                  : RM           - RESISTIVITY OF MUD
RMC .OHMM     0                    : RMC          - RESISTIVITY OF MUD CAKE
RMF .OHMM     4                    : RMF          - RESISTIVITY OF MUD FILTRATE
SUFT.C        0                    : SUFT         - SURFACE TEMPERATURE
~A  DEPTH     RESD     PHID     PHIN      CAL       GR
  450.000    2.753    0.236    0.464  255.050  115.373
  450.250    2.720    0.240    0.457  248.370  113.069
  450.500    2.713    0.246    0.442  243.369  115.440
  450.750    2.701    0.249    0.436  244.269  122.172
  451.000    2.735    0.250    0.447  240.328  125.744
  451.250    2.823    0.242    0.464  233.116  127.168
  451.500    2.919    0.232    0.482  232.542  124.993
  451.750    2.951    0.221    0.477  234.073  130.081
  452.000    2.960    0.220    0.460  234.129  132.453
  452.250    2.964    0.228    0.454  231.339  124.211
  452.500    2.951    0.244    0.463  228.980  124.243
  452.750    3.000    0.256    0.464  226.612  127.186
  453.000    3.009    0.253    0.465  228.566  118.627
  453.250    3.007    0.243    0.462  228.622  113.100
  453.500    2.999    0.242    0.461  228.261  112.310
  453.750    2.991    0.243    0.444  227.999  111.274
  454.000    2.978    0.239    0.434  227.949  105.431
  454.250    2.904    0.249    0.456  227.903  104.392
  454.500    2.777    0.264    0.473  228.064  103.098
  454.750    2.662    0.282    0.502  228.650  102.438
  455.000    2.537    0.305    0.515  229.335   99.313
  455.250    2.511    0.322    0.518  229.607   98.210
  455.500    2.961    0.329    0.492  228.925  100.014
  455.750    3.399    0.305    0.429  225.194   87.917
  456.000    3.933    0.275    0.412  219.353   76.830
  456.250    4.726    0.261    0.400  216.247   66.377
  456.500    5.314    0.274    0.388  214.728   65.462
  456.750    5.569    0.279    0.375  215.413   70.993
  457.000    5.565    0.290    0.381  216.525   75.641
  457.250    5.467    0.314    0.392  217.112   70.304
  457.500    5.361    0.326    0.410  218.114   69.264
  457.750    5.256    0.295    0.415  218.697   74.669
  458.000    5.173    0.299    0.421  219.701   79.126
  458.250    5.054    0.317    0.420  220.077   76.886
  458.500    4.955    0.332    0.407  218.656   68.515
  458.750    4.858    0.330    0.398  217.976   63.369
  459.000    4.772    0.313    0.403  217.299   68.774
  459.250    4.653    0.282    0.396  216.721   70.832
  459.500    4.536    0.251    0.399  216.043   68.716
  459.750    4.448    0.256    0.407  215.675   70.268
  460.000    4.337    0.273    0.408  215.737   73.650
  460.250    4.260    0.289    0.403  216.215   77.918
  460.500    4.177    0.282    0.398  217.326   81.300
  460.750    4.142    0.268    0.411  218.752   82.598
  461.000    4.227    0.259    0.434  218.389   84.023
  461.250    4.330    0.266    0.429  217.708   85.194
  461.500    4.427    0.268    0.399  217.132   88.261
  461.750    4.561    0.248    0.385  218.241   94.424
  462.000    4.592    0.233    0.401  220.825   94.585
  462.250    4.599    0.232    0.397  223.936   91.082
  462.500    4.543    0.237    0.382  225.042   90.671
  462.750    4.429    0.235    0.387  224.789   98.225
  463.000    4.253    0.224    0.409  224.530  105.210
  463.250    3.992    0.213    0.435  224.799  111.436
  463.500    3.811    0.215    0.451  225.381  120.380
  463.750    3.708    0.222    0.453  226.070  126.731
  464.000    3.799    0.225    0.449  226.444  123.798
  464.250    4.042    0.245    0.432  222.500  111.827
  464.500    4.236    0.286    0.409  220.659  103.015
  464.750    4.323    0.308    0.392  220.612   95.404
  465.000    4.271    0.305    0.391  221.405   87.603
  465.250    4.211    0.295    0.389  221.570   93.261
  465.500    4.282    0.298    0.382  220.785   88.810
  465.750    4.386    0.286    0.374  220.418   79.114
  466.000    4.553    0.257    0.369  221.004   82.116
  466.250    4.762    0.248    0.367  222.008   91.944
  466.500    4.962    0.243    0.371  222.905   96.969
  466.750    5.122    0.241    0.386  222.958  101.428
  467.000    5.207    0.235    0.387  222.810  104.682
  467.250    5.263    0.210    0.392  223.077  107.182
  467.500    5.249    0.180    0.404  223.553  110.061
  467.750    5.256    0.163    0.415  223.510  114.137
  468.000    5.222    0.180    0.427  223.251  122.007
  468.250    5.111    0.202    0.437  224.039  128.043
  468.500    5.040    0.227    0.433  224.097  126.435
  468.750    5.027    0.248    0.415  223.316  111.432
  469.000    5.043    0.272    0.411  222.318  100.662
  469.250    5.078    0.271    0.393  221.008   84.141
  469.500    5.114    0.249    0.381  219.482   73.246
  469.750    5.110    0.235    0.384  218.908   76.438
  470.000    5.117    0.217    0.387  219.072   85.002
  470.250    5.103    0.202    0.399  218.705   91.482
  470.500    5.071    0.201    0.414  218.762  102.130
  470.750    5.001    0.214    0.429  219.034  108.356
  471.000    4.940    0.228    0.431  219.084  111.424
  471.250    4.910    0.237    0.419  219.249  109.878
  471.500    4.888    0.251    0.414  219.306  101.698
  471.750    4.884    0.262    0.408  219.574   96.931
  472.000    4.900    0.268    0.388  218.792   89.067
  472.250    4.905    0.266    0.378  218.532   83.984
  472.500    4.940    0.272    0.380  218.380   83.133
  472.750    4.974    0.285    0.399  218.117   81.715
  473.000    4.961    0.289    0.408  218.284   80.926
  473.250    4.948    0.290    0.413  218.126   82.162
  473.500    4.973    0.280    0.406  218.500   84.597
  473.750    4.980    0.253    0.385  220.136   87.916
  474.000    5.014    0.231    0.372  222.510   91.616
  474.250    5.078    0.213    0.374  223.937  103.466
  474.500    5.252    0.197    0.378  224.524  111.145
  474.750    5.420    0.205    0.378  224.053  114.213
  475.000    5.627    0.216    0.365  223.265  108.434
  475.250    5.841    0.227    0.346  223.114  106.316
  475.500    5.938    0.225    0.331  222.643  103.763
  475.750    5.945    0.215    0.340  221.649   97.289
  476.000    5.874    0.212    0.341  221.073   90.942
  476.250    5.770    0.218    0.346  220.810   90.215
  476.500    5.658    0.238    0.358  220.655   93.978
  476.750    5.537    0.265    0.344  220.609   87.253
  477.000    5.138    0.284    0.327  220.141   76.042
  477.250    4.722    0.302    0.311  219.566   57.057
  477.500    4.424    0.314    0.317  219.414   51.152
  477.750    4.160    0.310    0.332  220.105   52.386
  478.000    4.086    0.278    0.341  221.106   57.728
  478.250    4.115    0.254    0.347  220.955   68.125
  478.500    4.152    0.253    0.349  220.591   76.247
  478.750    4.133    0.281    0.343  220.123   71.793
  479.000    4.022    0.299    0.343  219.650   66.016
  479.250    3.891    0.314    0.353  219.813   57.773
  479.500    3.694    0.320    0.387  219.556   69.054
  479.750    3.643    0.313    0.394  220.245   75.912
  480.000    3.732    0.294    0.341  223.355   77.778
  480.250    3.888    0.274    0.340  223.729   83.878
  480.500    4.083    0.259    0.373  223.888   87.072
  480.750    4.255    0.253    0.380  223.730   88.305
  481.000    4.416    0.266    0.368  223.997   95.860
  481.250    4.637    0.277    0.356  224.377   95.072
  481.500    4.759    0.250    0.347  224.747   94.286
  481.750    4.829    0.220    0.359  225.019   97.921
  482.000    4.937    0.207    0.374  225.074  113.562
  482.250    5.048    0.212    0.387  225.336  116.313
  482.500    5.082    0.215    0.391  225.397  114.893
  482.750    4.927    0.215    0.397  225.454  116.381
  483.000    4.511    0.219    0.416  225.299  118.690
  483.250    4.178    0.232    0.444  224.939  119.356
  483.500    3.718    0.248    0.466  225.103  128.363
  483.750    3.359    0.260    0.483  225.262  132.566
  484.000    3.177    0.266    0.480  225.743  126.473
  484.250    3.016    0.239    0.460  225.901  123.409
  484.500    2.946    0.215    0.471  225.855  123.760
  484.750    2.900    0.210    0.485  225.808  127.459
  485.000    2.887    0.220    0.516  224.495  130.968
  485.250    2.858    0.226    0.521  223.288  129.928
  485.500    2.839    0.240    0.500  223.979  129.395
  485.750    2.837    0.263    0.484  226.879  129.429
  486.000    2.901    0.271    0.478  226.301  132.306
  486.250    3.017    0.270    0.486  225.940  136.448
