~VERSION INFORMATION
 VERS.                 2.0:   CWLS LOG ASCII STANDARD -VERSION 2.0
 WRAP.                  NO:   ONE LINE PER DEPTH STEP
~WELL INFORMATION BLOCK
#MNEM.UNIT           DATA                    DESCRIPTION OF MNEMONIC
#---------    -------------------            -------------------------------
# Generated from Intellog Unique Number	CW_82_90/WELL/3071
WELL.         PACIFIC LIVOCK 10-08           : Well_name    - WELL
LOC .         00/10-08-085-19W4/0            : Location     - LOCATION
UWI .         00/10-08-085-19W4/0            : Uwi          - UNIQUE WELL ID
ENTR.         JAYE                           : Entered      - ENTERED BY
SRVC.         SCHLUMBERGER                   : Scn          - SERVICE COMPANY
DATE.         7 MAR 75                       : Date         - LOG DATE
STRT.M        192.024                        : top_depth    - START DEPTH
STOP.M        350.524                        : bot_depth    - STOP DEPTH
STEP.M        0.25                           : increment    - STEP LENGTH
 NULL. -999.2500:NULL Value
~CURVE INFORMATION BLOCK
#MNEM UNIT       ERCB CURVE CODE    CURVE DESCRIPTION
#-----------   ------------------   ----------------------------------
DEPT.M        00 001 00 00         : DEPTH        - DEPTH
NPHI.V/V      00 330 00 00         : PHIN         - NEUTRON POROSITY (SANDSTONE)
DPHI.V/V      00 890 00 00         : PHID         - DENSITY POROSITY (SANDSTONE)
ILD .OHMM     00 120 00 00         : RESD         - DEEP RESISTIVITY (DLL)
CALI.MM       00 280 01 00         : CAL          - CALIPER
GR  .API      00 310 00 00         : GR           - GAMMA RAY
~PARAMETER INFORMATION
#MNEM.UNIT           DATA             DESCRIPTION OF MNEMONIC
#---------         -----------     ------------------------------
GL  .M        604.845              : gl           - GROUND LEVEL ELEVATION
EREF.M        607.344              : kb           - ELEVATION OF DEPTH REFERENCE
DATM.M        604.845              : datum        - DATUM ELEVATION
TDD .M        356.006              : tdd          - TOTAL DEPTH DRILLER
RUN .         ONE                  : Run          - RUN NUMBER
ENG .         CROCKFORD            : Engineer     - RECORDING ENGINEER
WIT .         KOSS                 : Witness      - WITNESSED BY
BASE.         EDMONTON             : Branch       - HOME BASE OF LOGGING UNIT
MUD .         GEL CHEM             : Mud_type     - MUD TYPE
MATR.         SANDSTONE            : Logunit      - NEUTRON MATRIX
TMAX.C        17.2222              : BHT          - MAXIMUM RECORDED TEMPERATURE
BHTD.M        356.006              : BHTDEP       - MAXIMUM RECORDED TEMPERATURE
RMT .C        18.8889              : MDTP         - TEMPERATURE OF MUD
MUDD.KG/M     0                    : MWT          - MUD DENSITY
NEUT.         0                    : NEUTRON      - NEUTRON TYPE
RESI.         1                    : RESIST       - RESISTIVITY TYPE
RM  .OHMM     1.73                 : RM           - RESISTIVITY OF MUD
RMC .OHMM     0                    : RMC          - RESISTIVITY OF MUD CAKE
RMF .OHMM     1.59                 : RMF          - RESISTIVITY OF MUD FILTRATE
SUFT.C        -17.7778             : SUFT         - SURFACE TEMPERATURE
~A  DEPTH     PHIN     PHID     RESD      CAL       GR
# ...
  265.024    0.543    0.359    7.047  178.611   92.181
  265.274    0.509    0.360    7.600  166.724   88.186
  265.524    0.490    0.361    8.639  156.932   85.860
  265.774    0.464    0.285   10.272  154.352   83.778
  266.024    0.461    0.267   11.226  148.737   80.835
  266.274    0.476    0.266   11.910  145.321   76.164
  266.524    0.482    0.268   11.377  147.334   76.611
  266.774    0.466    0.257   10.450  153.738   81.444
  267.024    0.476    0.260    9.871  155.859   86.827
  267.274    0.442    0.235    9.172  156.306   93.694
  267.524    0.446    0.214    8.893  155.708   98.895
  267.774    0.486    0.214    8.719  159.082  101.134
  268.024    0.486    0.217    8.797  163.720   99.855
  268.274    0.475    0.228    8.904  164.261  101.169
  268.524    0.472    0.223    9.048  164.709  102.981
  268.774    0.475    0.250    9.260  164.532  103.425
  269.024    0.506    0.239    9.479  163.931  101.035
  269.274    0.495    0.232    9.635  162.941   99.945
  269.524    0.487    0.216    9.769  162.737   97.924
  269.774    0.478    0.234    9.317  159.962   94.671
  270.024    0.467    0.273    8.734  158.825   85.804
  270.274    0.460    0.277    7.700  156.149   81.316
  270.524    0.460    0.271    7.260  156.400   79.483
  270.774    0.488    0.281    7.377  156.411   75.921
  271.024    0.475    0.270    7.766  156.853   75.323
  271.274    0.457    0.272    8.425  156.572   78.242
  271.524    0.443    0.267    9.739  156.497   80.482
  271.774    0.441    0.250   10.745  156.329   82.039
  272.024    0.446    0.227   11.000  156.247   83.353
  272.274    0.427    0.216   10.909  156.597   80.408
  272.524    0.423    0.237   10.659  156.824   80.306
  272.774    0.424    0.266   10.452  156.752   80.567
  273.024    0.426    0.268   10.233  156.752   80.337
  273.274    0.435    0.274   10.110  155.979   77.825
  273.524    0.428    0.284    9.986  155.979   79.014
  273.774    0.434    0.276    9.885  155.626   81.008
  274.024    0.480    0.260    9.675  155.539   80.285
  274.274    0.476    0.242    9.650  154.637   75.859
  274.524    0.465    0.221    9.695  154.351   76.497
  274.774    0.453    0.264    9.616  154.270   78.981
  275.024    0.461    0.265    9.102  154.327   82.267
  275.274    0.470    0.254    8.612  154.225   83.766
  275.524    0.461    0.243    8.075  154.225   83.969
  275.774    0.478    0.250    7.349  154.624   83.245
  276.024    0.502    0.261    6.904  154.628   82.153
  276.274    0.496    0.266    6.594  155.807   81.368
  276.524    0.494    0.275    6.419  158.135   80.582
  276.774    0.507    0.287    6.473  161.931   80.169
  277.024    0.595    0.306    6.958  166.560   79.385
  277.274    0.585    0.319    7.365   66.486   78.414
  277.524    0.537    0.333    7.991  162.013   79.418
  277.774    0.498    0.271    8.334  158.179   83.263
  278.024    0.489    0.264    8.564  157.689   84.883
  278.274    0.486    0.278    8.477  156.883   84.839
  278.524    0.488    0.256    8.129  157.015   84.550
  278.774    0.510    0.238    7.765  156.543   87.530
  279.024    0.554    0.291    7.573  156.552   88.595
  279.274    0.513    0.297    7.928  156.373   85.526
  279.524    0.488    0.280    8.649  155.692   80.114
  279.774    0.490    0.280    8.821  155.803   82.538
  280.024    0.492    0.275    8.380  155.838   85.395
  280.274    0.494    0.272    7.556  155.802   87.265
  280.524    0.508    0.265    6.585  155.790   89.255
  280.774    0.532    0.255    5.882  155.923   91.001
  281.024    0.543    0.257    5.736  155.923   91.634
  281.274    0.533    0.272    5.764  157.671   93.259
  281.524    0.509    0.264    5.877  158.204   96.173
  281.774    0.513    0.233    6.108  160.663   99.585
  282.024    0.512    0.225    6.383  160.771   99.913
  282.274    0.500    0.258    6.236  162.172   96.905
  282.524    0.461    0.250    6.070  162.717   96.245
  282.774    0.451    0.223    5.987  162.717   98.668
  283.024    0.468    0.209    6.004  164.035   99.487
  283.274    0.476    0.214    6.032  165.645   98.210
  283.524    0.486    0.214    6.140  165.755   96.377
  283.774    0.498    0.224    6.392  170.821   96.085
  284.024    0.500    0.222    6.756  171.771   96.903
  284.274    0.499    0.244    7.086  169.616   93.838
  284.524    0.492    0.251    7.281  165.875   95.953
  284.774    0.483    0.241    7.088  168.098   98.562
  285.024    0.482    0.252    6.976  169.067   99.504
  285.274    0.492    0.253    6.907  175.578  103.657
  285.524    0.508    0.222    6.952  183.443  105.711
  285.774    0.510    0.240    7.264  191.412  105.295
  286.024    0.501    0.243    7.648  176.919  101.054
  286.274    0.479    0.255    8.533  165.245   98.234
  286.524    0.449    0.237   10.013  160.782   98.807
  286.774    0.457    0.222   11.213  158.305   97.719
  287.024    0.456    0.207   12.209  157.397   95.201
  287.274    0.433    0.236   12.663  156.594   90.098
  287.524    0.421    0.292   12.867  156.200   86.721
  287.774    0.425    0.308   12.667  155.203   78.533
  288.024    0.440    0.301   12.513  155.115   77.192
  288.274    0.457    0.292   12.135  155.115   80.541
  288.524    0.457    0.280   11.635  154.979   85.620
  288.774    0.461    0.260   10.970  154.885   88.723
  289.024    0.435    0.232    9.890  154.394   90.652
  289.274    0.445    0.201    9.068  154.317   94.865
  289.524    0.475    0.236    8.581  154.317  101.611
  289.774    0.488    0.278    8.260  154.605  101.380
  290.024    0.489    0.272    8.362  155.033   99.242
  290.274    0.483    0.255    9.904  156.736   96.972
  290.524    0.440    0.235   11.774  158.019   89.276
  290.774    0.401    0.199   21.079  158.465   84.852
  291.024    0.329    0.149   32.074  158.465   76.786
  291.274    0.273    0.092   38.560  151.842   75.076
  291.524    0.257    0.058   37.956  155.951   75.216
  291.774    0.225    0.033   30.417  161.615   73.200
  292.024    0.199    0.030   26.171  161.436   68.219
  292.274    0.191    0.031   19.208  159.688   71.631
  292.524    0.277    0.059   12.208  158.989   77.077
  292.774    0.351    0.097   10.175  159.016   82.647
  293.024    0.427    0.149    9.648  158.733   89.082
  293.274    0.452    0.202    9.165  158.351   93.480
  293.524    0.467    0.197    9.141  158.172   94.546
  293.774    0.469    0.203    9.393  157.589   91.541
  294.024    0.468    0.196   10.039  157.391   89.214
  294.274    0.455    0.182   10.490  157.391   89.110
  294.524    0.442    0.170   10.820  156.207   91.533
  294.774    0.419    0.158   10.871  156.120   94.575
  295.024    0.445    0.215   10.761  156.779   97.985
  295.274    0.437    0.209   10.573  156.779  100.843
  295.524    0.434    0.200   10.446  158.824  101.783
  295.774    0.447    0.200   10.300  159.797   97.358
  296.024    0.453    0.207   10.139  157.753   93.672
  296.274    0.462    0.226    9.962  157.343   93.258
  296.524    0.463    0.233    9.843  156.118   94.141
  296.774    0.464    0.215    9.761  155.209   95.023
  297.024    0.463    0.213    9.788  156.518   96.152
  297.274    0.458    0.223   10.347  156.838   96.166
  297.524    0.454    0.223   10.993  157.931   94.826
  297.774    0.443    0.206   12.876  158.148   86.699
  298.024    0.414    0.174   16.713  158.093   77.278
  298.274    0.382    0.134   19.908  157.894   77.542
  298.524    0.263    0.089   21.435  156.986   81.631
  298.774    0.293    0.040   21.335  155.570   86.155
  299.024    0.326    0.052   18.186  155.477   90.120
  299.274    0.366    0.074   15.707  156.132   93.592
  299.524    0.424    0.135   13.768  156.478   97.746
  299.774    0.429    0.182   12.932  158.089  100.908
  300.024    0.447    0.190   12.153  158.836  100.248
  300.274    0.448    0.212   11.697  158.836   97.490
  300.524    0.442    0.208   11.361  160.691   98.739
  300.774    0.443    0.185   10.978  160.698  102.090
  301.024    0.469    0.168   10.723  159.393  104.759
  301.274    0.475    0.150   10.477  159.088  105.086
