~VERSION INFORMATION
 VERS.                 2.0:   CWLS LOG ASCII STANDARD -VERSION 2.0
 WRAP.                  NO:   ONE LINE PER DEPTH STEP
~WELL INFORMATION BLOCK
#MNEM.UNIT           DATA                    DESCRIPTION OF MNEMONIC
#---------    -------------------            -------------------------------
# Generated from Intellog Unique Number	CS_69_70/WELL/902
NULL.         -999.25                        : NULL_VALUE
WELL.         BVX ET AL HEART LAKE           : Well_name    - WELL              
LOC .         00/13-18-070-10W4/0            : Location     - LOCATION          
UWI .         00/13-18-070-10W4/0            : Uwi          - UNIQUE WELL ID    
ENTR.         SP                             : Entered      - ENTERED BY        
SRVC.         SCHLUMBERGER                   : Scn          - SERVICE COMPANY   
STRT.M        295                            : top_depth    - START DEPTH       
STOP.M        530                            : bot_depth    - STOP DEPTH        
STEP.M        0.25                           : increment    - STEP LENGTH       
~CURVE INFORMATION BLOCK
#MNEM UNIT       ERCB CURVE CODE    CURVE DESCRIPTION
#-----------   ------------------   ----------------------------------
DEPT.M        00 001 00 00         : DEPTH        - DEPTH                       
DPHI.V/V      00 890 00 00         : PHID         - DENSITY POROSITY (LIMESTONE)
NPHI.V/V      00 330 00 00         : PHIN         - NEUTRON POROSITY (LIMESTONE)
GR  .API      00 310 00 00         : GR           - GAMMA RAY                   
ILD .OHMM     00 120 00 00         : RESD         - DEEP RESISTIVITY (DIL)      
~PARAMETER INFORMATION       
#MNEM.UNIT           DATA             DESCRIPTION OF MNEMONIC
#---------         -----------     ------------------------------
GL  .M        632.82               : gl           - GROUND LEVEL ELEVATION      
EREF.M        635.5                : kb           - ELEVATION OF DEPTH REFERENCE
DATM.M        632.82               : datum        - DATUM ELEVATION             
TDD .M        545                  : tdd          - TOTAL DEPTH DRILLER         
RUN .         ONE                  : Run          - RUN NUMBER                  
ENG .         BILL                 : Engineer     - RECORDING ENGINEER          
WIT .         JIM                  : Witness      - WITNESSED BY                
MUD .         GEL                  : Mud_type     - MUD TYPE                    
MATR.         LIMESTONE            : Logunit      - NEUTRON MATRIX              
TMAX.C        23                   : BHT          - MAXIMUM RECORDED TEMPERATURE
BHTD.M        545                  : BHTDEP       - MAXIMUM RECORDED TEMPERATURE
MATR.         1                    : LOGUNIT      - NEUTRON MATRIX              
RMT .C        25                   : MDTP         - TEMPERATURE OF MUD          
NEUT.         1                    : NEUTRON      - NEUTRON TYPE                
RESI.         0                    : RESIST       - RESISTIVITY TYPE            
RMC .OHMM     0.25                 : RMC          - RESISTIVITY OF MUD CAKE     
RMF .OHMM     0.25                 : RMF          - RESISTIVITY OF MUD FILTRATE 
SUFT.C        15                   : SUFT         - SURFACE TEMPERATURE         
~A  DEPTH     PHID     PHIN       GR     RESD
# ...
  382.000    0.306    0.370   65.870   10.336
  382.250    0.316    0.415   65.877   10.155
  382.500    0.321    0.436   64.136   10.163
  382.750    0.316    0.450   64.686   10.272
  383.000    0.306    0.440   66.861   10.354
  383.250    0.319    0.428   68.917   10.462
  383.500    0.326    0.422   70.732   10.552
  383.750    0.340    0.423   71.703   10.231
  384.000    0.343    0.436   72.493   10.392
  384.250    0.333    0.440   72.017   10.655
  384.500    0.317    0.434   67.807   11.231
  384.750    0.300    0.433   65.522   11.707
  385.000    0.303    0.431   63.540   12.071
  385.250    0.303    0.425   61.860   12.083
  385.500    0.297    0.419   61.384   11.984
  385.750    0.306    0.413   62.777   11.860
  386.000    0.302    0.384   63.989   11.510
  386.250    0.301    0.392   65.262   11.349
  386.500    0.315    0.419   65.993   11.051
  386.750    0.301    0.439   66.481   10.798
  387.000    0.296    0.451   65.523   10.608
  387.250    0.307    0.464   65.047   10.426
  387.500    0.299    0.469   66.200   10.341
  387.750    0.298    0.464   67.532   10.291
  388.000    0.299    0.460   68.683   10.366
  388.250    0.308    0.456   69.655   10.388
  388.500    0.309    0.461   70.083   10.435
  388.750    0.303    0.460   70.693   10.522
  389.000    0.292    0.447   68.831   10.575
  389.250    0.294    0.434   66.789   10.507
  389.500    0.302    0.427   69.929   10.440
  389.750    0.293    0.425   70.840   10.353
  390.000    0.293    0.422   68.738   10.302
  390.250    0.308    0.433   70.312   10.162
  390.500    0.309    0.444   72.067   10.114
  390.750    0.298    0.460   72.978   10.125
  391.000    0.289    0.477   72.923   10.196
  391.250    0.295    0.464   70.519   10.238
  391.500    0.299    0.449   69.742   10.293
  391.750    0.301    0.440   69.809   10.315
  392.000    0.299    0.433   70.539   10.425
  392.250    0.295    0.434   68.858   10.448
  392.500    0.295    0.435   65.490   10.458
  392.750    0.300    0.434   64.171   10.507
  393.000    0.299    0.440   65.082   10.556
  393.250    0.290    0.436   66.234   10.605
  393.500    0.291    0.448   67.868   10.616
  393.750    0.314    0.446   69.262   10.627
  394.000    0.318    0.431   69.388   10.660
  394.250    0.324    0.427   67.105   10.668
  394.500    0.314    0.427   66.026   10.721
  394.750    0.305    0.440   66.515   10.769
  395.000    0.304    0.461   65.257   10.753
  395.250    0.307    0.457   64.781   10.747
  395.500    0.306    0.433   67.018   10.755
  395.750    0.305    0.433   68.592   10.787
  396.000    0.302    0.438   69.442   10.775
  396.250    0.295    0.429   66.074   10.709
  396.500    0.285    0.430   66.442   10.697
  396.750    0.309    0.434   68.740   10.629
  397.000    0.321    0.427   70.132   10.581
  397.250    0.318    0.421   67.728   10.552
  397.500    0.317    0.422   67.373   10.485
  397.750    0.312    0.437   67.560   10.456
  398.000    0.305    0.434   66.302   10.429
  398.250    0.306    0.433   63.958   10.419
  398.500    0.318    0.431   63.302   10.352
  398.750    0.319    0.425   63.490   10.302
  399.000    0.311    0.421   64.461   10.163
  399.250    0.308    0.427   66.094   10.173
  399.500    0.312    0.423   68.211   10.109
  399.750    0.309    0.427   69.363   10.058
  400.000    0.309    0.444   68.706   10.013
  400.250    0.323    0.455   66.423    9.911
  400.500    0.337    0.443   66.370    9.812
  400.750    0.331    0.429   67.280    9.694
  401.000    0.342    0.456   67.648    9.492
  401.250    0.352    0.483   69.945    9.257
  401.500    0.332    0.496   75.979    8.767
  401.750    0.268    0.459   84.604    8.165
  402.000    0.213    0.432   91.602    7.563
  402.250    0.201    0.426   95.587    6.905
  402.500    0.191    0.440   95.834    6.672
  402.750    0.222    0.462   92.043    6.507
  403.000    0.239    0.479   91.508    6.550
  403.250    0.237    0.470   92.660    6.942
  403.500    0.236    0.459   92.666    7.250
  403.750    0.225    0.451   92.251    7.298
  404.000    0.240    0.460   92.319    7.225
  404.250    0.243    0.470   89.975    7.073
  404.500    0.239    0.478   89.681    6.863
  404.750    0.241    0.475   90.169    6.719
  405.000    0.258    0.457   91.201    6.626
  405.250    0.246    0.448   94.823    6.523
  405.500    0.229    0.454   97.844    6.443
  405.750    0.217    0.456   99.236    6.379
  406.000    0.202    0.452  100.267    6.302
  406.250    0.197    0.448  102.625    6.204
  406.500    0.210    0.447  105.464    6.154
  406.750    0.208    0.455  104.325    6.137
  407.000    0.207    0.461  100.957    5.418
  407.250    0.209    0.464   97.770    4.704
  407.500    0.243    0.474   95.064    3.759
  407.750    0.273    0.484   97.241    3.129
  408.000    0.264    0.467  100.020    2.768
  408.250    0.290    0.501  101.413    2.526
  408.500    0.321    0.530  102.022    2.331
  408.750    0.306    0.544  100.824    2.408
  409.000    0.290    0.551   99.204    2.732
  409.250    0.279    0.538   97.404    3.188
  409.500    0.279    0.516   96.144    3.760
  409.750    0.282    0.503   95.065    4.404
  410.000    0.280    0.493   95.253    5.024
  410.250    0.296    0.469   97.308    5.515
  410.500    0.267    0.444   98.882    5.717
  410.750    0.253    0.432   98.226    5.755
  411.000    0.245    0.448   95.823    5.603
  411.250    0.224    0.466   94.262    5.162
  411.500    0.221    0.481   92.099    5.062
  411.750    0.243    0.497   89.876    5.002
  412.000    0.265    0.513   88.376    4.992
  412.250    0.282    0.524   90.553    4.977
  412.500    0.250    0.540   90.016    4.979
  412.750    0.257    0.539   86.046    5.190
  413.000    0.271    0.472   82.376    5.341
  413.250    0.278    0.468   80.695    5.579
  413.500    0.291    0.475   78.532    5.794
  413.750    0.301    0.481   75.345    5.939
  414.000    0.299    0.464   76.016    6.101
  414.250    0.299    0.451   78.312    6.280
  414.500    0.301    0.432   79.825    6.402
  414.750    0.295    0.423   80.496    6.481
  415.000    0.290    0.429   79.901    6.499
  415.250    0.288    0.438   78.221    6.396
  415.500    0.286    0.428   76.298    6.378
  415.750    0.280    0.422   74.555    6.337
  416.000    0.272    0.421   71.248    6.298
  416.250    0.273    0.427   67.399    6.248
  416.500    0.296    0.436   65.234    6.187
  416.750    0.309    0.443   65.060    6.136
  417.000    0.313    0.429   64.404    6.137
  417.250    0.329    0.421   60.916    6.097
  417.500    0.324    0.411   62.429    6.060
  417.750    0.314    0.400   65.147    6.010
  418.000    0.315    0.393   74.013    5.993
  418.250    0.310    0.389   91.678    5.990
  418.500    0.273    0.395   95.784    5.981
  418.750    0.247    0.415   97.598    6.054
  419.000    0.247    0.428   97.484    6.138
  419.250    0.255    0.441   92.549    6.602
  419.500    0.204    0.454   84.781    7.167
  419.750    0.125    0.449   77.255    6.676
  420.000    0.068    0.429   69.487    5.829
  420.250    0.071    0.294   80.703    5.242
  420.500    0.208    0.297   88.424    4.892
  420.750    0.231    0.348   91.204    4.649
  421.000    0.233    0.407   89.404    4.569
  421.250    0.207    0.441   87.360    4.590
  421.500    0.205    0.425   86.162    4.672
  421.750    0.218    0.413   86.470    4.711
  422.000    0.218    0.417   88.224    4.698
  422.250    0.217    0.418   90.823    4.574
  422.500    0.234    0.429   93.843    4.388
  422.750    0.252    0.445   95.598    4.226
  423.000    0.245    0.455   96.690    4.223
  423.250    0.232    0.451   97.659    4.298
  423.500    0.231    0.437   98.570    4.364
  423.750    0.227    0.443   94.117    4.527
  424.000    0.222    0.451   94.967    4.562
  424.250    0.215    0.460   96.240    4.635
  424.500    0.215    0.447   92.993    4.630
  424.750    0.215    0.447   90.046    4.558
  425.000    0.232    0.465   87.461    4.430
  425.250    0.240    0.479   92.230    4.322
