~VERSION INFORMATION
 VERS.                 2.0:   CWLS LOG ASCII STANDARD -VERSION 2.0
 WRAP.                  NO:   ONE LINE PER DEPTH STEP
~WELL INFORMATION BLOCK
#MNEM.UNIT           DATA                    DESCRIPTION OF MNEMONIC
#---------    -------------------            -------------------------------
# Generated from Intellog Unique Number	CC_80_83/WELL/2398
NULL.         -999.25                        : NULL_VALUE
WELL.         PEX HOUSE                      : Well_name    - WELL
LOC .         11-12-080-16W4                 : Location     - LOCATION          
UWI .         00/11-12-080-16W4/0            : Uwi          - UNIQUE WELL ID    
ENTR.         DW                             : Entered      - ENTERED BY        
SRVC.         SCHLUMBERGER                   : Scn          - SERVICE COMPANY   
DATE.         16 FEB 82                      : Date         - LOG DATE
STRT.M        150                            : top_depth    - START DEPTH       
STOP.M        389.996                        : bot_depth    - STOP DEPTH        
STEP.M        0.3                            : increment    - STEP LENGTH       
~CURVE INFORMATION BLOCK
#MNEM UNIT       ERCB CURVE CODE    CURVE DESCRIPTION
#-----------   ------------------   ----------------------------------
DEPT.M        00 001 00 00         : DEPTH        - DEPTH                       
ILD .OHMM     00 120 00 00         : RESD         - DEEP RESISTIVITY (DIL)      
GR  .API      00 310 00 00         : GR           - GAMMA RAY                   
NPHI.V/V      00 330 00 00         : PHIN         - NEUTRON POROSITY (LIMESTONE)
DPHI.V/V      00 890 00 00         : PHID         - DENSITY POROSITY (LIMESTONE)
~PARAMETER INFORMATION       
#MNEM.UNIT           DATA             DESCRIPTION OF MNEMONIC
#---------         -----------     ------------------------------
GL  .M        561.3                : gl           - GROUND LEVEL ELEVATION      
EREF.M        565                  : kb           - ELEVATION OF DEPTH REFERENCE
DATM.M        565                  : datum        - DATUM ELEVATION             
TDD .M        388                  : tdd          - TOTAL DEPTH DRILLER         
RUN .         ONE                  : Run          - RUN NUMBER                  
ENG .         BILL                 : Engineer     - RECORDING ENGINEER          
WIT .         JIM                  : Witness      - WITNESSED BY                
MUD .         GEL                  : Mud_type     - MUD TYPE                    
MATR.         LIMESTONE            : Logunit      - NEUTRON MATRIX              
TMAX.C        25.5                 : BHT          - MAXIMUM RECORDED TEMPERATURE
BHTD.M        388                  : BHTDEP       - MAXIMUM RECORDED TEMPERATURE
MATR.         1                    : LOGUNIT      - NEUTRON MATRIX              
RMT .C        25                   : MDTP         - TEMPERATURE OF MUD          
NEUT.         1                    : NEUTRON      - NEUTRON TYPE                
RESI.         0                    : RESIST       - RESISTIVITY TYPE            
RMC .OHMM     0.25                 : RMC          - RESISTIVITY OF MUD CAKE     
RMF .OHMM     0.25                 : RMF          - RESISTIVITY OF MUD FILTRATE 
SUFT.C        15                   : SUFT         - SURFACE TEMPERATURE         
~A  DEPTH     RESD       GR     PHIN     PHID
# ...
  358.797   17.363   75.976    0.448    0.259
  359.097   19.450   82.185    0.437    0.233
  359.397   20.976   85.297    0.345    0.198
  359.697   26.838   81.595    0.367    0.253
  359.997   36.350   74.798    0.421    0.278
  360.297   39.956   71.718    0.429    0.262
  360.597   40.696   64.922    0.417    0.149
  360.897   37.704   68.654    0.321    0.105
  361.197   31.764   72.384    0.331    0.156
  361.497   24.802   76.737    0.376    0.236
  361.797   20.503   77.986    0.393    0.262
  362.097   16.949   87.288    0.366    0.215
  362.397   14.010  100.305    0.355    0.171
  362.697   12.495  101.560    0.356    0.162
  362.997   12.489  100.334    0.360    0.165
  363.297   12.721  100.353    0.357    0.165
  363.597   12.010   93.554    0.341    0.166
  363.897   11.781   95.428    0.316    0.164
  364.197   10.914   96.060    0.326    0.180
  364.497    9.550   95.457    0.344    0.183
  364.797    8.848   99.806    0.365    0.150
  365.097    8.354  115.920    0.387    0.156
  365.397    8.672  116.554    0.437    0.166
  365.697    9.005  103.568    0.419    0.161
  365.997    9.529   99.249    0.344    0.162
  366.297    9.707  103.598    0.334    0.163
  366.597    9.889  109.805    0.352    0.159
  366.897   10.664  111.056    0.372    0.149
  367.197   12.175   93.115    0.349    0.140
  367.497   15.283   61.553    0.327    0.144
  367.797   18.122   66.525    0.322    0.212
  368.097   18.461   72.112    0.336    0.216
  368.397   17.104   76.461    0.351    0.208
  368.697   15.548   81.426    0.357    0.194
  368.996   13.606   87.635    0.353    0.171
  369.296   11.682   96.318    0.334    0.147
  369.596   10.823  116.147    0.324    0.112
  369.896   10.614  121.734    0.380    0.114
  370.196   11.446   96.362    0.387    0.147
  370.496   11.883   99.475    0.335    0.151
  370.796   12.105  100.730    0.329    0.147
  371.096   12.101  100.742    0.341    0.148
  371.396   12.803  101.377    0.351    0.165
  371.696   13.290   98.917    0.365    0.174
  371.996   13.541   88.403    0.368    0.162
  372.296   13.534   87.182    0.321    0.152
  372.596   13.023   92.150    0.312    0.155
  372.896   12.298  100.213    0.316    0.147
  373.196   10.559  111.993    0.346    0.138
  373.496    9.417  116.342    0.366    0.142
  373.796    8.891  103.973    0.383    0.136
  374.096    9.588   84.174    0.350    0.054
  374.396   10.147   75.522    0.314    0.068
  374.696    9.762   98.446    0.299    0.102
  374.996    9.395  125.086    0.346    0.158
  375.296    8.540  117.052    0.412    0.173
  375.596    8.063  112.731    0.390    0.166
  375.896    8.059  107.174    0.392    0.153
  376.196    8.692  100.999    0.376    0.138
  376.496    8.688  105.966    0.362    0.138
  376.796    8.360  115.269    0.379    0.164
  377.096    7.599  125.191    0.400    0.148
  377.396    7.038  125.827    0.428    0.146
  377.696    7.171  112.220    0.450    0.140
  377.996    7.881  109.756    0.424    0.131
  378.296    9.170  104.202    0.374    0.126
  378.596    9.889   96.785    0.371    0.125
  378.896   10.076   91.847    0.363    0.178
  379.196   10.264   98.673    0.352    0.179
  379.496    9.876  110.451    0.349    0.134
  379.796    9.324  116.043    0.353    0.113
  380.096    9.145  117.913    0.382    0.125
  380.396    9.142  115.454    0.398    0.146
  380.696   10.238  114.846    0.394    0.151
  380.996   10.835  120.434    0.406    0.142
  381.296   11.036  121.691    0.418    0.139
  381.596   10.419  121.084    0.426    0.141
  381.896   10.027  122.341    0.433    0.136
  382.196    9.835  122.352    0.392    0.162
  382.496    9.831  121.748    0.331    0.182
  382.796   10.600  121.765    0.378    0.163
  383.096   11.873  123.017    0.406    0.153
  383.396   12.328  121.795    0.360    0.155
  383.696   12.559  121.813    0.358    0.160
  383.996   12.317  121.823    0.365    0.163
  384.296   11.854  121.838    0.362    0.155
  384.596   11.403  121.864    0.343    0.152
  384.896   11.398  121.878    0.337    0.173
  385.196   11.613  121.890    0.333    0.186
  385.496   12.764  121.900    0.331    0.157
  385.796   13.766  121.912    0.327    0.201
  386.096   15.420  121.932    0.326    0.261
  386.396   18.287  121.333    0.328    0.322
  386.696   38.335  121.342    0.333    0.335
  386.996   40.567  121.982    0.335    0.311
  387.296   39.036  121.992    0.339    0.181
  387.596   34.810  122.013    0.345    0.260
  387.896   33.501  122.021    0.349    0.306
  388.196   32.847  121.423    0.359    0.339
  388.496   32.839  120.815    0.366    0.330
  388.796   33.454  120.826    0.371    0.327
  389.096   36.077  121.464    0.374    0.333
  389.396   40.412  121.473    0.374    0.338
  389.696   50.730  121.488    0.373    0.342
  389.996   63.691  122.126    0.374    0.342
