~Version Information
VERS.                2.00:
WRAP.                  NO:
~Well Information Block
#MNEM.UNIT       Data Type    Information
#---------    -------------   -------------------
FLD.   :FIELD
FLD.   :FIELD
FLD.   :FIELD
FLD.   :FIELD
STRT.M          1950.0000:
STOP.M          4060.0000:
STEP.M             0.8202:
NULL.           -999.2500:
COMP.  MUTUAL EXPLORATION FUNDS:COMPANY
WELL.  MUTES IOE SEAFORTH:WELL
FLD.   :FIELD
LOC.   15-20-095-20W4:LOCATION
CTRY.  CANADA:COUNTRY
PROV.  ALBERTA:PROVINCE
SRVC.  SCHLUMBERGER:SERVICE COMPANY
DATE.  01 MAR 69:LOG DATE
UWI.   00/15-20-095-20W4/0:UNIQUE WELL ID
~Curve Information Block
#MNEM.UNIT        API CODE    Curve Description
#---------    ------------    -----
DEPT.M                    :   DEPTH
CALI.in                   :   CALI
GR  .API                  :   GR
SNP .V/V                  :   SNP
~A  Depth           CALI          GR         SNP
# ...
3967.6920         9.2328     51.7594      0.0516
3968.5122         9.2224     48.8375      0.0640
3969.3324         9.2201     45.3287      0.1022
3970.1526         9.2192     48.1357      0.1164
3970.9728         9.1958     57.6373      0.1144
3971.7930         9.1826     66.0710      0.1186
3972.6132         9.1468     72.5991      0.1273
3973.4334         9.1144     70.7706      0.1361
3974.2536         9.1054     62.3200      0.1476
3975.0738         9.1033     54.4764      0.1463
3975.8940         9.0743     51.5548      0.1360
3976.7142         9.0666     65.7438      0.1165
3977.5344         9.0644     70.7492      0.1038
3978.3546         9.0649     71.1994      0.1055
3979.1748         9.0657     69.3222      0.1106
3979.9950         9.0665     65.3498      0.1168
3980.8152         9.1035     65.1896      0.1163
3981.6354         9.0719     72.9587      0.1120
3982.4556         9.0326     82.7383      0.0986
3983.2758         8.9926     86.1067      0.0760
3984.0960         8.9905     81.1338      0.0575
3984.9162         8.9904     75.6341      0.0698
3985.7364         8.9535     76.8440      0.0848
3986.5566         8.9525     83.8222      0.0927
3987.3768         8.9833     88.0207      0.0905
3988.1970         8.9914     90.0448      0.0881
3989.0172         8.9944     88.3485      0.0849
3989.8374         8.9953     84.5237      0.0817
3990.6576         8.9962     77.6878      0.0814
3991.4778         8.9970     66.8237      0.0814
3992.2980         8.9978     58.6149      0.0852
3993.1182         8.9987     58.8122      0.0853
3993.9384         8.9995     62.6455      0.0831
3994.7586         9.0003     65.2728      0.0791
3995.5788         9.0012     64.6294      0.0789
3996.3990         9.0342     66.9331      0.0797
3997.2192         9.0417     67.6273      0.0750
3998.0394         9.0439     68.5629      0.0717
3998.8596         9.0450     67.9021      0.0716
3999.6798         9.0692     68.8055      0.0724
4000.5000         9.0817     70.3018      0.0772
4001.3202         9.0863     71.2283      0.1041
4002.1404         9.0886     72.7248      0.1226
4002.9606         9.0897     71.3459      0.1480
4003.7808         9.0906     69.4717      0.1566
4004.6010         9.1152     66.8670      0.1200
4005.4212         9.1300     64.6291      0.0686
4006.2414         9.1332     62.6421      0.0697
4007.0616         9.1344     59.4980      0.0857
4007.8818         9.1353     60.5524      0.0885
4008.7020         9.1645     68.4449      0.0551
4009.5222         9.1739     86.9546      0.0436
4010.3424         9.1773    100.2003      0.0364
4011.1626         9.1791    109.9566      0.0388
4011.9828         9.2044     98.7854      0.0468
4012.8030         9.2151     97.9436      0.0623
4013.6232         9.2205     73.1020      0.0850
4014.4434         9.2470     64.6399      0.0926
4015.2636         9.2598     79.2113      0.0784
4016.0838         9.2648     83.4319      0.0687
4016.9040         9.2953     87.8817      0.0639
4017.7242         9.3045     74.4482      0.0697
4018.5444         9.3076     60.5858      0.0809
4019.3646         9.3092     45.7036      0.0802
4020.1848         9.3101     37.1173      0.0830
4021.0050         9.3109     39.6391      0.0875
4021.8252         9.2515     48.9240      0.0830
4022.6454         9.2367     65.8897      0.0724
4023.4656         9.2336     71.6099      0.0558
4024.2858         9.2028     85.3790      0.0372
4025.1060         9.1941     83.5751      0.0214
4025.9262         9.1634     81.9628      0.0121
4026.7464         9.1550     78.1006      0.0078
4027.5666         9.1553     82.6684      0.0099
4028.3868         9.1172     91.0915      0.0146
4029.2070         9.1165     93.5225      0.0194
4030.0272         9.1172     92.0723      0.0219
4030.8474         9.0784     87.7579      0.0228
4031.6676         9.0464     82.4104      0.0228
4032.4878         9.0387     75.6110      0.0234
4033.3080         8.9989     68.5874      0.0254
4034.1282         8.9997     58.9991      0.0275
4034.9484         9.0005     40.4655      0.0299
4035.7686         9.0014     23.4942      0.0324
4036.5888         8.9690     16.0207      0.0345
4037.4090         8.9648     15.4062      0.0373
4038.2292         8.9640     18.1233      0.0436
4039.0494         8.9642     23.0602      0.0475
4039.8696         8.9650     23.0036      0.0515
4040.6898         8.9658     20.5935      0.0600
4041.5100         8.9384     19.2264      0.0701
4042.3302         8.9288     19.0240      0.0811
4043.1504         8.8934     18.9985      0.0832
4043.9706         8.8898     16.9992      0.0862
4044.7908         8.8891     15.3412      0.0789
4045.6110         8.8897     14.7223      0.0789
4046.4312         8.8905     16.2537      0.0888
4047.2514         8.8913     20.4993      0.0899
4048.0716         8.8921     28.6316      0.0874
4048.8918         8.8930     99.1400      0.0863
4049.7120         8.8938    104.3491      0.0827
4050.5322         8.8946    111.2223      0.0657
4051.3524         8.8955    118.1549      0.0415
4052.1726         8.8963    125.9071      0.0269
4052.9928         8.8971    132.1003      0.0215
4053.8130         8.8980    125.2709      0.0187
4054.6332         8.8988    116.6935      0.0177
4055.4534         8.8996    120.1604      0.0226
4056.2736         8.9309    132.9764      0.0346
4057.0938         8.9411    133.2289      0.0508
4057.9140         8.9048    122.4242      0.0655
4058.7342         8.9039    111.6194      0.0827
4059.5544         8.9040    100.8147      0.0891
4060.3746         8.9046     79.1573      0.0798
