~VERSION INFORMATION
 VERS.                 2.0:   CWLS LOG ASCII STANDARD -VERSION 2.0
 WRAP.                  NO:   ONE LINE PER DEPTH STEP
~WELL INFORMATION BLOCK
#MNEM.UNIT           DATA                    DESCRIPTION OF MNEMONIC
#---------    -------------------            -------------------------------
# Generated from Intellog Unique Number	CW_73_75/WELL/2746
WELL.         GAO ET AL KELLY                : Well_name    - WELL
LOC .         00/11-21-073-19W4/0            : Location     - LOCATION
UWI .         00/11-21-073-19W4/0            : Uwi          - UNIQUE WELL ID
ENTR.         JAYE                           : Entered      - ENTERED BY
SRVC.         SCHLUMBERGER                   : Scn          - SERVICE COMPANY
DATE.         20 JAN 77                      : Date         - LOG DATE
STRT.M        350.52                         : top_depth    - START DEPTH
STOP.M        585.27                         : bot_depth    - STOP DEPTH
STEP.M        0.25                           : increment    - STEP LENGTH
 NULL. -999.2500:NULL Value
~CURVE INFORMATION BLOCK
#MNEM UNIT       ERCB CURVE CODE    CURVE DESCRIPTION
#-----------   ------------------   ----------------------------------
DEPT.M        00 001 00 00         : DEPTH        - DEPTH
ILD .OHMM     00 120 00 00         : RESD         - DEEP RESISTIVITY (DIL)
NPHI.V/V      00 330 00 00         : PHIN         - NEUTRON POROSITY (SANDSTONE)
DPHI.V/V      00 890 00 00         : PHID         - DENSITY POROSITY (SANDSTONE)
GR  .API      00 310 00 00         : GR           - GAMMA RAY
CALI.MM       00 280 01 00         : CAL          - CALIPER
~PARAMETER INFORMATION
#MNEM.UNIT           DATA             DESCRIPTION OF MNEMONIC
#---------         -----------     ------------------------------
GL  .M        654.71               : gl           - GROUND LEVEL ELEVATION
EREF.M        658.368              : kb           - ELEVATION OF DEPTH REFERENCE
DATM.M        654.71               : datum        - DATUM ELEVATION
TDD .M        620.268              : tdd          - TOTAL DEPTH DRILLER
RUN .         ONE                  : Run          - RUN NUMBER
MATR.         SANDSTONE            : Logunit      - NEUTRON MATRIX
TMAX.C        30                   : BHT          - MAXIMUM RECORDED TEMPERATURE
BHTD.M        620.268              : BHTDEP       - MAXIMUM RECORDED TEMPERATURE
RMT .C        15.5556              : MDTP         - TEMPERATURE OF MUD
MUDD.KG/M     0                    : MWT          - MUD DENSITY
NEUT.         1                    : NEUTRON      - NEUTRON TYPE
RESI.         0                    : RESIST       - RESISTIVITY TYPE
RM  .OHMM     8.1                  : RM           - RESISTIVITY OF MUD
RMC .OHMM     9.2                  : RMC          - RESISTIVITY OF MUD CAKE
RMF .OHMM     6.3                  : RMF          - RESISTIVITY OF MUD FILTRATE
SUFT.C        -17.7778             : SUFT         - SURFACE TEMPERATURE
~A  DEPTH     RESD     PHIN     PHID       GR      CAL
# ...
  533.020    5.173    0.409    0.154  146.318  171.689
  533.270    5.227    0.418    0.173  150.875  172.718
  533.520    5.508    0.419    0.172  144.921  172.513
  533.770    5.753    0.415    0.154  144.861  172.000
  534.020    6.052    0.419    0.126  151.180  172.206
  534.270    6.205    0.425    0.160  155.858  173.030
  534.520    5.967    0.434    0.173  159.383  174.265
  534.770    5.656    0.442    0.153  152.336  174.163
  535.020    5.253    0.432    0.140  143.588  170.563
  535.270    4.979    0.420    0.101  135.508  168.506
  535.520    4.824    0.437    0.091  141.402  167.684
  535.770    4.664    0.458    0.169  148.571  168.714
  536.020    4.577    0.456    0.183  153.492  169.538
  536.270    4.450    0.444    0.168  158.049  169.950
  536.520    4.383    0.445    0.171  160.601  171.288
  536.770    4.397    0.462    0.186  156.531  172.215
  537.020    4.492    0.478    0.188  159.023  173.450
  537.270    4.631    0.470    0.178  164.856  173.862
  537.520    4.792    0.452    0.149  157.809  173.452
  537.770    4.959    0.443    0.139  153.070  173.041
  538.020    5.094    0.446    0.200  160.118  172.630
  538.270    5.137    0.438    0.183  165.526  173.042
  538.520    5.116    0.427    0.178  162.367  174.895
  538.770    5.057    0.417    0.171  160.423  176.542
  539.020    4.962    0.413    0.157  163.826  177.469
  539.270    4.870    0.436    0.173  167.836  177.881
  539.520    4.770    0.476    0.180  169.416  177.676
  539.770    4.672    0.473    0.169  166.379  177.368
  540.020    4.593    0.455    0.162  163.463  176.752
  540.270    4.616    0.440    0.163  161.763  176.547
  540.520    4.741    0.438    0.170  160.913  176.753
  540.770    4.906    0.462    0.185  163.769  176.240
  541.020    5.208    0.482    0.195  167.718  176.035
  541.270    5.683    0.475    0.180  164.195  178.299
  541.520    6.588    0.445    0.172  161.704  180.357
  541.770    7.084    0.426    0.165  165.897  181.592
  542.020    7.493    0.421    0.178  168.327  181.182
  542.270    7.726    0.422    0.190  168.814  179.331
  542.520    7.893    0.428    0.166  168.025  176.657
  542.770    8.660    0.446    0.197  166.688  172.337
  543.020    9.659    0.441    0.157  159.763  168.634
  543.270   10.143    0.407    0.213  124.891  164.520
  543.520   10.651    0.380    0.203   85.949  162.051
  543.770   10.644    0.352    0.221   76.046  160.303
  544.020    9.905    0.326    0.265   63.653  158.555
  544.270    9.561    0.303    0.290   53.569  157.836
  544.520    9.696    0.267    0.308   52.962  157.734
  544.770   10.256    0.251    0.275   60.192  158.763
  545.020   11.171    0.287    0.245   80.058  159.690
  545.270   12.324    0.315    0.221   94.518  159.485
  545.520   12.895    0.331    0.196  110.618  158.560
  545.770   12.560    0.348    0.172  120.886  158.767
  546.020   11.289    0.371    0.187  117.484  160.002
  546.270   10.053    0.378    0.209  118.578  160.620
  546.520    9.475    0.348    0.249  111.349  161.341
  546.770    9.469    0.311    0.267   87.838  162.062
  547.020    9.872    0.279    0.286   78.057  162.063
  547.270   10.950    0.292    0.244   91.241  161.755
  547.520   11.754    0.330    0.200  123.076  162.167
  547.770   12.920    0.350    0.173  142.153  166.180
  548.020   13.716    0.365    0.131  165.848  169.987
  548.270   13.963    0.376    0.071  160.927  169.371
  548.520   13.826    0.359    0.024  140.089  165.462
  548.770   12.890    0.331   -0.005  117.854  162.480
  549.020   11.649    0.349   -0.008  133.772  161.246
  549.270   10.412    0.383    0.152  142.703  161.041
  549.520    9.795    0.385    0.212  147.928  160.116
  549.770    9.613    0.376    0.188  150.237  160.014
  550.020    9.572    0.366    0.165  159.290  161.043
  550.270    9.653    0.369    0.182  164.455  163.410
  550.520    9.809    0.378    0.169  169.558  165.777
  550.770    9.874    0.365    0.142  173.265  169.790
  551.020    9.725    0.366    0.127  177.093  176.169
  551.270    9.050    0.380    0.116  180.252  181.931
  551.520    8.104    0.383    0.153  185.417  176.788
  551.770    7.060    0.386    0.148  177.337  173.188
  552.020    5.833    0.402    0.130  173.632  170.514
  552.270    5.271    0.425    0.123  179.100  168.766
  552.520    5.826    0.478    0.128  186.634  169.076
  552.770    6.475    0.502    0.168  194.228  169.076
  553.020    7.091    0.455    0.166  191.191  168.563
  553.270    7.780    0.400    0.121  182.808  170.312
  553.520    8.490    0.386    0.094  177.037  171.856
  553.770    9.315    0.388    0.138  175.032  171.548
  554.020    9.710    0.378    0.143  170.901  170.109
  554.270   10.252    0.376    0.130  165.009  168.464
  554.520   10.864    0.364    0.175  159.116  166.921
  554.770   11.683    0.341    0.202  107.598  162.601
  555.020   12.335    0.322    0.225   96.906  159.516
  555.270   12.695    0.328    0.221   99.397  158.488
  555.520   12.850    0.349    0.204   90.406  158.180
  555.770   12.725    0.365    0.186   81.719  158.284
  556.020   12.510    0.377    0.181   89.556  158.490
  556.270   12.345    0.376    0.240   94.721  158.903
  556.520   12.003    0.369    0.258  103.409  159.212
  556.770   11.627    0.356    0.244  111.429  160.345
  557.020   11.328    0.332    0.216  118.781  161.066
  557.270   11.014    0.338    0.194  117.384  161.889
  557.520   10.907    0.336    0.200  112.524  162.302
  557.770   10.980    0.328    0.191  115.562  162.508
  558.020   11.135    0.314    0.197  124.676  163.023
  558.270   11.439    0.303    0.180  141.019  164.670
  558.520   11.881    0.301    0.155  160.035  166.111
  558.770   12.340    0.309    0.132  167.387  168.067
  559.020   12.675    0.319    0.121  179.599  169.508
  559.270   12.854    0.316    0.122  163.985  168.994
  559.520   12.871    0.303    0.142  137.619  166.937
  559.770   12.561    0.299    0.140  125.165  165.498
  560.020   12.234    0.306    0.129  128.385  164.470
  560.270   12.072    0.313    0.163  134.461  164.471
  560.520   11.977    0.317    0.162  137.803  164.677
  560.770   11.949    0.333    0.163  138.593  164.678
  561.020   12.118    0.359    0.197  115.690  164.679
  561.270   12.515    0.375    0.247  104.572  164.680
  561.520   12.928    0.348    0.258  111.863  164.475
  561.770   13.525    0.319    0.220  118.607  164.475
  562.020   13.793    0.300    0.160  126.445  164.373
  562.270   13.809    0.335    0.151  122.375  163.860
  562.520   13.601    0.363    0.189  113.688  163.552
  562.770   13.297    0.396    0.268  116.908  163.347
  563.020   13.002    0.403    0.275  118.427  163.348
  563.270   12.573    0.390    0.253  126.204  163.246
  563.520   12.069    0.367    0.226  148.380  163.144
  563.770   11.376    0.342    0.195  160.592  163.556
  564.020   10.703    0.320    0.125  165.027  164.997
  564.270   10.143    0.320    0.125  166.546  166.747
  564.520    9.935    0.329    0.088  169.220  167.262
  564.770    9.857    0.337    0.061  171.286  168.188
  565.020    9.851    0.350    0.039  173.595  170.555
  565.270   10.082    0.375    0.091  176.816  175.597
  565.520   10.319    0.381    0.104  185.018  181.976
  565.770   10.816    0.341    0.139  164.241  176.113
  566.020   11.954    0.325    0.139  152.273  170.970
  566.270   12.855    0.312    0.129  147.048  168.193
  566.520   13.523    0.302    0.149  134.291  166.857
  566.770   13.891    0.293    0.154  119.163  165.006
  567.020   14.010    0.286    0.146  109.686  163.257
  567.270   13.951    0.287    0.137   99.359  161.510
  567.520   13.689    0.287    0.144   90.732  160.687
  567.770   13.410    0.281    0.179   82.167  160.174
  568.020   13.039    0.277    0.189   80.466  159.557
  568.270   12.539    0.281    0.159   81.803  160.072
  568.520   12.014    0.280    0.150   86.968  160.999
  568.770   11.791    0.283    0.117   92.314  161.823
  569.020   11.381    0.291    0.159   94.745  162.235
  569.270   10.985    0.298    0.177   93.652  162.853
