~VERSION INFORMATION
 VERS.                 2.0:   CWLS LOG ASCII STANDARD -VERSION 2.0
 WRAP.                  NO:   ONE LINE PER DEPTH STEP
~WELL INFORMATION BLOCK
#MNEM.UNIT           DATA                    DESCRIPTION OF MNEMONIC
#---------    -------------------            -------------------------------
# Generated from Intellog Unique Number	CW_79_81/WELL/773
WELL.         PACIFIC STONY RAPIDS           : Well_name    - WELL
LOC .         00/10-13-080-19W4/0            : Location     - LOCATION
UWI .         00/10-13-080-19W4/0            : Uwi          - UNIQUE WELL ID
ENTR.         MAX                            : Entered      - ENTERED BY
SRVC.         SCHLUMBERGER                   : Scn          - SERVICE COMPANY
STRT.M        182.88                         : top_depth    - START DEPTH
STOP.M        365.88                         : bot_depth    - STOP DEPTH
STEP.M        0.25                           : increment    - STEP LENGTH
 NULL. -999.2500:NULL Value
~CURVE INFORMATION BLOCK
#MNEM UNIT       ERCB CURVE CODE    CURVE DESCRIPTION
#-----------   ------------------   ----------------------------------
DEPT.M        00 001 00 00         : DEPTH        - DEPTH
ILD .OHMM     00 120 00 00         : RESD         - DEEP RESISTIVITY (DIL)
NPHI.V/V      00 330 00 00         : PHIN         - NEUTRON POROSITY (SANDSTONE)
DPHI.V/V      00 890 00 00         : PHID         - DENSITY POROSITY (SANDSTONE)
CALI.MM       00 280 01 00         : CAL          - CALIPER
GR  .API      00 310 00 00         : GR           - GAMMA RAY
~PARAMETER INFORMATION
#MNEM.UNIT           DATA             DESCRIPTION OF MNEMONIC
#---------         -----------     ------------------------------
GL  .M        565.526              : gl           - GROUND LEVEL ELEVATION
EREF.M        568.879              : kb           - ELEVATION OF DEPTH REFERENCE
DATM.M        565.526              : datum        - DATUM ELEVATION
TDD .M        407.213              : tdd          - TOTAL DEPTH DRILLER
RUN .         ONE                  : Run          - RUN NUMBER
ENG .         BILL                 : Engineer     - RECORDING ENGINEER
WIT .         JIM                  : Witness      - WITNESSED BY
MUD .         GEL                  : Mud_type     - MUD TYPE
MATR.         SANDSTONE            : Logunit      - NEUTRON MATRIX
TMAX.C        25.5556              : BHT          - MAXIMUM RECORDED TEMPERATURE
BHTD.M        407.213              : BHTDEP       - MAXIMUM RECORDED TEMPERATURE
RMT .C        23.3333              : MDTP         - TEMPERATURE OF MUD
MUDD.KG/M     1100                 : MWT          - MUD DENSITY
NEUT.         1                    : NEUTRON      - NEUTRON TYPE
RESI.         0                    : RESIST       - RESISTIVITY TYPE
RM  .OHMM     2.45                 : RM           - RESISTIVITY OF MUD
RMC .OHMM     0                    : RMC          - RESISTIVITY OF MUD CAKE
RMF .OHMM     2.45                 : RMF          - RESISTIVITY OF MUD FILTRATE
SUFT.C        -20.5556             : SUFT         - SURFACE TEMPERATURE
~A  DEPTH     RESD     PHIN     PHID      CAL       GR
# ...
  255.880   13.879    0.472    0.306  174.335   64.552
  256.130   13.751    0.464    0.299  174.806   64.828
  256.380   13.875    0.467    0.303  174.768   65.708
  256.630   13.873    0.464    0.294  175.239   65.689
  256.880   13.871    0.461    0.295  175.705   66.861
  257.130   13.869    0.474    0.308  175.672   68.345
  257.380   13.867    0.469    0.298  176.138   69.220
  257.630   13.865    0.470    0.311  176.096   68.600
  257.880   13.863    0.473    0.316  176.063   65.867
  258.130   13.859    0.485    0.311  176.021   66.148
  258.380   13.859    0.484    0.304  176.491   66.731
  258.630   13.857    0.475    0.310  176.962   67.007
  258.880   13.729    0.472    0.317  176.920   66.684
  259.130   13.603    0.459    0.304  176.892   66.960
  259.380   13.477    0.454    0.287  176.840   67.243
  259.630   13.475    0.454    0.292  177.320   65.718
  259.880   13.229    0.465    0.306  177.786   66.896
  260.130   12.754    0.473    0.298  177.744   67.471
  260.380   11.747    0.460    0.305  177.208   67.746
  260.630   10.919    0.446    0.300  177.161   68.930
  260.880    9.875    0.438    0.278  177.133   71.907
  261.130    9.347    0.432    0.264  178.615   77.585
  261.380    9.261    0.474    0.256  180.614   83.563
  261.630    9.345    0.489    0.246  181.583   86.238
  261.880    9.869    0.495    0.245  181.038   84.413
  262.130   10.518    0.479    0.270  180.996   80.797
  262.380   10.907    0.473    0.278  180.963   76.575
  262.630   10.515    0.477    0.269  180.921   73.550
  262.880    9.597    0.463    0.259  180.893   73.828
  263.130    8.680    0.458    0.273  181.359   80.106
  263.380    8.142    0.463    0.257  181.834   83.383
  263.630    7.777    0.475    0.241  183.316   87.561
  263.880    7.566    0.496    0.205  184.294   91.433
  264.130    7.496    0.509    0.240  184.257   92.314
  264.380    7.427    0.514    0.243  183.712   89.592
  264.630    7.494    0.514    0.234  183.669   87.470
  264.880    7.843    0.502    0.244  183.632   86.545
  265.130    8.059    0.492    0.246  183.599   86.528
  265.380    8.207    0.492    0.240  183.557   85.904
  265.630    8.510    0.498    0.246  183.515   84.681
  265.880    9.070    0.482    0.253  182.974   81.659
  266.130    9.667    0.467    0.245  181.926   74.138
  266.380    9.665    0.459    0.255  182.382   69.916
  266.630    9.066    0.474    0.272  182.862   68.388
  266.880    8.582    0.452    0.291  182.317   69.566
  267.130    8.426    0.455    0.290  181.771   70.741
  267.380    8.580    0.491    0.278  182.745   70.419
  267.630    8.979    0.506    0.291  186.264   70.400
  267.880    9.925    0.502    0.299  187.242   70.978
  268.130   10.292    0.477    0.275  183.653   73.058
  268.380   10.576    0.453    0.284  182.087   74.236
  268.630   10.479    0.442    0.287  182.558   72.114
  268.880    9.651    0.458    0.294  182.516   72.086
  269.130    9.136    0.468    0.278  182.483   75.967
  269.380    9.303    0.474    0.245  183.457   79.847
  269.630   10.097    0.543    0.249  184.436   77.123
  269.880   11.264    0.545    0.284  184.403   72.901
  270.130   14.147    0.531    0.307  186.901   68.079
  270.380   17.288    0.508    0.316  188.900   63.257
  270.630   25.822    0.496    0.293  191.402   57.832
  270.880   32.729    0.468    0.239  190.852   56.310
  271.130   46.281    0.319    0.198  188.275   55.388
  271.380   59.198    0.167    0.165  181.126   52.363
  271.630   66.640    0.134    0.008  177.532   49.339
  271.880   69.740    0.122    0.013  176.982   47.816
  272.130   64.823    0.127    0.030  176.940   48.094
  272.380   45.412    0.136    0.033  176.903   48.672
  272.630   34.535    0.156    0.016  176.870   49.544
  272.880   26.025    0.185    0.052  177.839   51.031
  273.130   19.434    0.311    0.179  178.827   54.008
  273.380   16.191    0.420    0.259  179.806   57.886
  273.630   12.313    0.448    0.314  182.303   60.564
  273.880   11.341    0.472    0.310  185.817   62.639
  274.130    9.980    0.478    0.311  187.821   64.717
  274.380    8.467    0.486    0.296  189.308   67.095
  274.630    7.588    0.491    0.269  188.762   71.275
  274.880    7.183    0.494    0.254  184.656   76.653
  275.130    7.052    0.495    0.263  182.577   75.125
  275.380    7.247    0.498    0.270  182.549   73.009
  275.630    7.794    0.510    0.271  181.999   72.384
  275.880    7.864    0.513    0.276  181.967   75.959
  276.130    7.792    0.513    0.281  182.423   75.637
  276.380    7.650    0.502    0.277  182.908   74.418
  276.630    7.649    0.487    0.261  182.866   72.590
  276.880    7.578    0.486    0.258  182.828   74.073
  277.130    7.508    0.499    0.251  183.303   77.651
  277.380    7.439    0.502    0.250  183.257   80.026
  277.630    7.371    0.498    0.256  183.727   80.307
  277.880    7.303    0.501    0.258  183.690   82.082
  278.130    7.235    0.499    0.262  183.652   83.563
  278.380    7.169    0.497    0.256  184.128   82.335
  278.630    7.102    0.494    0.252  184.090   81.716
  278.880    7.101    0.490    0.254  184.048   82.294
  279.130    7.100    0.489    0.256  184.523   83.169
  279.380    7.230    0.483    0.251  184.989   83.449
  279.630    7.295    0.474    0.251  185.460   84.022
  279.880    7.228    0.484    0.241  185.418   84.005
  280.130    7.161    0.471    0.237  186.396   84.580
  280.380    7.031    0.464    0.244  186.871   84.858
  280.630    6.840    0.461    0.255  186.834   85.436
  280.880    6.777    0.477    0.263  186.792   86.014
  281.130    6.901    0.483    0.265  186.759   86.889
  281.380    7.288    0.493    0.258  187.230   86.867
  281.630    7.910    0.496    0.240  187.192   85.342
  281.880    8.824    0.496    0.233  186.134   82.925
  282.130    9.754    0.489    0.225  183.547   79.004
  282.380   10.782    0.472    0.251  181.487   75.376
  282.630   12.027    0.470    0.227  180.942   71.454
  282.880   13.295    0.482    0.229  180.905   70.232
  283.130   14.299    0.485    0.237  181.375   69.310
  283.380   14.297    0.472    0.218  181.338   66.888
  283.630   13.783    0.459    0.226  181.296   65.069
  283.880   13.166    0.444    0.225  181.258   65.941
  284.130   12.350    0.357    0.200  180.708   68.922
  284.380   11.585    0.325    0.176  180.671   74.299
  284.630   10.477    0.389    0.237  181.649   78.780
  284.880    9.650    0.445    0.267  182.120   81.152
  285.130    9.737    0.462    0.269  184.622   80.233
  285.380   10.006    0.459    0.266  186.113   83.208
  285.630   10.188    0.482    0.259  186.579   84.388
  285.880   10.187    0.486    0.251  186.547   82.864
  286.130   10.185    0.473    0.256  187.520   80.139
  286.380   10.184    0.470    0.267  188.494   78.020
  286.630   10.561    0.464    0.270  189.478   77.097
  286.880   10.754    0.454    0.260  189.440   77.975
  287.130   10.558    0.458    0.246  189.398   80.653
  287.380    9.994    0.472    0.232  189.365   80.925
  287.630    9.902    0.485    0.245  189.831   81.809
  287.880    9.901    0.494    0.245  190.814   85.087
  288.130    9.990    0.494    0.224  191.788   85.965
  288.380   10.080    0.491    0.235  192.263   82.943
  288.630   10.078    0.482    0.239  192.221   84.115
  288.880    9.895    0.470    0.250  192.692   84.695
  289.130    9.803    0.473    0.254  192.654   83.773
  289.380    9.625    0.474    0.248  193.120   82.851
  289.630    9.364    0.467    0.247  193.591   81.329
  289.880    9.110    0.465    0.251  194.574   81.004
  290.130    8.862    0.472    0.260  197.575   82.785
  290.380    8.701    0.486    0.255  198.055   82.763
  290.630    8.621    0.489    0.254  198.008   81.241
  290.880    8.464    0.485    0.248  197.976   79.719
  291.130    8.386    0.481    0.243  198.441   81.197
  291.380    8.158    0.482    0.237  198.912   82.375
  291.630    8.009    0.473    0.228  198.875   82.347
  291.880    7.721    0.476    0.232  198.832   83.525
  292.130    7.309    0.490    0.216  198.292   86.203
