~VERSION INFORMATION
 VERS.                 2.0:   CWLS LOG ASCII STANDARD -VERSION 2.0
 WRAP.                  NO:   ONE LINE PER DEPTH STEP
~WELL INFORMATION BLOCK
#MNEM.UNIT           DATA                    DESCRIPTION OF MNEMONIC
#---------    -------------------            -------------------------------
# Generated from Intellog Unique Number	CW_70_72/WELL/2909
NULL.         -999.25                        : NULL_VALUE
WELL.         NOVALTA RICHMOND               : Well_name    - WELL              
LOC .         16-04-070-19W4                 : Location     - LOCATION          
UWI .         00/16-04-070-19W4/0            : Uwi          - UNIQUE WELL ID    
ENTR.         MAX                            : Entered      - ENTERED BY        
SRVC.         COMPUTALOG                     : Scn          - SERVICE COMPANY   
DATE.         21 DEC 84                      : Date         - LOG DATE
STRT.M        300                            : top_depth    - START DEPTH       
STOP.M        470                            : bot_depth    - STOP DEPTH        
STEP.M        0.25                           : increment    - STEP LENGTH       
~CURVE INFORMATION BLOCK
#MNEM UNIT       ERCB CURVE CODE    CURVE DESCRIPTION
#-----------   ------------------   ----------------------------------
DEPT.M        00 001 00 00         : DEPTH        - DEPTH                       
ILD .OHMM     00 120 00 00         : RESD         - DEEP RESISTIVITY (DIL)      
NPHI.V/V      00 330 00 00         : PHIN         - NEUTRON POROSITY (SANDSTONE)
DPHI.V/V      00 890 00 00         : PHID         - DENSITY POROSITY (SANDSTONE)
CALI.MM       00 280 01 00         : CAL          - CALIPER                     
GR  .API      00 310 00 00         : GR           - GAMMA RAY                   
~PARAMETER INFORMATION       
#MNEM.UNIT           DATA             DESCRIPTION OF MNEMONIC
#---------         -----------     ------------------------------
GL  .M        555.94               : gl           - GROUND LEVEL ELEVATION      
EREF.M        558.89               : kb           - ELEVATION OF DEPTH REFERENCE
DATM.M        555.94               : datum        - DATUM ELEVATION             
TDD .M        546.1                : tdd          - TOTAL DEPTH DRILLER         
RUN .         ONE                  : Run          - RUN NUMBER                  
ENG .         BILL                 : Engineer     - RECORDING ENGINEER          
WIT .         JIM                  : Witness      - WITNESSED BY                
MUD .         GEL                  : Mud_type     - MUD TYPE                    
MATR.         SANDSTONE            : Logunit      - NEUTRON MATRIX              
TMAX.C        24                   : BHT          - MAXIMUM RECORDED TEMPERATURE
BHTD.M        546.1                : BHTDEP       - MAXIMUM RECORDED TEMPERATURE
RMT .C        13.8                 : MDTP         - TEMPERATURE OF MUD          
MUDD.KG/M     1080                 : MWT          - MUD DENSITY                 
NEUT.         1                    : NEUTRON      - NEUTRON TYPE                
RESI.         0                    : RESIST       - RESISTIVITY TYPE            
RM  .OHMM     6                    : RM           - RESISTIVITY OF MUD          
RMC .OHMM     4.5                  : RMC          - RESISTIVITY OF MUD CAKE     
RMF .OHMM     7                    : RMF          - RESISTIVITY OF MUD FILTRATE 
SUFT.C        -10                  : SUFT         - SURFACE TEMPERATURE         
~A  DEPTH     RESD     PHIN     PHID      CAL       GR
# ...
  373.000    4.145    0.411    0.268  151.621   82.116
  373.250    4.224    0.396    0.260  153.138   81.214
  373.500    4.344    0.394    0.254  155.661   77.594
  373.750    4.636    0.399    0.244  156.676   75.181
  374.000    4.812    0.408    0.241  156.178   72.166
  374.250    4.904    0.413    0.261  153.669   71.565
  374.500    4.817    0.411    0.272  151.159   72.778
  374.750    4.774    0.405    0.270  150.661   73.688
  375.000    4.734    0.405    0.266  150.668   72.785
  375.250    4.648    0.409    0.266  150.675   70.675
  375.500    4.482    0.417    0.292  150.682   68.867
  375.750    4.362    0.426    0.299  151.695   67.663
  376.000    4.284    0.431    0.301  151.701   64.646
  376.250    4.208    0.433    0.285  151.708   61.026
  376.500    4.208    0.429    0.273  152.722   58.615
  376.750    4.174    0.408    0.291  154.240   58.920
  377.000    4.137    0.403    0.299  154.748   59.226
  377.250    4.101    0.410    0.301  153.749   60.438
  377.500    4.102    0.414    0.306  150.233   65.577
  377.750    4.102    0.417    0.315  149.735   64.977
  378.000    4.106    0.424    0.317  150.245   65.887
  378.250    4.108    0.432    0.302  151.259   71.327
  378.500    4.072    0.441    0.289  152.272   76.466
  378.750    3.963    0.448    0.276  157.816   82.208
  379.000    3.752    0.448    0.253  167.890   86.440
  379.250    3.584    0.452    0.247  174.440   84.935
  379.500    3.393    0.463    0.250  173.943   85.844
  379.750    3.301    0.464    0.238  170.427   87.962
  380.000    3.213    0.450    0.250  166.909   84.040
  380.250    3.244    0.434    0.275  162.386   78.306
  380.500    3.336    0.432    0.284  155.849   74.686
  380.750    3.495    0.428    0.293  151.828   72.877
  381.000    3.595    0.422    0.313  151.331   73.486
  381.250    3.630    0.411    0.321  152.848   74.698
  381.500    3.630    0.400    0.319  154.366   74.400
  381.750    3.667    0.383    0.285  155.883   71.988
  382.000    3.913    0.360    0.223  157.401   66.857
  382.250    4.293    0.207    0.092  158.917   59.914
  382.500    5.164    0.184    0.071  160.937   53.274
  382.750    6.387    0.178    0.058  162.454   49.352
  383.000    8.581    0.167    0.055  162.460   48.753
  383.250   10.613    0.162    0.046  161.461   49.662
  383.500   11.119    0.164    0.036  160.964   48.761
  383.750   10.525    0.169    0.030  159.963   48.764
  384.000    9.255    0.197    0.049  158.963   49.674
  384.250    6.706    0.252    0.214  158.471   54.511
  384.500    5.279    0.321    0.262  157.969   55.120
  384.750    4.816    0.332    0.239  154.956   53.311
  385.000    4.602    0.309    0.202  148.924   44.858
  385.250    4.647    0.210    0.004  146.412   43.352
  385.500    4.868    0.174   -0.005  145.413   43.054
  385.750    5.194    0.213    0.004  147.937   46.380
  386.000    5.442    0.305    0.059  150.459   53.029
  386.250    5.199    0.344    0.276  153.991   54.845
  386.500    3.945    0.369    0.293  153.493   55.755
  386.750    3.734    0.383    0.304  152.998   56.060
  387.000    3.503    0.405    0.316  153.003   56.065
  387.250    3.503    0.412    0.318  153.513   55.766
  387.500    3.442    0.411    0.305  153.519   59.999
  387.750    3.508    0.414    0.292  153.023   70.574
  388.000    3.508    0.432    0.270  153.031   76.618
  388.250    3.576    0.439    0.235  153.037   76.924
  388.500    3.816    0.446    0.224  153.043   77.532
  388.750    4.072    0.450    0.218  154.057   78.442
  389.000    4.385    0.450    0.206  155.072   78.749
  389.250    4.680    0.437    0.207  156.588   79.055
  389.500    4.639    0.420    0.215  158.104   79.059
  389.750    4.514    0.409    0.234  156.600   76.647
  390.000    4.313    0.412    0.248  154.090   71.214
  390.250    4.121    0.415    0.274  152.586   70.010
  390.500    4.047    0.418    0.288  152.090   68.806
  390.750    4.049    0.421    0.287  152.096   66.695
  391.000    4.052    0.427    0.282  152.104   64.888
  391.250    4.090    0.443    0.287  152.110   63.684
  391.500    4.092    0.445    0.287  153.125   64.594
  391.750    4.094    0.443    0.282  154.640   66.108
  392.000    4.096    0.431    0.283  155.653   68.528
  392.250    4.136    0.429    0.284  156.668   71.250
  392.500    4.137    0.450    0.272  157.178   73.670
  392.750    4.178    0.452    0.259  156.680   77.299
  393.000    4.218    0.428    0.246  154.674   80.927
  393.250    4.220    0.423    0.236  153.674   84.254
  393.500    4.222    0.422    0.228  154.687   86.070
  393.750    4.224    0.411    0.219  157.714   86.073
  394.000    4.265    0.412    0.212  160.238   84.869
  394.250    4.346    0.419    0.206  162.257   83.364
  394.500    4.511    0.427    0.203  162.264   82.763
  394.750    4.683    0.439    0.202  162.774   82.465
  395.000    4.729    0.458    0.201  163.285   85.791
  395.250    4.602    0.444    0.200  164.298   87.910
  395.500    4.437    0.424    0.215  164.304   86.706
  395.750    4.123    0.420    0.281  162.801   75.837
  396.000    3.693    0.430    0.309  159.286   71.612
  396.250    3.401    0.416    0.317  156.774   69.805
  396.500    3.219    0.404    0.319  153.762   68.602
  396.750    3.191    0.406    0.315  153.767   68.000
  397.000    3.191    0.422    0.312  153.775   67.098
  397.250    3.223    0.419    0.312  152.775   67.102
  397.500    3.602    0.414    0.314  151.271   68.013
  397.750    3.916    0.420    0.293  151.279   67.715
  398.000    4.711    0.415    0.277  151.284   63.490
  398.250    5.719    0.350    0.232  152.800   52.923
  398.500    7.205    0.300    0.081  154.822   49.605
  398.750    9.592    0.210    0.027  155.331   49.308
  399.000   11.329    0.199    0.014  156.344   52.935
  399.250   10.923    0.216    0.057  156.856   59.886
  399.500    7.698    0.241    0.095  155.855   63.514
  399.750    5.527    0.313    0.147  153.848   66.538
  400.000    4.950    0.381    0.258  151.338   68.958
  400.250    4.195    0.404    0.274  149.331   69.869
  400.500    3.863    0.408    0.280  149.339   68.966
  400.750    3.863    0.411    0.283  149.847   67.159
  401.000    3.693    0.424    0.283  150.861   66.860
  401.250    3.561    0.431    0.280  151.371   66.563
  401.500    3.497    0.425    0.277  151.378   65.359
  401.750    3.499    0.419    0.277  151.384   65.665
  402.000    3.533    0.422    0.281  150.887   68.388
  402.250    3.567    0.427    0.286  150.392   70.505
  402.500    3.602    0.424    0.285  149.391   70.812
  402.750    3.603    0.420    0.283  149.399   70.513
  403.000    3.606    0.419    0.283  149.909   69.309
  403.250    3.606    0.434    0.284  150.418   67.803
  403.500    3.575    0.454    0.285  150.426   67.807
  403.750    3.578    0.453    0.286  150.431   69.020
  404.000    3.578    0.439    0.287  150.942   70.835
  404.250    3.646    0.433    0.285  150.950   74.161
  404.500    3.716    0.432    0.280  150.955   75.374
  404.750    3.822    0.433    0.269  150.961   73.263
  405.000    3.931    0.442    0.263  151.471   70.247
  405.250    3.969    0.428    0.251  151.982   69.949
  405.500    4.007    0.421    0.255  152.995   74.182
  405.750    3.864    0.420    0.258  155.015   79.018
  406.000    3.692    0.434    0.248  158.042   81.438
  406.250    3.399    0.451    0.239  161.573   85.066
  406.500    2.828    0.462    0.239  165.103   92.621
  406.750    2.653    0.474    0.266  170.144   94.739
  407.000    2.511    0.483    0.284  175.184   94.743
  407.250    2.511    0.503    0.289  179.218   94.143
  407.500    2.401    0.522    0.293  181.237   94.449
  407.750    2.336    0.520    0.295  179.232   96.265
  408.000    2.337    0.504    0.277  178.230   95.363
  408.250    2.760    0.487    0.260  178.237   94.461
  408.500    2.918    0.478    0.241  178.244   94.465
  408.750    3.510    0.468    0.227  175.733   95.980
  409.000    3.781    0.457    0.212  172.720   95.682
  409.250    4.264    0.436    0.223  168.699   87.833
