~VERSION INFORMATION
 VERS.                 2.0:   CWLS LOG ASCII STANDARD -VERSION 2.0
 WRAP.                  NO:   ONE LINE PER DEPTH STEP
~WELL INFORMATION BLOCK
#MNEM.UNIT           DATA                    DESCRIPTION OF MNEMONIC
#---------    -------------------            -------------------------------
# Generated from Intellog Unique Number	CS_69_70/WELL/896
WELL.         JOFFRE OIL LTD.                : Well_name    - WELL
LOC .         00/11-26-070-18W4/0            : Location     - LOCATION
UWI .         00/11-26-070-18W4/0            : Uwi          - UNIQUE WELL ID
ENTR.         SP                             : Entered      - ENTERED BY
SRVC.         SCHLUMBERGER                   : Scn          - SERVICE COMPANY
STRT.M        290                            : top_depth    - START DEPTH
STOP.M        485                            : bot_depth    - STOP DEPTH
STEP.M        0.25                           : increment    - STEP LENGTH
 NULL. -999.2500:NULL Value
~CURVE INFORMATION BLOCK
#MNEM UNIT       ERCB CURVE CODE    CURVE DESCRIPTION
#-----------   ------------------   ----------------------------------
DEPT.M        00 001 00 00         : DEPTH        - DEPTH
DPHI.V/V      00 890 00 00         : PHID         - DENSITY POROSITY (LIMESTONE)
NPHI.V/V      00 330 00 00         : PHIN         - NEUTRON POROSITY (LIMESTONE)
GR  .API      00 310 00 00         : GR           - GAMMA RAY
ILD .OHMM     00 120 00 00         : RESD         - DEEP RESISTIVITY (DIL)
~PARAMETER INFORMATION
#MNEM.UNIT           DATA             DESCRIPTION OF MNEMONIC
#---------         -----------     ------------------------------
GL  .M        565.34               : gl           - GROUND LEVEL ELEVATION
EREF.M        568.32               : kb           - ELEVATION OF DEPTH REFERENCE
DATM.M        565.34               : datum        - DATUM ELEVATION
TDD .M        586                  : tdd          - TOTAL DEPTH DRILLER
RUN .         ONE                  : Run          - RUN NUMBER
ENG .         BILL                 : Engineer     - RECORDING ENGINEER
WIT .         JIM                  : Witness      - WITNESSED BY
MUD .         GEL                  : Mud_type     - MUD TYPE
MATR.         LIMESTONE            : Logunit      - NEUTRON MATRIX
TMAX.C        6.9                  : BHT          - MAXIMUM RECORDED TEMPERATURE
BHTD.M        586                  : BHTDEP       - MAXIMUM RECORDED TEMPERATURE
MATR.         1                    : LOGUNIT      - NEUTRON MATRIX
RMT .C        25                   : MDTP         - TEMPERATURE OF MUD
NEUT.         1                    : NEUTRON      - NEUTRON TYPE
RESI.         0                    : RESIST       - RESISTIVITY TYPE
RMC .OHMM     0.25                 : RMC          - RESISTIVITY OF MUD CAKE
RMF .OHMM     0.25                 : RMF          - RESISTIVITY OF MUD FILTRATE
SUFT.C        15                   : SUFT         - SURFACE TEMPERATURE
~A  DEPTH     PHID     PHIN       GR     RESD
  290.000    0.162    0.464   98.102    3.175
  290.250    0.172    0.467  102.357    3.329
  290.500    0.139    0.479   99.023    3.433
  290.750    0.114    0.487   95.507    3.475
  291.000    0.096    0.456   93.023    3.497
  291.250    0.151    0.449  100.435    3.474
  291.500    0.176    0.463  104.325    3.346
  291.750    0.185    0.480  102.085    3.273
  292.000    0.199    0.491   99.115    3.058
  292.250    0.202    0.481   97.421    2.954
  292.500    0.191    0.490   97.972    2.886
  292.750    0.200    0.508   98.828    2.867
  293.000    0.199    0.504   98.590    2.811
  293.250    0.205    0.492  100.963    2.824
  293.500    0.187    0.484  103.943    2.929
  293.750    0.194    0.487  103.827    3.054
  294.000    0.208    0.480  102.071    3.120
  294.250    0.198    0.478  100.984    3.182
  294.500    0.188    0.480  100.321    3.203
  294.750    0.191    0.494  100.994    3.188
  295.000    0.204    0.513  106.767    3.178
  295.250    0.191    0.530  104.829    3.175
  295.500    0.202    0.524  103.560    3.125
  295.750    0.200    0.504   99.195    3.053
  296.000    0.200    0.484   94.889    2.988
  296.250    0.206    0.472   91.252    2.958
  296.500    0.201    0.475   96.418    2.960
  296.750    0.191    0.498   95.331    3.036
  297.000    0.181    0.517   93.576    3.207
  297.250    0.126    0.457   91.213    3.570
  297.500    0.081    0.409   86.422    3.842
  297.750    0.185    0.427   84.303    4.098
  298.000    0.195    0.452  104.220    4.256
  298.250    0.188    0.473  112.482    4.490
  298.500    0.194    0.444  116.797    4.526
  298.750    0.196    0.448  116.195    4.505
  299.000    0.207    0.458  111.465    4.458
  299.250    0.189    0.472  106.917    4.495
  299.500    0.212    0.481  101.702    4.723
  299.750    0.240    0.497   96.305    5.083
  300.000    0.352    0.538   87.871    5.069
  300.250    0.410    0.588   71.547    4.753
  300.500    0.331    0.453   65.481    4.294
  300.750    0.302    0.412   61.723    3.829
  301.000    0.293    0.400   60.878    3.537
  301.250    0.297    0.398   62.766    3.373
  301.500    0.297    0.400   69.388    3.326
  301.750    0.281    0.401   77.649    3.436
  302.000    0.280    0.395   81.782    3.557
  302.250    0.274    0.385   85.613    3.688
  302.500    0.267    0.377   87.864    3.796
  302.750    0.268    0.384   89.326    3.885
  303.000    0.268    0.394   88.239    3.977
  303.250    0.258    0.402   88.790    4.063
  303.500    0.252    0.410   89.948    4.309
  303.750    0.243    0.404   90.622    4.459
  304.000    0.239    0.399   93.723    4.615
  304.250    0.234    0.389   99.738    4.742
  304.500    0.229    0.392  103.264    4.871
  304.750    0.217    0.401   99.870    5.033
  305.000    0.225    0.407   94.898    5.132
  305.250    0.240    0.395   90.715    5.432
  305.500    0.249    0.407   87.684    5.654
  305.750    0.231    0.409   85.929    5.798
  306.000    0.175    0.361   96.801    5.933
  306.250    0.167    0.332   97.656    5.927
  306.500    0.171    0.328   92.927    5.737
  306.750    0.184    0.334   89.471    5.532
  307.000    0.195    0.348   86.926    5.304
  307.250    0.204    0.358   85.111    5.134
  307.500    0.216    0.359   81.414    5.168
  307.750    0.206    0.348   79.172    5.192
  308.000    0.186    0.347   75.353    5.120
  308.250    0.172    0.343   71.898    4.946
  308.500    0.183    0.357   69.657    4.698
  308.750    0.203    0.376   71.908    4.447
  309.000    0.214    0.382   74.767    4.328
  309.250    0.212    0.376   83.757    4.236
  309.500    0.161    0.396  101.488    4.217
  309.750    0.127    0.418  107.928    4.190
  310.000    0.167    0.440  113.458    4.132
  310.250    0.169    0.444  117.530    4.043
  310.500    0.158    0.443  121.785    3.827
  310.750    0.165    0.467  123.308    3.643
  311.000    0.151    0.488  120.521    3.519
  311.250    0.139    0.500  116.580    3.483
  311.500    0.135    0.483  114.036    3.512
  311.750    0.162    0.472  114.102    3.529
  312.000    0.175    0.459  115.139    3.505
  312.250    0.167    0.451  114.355    3.430
  312.500    0.170    0.483  118.306    3.223
  312.750    0.185    0.512  122.561    3.085
  313.000    0.207    0.517  123.842    3.093
  313.250    0.221    0.511  123.846    3.214
  313.500    0.239    0.524  123.852    3.382
  313.750    0.253    0.506  121.307    3.900
  314.000    0.252    0.444  110.203    4.284
  314.250    0.214    0.432   92.847    4.716
  314.500    0.184    0.427   86.356    5.220
  314.750    0.155    0.424   84.540    5.504
  315.000    0.151    0.424   89.281    5.318
  315.250    0.166    0.419   86.676    5.062
  315.500    0.187    0.422   77.697    4.684
  315.750    0.201    0.437   69.871    4.224
  316.000    0.247    0.423   63.805    3.983
  316.250    0.281    0.412   61.504    3.878
  316.500    0.273    0.411   65.151    3.888
  316.750    0.225    0.414   69.528    4.002
  317.000    0.172    0.417   77.243    4.188
  317.250    0.116    0.415   82.043    4.559
  317.500    0.117    0.433   89.576    4.807
  317.750    0.149    0.456   95.713    5.023
  318.000    0.153    0.467   97.480    5.027
  318.250    0.169    0.465   97.242    4.910
  318.500    0.181    0.468  103.256    4.682
  318.750    0.170    0.462  102.412    4.473
  319.000    0.177    0.457  106.485    4.297
  319.250    0.199    0.450  109.464    4.246
  319.500    0.199    0.440  110.138    4.443
  319.750    0.203    0.428   98.609    4.677
  320.000    0.223    0.411   90.479    4.886
  320.250    0.235    0.405   85.749    5.010
  320.500    0.242    0.406   83.994    5.005
  320.750    0.240    0.410   95.412    5.001
  321.000    0.240    0.419   96.267    5.044
  321.250    0.246    0.414   94.998    5.249
  321.500    0.241    0.423   92.575    5.525
  321.750    0.231    0.418   90.820    5.686
  322.000    0.223    0.411   91.978    5.831
  322.250    0.211    0.408   97.387    5.957
  322.500    0.209    0.416   98.242    6.018
  322.750    0.204    0.421   97.276    6.057
  323.000    0.207    0.424   98.131    6.039
  323.250    0.214    0.424   97.286    5.967
  323.500    0.214    0.418   95.349    5.818
  323.750    0.211    0.411   94.626    5.580
  324.000    0.216    0.408  103.312    5.451
  324.250    0.227    0.428  111.391    5.335
  324.500    0.235    0.435  110.851    5.212
  324.750    0.239    0.423  114.316    5.187
  325.000    0.216    0.432  118.995    5.230
  325.250    0.209    0.440  123.250    5.264
  325.500    0.209    0.445  118.946    5.299
  325.750    0.226    0.434  112.819    5.363
  326.000    0.215    0.415  104.447    5.490
  326.250    0.196    0.397  101.842    5.630
  326.500    0.188    0.389  101.058    5.654
  326.750    0.186    0.384  105.921    5.692
  327.000    0.183    0.385  107.928    5.519
  327.250    0.186    0.396  108.116    5.292
  327.500    0.194    0.419  112.007    4.728
  327.750    0.182    0.446  115.714    4.169
  328.000    0.183    0.469  120.941    3.752
  328.250    0.187    0.480  119.489    3.578
  328.500    0.231    0.479  115.305    3.561
  328.750    0.219    0.483  104.626    3.652
  329.000    0.207    0.489   92.976    3.780
  329.250    0.187    0.479   88.003    3.906
  329.500    0.154    0.456   86.369    3.974
  329.750    0.183    0.441   88.196    4.240
  330.000    0.244    0.464   96.032    4.297
  330.250    0.259    0.476   97.798    4.383
  330.500    0.273    0.452   91.734    4.386
  330.750    0.286    0.423   87.913    4.223
  331.000    0.295    0.415   85.126    4.065
  331.250    0.287    0.421   83.493    4.090
  331.500    0.275    0.413   82.709    4.201
  331.750    0.267    0.428   81.501    4.365
  332.000    0.261    0.437   80.353    4.536
  332.250    0.256    0.429   79.204    4.653
  332.500    0.251    0.424   76.780    4.689
  332.750    0.243    0.419   74.418    4.819
  333.000    0.235    0.410   72.481    4.876
  333.250    0.236    0.413   72.061    5.028
