~VERSION INFORMATION
 VERS.                 2.0:   CWLS LOG ASCII STANDARD -VERSION 2.0
 WRAP.                  NO:   ONE LINE PER DEPTH STEP
~WELL INFORMATION BLOCK
#MNEM.UNIT           DATA                    DESCRIPTION OF MNEMONIC
#---------    -------------------            -------------------------------
# Generated from Intellog Unique Number	CS_67_68/WELL/812
WELL.         PENNENT-PUMA OILS LTD          : Well_name    - WELL
LOC .         00/11-01-068-16W4/0            : Location     - LOCATION
UWI .         00/11-01-068-16W4/0            : Uwi          - UNIQUE WELL ID
ENTR.         SP                             : Entered      - ENTERED BY
SRVC.         SCHLUMBERGER                   : Scn          - SERVICE COMPANY
STRT.M        320.040                        : top_depth    - START DEPTH
STOP.M        511.790                        : bot_depth    - STOP DEPTH
STEP.M        0.25                           : increment    - STEP LENGTH
 NULL. -999.2500:NULL Value
~CURVE INFORMATION BLOCK
#MNEM UNIT       ERCB CURVE CODE    CURVE DESCRIPTION
#-----------   ------------------   ----------------------------------
DEPT.M        00 001 00 00         : DEPTH        - DEPTH
GR  .API      00 310 00 00         : GR           - GAMMA RAY
DPHI.V/V      00 890 00 00         : PHID         - DENSITY POROSITY (SANDSTONE)
NPHI.V/V      00 330 00 00         : PHIN         - NEUTRON POROSITY (SANDSTONE)
ILD .OHMM     00 120 00 00         : RESD         - DEEP RESISTIVITY (DIL)
~PARAMETER INFORMATION
#MNEM.UNIT           DATA             DESCRIPTION OF MNEMONIC
#---------         -----------     ------------------------------
GL  .M        572.414              : gl           - GROUND LEVEL ELEVATION
EREF.M        605.333              : kb           - ELEVATION OF DEPTH REFERENCE
DATM.M        572.414              : datum        - DATUM ELEVATION
TDD .M        516.026              : tdd          - TOTAL DEPTH DRILLER
RUN .         ONE                  : Run          - RUN NUMBER
ENG .         BILL                 : Engineer     - RECORDING ENGINEER
WIT .         JIM                  : Witness      - WITNESSED BY
MUD .         GEL                  : Mud_type     - MUD TYPE
MATR.         SANDSTONE            : Logunit      - NEUTRON MATRIX
TMAX.C        24.4444              : BHT          - MAXIMUM RECORDED TEMPERATURE
BHTD.M        516.026              : BHTDEP       - MAXIMUM RECORDED TEMPERATURE
MATR.         1                    : LOGUNIT      - NEUTRON MATRIX
RMT .C        25                   : MDTP         - TEMPERATURE OF MUD
NEUT.         1                    : NEUTRON      - NEUTRON TYPE
RESI.         0                    : RESIST       - RESISTIVITY TYPE
RMC .OHMM     0.25                 : RMC          - RESISTIVITY OF MUD CAKE
RMF .OHMM     0.25                 : RMF          - RESISTIVITY OF MUD FILTRATE
SUFT.C        15                   : SUFT         - SURFACE TEMPERATURE
~A  DEPTH       GR     PHID     PHIN     RESD
# ...
  407.040   89.046    0.256    0.422    2.722
  407.290   87.467    0.262    0.420    2.870
  407.540   83.691    0.254    0.397    2.963
  407.790   83.122    0.239    0.359    3.007
  408.040   85.389    0.221    0.385    2.978
  408.290   86.362    0.229    0.417    2.925
  408.540   85.224    0.262    0.438    2.858
  408.790   86.175    0.266    0.449    2.800
  409.040   89.457    0.258    0.439    2.954
  409.290   91.441    0.251    0.425    3.187
  409.540   92.851    0.244    0.413    3.390
  409.790   92.611    0.237    0.416    3.604
  410.040   92.611    0.231    0.424    3.871
  410.290   93.779    0.236    0.419    3.969
  410.540   95.460    0.241    0.411    3.917
  410.790   96.758    0.235    0.409    3.874
  411.040   98.104    0.227    0.418    3.812
  411.290   98.825    0.221    0.428    3.756
  411.540   99.183    0.217    0.441    3.683
  411.790   98.978    0.221    0.429    3.604
  412.040   98.268    0.224    0.420    3.524
  412.290   98.646    0.226    0.412    3.460
  412.540  100.500    0.224    0.411    3.431
  412.790  101.963    0.222    0.418    3.523
  413.040  103.224    0.215    0.415    3.778
  413.290  102.999    0.208    0.417    4.114
  413.540   98.052    0.200    0.423    4.434
  413.790   91.314    0.188    0.402    4.884
  414.040   86.513    0.177    0.340    5.476
  414.290   82.701    0.168    0.313    5.934
  414.540   79.745    0.157    0.330    6.402
  414.790   91.179    0.130    0.362    6.204
  415.040   96.958    0.140    0.394    5.559
  415.290   99.699    0.175    0.416    4.939
  415.540  102.351    0.200    0.418    4.396
  415.790  104.691    0.209    0.419    3.994
  416.040  105.245    0.212    0.420    3.667
  416.290  105.228    0.206    0.426    3.439
  416.540  105.813    0.202    0.427    3.403
  416.790  105.636    0.199    0.422    3.454
  417.040  103.851    0.204    0.418    3.523
  417.290  105.575    0.197    0.413    3.571
  417.540  107.229    0.203    0.413    3.579
  417.790  109.920    0.208    0.423    3.554
  418.040  111.552    0.210    0.413    3.475
  418.290  112.708    0.219    0.418    3.377
  418.540  111.965    0.221    0.423    3.274
  418.790  109.931    0.217    0.420    3.204
  419.040  108.826    0.216    0.417    3.160
  419.290  108.735    0.225    0.418    3.157
  419.540  108.528    0.233    0.417    3.185
  419.790  108.281    0.242    0.419    3.254
  420.040  106.791    0.244    0.428    3.333
  420.290  103.331    0.230    0.435    3.389
  420.540   99.787    0.214    0.443    3.476
  420.790   96.734    0.201    0.429    3.557
  421.040  101.189    0.190    0.419    3.636
  421.290  105.200    0.184    0.413    3.767
  421.540  107.125    0.200    0.422    3.846
  421.790  107.949    0.208    0.431    3.883
  422.040  107.823    0.212    0.426    3.937
  422.290  107.705    0.213    0.425    3.854
  422.540  108.994    0.212    0.436    3.690
  422.790  111.226    0.211    0.443    3.518
  423.040  114.613    0.214    0.447    3.296
  423.290  117.304    0.217    0.453    3.161
  423.540  118.578    0.216    0.461    3.005
  423.790  117.396    0.212    0.470    2.899
  424.040  114.606    0.213    0.473    2.905
  424.290  111.022    0.225    0.458    2.922
  424.540  109.323    0.238    0.441    2.954
  424.790  109.228    0.246    0.432    3.010
  425.040  109.249    0.234    0.434    3.086
  425.290  107.941    0.227    0.428    3.155
  425.540  105.774    0.221    0.419    3.206
  425.790  100.929    0.217    0.417    3.193
  426.040   99.715    0.214    0.426    3.084
  426.290   99.449    0.213    0.440    2.957
  426.540   98.012    0.220    0.449    2.816
  426.790   95.995    0.237    0.455    2.599
  427.040   93.370    0.255    0.457    2.364
  427.290   89.843    0.272    0.461    2.113
  427.540   85.246    0.272    0.470    1.928
  427.790   80.748    0.288    0.482    1.768
  428.040   69.925    0.305    0.472    1.661
  428.290   66.468    0.317    0.441    1.606
  428.540   63.702    0.327    0.427    1.558
  428.790   62.376    0.342    0.422    1.522
  429.040   62.117    0.339    0.418    1.496
  429.290   62.017    0.336    0.414    1.484
  429.540   61.697    0.330    0.417    1.494
  429.790   61.198    0.326    0.419    1.492
  430.040   60.639    0.322    0.428    1.517
  430.290   61.336    0.329    0.438    1.501
  430.540   62.449    0.336    0.437    1.483
  430.790   63.604    0.338    0.443    1.467
  431.040   64.481    0.336    0.444    1.455
  431.290   65.627    0.332    0.443    1.451
  431.540   66.997    0.330    0.445    1.455
  431.790   66.977    0.333    0.440    1.465
  432.040   64.304    0.339    0.432    1.473
  432.290   62.792    0.343    0.430    1.491
  432.540   62.078    0.345    0.432    1.521
  432.790   62.075    0.343    0.424    1.580
  433.040   62.674    0.334    0.424    1.686
  433.290   63.973    0.325    0.432    1.814
  433.540   64.478    0.316    0.427    1.948
  433.790   64.548    0.303    0.409    2.024
  434.040   57.160    0.285    0.389    2.055
  434.290   49.958    0.271    0.402    2.033
  434.540   54.196    0.289    0.416    1.846
  434.790   57.651    0.314    0.409    1.715
  435.040   60.203    0.326    0.403    1.605
  435.290   60.847    0.338    0.414    1.519
  435.540   61.596    0.348    0.427    1.470
  435.790   62.182    0.343    0.439    1.471
  436.040   62.602    0.346    0.447    1.534
  436.290   63.027    0.345    0.443    1.626
  436.540   63.572    0.336    0.422    1.755
  436.790   64.186    0.322    0.417    1.929
  437.040   65.635    0.305    0.400    2.256
  437.290   65.686    0.290    0.381    2.826
  437.540   64.796    0.248    0.347    3.572
  437.790   66.902    0.221    0.337    3.946
  438.040   71.293    0.206    0.373    3.715
  438.290   74.098    0.252    0.394    2.913
  438.540   75.705    0.288    0.417    2.470
  438.790   75.220    0.319    0.427    2.210
  439.040   75.612    0.312    0.439    2.013
  439.290   77.249    0.308    0.427    1.868
  439.540   79.587    0.305    0.433    1.853
  439.790   81.742    0.303    0.441    1.893
  440.040   83.987    0.300    0.439    1.929
  440.290   86.204    0.298    0.431    2.019
  440.540   89.516    0.294    0.427    2.136
  440.790   92.714    0.281    0.422    2.260
  441.040   95.802    0.256    0.418    2.354
  441.290   99.007    0.238    0.414    2.469
  441.540  101.979    0.218    0.423    2.651
  441.790  103.435    0.206    0.433    2.803
  442.040  101.151    0.211    0.443    2.919
  442.290   99.220    0.204    0.436    2.995
  442.540  100.247    0.196    0.427    3.035
  442.790  101.503    0.212    0.419    3.041
  443.040  101.814    0.223    0.413    3.058
  443.290  102.228    0.223    0.422    3.080
  443.540  103.836    0.214    0.429    3.080
  443.790  105.613    0.210    0.426    3.132
  444.040  107.375    0.209    0.433    3.223
  444.290  108.326    0.209    0.443    3.281
  444.540  108.148    0.220    0.455    3.330
  444.790  107.630    0.236    0.465    3.288
  445.040  107.659    0.247    0.470    3.073
  445.290  109.150    0.239    0.466    2.839
  445.540  111.838    0.231    0.487    2.545
  445.790  113.729    0.219    0.505    2.392
  446.040  114.199    0.220    0.492    2.251
  446.290  114.305    0.240    0.483    2.166
  446.540  114.163    0.235    0.495    2.152
  446.790  117.150    0.231    0.504    2.001
  447.040  118.221    0.244    0.511    1.911
  447.290  118.170    0.246    0.515    1.916
  447.540  121.552    0.253    0.499    1.933
  447.790  122.738    0.249    0.483    1.951
  448.040  120.266    0.246    0.466    2.012
  448.290  117.788    0.245    0.458    2.093
  448.540  115.724    0.235    0.446    2.213
  448.790  113.761    0.222    0.418    2.342
  449.040  113.431    0.197    0.426    2.521
  449.290  113.205    0.181    0.441    2.707
  449.540  111.513    0.196    0.434    2.782
  449.790  110.243    0.199    0.398    2.824
  450.040  109.267    0.206    0.384    2.786
  450.290  108.532    0.200    0.379    2.736
