~VERSION INFORMATION
 VERS.                 2.0:   CWLS LOG ASCII STANDARD -VERSION 2.0
 WRAP.                  NO:   ONE LINE PER DEPTH STEP
~WELL INFORMATION BLOCK
#MNEM.UNIT           DATA                    DESCRIPTION OF MNEMONIC
#---------    -------------------            -------------------------------
# Generated from Intellog Unique Number	CX_WELLS/WELL/2964
WELL.         ATCOR HANGINGSTONE             : Well_name    - WELL
LOC .         00/12-12-082-11W4/0            : Location     - LOCATION
UWI .         00/12-12-082-11W400            : Uwi          - UNIQUE WELL ID
ENTR.         T                              : Entered      - ENTERED BY
SRVC.         SCHLUMBERGER                   : Scn          - SERVICE COMPANY
STRT.M        260                            : top_depth    - START DEPTH
STOP.M        485                            : bot_depth    - STOP DEPTH
STEP.M        0.25                           : increment    - STEP LENGTH
 NULL. -999.2500:NULL Value
~CURVE INFORMATION BLOCK
#MNEM UNIT       ERCB CURVE CODE    CURVE DESCRIPTION
#-----------   ------------------   ----------------------------------
DEPT.M        00 001 00 00         : DEPTH        - DEPTH
GR  .API      00 310 00 00         : GR           - GAMMA RAY
NPHI.V/V      00 330 00 00         : PHIN         - NEUTRON POROSITY (SANDSTONE)
DPHI.V/V      00 890 00 00         : PHID         - DENSITY POROSITY (SANDSTONE)
ILD .OHMM     00 120 00 00         : RESD         - DEEP RESISTIVITY (OTHER)
~PARAMETER INFORMATION
#MNEM.UNIT           DATA             DESCRIPTION OF MNEMONIC
#---------         -----------     ------------------------------
GL  .M        705                  : gl           - GROUND LEVEL ELEVATION
EREF.M        706.4                : kb           - ELEVATION OF DEPTH REFERENCE
DATM.M        706.4                : datum        - DATUM ELEVATION
TDD .M        497                  : tdd          - TOTAL DEPTH DRILLER
RUN .         ONE                  : Run          - RUN NUMBER
ENG .         BILL                 : Engineer     - RECORDING ENGINEER
WIT .         JIM                  : Witness      - WITNESSED BY
MUD .         GEL                  : Mud_type     - MUD TYPE
MATR.         SANDSTONE            : Logunit      - NEUTRON MATRIX
TMAX.C        20                   : BHT          - MAXIMUM RECORDED TEMPERATURE
BHTD.M        496                  : BHTDEP       - MAXIMUM RECORDED TEMPERATURE
MATR.         1                    : LOGUNIT      - NEUTRON MATRIX
RMT .C        20                   : MDTP         - TEMPERATURE OF MUD
NEUT.         1                    : NEUTRON      - NEUTRON TYPE
RESI.         7                    : RESIST       - RESISTIVITY TYPE
RMC .OHMM     2.3                  : RMC          - RESISTIVITY OF MUD CAKE
RMF .OHMM     9.7                  : RMF          - RESISTIVITY OF MUD FILTRATE
SUFT.C        4                    : SUFT         - SURFACE TEMPERATURE
~A  DEPTH       GR     PHIN     PHID     RESD
# ...
  434.000   71.136    0.340    0.271   25.293
  434.250   72.349    0.341    0.262   28.824
  434.500   68.802    0.308    0.251   29.390
  434.750   62.288    0.294    0.289   31.686
  435.000   55.775    0.240    0.330   32.896
  435.250   51.045    0.202    0.355   35.457
  435.500   45.721    0.210    0.380   36.837
  435.750   46.947    0.245    0.366   35.524
  436.000   48.148    0.278    0.340   31.821
  436.250   50.550    0.326    0.316   27.482
  436.500   51.763    0.343    0.309   25.077
  436.750   52.389    0.348    0.311   23.745
  437.000   50.643    0.355    0.318   22.485
  437.250   50.061    0.362    0.319   23.785
  437.500   47.708    0.365    0.315   27.606
  437.750   44.767    0.365    0.311   32.639
  438.000   41.232    0.365    0.314   40.045
  438.250   39.461    0.365    0.318   49.142
  438.500   38.303    0.361    0.320   61.418
  438.750   40.105    0.342    0.324   71.285
  439.000   45.479    0.331    0.326   89.093
  439.250   52.636    0.339    0.307   54.123
  439.500   66.931    0.359    0.282   47.582
  439.750   63.390    0.383    0.271   42.622
  440.000   59.254    0.384    0.287   38.180
  440.250   65.222    0.385    0.277   34.855
  440.500   64.058    0.387    0.282   34.872
  440.750   62.306    0.390    0.297   36.915
  441.000   59.954    0.373    0.292   37.631
  441.250   57.595    0.370    0.293   40.560
  441.500   54.648    0.377    0.303   44.534
  441.750   50.524    0.382    0.305   49.822
  442.000   48.754    0.385    0.305   54.704
  442.250   46.407    0.383    0.305   56.820
  442.500   47.621    0.378    0.305   53.815
  442.750   51.212    0.377    0.303   50.970
  443.000   51.242    0.383    0.301   51.006
  443.250   50.078    0.389    0.299   51.995
  443.500   47.726    0.394    0.301   53.017
  443.750   45.373    0.394    0.311   57.157
  444.000   44.209    0.394    0.310   58.280
  444.250   46.617    0.390    0.312   59.425
  444.500   46.642    0.376    0.312   64.066
  444.750   46.066    0.379    0.310   66.513
  445.000   45.491    0.388    0.311   73.081
  445.250   46.723    0.390    0.309   75.872
  445.500   47.329    0.396    0.306   81.778
  445.750   45.571    0.407    0.313   91.511
  446.000   42.030    0.400    0.326   96.803
  446.250   38.494    0.392    0.337  104.338
  446.500   39.708    0.381    0.335  116.728
  446.750   45.670    0.374    0.323  121.243
  447.000   55.799    0.353    0.304   79.294
  447.250   78.415    0.330    0.277   55.830
  447.500   84.390    0.329    0.249   39.318
  447.750   86.198    0.320    0.223   29.810
  448.000   88.594    0.320    0.205   20.231
  448.250   96.351    0.350    0.207   16.521
  448.500  101.725    0.371    0.217   15.940
  448.750   90.457    0.409    0.229   15.666
  449.000   86.916    0.412    0.217   15.673
  449.250   82.185    0.376    0.197   16.893
  449.500   79.238    0.369    0.180   17.551
  449.750   92.339    0.356    0.191   16.318
  450.000   96.524    0.384    0.209   15.165
  450.250  101.904    0.398    0.218   13.584
  450.500  100.740    0.404    0.219   13.351
  450.750   97.793    0.401    0.226   12.878
  451.000   88.903    0.396    0.220   13.376
  451.250   82.978    0.392    0.215   14.961
  451.500   88.358    0.376    0.218   16.427
  451.750   92.543    0.368    0.265   16.442
  452.000   80.681    0.364    0.284   15.284
  452.250   68.236    0.358    0.302   14.207
  452.500   64.088    0.356    0.315   14.757
  452.750   64.119    0.352    0.312   16.509
  453.000   64.144    0.340    0.263   18.465
  453.250   58.813    0.335    0.227   19.897
  453.500   54.083    0.361    0.253   22.260
  453.750   49.359    0.375    0.260   24.441
  454.000   50.572    0.375    0.296   28.897
  454.250   52.380    0.374    0.320   33.539
  454.500   53.594    0.373    0.316   41.149
  454.750   54.807    0.371    0.311   49.560
  455.000   59.587    0.373    0.300   45.224
  455.250   64.961    0.375    0.292   31.265
  455.500   69.740    0.375    0.277   29.062
  455.750   73.926    0.374    0.266   26.033
  456.000   78.111    0.371    0.251   23.319
  456.250   82.302    0.370    0.234   20.511
  456.500   87.088    0.370    0.223   18.716
  456.750   90.078    0.366    0.214   18.049
  457.000   94.264    0.361    0.211   16.781
  457.250   95.477    0.360    0.201   15.894
  457.500   96.096    0.367    0.191   15.046
  457.750   96.121    0.378    0.185   14.247
  458.000   94.369    0.384    0.187   13.494
  458.250   92.610    0.383    0.190   13.259
  458.500   91.440    0.380    0.187   13.272
  458.750   89.682    0.379    0.185   13.284
  459.000   86.153    0.374    0.180   13.294
  459.250   83.794    0.366    0.181   13.558
  459.500   80.847    0.350    0.194   14.345
  459.750   76.717    0.344    0.221   15.466
  460.000   74.359    0.362    0.227   16.364
  460.250   70.223    0.362    0.239   16.686
  460.500   63.710    0.346    0.244   17.013
  460.750   76.228    0.340    0.216   17.029
  461.000   78.024    0.337    0.207   16.426
  461.250   80.426    0.333    0.199   16.140
  461.500   79.856    0.336    0.195   15.860
  461.750   78.104    0.338    0.194   15.874
  462.000   76.346    0.341    0.189   15.886
  462.250   75.182    0.345    0.179   15.905
  462.500   76.990    0.352    0.173   16.217
  462.750   75.237    0.358    0.201   16.232
  463.000   71.690    0.359    0.218   16.551
  463.250   71.715    0.350    0.232   16.880
  463.500   75.312    0.339    0.218   16.590
  463.750   76.519    0.335    0.203   16.302
  464.000   77.745    0.335    0.197   16.014
  464.250   78.351    0.334    0.203   15.732
  464.500   79.565    0.333    0.198   14.904
  464.750   80.791    0.338    0.190   14.918
  465.000   81.404    0.344    0.191   14.928
  465.250   82.029    0.365    0.187   14.943
  465.500   81.465    0.361    0.180   14.960
  465.750   80.883    0.355    0.182   15.254
  466.000   79.726    0.367    0.208   15.550
  466.250   76.779    0.379    0.231   16.764
  466.500   73.231    0.390    0.237   18.411
  466.750   67.312    0.405    0.247   19.471
  467.000   62.582    0.414    0.260   22.610
  467.250   57.852    0.427    0.286   25.289
  467.500   53.716    0.433    0.304   28.806
  467.750   49.580    0.423    0.318   31.629
  468.000   46.045    0.413    0.325   34.736
  468.250   49.054    0.404    0.326   36.753
  468.500   50.249    0.408    0.324   33.545
  468.750   54.447    0.414    0.316   30.049
  469.000   58.037    0.409    0.314   27.419
  469.250   61.622    0.404    0.309   25.481
  469.500   62.836    0.414    0.305   24.134
  469.750   61.083    0.424    0.307   25.530
  470.000   59.319    0.428    0.338   27.517
  470.250   53.994    0.414    0.342   29.659
  470.500   41.538    0.395    0.333   33.181
  470.750   39.779    0.398    0.321   35.764
  471.000   45.153    0.390    0.306   34.497
  471.250   49.345    0.385    0.272   29.786
  471.500   49.369    0.392    0.262   28.731
  471.750   48.800    0.395    0.268   28.751
  472.000   46.447    0.400    0.297   29.878
  472.250   45.283    0.402    0.302   30.450
  472.500   46.509    0.397    0.311   31.636
  472.750   46.521    0.386    0.307   32.257
  473.000   50.713    0.374    0.299   32.280
  473.250   53.703    0.375    0.290   32.311
  473.500   57.888    0.380    0.279   32.961
  473.750   50.781    0.384    0.282   34.867
  474.000   42.484    0.390    0.293   38.998
  474.250   40.132    0.395    0.303   45.263
  474.500   37.785    0.400    0.316   50.626
  474.750   36.027    0.404    0.341   58.772
  475.000   34.863    0.408    0.354   63.347
  475.250   33.705    0.408    0.358   65.798
  475.500   33.705    0.391    0.358   69.620
  475.750   33.767    0.397    0.358   62.378
  476.000   36.745    0.414    0.356   59.051
  476.250   35.581    0.441    0.356   61.350
  476.500   33.234    0.432    0.359   66.110
  476.750   31.476    0.421    0.359   75.342
  477.000   30.312    0.408    0.356   79.737
  477.250   29.743    0.399    0.351   70.100
