~VERSION INFORMATION
 VERS.                 2.0:   CWLS LOG ASCII STANDARD -VERSION 2.0
 WRAP.                  NO:   ONE LINE PER DEPTH STEP
~WELL INFORMATION BLOCK
#MNEM.UNIT           DATA                    DESCRIPTION OF MNEMONIC
#---------    -------------------            -------------------------------
# Generated from Intellog Unique Number	CW_70_72/WELL/1074
NULL.         -999.25                        : NULL_VALUE
WELL.         NORTHSTAR ET AL TOMATO 16-20   : Well_name    - WELL              
LOC .         16-20-072-23W4                 : Location     - LOCATION          
UWI .         00/16-20-072-23W4/0            : Uwi          - UNIQUE WELL ID    
ENTR.         JAYE                           : Entered      - ENTERED BY        
SRVC.         COMPUTALOG                     : Scn          - SERVICE COMPANY   
DATE.         18 FEB 81                      : Date         - LOG DATE          
STRT.M        430                            : top_depth    - START DEPTH       
STOP.M        639.75                         : bot_depth    - STOP DEPTH        
STEP.M        0.25                           : increment    - STEP LENGTH       
~CURVE INFORMATION BLOCK
#MNEM UNIT       ERCB CURVE CODE    CURVE DESCRIPTION
#-----------   ------------------   ----------------------------------
DEPT.M        00 001 00 00         : DEPTH        - DEPTH                       
DPHI.V/V      00 890 00 00         : PHID         - DENSITY POROSITY (SANDSTONE)
NPHI.V/V      00 330 00 00         : PHIN         - NEUTRON POROSITY (SANDSTONE)
GR  .API      00 310 00 00         : GR           - GAMMA RAY                   
CALI.MM       00 280 01 00         : CAL          - CALIPER                     
ILD .OHMM     00 120 00 00         : RESD         - DEEP RESISTIVITY (DLL)      
~PARAMETER INFORMATION       
#MNEM.UNIT           DATA             DESCRIPTION OF MNEMONIC
#---------         -----------     ------------------------------
GL  .M        674.7                : gl           - GROUND LEVEL ELEVATION      
EREF.M        678.7                : kb           - ELEVATION OF DEPTH REFERENCE
DATM.M        674.7                : datum        - DATUM ELEVATION             
TDD .M        644                  : tdd          - TOTAL DEPTH DRILLER         
RUN .         ONE                  : Run          - RUN NUMBER                  
ENG .         ABHNDROTH            : Engineer     - RECORDING ENGINEER          
WIT .         SNELLING/FERRIS      : Witness      - WITNESSED BY                
BASE.         MEDICINE HAT         : Branch       - HOME BASE OF LOGGING UNIT   
MUD .         GEL CHEN             : Mud_type     - MUD TYPE                    
MATR.         SANDSTONE            : Logunit      - NEUTRON MATRIX              
TMAX.C        32                   : BHT          - MAXIMUM RECORDED TEMPERATURE
BHTD.M        642                  : BHTDEP       - MAXIMUM RECORDED TEMPERATURE
RMT .C        16                   : MDTP         - TEMPERATURE OF MUD          
MUDD.KG/M     1080                 : MWT          - MUD DENSITY                 
NEUT.         1                    : NEUTRON      - NEUTRON TYPE                
RESI.         1                    : RESIST       - RESISTIVITY TYPE            
RM  .OHMM     3.5                  : RM           - RESISTIVITY OF MUD          
RMC .OHMM     2.75                 : RMC          - RESISTIVITY OF MUD CAKE     
RMF .OHMM     4.5                  : RMF          - RESISTIVITY OF MUD FILTRATE 
SUFT.C        0                    : SUFT         - SURFACE TEMPERATURE         
~A  DEPTH     PHID     PHIN       GR      CAL     RESD
# ...
  612.500    0.035    0.254   71.479  167.154    7.701
  612.750    0.054    0.256   83.461  159.505    8.122
  613.000    0.095    0.269   93.582  155.593    7.929
  613.250    0.117    0.265   96.254  155.008    7.055
  613.500    0.131    0.286   95.414  155.352    6.338
  613.750    0.121    0.341   92.712  157.781    5.969
  614.000    0.109    0.373   97.388  162.802    5.971
  614.250    0.097    0.294  108.370  167.719    6.076
  614.500    0.094    0.296  107.028  169.937    6.183
  614.750    0.092    0.310   97.736  170.076    6.315
  615.000    0.086    0.326   91.881  169.901    6.561
  615.250    0.085    0.364   96.846  169.835    6.894
  615.500    0.093    0.366  100.518  168.209    6.832
  615.750    0.102    0.355  103.475  162.637    6.581
  616.000    0.110    0.340  109.011  159.971    6.609
  616.250    0.114    0.331  115.336  160.426    6.867
  616.500    0.107    0.316  116.287  160.981    7.147
  616.750    0.103    0.309  109.360  161.436    7.653
  617.000    0.089    0.301  104.438  161.465    7.967
  617.250    0.086    0.300  101.377  161.608    7.955
  617.500    0.090    0.314  107.989  161.851    8.004
  617.750    0.100    0.315  114.598  161.884    8.007
  618.000    0.107    0.308  121.999  161.818    7.875
  618.250    0.112    0.296  126.244  161.646    7.760
  618.500    0.114    0.301  113.942  159.607    7.720
  618.750    0.106    0.338   92.329  157.147    7.723
  619.000    0.095    0.359   87.909  157.080    7.770
  619.250    0.091    0.382  111.353  157.950    7.921
  619.500    0.091    0.392  122.763  158.607    8.230
  619.750    0.095    0.387  107.453  158.019    8.713
  620.000    0.093    0.365   98.090  157.846    9.260
  620.250    0.092    0.312  101.191  157.989    9.602
  620.500    0.092    0.287  104.363  157.921    9.661
  620.750    0.089    0.272   92.565  157.132    9.167
  621.000    0.086    0.256   88.717  156.356    8.698
  621.250    0.090    0.269   90.383  155.326    8.301
  621.500    0.097    0.312   93.413  153.079    8.041
  621.750    0.106    0.303   92.430  153.013    7.761
  622.000    0.110    0.303   93.097  153.563    7.505
  622.250    0.109    0.285   91.325  154.744    7.271
  622.500    0.120    0.302   87.978  153.739    7.071
  622.750    0.121    0.329   93.085  152.737    6.902
  623.000    0.136    0.320   99.408  153.087    6.738
  623.250    0.136    0.291  105.016  153.745    6.602
  623.500    0.134    0.279  110.122  154.510    6.444
  623.750    0.131    0.298  111.074  155.067    6.115
  624.000    0.104    0.298  118.616  156.864    5.835
  624.250    0.073    0.285  126.945  160.226    5.707
  624.500    0.047    0.292  130.476  161.720    5.645
  624.750    0.051    0.283  119.321  162.480    5.615
  625.000    0.069    0.261  106.089  162.826    5.607
  625.250    0.056    0.243  102.241  159.955    5.620
  625.500    0.014    0.300   96.459  157.286    5.697
  625.750    0.014    0.327  100.849  155.976    5.830
  626.000    0.067    0.351  108.678  157.051    6.035
  626.250    0.122    0.329  115.861  158.127    6.163
  626.500    0.118    0.302  103.776  159.094    6.440
  626.750    0.104    0.268   97.564  160.585    6.805
  627.000    0.107    0.249   91.711  161.350    7.178
  627.250    0.100    0.252   82.704  162.525    7.485
  627.500    0.091    0.251   76.063  164.329    7.689
  627.750    0.082    0.247   65.696  165.193    7.765
  628.000    0.052    0.253   61.060  164.607    7.798
  628.250    0.044    0.236   66.883  162.464    7.641
  628.500    0.088    0.223   62.320  159.279    7.473
  628.750    0.132    0.228   65.563  155.787    7.294
  629.000    0.167    0.217   85.140  154.573    7.014
  629.250    0.168    0.211  107.007  154.398    6.782
  629.500    0.155    0.295  129.951  154.643    6.608
  629.750    0.141    0.310  145.731  155.718    6.475
  630.000    0.131    0.299  132.570  157.730    6.429
  630.250    0.106    0.298  111.386  159.321    6.456
  630.500    0.094    0.289  101.379  161.128    6.470
  630.750    0.080    0.294   97.387  161.370    6.437
  631.000    0.078    0.281   98.699  161.923    6.367
  631.250    0.082    0.297  103.088  161.957    6.274
  631.500    0.088    0.297  111.058  162.000    6.194
  631.750    0.085    0.312  116.594  162.241    6.162
  632.000    0.075    0.319  125.068  163.422    6.095
  632.250    0.075    0.305  118.140  163.972    5.949
  632.500    0.090    0.289  117.659  163.282    5.796
  632.750    0.101    0.275  113.380  161.453    5.532
  633.000    0.111    0.313  101.796  159.301    5.298
  633.250    0.118    0.332   76.314  157.160    5.201
  633.500    0.106    0.300   61.721  155.848    5.155
  633.750    0.097    0.243   57.875  155.257    5.147
  634.000    0.099    0.278   65.632  155.295    5.218
  634.250    0.099    0.317   78.832  155.952    5.289
  634.500    0.089    0.370   86.875  156.504    5.402
  634.750    0.070    0.414   98.570  157.580    5.571
  635.000    0.094    0.426   66.571  156.680    5.733
  635.250    0.116    0.422   18.669  155.267    5.934
  635.500    0.132    0.411    5.150  153.637    6.235
  635.750    0.142    0.415    1.518  151.804    6.564
  636.000    0.152    0.402    3.043  154.228    6.717
  636.250    0.146    0.337    6.715  158.107    6.435
  636.500    0.108    0.320    6.235  158.977    5.835
  636.750    0.100    0.333    7.185  157.660    5.454
  637.000    0.102    0.354    4.271  156.347    5.078
  637.250    0.106    0.356    4.004  155.865    4.837
  637.500    0.109    0.354    4.382  156.003    4.660
  637.750    0.116    0.353    5.333  154.585    4.566
  638.000    0.106    0.356    9.364  152.752    4.541
  638.250    0.098    0.364   14.614  151.438    4.578
  638.500    0.096    0.391   16.928  150.022    4.580
  638.750    0.093    0.405   16.087  149.227    4.539
  639.000    0.080    0.394   15.892  148.643    4.464
  639.250    0.081    0.372   14.265  148.260    4.407
  639.500    0.094    0.355    8.699  148.192    4.392
  639.750    0.096    0.362    1.629  148.022    4.427
