~VERSION INFORMATION
 VERS.                 2.0:   CWLS LOG ASCII STANDARD -VERSION 2.0
 WRAP.                  NO:   ONE LINE PER DEPTH STEP
~WELL INFORMATION BLOCK
#MNEM.UNIT           DATA                    DESCRIPTION OF MNEMONIC
#---------    -------------------            -------------------------------
# Generated from Intellog Unique Number	CW_73_75/WELL/3526
WELL.         G W ET AL SPUR                 : Well_name    - WELL
LOC .         00/11-06-073-01W5/0            : Location     - LOCATION
UWI .         00/11-06-073-01W5/0            : Uwi          - UNIQUE WELL ID
ENTR.         TIM                            : Entered      - ENTERED BY
SRVC.         SCHLUMBERGER                   : Scn          - SERVICE COMPANY
STRT.M        370                            : top_depth    - START DEPTH
STOP.M        615                            : bot_depth    - STOP DEPTH
STEP.M        0.25                           : increment    - STEP LENGTH
 NULL. -999.2500:NULL Value
~CURVE INFORMATION BLOCK
#MNEM UNIT       ERCB CURVE CODE    CURVE DESCRIPTION
#-----------   ------------------   ----------------------------------
DEPT.M        00 001 00 00         : DEPTH        - DEPTH
GR  .API      00 310 00 00         : GR           - GAMMA RAY
CALI.MM       00 280 01 00         : CAL          - CALIPER
NPHI.V/V      00 330 00 00         : PHIN         - NEUTRON POROSITY (SANDSTONE)
ILD .OHMM     00 120 00 00         : RESD         - DEEP RESISTIVITY (DIL)
~PARAMETER INFORMATION
#MNEM.UNIT           DATA             DESCRIPTION OF MNEMONIC
#---------         -----------     ------------------------------
GL  .M        612.1                : gl           - GROUND LEVEL ELEVATION
EREF.M        615.2                : kb           - ELEVATION OF DEPTH REFERENCE
DATM.M        615.2                : datum        - DATUM ELEVATION
TDD .M        624                  : tdd          - TOTAL DEPTH DRILLER
RUN .         ONE                  : Run          - RUN NUMBER
ENG .         BILL                 : Engineer     - RECORDING ENGINEER
WIT .         JIM                  : Witness      - WITNESSED BY
MUD .         GEL                  : Mud_type     - MUD TYPE
MATR.         SANDSTONE            : Logunit      - NEUTRON MATRIX
TMAX.C        28                   : BHT          - MAXIMUM RECORDED TEMPERATURE
BHTD.M        624                  : BHTDEP       - MAXIMUM RECORDED TEMPERATURE
MATR.         1                    : LOGUNIT      - NEUTRON MATRIX
RMT .C        23                   : MDTP         - TEMPERATURE OF MUD
NEUT.         1                    : NEUTRON      - NEUTRON TYPE
RESI.         0                    : RESIST       - RESISTIVITY TYPE
RMC .OHMM     3.417                : RMC          - RESISTIVITY OF MUD CAKE
RMF .OHMM     3.8                  : RMF          - RESISTIVITY OF MUD FILTRATE
SUFT.C        5                    : SUFT         - SURFACE TEMPERATURE
~A  DEPTH       GR      CAL     PHIN     RESD
# ...
  457.000   81.695  154.321    0.385    3.090
  457.250   82.859  154.306    0.391    3.035
  457.500   80.495  154.286    0.406    3.037
  457.750   76.367  154.257    0.412    3.038
  458.000   71.060  154.242    0.413    3.040
  458.250   66.346  154.218    0.413    3.041
  458.500   61.630  154.198    0.414    3.043
  458.750   61.030  154.184    0.417    3.044
  459.000   61.606  154.159    0.418    3.045
  459.250   63.356  154.145    0.417    3.046
  459.500   64.520  154.120    0.412    3.048
  459.750   64.506  154.106    0.404    3.049
  460.000   63.321  155.066    0.402    3.050
  460.250   60.954  155.037    0.414    3.052
  460.500   60.942  155.022    0.415    3.053
  460.750   60.933  155.988    0.412    3.111
  461.000   62.098  155.963    0.410    3.112
  461.250   62.086  155.949    0.409    3.114
  461.500   61.483  155.919    0.408    3.173
  461.750   59.705  155.905    0.406    3.174
  462.000   58.523  156.855    0.406    3.235
  462.250   57.923  156.846    0.404    3.357
  462.500   57.908  156.826    0.398    3.613
  462.750   57.891  156.806    0.391    4.422
  463.000   57.882  156.787    0.369    5.216
  463.250   56.697  156.758    0.353    7.258
  463.500   54.915  156.743    0.332    9.213
  463.750   53.733  157.708    0.301   12.357
  464.000   51.957  157.684    0.247   14.578
  464.250   49.002  157.660    0.190   15.693
  464.500   48.405  157.640    0.165   15.701
  464.750   48.393  157.620    0.151   14.870
  465.000   49.555  157.596    0.157   13.823
  465.250   51.892  157.586    0.173   11.515
  465.500   54.233  157.567    0.220    9.246
  465.750   56.577  157.542    0.250    7.989
  466.000   57.741  157.528    0.268    6.903
  466.250   57.141  157.503    0.296    5.646
  466.500   57.129  157.489    0.344    5.060
  466.750   57.703  157.464    0.384    4.373
  467.000   58.867  157.440    0.396    3.849
  467.250   59.447  157.425    0.410    3.644
  467.500   60.020  157.401    0.424    3.207
  467.750   60.596  157.386    0.430    3.093
  468.000   61.761  157.361    0.411    2.876
  468.250   62.340  157.347    0.400    2.773
  468.500   66.442  157.317    0.404    2.627
  468.750   70.549  158.283    0.411    2.579
  469.000   82.299  158.259    0.420    2.534
  469.250   88.753  158.249    0.427    2.582
  469.500   88.741  159.209    0.416    2.631
  469.750   85.198  159.185    0.405    2.781
  470.000   82.837  159.165    0.400    2.834
  470.250   80.473  159.151    0.398    2.887
  470.500   79.285  159.131    0.397    2.996
  470.750   80.447  160.087    0.393    3.053
  471.000   83.373  160.067    0.386    3.111
  471.250   84.543  161.028    0.380    3.112
  471.500   88.648  161.008    0.386    3.114
  471.750   89.809  161.969    0.401    3.115
  472.000   86.857  161.944    0.423    3.117
  472.250   82.144  161.925    0.429    3.061
  472.500   71.544  161.905    0.439    2.953
  472.750   65.063  161.886    0.432    2.900
  473.000   59.171  161.871    0.406    2.849
  473.250   56.216  161.852    0.392    2.850
  473.500   62.088  161.827    0.395    2.851
  473.750   73.837  161.808    0.403    2.852
  474.000   82.647  161.778    0.411    2.853
  474.250   67.933  161.764    0.423    2.753
  474.500   53.808  161.749    0.436    2.754
  474.750   52.029  161.720    0.430    2.705
  475.000   52.605  161.710    0.416    2.657
  475.250   52.594  161.685    0.406    2.610
  475.500   51.994  161.666    0.400    2.517
  475.750   51.394  161.646    0.399    2.518
  476.000   50.791  161.632    0.396    2.429
  476.250   49.013  160.632    0.394    2.430
  476.500   48.419  160.612    0.390    2.387
  476.750   46.049  160.583    0.393    2.432
  477.000   46.043  160.568    0.401    2.433
  477.250   46.619  160.544    0.409    2.525
  477.500   48.369  159.544    0.400    2.526
  477.750   51.294  159.525    0.392    2.574
  478.000   52.462  159.500    0.381    2.575
  478.250   53.035  159.491    0.382    2.624
  478.500   53.020  159.466    0.395    2.625
  478.750   53.015  159.442    0.392    2.626
  479.000   53.003  159.432    0.380    2.627
  479.250   51.221  159.403    0.371    2.629
  479.500   51.212  159.388    0.366    2.629
  479.750   50.615  158.383    0.377    2.631
  480.000   51.192  158.374    0.385    2.632
  480.250   52.353  158.349    0.379    2.633
  480.500   54.103  158.320    0.373    2.634
  480.750   54.685  158.305    0.373    2.636
  481.000   55.258  158.291    0.381    2.637
  481.250   56.423  158.266    0.391    2.638
  481.500   57.578  158.252    0.409    2.591
  481.750   58.161  158.222    0.430    2.545
  482.000   58.740  158.208    0.440    2.455
  482.250   58.728  158.193    0.431    2.456
  482.500   59.305  158.169    0.420    2.412
  482.750   60.469  158.144    0.410    2.369
  483.000   61.633  159.114    0.399    2.327
  483.250   58.678  159.090    0.389    2.286
  483.500   54.553  159.070    0.380    2.246
  483.750   56.306  159.051    0.383    2.206
  484.000   62.175  159.026    0.395    2.207
  484.250   66.867  159.007    0.405    2.168
  484.500   66.265  158.987    0.410    2.169
  484.750   64.486  158.963    0.410    2.170
  485.000   67.999  158.953    0.416    2.171
  485.250   70.931  158.929    0.423    2.172
  485.500   72.683  158.914    0.417    2.213
  485.750   69.731  158.895    0.412    2.214
  486.000   66.782  158.875    0.411    2.256
  486.250   65.591  158.851    0.417    2.299
  486.500   64.404  158.831    0.425    2.342
  486.750   62.628  158.811    0.428    2.431
  487.000   59.085  158.787    0.424    2.522
  487.250   57.315  158.772    0.421    2.666
  487.500   54.945  157.763    0.420    2.716
  487.750   55.518  157.748    0.418    2.872
  488.000   56.688  157.734    0.416    2.926
  488.250   57.262  157.709    0.415    2.981
  488.500   56.659  157.695    0.412    3.094
  488.750   56.653  157.675    0.412    3.330
  489.000   56.050  157.651    0.410    3.719
  489.250   55.448  157.636    0.408    4.469
  489.500   54.266  158.592    0.400    5.176
  489.750   51.314  158.567    0.386    6.816
  490.000   46.594  158.548    0.285    7.337
  490.250   47.759  158.528    0.226    6.822
  490.500   50.096  159.489    0.183    6.228
  490.750   53.613  159.469    0.167    5.582
  491.000   57.130  159.450    0.202    4.912
  491.250   60.647  160.415    0.261    4.403
  491.500   63.572  160.391    0.317    3.946
  491.750   64.743  160.371    0.376    3.602
  492.000   66.495  160.347    0.390    3.349
  492.250   68.245  160.337    0.401    3.114
  492.500   70.588  160.312    0.399    2.949
  492.750   69.985  160.278    0.396    2.692
  493.000   67.624  160.273    0.395    2.596
  493.250   66.433  161.219    0.396    2.504
  493.500   66.422  161.209    0.403    2.460
  493.750   66.998  161.190    0.408    2.507
  494.000   68.159  161.170    0.410    2.507
  494.250   69.327  161.151    0.409    2.651
  494.500   71.667  161.131    0.406    2.701
  494.750   74.005  161.112    0.405    2.751
  495.000   75.760  161.097    0.403    2.804
  495.250   76.925  161.073    0.400    2.857
  495.500   78.674  161.058    0.399    2.911
  495.750   79.842  161.038    0.396    2.966
  496.000   81.003  161.009    0.396    3.078
  496.250   82.756  160.994    0.399    3.194
  496.500   83.920  161.945    0.404    3.196
  496.750   83.908  161.931    0.409    3.139
  497.000   82.132  161.906    0.415    3.141
  497.250   78.595  161.891    0.421    3.142
  497.500   72.109  161.867    0.429    3.087
  497.750   74.452  160.877    0.425    3.088
  498.000   79.730  160.858    0.420    3.089
  498.250   80.895  159.858    0.405    3.091
  498.500   77.946  156.898    0.391    3.093
  498.750   74.403  153.938    0.388    3.094
  499.000   72.038  151.953    0.391    3.095
  499.250   69.674  149.974    0.395    3.096
  499.500   67.311  148.969    0.402    3.097
  499.750   65.537  147.974    0.410    3.099
  500.000   62.583  146.975    0.412    3.158
  500.250   64.920  145.975    0.410    3.159
