~VERSION INFORMATION
 VERS.                 2.0:   CWLS LOG ASCII STANDARD -VERSION 2.0
 WRAP.                  NO:   ONE LINE PER DEPTH STEP
~WELL INFORMATION BLOCK
#MNEM.UNIT           DATA                    DESCRIPTION OF MNEMONIC
#---------    -------------------            -------------------------------
# Generated from Intellog Unique Number	CC_84_87/WELL/2343
WELL.         HB GORDON LAKE                 : Well_name    - WELL
LOC .         00/15-21-084-03W4/0            : Location     - LOCATION
UWI .         00/15-21-084-03W400            : Uwi          - UNIQUE WELL ID
ENTR.         DW                             : Entered      - ENTERED BY
SRVC.         SCHLUMBERGER                   : Scn          - SERVICE COMPANY
STRT.M        60.96                          : top_depth    - START DEPTH
STOP.M        289.21                         : bot_depth    - STOP DEPTH
STEP.M        0.25                           : increment    - STEP LENGTH
 NULL. -999.2500:NULL Value
~CURVE INFORMATION BLOCK
#MNEM UNIT       ERCB CURVE CODE    CURVE DESCRIPTION
#-----------   ------------------   ----------------------------------
DEPT.M        00 001 00 00         : DEPTH        - DEPTH
GR  .API      00 310 00 00         : GR           - GAMMA RAY
DPHI.V/V      00 890 00 00         : PHID         - DENSITY POROSITY (SANDSTONE)
NPHI.V/V      00 330 00 00         : PHIN         - NEUTRON POROSITY (SANDSTONE)
ILD .OHMM     00 120 00 00         : RESD         - DEEP RESISTIVITY (DIL)
~PARAMETER INFORMATION
#MNEM.UNIT           DATA             DESCRIPTION OF MNEMONIC
#---------         -----------     ------------------------------
GL  .M        456.59               : gl           - GROUND LEVEL ELEVATION
EREF.M        458.419              : kb           - ELEVATION OF DEPTH REFERENCE
DATM.M        458.419              : datum        - DATUM ELEVATION
TDD .M        291.389              : tdd          - TOTAL DEPTH DRILLER
RUN .         ONE                  : Run          - RUN NUMBER
ENG .         BILL                 : Engineer     - RECORDING ENGINEER
WIT .         JIM                  : Witness      - WITNESSED BY
MUD .         GEL                  : Mud_type     - MUD TYPE
MATR.         SANDSTONE            : Logunit      - NEUTRON MATRIX
TMAX.C        18.8889              : BHT          - MAXIMUM RECORDED TEMPERATURE
BHTD.M        291.389              : BHTDEP       - MAXIMUM RECORDED TEMPERATURE
MATR.         1                    : LOGUNIT      - NEUTRON MATRIX
RMT .C        25                   : MDTP         - TEMPERATURE OF MUD
NEUT.         1                    : NEUTRON      - NEUTRON TYPE
RESI.         0                    : RESIST       - RESISTIVITY TYPE
RMC .OHMM     0.25                 : RMC          - RESISTIVITY OF MUD CAKE
RMF .OHMM     0.25                 : RMF          - RESISTIVITY OF MUD FILTRATE
SUFT.C        15                   : SUFT         - SURFACE TEMPERATURE
~A  DEPTH       GR     PHID     PHIN     RESD
   60.960   70.798    0.302    0.427   17.066
   61.210   70.191    0.303    0.446   17.365
   61.460   70.506    0.289    0.448   17.422
   61.710   71.213    0.289    0.438   17.376
   61.960   71.274    0.300    0.434   17.489
   62.210   70.808    0.304    0.453   17.774
   62.460   71.348    0.304    0.471   18.033
   62.710   72.123    0.314    0.458   18.792
   62.960   74.207    0.319    0.433   19.808
   63.210   74.868    0.328    0.416   20.376
   63.460   74.658    0.320    0.407   20.717
   63.710   75.601    0.280    0.408   21.383
   63.960   71.204    0.290    0.431   21.720
   64.210   62.001    0.305    0.448   22.070
   64.460   59.327    0.312    0.454   22.240
   64.710   64.848    0.316    0.465   22.171
   64.960   70.129    0.313    0.469   22.250
   65.210   68.363    0.307    0.452   22.619
   65.460   57.746    0.298    0.470   22.892
   65.710   53.123    0.303    0.471   23.909
   65.960   51.604    0.324    0.453   25.936
   66.210   48.717    0.342    0.443   28.399
   66.460   49.375    0.343    0.440   30.498
   66.710   53.267    0.334    0.436   31.157
   66.960   57.697    0.331    0.431   28.897
   67.210   59.528    0.323    0.433   26.503
   67.460   57.739    0.375    0.448   25.652
   67.710   52.135    0.470    0.468   25.983
   67.960   44.671    0.463    0.482   27.259
   68.210   42.505    0.390    0.504   28.989
   68.460   43.500    0.381    0.519   30.453
   68.710   43.611    0.398    0.553   31.785
   68.960   40.962    0.405    0.523   32.183
   69.210   36.989    0.441    0.426   32.434
   69.460   34.978    0.471    0.461   35.629
   69.710   34.726    0.378    0.456   37.727
   69.960   35.465    0.328    0.442   38.685
   70.210   39.778    0.344    0.438   38.599
   70.460   46.093    0.341    0.433   37.062
   70.710   48.663    0.329    0.453   34.868
   70.960   49.609    0.324    0.453   32.852
   71.210   51.719    0.324    0.428   30.908
   71.460   58.656    0.315    0.421   29.352
   71.710   68.719    0.301    0.439   28.123
   71.960   74.735    0.288    0.459   26.894
   72.210   72.614    0.275    0.484   26.089
   72.460   68.395    0.273    0.508   26.364
   72.710   69.083    0.256    0.485   26.887
   72.960   70.255    0.250    0.455   27.156
   73.210   68.918    0.276    0.449   26.974
   73.460   68.505    0.302    0.452   25.618
   73.710   67.668    0.309    0.481   22.727
   73.960   71.064    0.296    0.491   20.599
   74.210   75.974    0.290    0.490   18.708
   74.460   78.906    0.286    0.500   16.274
   74.710   79.193    0.279    0.516   14.075
   74.960   77.127    0.286    0.516   12.901
   75.210   75.388    0.272    0.506   12.127
   75.460   75.166    0.258    0.498   11.540
   75.710   76.676    0.260    0.488   11.108
   75.960   79.591    0.271    0.474   10.859
   76.210   81.763    0.284    0.462   10.915
   76.460   79.946    0.291    0.464   11.264
   76.710   76.824    0.290    0.469   11.488
   76.960   77.170    0.285    0.475   11.624
   77.210   79.495    0.290    0.493   11.867
   77.460   80.762    0.300    0.513   12.274
   77.710   81.227    0.286    0.514   12.654
   77.960   78.582    0.268    0.516   12.546
   78.210   75.261    0.268    0.505   12.070
   78.460   74.995    0.277    0.486   11.484
   78.710   77.951    0.282    0.480   11.082
   78.960   79.258    0.282    0.489   11.191
   79.210   75.557    0.282    0.492   11.893
   79.460   74.831    0.298    0.483   12.691
   79.710   69.721    0.314    0.471   13.400
   79.960   62.743    0.318    0.491   15.809
   80.210   58.691    0.312    0.508   20.224
   80.460   54.249    0.314    0.463   24.059
   80.710   54.623    0.337    0.456   26.240
   80.960   58.208    0.340    0.477   26.593
   81.210   60.073    0.330    0.480   26.455
   81.460   57.947    0.328    0.463   25.497
   81.710   54.582    0.330    0.453   23.110
   81.960   53.677    0.330    0.449   21.129
   82.210   53.305    0.326    0.440   19.688
   82.460   58.059    0.318    0.461   19.517
   82.710   60.820    0.304    0.472   20.042
   82.960   57.836    0.307    0.453   20.806
   83.210   57.204    0.333    0.451   22.551
   83.460   59.039    0.330    0.454   25.124
   83.710   61.481    0.333    0.451   27.076
   83.960   61.727    0.340    0.462   28.076
   84.210   59.126    0.342    0.469   27.934
   84.460   58.048    0.340    0.458   27.075
   84.710   62.259    0.337    0.466   27.097
   84.960   63.901    0.334    0.472   28.210
   85.210   63.500    0.333    0.476   29.936
   85.460   63.042    0.324    0.474   31.711
   85.710   62.411    0.329    0.468   32.852
   85.960   60.775    0.368    0.468   33.316
   86.210   57.867    0.382    0.469   33.923
   86.460   55.061    0.355    0.470   33.280
   86.710   56.084    0.326    0.475   31.928
   86.960   59.739    0.329    0.482   30.401
   87.210   62.340    0.345    0.482   29.305
   87.460   63.766    0.339    0.471   29.384
   87.710   64.586    0.332    0.452   28.928
   87.960   63.050    0.324    0.452   29.122
   88.210   59.768    0.320    0.460   29.519
   88.460   56.361    0.331    0.463   29.358
   88.710   53.532    0.346    0.464   28.869
   88.960   51.937    0.332    0.464   27.681
   89.210   51.804    0.320    0.476   25.460
   89.460   49.872    0.341    0.497   23.270
   89.710   59.940    0.356    0.506   21.067
   89.960   78.472    0.334    0.500   19.158
   90.210   79.599    0.313    0.496   18.391
   90.460   76.979    0.316    0.495   16.821
   90.710   71.445    0.318    0.499   15.938
   90.960   66.905    0.313    0.500   15.840
   91.210   65.224    0.313    0.500   15.917
   91.460   63.801    0.318    0.509   16.206
   91.710   65.358    0.312    0.518   16.496
   91.960   74.794    0.297    0.529   15.974
   92.210   76.119    0.305    0.523   14.955
   92.460   71.317    0.330    0.500   15.144
   92.710   69.609    0.345    0.485   17.388
   92.960   68.127    0.342    0.490   20.889
   93.210   67.105    0.319    0.501   24.874
   93.460   66.371    0.316    0.506   27.378
   93.710   66.648    0.322    0.501   28.975
   93.960   68.004    0.328    0.495   29.864
   94.210   68.670    0.341    0.496   29.718
   94.460   67.134    0.350    0.499   29.315
   94.710   65.742    0.344    0.502   28.053
   94.960   66.429    0.339    0.509   27.321
   95.210   66.733    0.337    0.502   27.005
   95.460   65.450    0.333    0.496   26.675
   95.710   64.520    0.327    0.508   26.724
   95.960   63.875    0.321    0.497   26.711
   96.210   65.122    0.329    0.506   27.023
   96.460   68.374    0.341    0.501   27.526
   96.710   71.349    0.343    0.493   27.834
   96.960   71.584    0.320    0.476   27.743
   97.210   69.507    0.258    0.395   27.330
   97.460   68.621    0.203    0.395   26.954
   97.710   69.708    0.257    0.459   26.334
   97.960   73.006    0.330    0.513   25.340
   98.210   76.733    0.326    0.524   23.387
   98.460   79.056    0.307    0.508   20.293
   98.710   83.097    0.314    0.503   17.114
   98.960   92.041    0.251    0.553   12.511
   99.210   99.856    0.223    0.579    8.955
   99.460  103.256    0.246    0.577    7.126
   99.710  101.631    0.252    0.575    5.836
   99.960   97.005    0.252    0.550    5.042
  100.210  101.645    0.256    0.531    4.311
  100.460  107.176    0.250    0.515    3.989
  100.710  108.805    0.255    0.549    3.886
  100.960  108.059    0.270    0.590    3.794
  101.210  106.497    0.268    0.568    3.810
  101.460  104.986    0.260    0.567    3.816
  101.710  104.641    0.269    0.584    3.760
  101.960  107.951    0.256    0.588    3.731
  102.210  109.183    0.253    0.582    3.584
  102.460  105.244    0.281    0.597    3.318
  102.710  101.907    0.295    0.627    3.185
  102.960   99.066    0.317    0.622    3.077
  103.210   95.089    0.309    0.604    3.103
  103.460   89.980    0.318    0.597    3.125
  103.710   81.980    0.330    0.563    3.272
  103.960   70.810    0.306    0.491    3.490
  104.210   61.835    0.315    0.466    4.234
