~VERSION INFORMATION
 VERS.                 2.0:   CWLS LOG ASCII STANDARD -VERSION 2.0
 WRAP.                  NO:   ONE LINE PER DEPTH STEP
~WELL INFORMATION BLOCK
#MNEM.UNIT           DATA                    DESCRIPTION OF MNEMONIC
#---------    -------------------            -------------------------------
# Generated from Intellog Unique Number	CW_82_90/WELL/3446
WELL.         NUMAC LIEGE 11-4               : Well_name    - WELL
LOC .         00/11-04-088-21W4/0            : Location     - LOCATION
UWI .         00/11-04-088-21W4/0            : Uwi          - UNIQUE WELL ID
ENTR.         MAX                            : Entered      - ENTERED BY
SRVC.         WESTERN ATLAS                  : Scn          - SERVICE COMPANY
STRT.M        110                            : top_depth    - START DEPTH
STOP.M        321                            : bot_depth    - STOP DEPTH
STEP.M        0.25                           : increment    - STEP LENGTH
 NULL. -999.2500:NULL Value
~CURVE INFORMATION BLOCK
#MNEM UNIT       ERCB CURVE CODE    CURVE DESCRIPTION
#-----------   ------------------   ----------------------------------
DEPT.M        00 001 00 00         : DEPTH        - DEPTH
ILD .OHMM     00 120 00 00         : RESD         - DEEP RESISTIVITY (DIL)
NPHI.V/V      00 330 00 00         : PHIN         - NEUTRON POROSITY (SANDSTONE)
DPHI.V/V      00 890 00 00         : PHID         - DENSITY POROSITY (SANDSTONE)
CALI.MM       00 280 01 00         : CAL          - CALIPER
GR  .API      00 310 00 00         : GR           - GAMMA RAY
~PARAMETER INFORMATION
#MNEM.UNIT           DATA             DESCRIPTION OF MNEMONIC
#---------         -----------     ------------------------------
GL  .M        532.2                : gl           - GROUND LEVEL ELEVATION
EREF.M        535.2                : kb           - ELEVATION OF DEPTH REFERENCE
DATM.M        532.2                : datum        - DATUM ELEVATION
TDD .M        322.5                : tdd          - TOTAL DEPTH DRILLER
RUN .         ONE                  : Run          - RUN NUMBER
ENG .         BILL                 : Engineer     - RECORDING ENGINEER
WIT .         JIM                  : Witness      - WITNESSED BY
MUD .         GEL                  : Mud_type     - MUD TYPE
MATR.         SANDSTONE            : Logunit      - NEUTRON MATRIX
TMAX.C        18.8                 : BHT          - MAXIMUM RECORDED TEMPERATURE
BHTD.M        322.5                : BHTDEP       - MAXIMUM RECORDED TEMPERATURE
MATR.         1                    : LOGUNIT      - NEUTRON MATRIX
RMT .C        16                   : MDTP         - TEMPERATURE OF MUD
NEUT.         1                    : NEUTRON      - NEUTRON TYPE
RESI.         0                    : RESIST       - RESISTIVITY TYPE
RMC .OHMM     5                    : RMC          - RESISTIVITY OF MUD CAKE
RMF .OHMM     3                    : RMF          - RESISTIVITY OF MUD FILTRATE
SUFT.C        -5                   : SUFT         - SURFACE TEMPERATURE
~A  DEPTH     RESD     PHIN     PHID      CAL       GR
# ...
  219.500   23.769    0.365    0.246  215.283   81.368
  219.750   25.092    0.335    0.215  214.752   81.947
  220.000   26.245    0.306    0.108  216.458   79.825
  220.250   25.964    0.348    0.219  215.461   78.907
  220.500   24.516    0.379    0.236  213.965   77.386
  220.750   23.149    0.359    0.244  213.469   81.855
  221.000   22.067    0.340    0.268  213.471   85.423
  221.250   21.030    0.328    0.282  212.974   84.204
  221.500   20.617    0.323    0.277  212.977   87.773
  221.750   20.207    0.347    0.263  213.980   89.842
  222.000   19.987    0.362    0.255  214.482   84.736
  222.250   19.776    0.376    0.253  214.485   88.603
  222.500   19.747    0.372    0.265  213.989   98.754
  222.750   19.717    0.356    0.267  214.491   97.535
  223.000   19.688    0.368    0.259  214.494   88.534
  223.250   19.659    0.351    0.250  213.497   84.621
  223.500   20.368    0.351    0.264  211.501   78.016
  223.750   20.153    0.342    0.266  213.003   79.789
  224.000   18.683    0.311    0.262  216.004   78.869
  224.250   14.927    0.337    0.253  219.505   80.044
  224.500   13.708    0.388    0.246  220.007   83.909
  224.750   13.434    0.402    0.238  218.011   87.779
  225.000   13.629    0.377    0.193  217.514   90.782
  225.250   13.004    0.369    0.138  218.017   78.156
  225.500   12.524    0.342    0.215  217.521   90.782
  225.750   11.621    0.373    0.287  215.025   91.984
  226.000    9.918    0.397    0.268  211.030   83.266
  226.250    7.431    0.408    0.233  208.535   78.757
  226.500    6.110    0.417    0.221  207.039   88.076
  226.750    5.166    0.431    0.261  207.541   94.088
  227.000    4.534    0.440    0.326  207.044   95.591
  227.250    4.129    0.360    0.309  207.047   97.996
  227.500    4.244    0.386    0.285  208.049   90.481
  227.750    4.832    0.399    0.261  213.549   93.487
  228.000    5.927    0.441    0.255  216.050   90.481
  228.250    6.811    0.450    0.271  221.550   92.285
  228.500    7.974    0.401    0.273  224.551   89.579
  228.750    9.511    0.404    0.245  224.053   86.874
  229.000   10.931    0.421    0.226  222.557   82.966
  229.250   12.679    0.402    0.227  221.061   78.457
  229.500   14.301    0.376    0.224  219.565   73.347
  229.750   14.974    0.382    0.191  219.568   66.734
  230.000   14.830    0.382    0.133  220.070   68.537
  230.250   14.019    0.341    0.107  220.073   79.960
  230.500   13.377    0.370    0.211  219.576   88.076
  230.750   12.763    0.397    0.246  218.080   90.481
  231.000   12.640    0.417    0.259  216.084   95.291
  231.250   12.753    0.373    0.256  214.088   95.291
  231.500   12.987    0.370    0.247  214.092   91.082
  231.750   13.225    0.375    0.246  214.094   98.597
  232.000   14.109    0.386    0.248  212.598   92.285
  232.250   15.191    0.393    0.266  212.101   82.064
  232.500   16.057    0.389    0.276  212.104   74.549
  232.750   17.129    0.392    0.276  212.107   69.439
  233.000   18.444    0.388    0.275  212.110   70.942
  233.250   19.494    0.390    0.281  212.113   75.150
  233.500   18.089    0.405    0.278  212.116   74.549
  233.750   18.767    0.413    0.264  212.119   68.537
  234.000   23.668    0.335    0.162  213.121   61.022
  234.250   29.574    0.289    0.032  212.624   56.814
  234.500   30.397    0.295    0.072  211.628   67.635
  234.750   29.004    0.317    0.182  212.130   70.942
  235.000   27.932    0.338    0.254  212.632   67.936
  235.250   25.678    0.340    0.234  212.636   70.641
  235.500   25.432    0.313    0.237  212.638   74.549
  235.750   24.722    0.317    0.260  212.641   71.543
  236.000   24.255    0.347    0.283  211.145   72.445
  236.250   24.018    0.380    0.291  209.149   72.445
  236.500   24.010    0.405    0.287  213.150   64.629
  236.750   25.377    0.355    0.310  214.652   52.906
  237.000   29.709    0.313    0.332  213.655   44.489
  237.250   34.784    0.280    0.231  211.659   52.004
  237.500   35.093    0.267    0.041  211.162   47.796
  237.750   32.565    0.281    0.078  211.665   58.918
  238.000   28.052    0.307    0.138  212.667   65.231
  238.250   25.311    0.308    0.162  214.169   65.231
  238.500   23.709    0.285    0.103  215.670   63.126
  238.750   21.394    0.311    0.071  216.673   69.138
  239.000   19.668    0.329    0.173  218.675   76.353
  239.250   18.942    0.335    0.225  218.678   74.249
  239.500   18.757    0.349    0.244  216.682   71.844
  239.750   19.826    0.334    0.225  216.185   69.740
  240.000   21.348    0.332    0.177  217.187   75.751
  240.250   20.370    0.371    0.196  219.688   75.751
  240.500   19.800    0.358    0.232  220.191   72.746
  240.750   21.521    0.335    0.235  220.194   75.451
  241.000   24.501    0.306    0.182  220.197   68.838
  241.250   25.418    0.285    0.063  219.700   63.427
  241.500   25.175    0.298    0.106  220.202   71.844
  241.750   23.144    0.349    0.214  220.206   78.457
  242.000   19.568    0.389    0.198  220.208   84.168
  242.250   18.327    0.380    0.157  219.712   83.266
  242.500   17.814    0.340    0.143  219.715   82.966
  242.750   17.643    0.310    0.194  219.717   85.371
  243.000   18.134    0.313    0.194  218.720   79.359
  243.250   18.467    0.347    0.150  218.224   72.445
  243.500   17.785    0.337    0.140  218.727   82.665
  243.750   17.450    0.316    0.205  218.229   84.469
  244.000   17.281    0.351    0.221  216.234   79.058
  244.250   16.955    0.389    0.225  218.735   73.948
  244.500   17.428    0.389    0.214  220.237   71.543
  244.750   18.766    0.393    0.162  218.741   70.040
  245.000   21.366    0.377    0.152  216.246   70.942
  245.250   25.013    0.329    0.145  215.748   67.635
  245.500   26.934    0.341    0.112  217.250   62.525
  245.750   27.943    0.352    0.044  218.253   56.513
  246.000   26.415    0.311    0.055  218.255   69.439
  246.250   22.544    0.296    0.214  218.758   77.555
  246.500   19.969    0.339    0.246  219.260   80.561
  246.750   18.530    0.374    0.249  218.264   86.272
  247.000   17.846    0.393    0.228  214.769   92.886
  247.250   17.509    0.393    0.202  216.771   85.371
  247.500   17.829    0.387    0.173  218.772   76.353
  247.750   17.821    0.361    0.096  219.275   82.665
  248.000   17.650    0.337    0.149  219.777   83.266
  248.250   17.641    0.317    0.218  219.281   80.561
  248.500   17.635    0.327    0.222  219.283   76.052
  248.750   17.464    0.359    0.182  219.287   73.647
  249.000   17.456    0.352    0.134  219.289   76.954
  249.250   17.449    0.353    0.126  219.292   84.168
  249.500   16.962    0.357    0.203  220.294   91.683
  249.750   15.306    0.342    0.214  220.797   87.475
  250.000   15.157    0.338    0.224  220.300   90.782
  250.250   14.734    0.330    0.225  220.303   94.389
  250.500   14.592    0.342    0.223  220.306   91.082
  250.750   14.318    0.333    0.216  220.309   93.186
  251.000   14.178    0.342    0.211  219.812   95.892
  251.250   14.172    0.355    0.206  219.315   91.984
  251.500   14.299    0.363    0.186  218.318   80.862
  251.750   15.254    0.340    0.109  215.823   74.850
  252.000   16.580    0.324    0.126  215.826   76.954
  252.250   17.687    0.315    0.188  215.329   81.463
  252.500   18.179    0.330    0.225  214.832   79.960
  252.750   18.342    0.336    0.221  215.835   85.070
  253.000   19.028    0.315    0.214  217.337   89.880
  253.250   19.925    0.301    0.215  218.338   80.862
  253.500   21.858    0.279    0.170  218.841   72.144
  253.750   25.117    0.269    0.034  219.343   72.445
  254.000   25.341    0.270    0.020  220.346   83.567
  254.250   23.516    0.286    0.146  220.848   91.383
  254.500   18.980    0.307    0.194  220.851   97.695
  254.750   16.657    0.328    0.205  220.354   92.585
  255.000   16.191    0.370    0.202  219.858   84.168
  255.250   16.488    0.358    0.210  219.361   80.862
  255.500   17.265    0.360    0.228  219.364   87.174
  255.750   18.419    0.351    0.188  218.867   88.677
