~VERSION INFORMATION
 VERS.                 2.0:   CWLS LOG ASCII STANDARD -VERSION 2.0
 WRAP.                  NO:   ONE LINE PER DEPTH STEP
~WELL INFORMATION BLOCK
#MNEM.UNIT           DATA                    DESCRIPTION OF MNEMONIC
#---------    -------------------            -------------------------------
# Generated from Intellog Unique Number	CS_77_79/WELL/947
WELL.         CDN-SUP THORNBURY              : Well_name    - WELL
LOC .         00/10-11-078-14W4/0            : Location     - LOCATION
UWI .         00/10-11-078-14W4/0            : Uwi          - UNIQUE WELL ID
ENTR.         JHS                            : Entered      - ENTERED BY
SRVC.         SCHLUMBERGER                   : Scn          - SERVICE COMPANY
STRT.M        275                            : top_depth    - START DEPTH
STOP.M        514                            : bot_depth    - STOP DEPTH
STEP.M        0.25                           : increment    - STEP LENGTH
 NULL. -999.2500:NULL Value
~CURVE INFORMATION BLOCK
#MNEM UNIT       ERCB CURVE CODE    CURVE DESCRIPTION
#-----------   ------------------   ----------------------------------
DEPT.M        00 001 00 00         : DEPTH        - DEPTH
DPHI.V/V      00 890 00 00         : PHID         - DENSITY POROSITY (LIMESTONE)
NPHI.V/V      00 330 00 00         : PHIN         - NEUTRON POROSITY (LIMESTONE)
GR  .API      00 310 00 00         : GR           - GAMMA RAY
ILD .OHMM     00 120 00 00         : RESD         - DEEP RESISTIVITY (DIL)
~PARAMETER INFORMATION
#MNEM.UNIT           DATA             DESCRIPTION OF MNEMONIC
#---------         -----------     ------------------------------
GL  .M        682.2                : gl           - GROUND LEVEL ELEVATION
EREF.M        686.7                : kb           - ELEVATION OF DEPTH REFERENCE
DATM.M        686.7                : datum        - DATUM ELEVATION
TDD .M        635                  : tdd          - TOTAL DEPTH DRILLER
RUN .         ONE                  : Run          - RUN NUMBER
ENG .         BILL                 : Engineer     - RECORDING ENGINEER
WIT .         JIM                  : Witness      - WITNESSED BY
MUD .         GEL                  : Mud_type     - MUD TYPE
MATR.         LIMESTONE            : Logunit      - NEUTRON MATRIX
TMAX.C        21                   : BHT          - MAXIMUM RECORDED TEMPERATURE
BHTD.M        635                  : BHTDEP       - MAXIMUM RECORDED TEMPERATURE
MATR.         1                    : LOGUNIT      - NEUTRON MATRIX
RMT .C        25                   : MDTP         - TEMPERATURE OF MUD
NEUT.         1                    : NEUTRON      - NEUTRON TYPE
RESI.         0                    : RESIST       - RESISTIVITY TYPE
RMC .OHMM     0.25                 : RMC          - RESISTIVITY OF MUD CAKE
RMF .OHMM     0.25                 : RMF          - RESISTIVITY OF MUD FILTRATE
SUFT.C        15                   : SUFT         - SURFACE TEMPERATURE
~A  DEPTH     PHID     PHIN       GR     RESD
# ...
  318.500    0.217    0.421  110.869   11.986
  318.750    0.209    0.411  105.338   11.761
  319.000    0.201    0.399   99.806   11.760
  319.250    0.231    0.409   94.275   11.758
  319.500    0.222    0.413   91.202   11.757
  319.750    0.229    0.418   91.204   11.537
  320.000    0.206    0.423   91.205   10.902
  320.250    0.211    0.411   89.977   10.698
  320.500    0.233    0.405   87.519   10.497
  320.750    0.249    0.416   83.217   10.898
  321.000    0.260    0.421   81.374   11.104
  321.250    0.248    0.407   80.760   11.314
  321.500    0.243    0.399   80.761   11.527
  321.750    0.233    0.399   78.304   11.745
  322.000    0.223    0.414   75.846   11.967
  322.250    0.231    0.419   79.536   12.193
  322.500    0.210    0.430   80.151   12.423
  322.750    0.201    0.438   81.997   12.898
  323.000    0.232    0.432   84.457   12.897
  323.250    0.207    0.424   88.147   12.655
  323.500    0.191    0.416   94.296   11.736
  323.750    0.196    0.426  105.362    9.540
  324.000    0.194    0.453  112.126    7.903
  324.250    0.215    0.437  112.742    7.192
  324.500    0.229    0.432  107.825    7.057
  324.750    0.215    0.427   96.761    7.608
  325.000    0.234    0.424   94.303    8.049
  325.250    0.226    0.440   95.534    9.181
  325.500    0.221    0.456   97.994    9.898
  325.750    0.225    0.464  102.298    9.712
  326.000    0.223    0.467  105.988    9.353
  326.250    0.213    0.456  107.834    8.838
  326.500    0.215    0.448  104.147    8.352
  326.750    0.222    0.451   99.230    8.195
  327.000    0.242    0.445   94.313    8.350
  327.250    0.290    0.436   88.166    8.834
  327.500    0.323    0.443   79.561    9.889
  327.750    0.322    0.457   75.259   11.495
  328.000    0.312    0.462   77.719   12.628
  328.250    0.288    0.472   82.639   13.111
  328.500    0.271    0.458   85.714   12.865
  328.750    0.293    0.467   87.559   12.389
  329.000    0.283    0.481   87.561   11.274
  329.250    0.271    0.472   88.791   10.261
  329.500    0.280    0.470   90.636    9.696
  329.750    0.274    0.473   88.793    9.337
  330.000    0.243    0.473   85.106    9.513
  330.250    0.232    0.454   82.034   10.451
  330.500    0.250    0.438   78.346   11.921
  330.750    0.228    0.441   70.971   14.389
  331.000    0.302    0.468   63.595   17.367
  331.250    0.322    0.454   63.596   20.570
  331.500    0.319    0.438   62.983   23.027
  331.750    0.322    0.435   61.754   24.824
  332.000    0.323    0.430   64.829   25.773
  332.250    0.314    0.458   69.748   25.770
  332.500    0.298    0.456   75.282   25.768
  332.750    0.290    0.448   77.128   26.255
  333.000    0.299    0.421   70.367   27.259
  333.250    0.293    0.387   61.147   28.838
  333.500    0.245    0.345   55.000   31.091
  333.750    0.220    0.326   48.854   34.804
  334.000    0.212    0.323   43.937   40.453
  334.250    0.224    0.315   37.791   45.285
  334.500    0.240    0.313   34.104   49.750
  334.750    0.212    0.299   32.261   53.634
  335.000    0.207    0.285   33.492   57.821
  335.250    0.174    0.280   34.722   62.334
  335.500    0.183    0.283   33.494   64.719
  335.750    0.154    0.276   32.266   68.470
  336.000    0.169    0.267   34.726   69.763
  336.250    0.194    0.264   36.571   67.178
  336.500    0.213    0.277   37.187   67.173
  336.750    0.196    0.287   39.648   69.740
  337.000    0.199    0.296   40.263   76.613
  337.250    0.192    0.310   43.338   79.545
  337.500    0.212    0.324   47.643   84.155
  337.750    0.212    0.341   48.259   82.577
  338.000    0.250    0.360   51.949   76.579
  338.250    0.294    0.397   55.639   64.639
  338.500    0.301    0.414   58.099   58.828
  338.750    0.292    0.424   61.789   50.598
  339.000    0.292    0.427   63.019   45.189
  339.250    0.291    0.427   64.865   41.127
  339.500    0.291    0.412   64.866   39.602
  339.750    0.281    0.408   64.867   39.598
  340.000    0.303    0.406   66.098   38.130
  340.250    0.292    0.390   66.099   35.361
  340.500    0.296    0.385   64.871   31.581
  340.750    0.294    0.382   62.413   28.742
  341.000    0.301    0.372   59.955   25.669
  341.250    0.298    0.384   58.727   23.805
  341.500    0.301    0.366   56.269   22.495
  341.750    0.314    0.360   52.582   22.073
  342.000    0.315    0.356   49.509   22.071
  342.250    0.285    0.342   46.437   22.488
  342.500    0.256    0.333   43.979   22.913
  342.750    0.287    0.366   45.210   22.482
  343.000    0.275    0.385   48.285   22.481
  343.250    0.308    0.405   53.819   20.458
  343.500    0.323    0.431   56.894   19.701
  343.750    0.334    0.425   59.969   18.270
  344.000    0.320    0.399   55.052   17.593
  344.250    0.302    0.415   50.135   16.625
  344.500    0.309    0.409   50.751   16.314
  344.750    0.314    0.398   51.982   15.709
  345.000    0.345    0.405   51.983   15.707
  345.250    0.350    0.422   51.370   15.705
  345.500    0.337    0.431   51.986   15.704
  345.750    0.324    0.444   51.372   16.000
  346.000    0.329    0.452   51.988   15.999
  346.250    0.317    0.458   51.989   16.300
  346.500    0.317    0.471   49.531   16.299
  346.750    0.332    0.469   47.074   16.297
  347.000    0.319    0.486   47.075   15.991
  347.250    0.309    0.470   46.461   15.989
  347.500    0.307    0.458   45.848   15.690
  347.750    0.320    0.468   48.308   15.688
  348.000    0.331    0.481   47.080   15.686
  348.250    0.325    0.482   46.466   15.684
  348.500    0.326    0.486   47.082   15.682
  348.750    0.336    0.469   49.542   15.680
  349.000    0.315    0.459   51.388   15.679
  349.250    0.305    0.476   52.619   15.677
  349.500    0.314    0.475   52.005   15.974
  349.750    0.323    0.475   52.621   15.971
  350.000    0.337    0.495   51.393   15.970
  350.250    0.362    0.501   49.550   15.968
  350.500    0.388    0.490   50.166   15.966
  350.750    0.374    0.478   51.397   15.964
  351.000    0.405    0.480   53.857   15.664
  351.250    0.430    0.486   53.858   15.961
  351.500    0.430    0.487   52.015   15.661
  351.750    0.396    0.470   52.016   15.659
  352.000    0.362    0.457   53.862   15.658
  352.250    0.362    0.447   54.477   15.655
  352.500    0.357    0.444   53.249   15.655
  352.750    0.355    0.465   48.947   15.950
  353.000    0.356    0.476   45.261   15.948
  353.250    0.313    0.449   45.261   15.946
  353.500    0.297    0.431   45.263   15.944
  353.750    0.320    0.417   45.879   15.942
  354.000    0.324    0.425   45.880   15.941
  354.250    0.310    0.448   45.881   15.939
  354.500    0.308    0.460   46.497   15.937
  354.750    0.302    0.444   45.883   15.935
  355.000    0.281    0.434   45.270   15.933
  355.250    0.266    0.431   47.730   15.634
  355.500    0.293    0.422   48.961   15.633
  355.750    0.305    0.415   49.577   15.632
  356.000    0.314    0.414   48.963   15.630
  356.250    0.331    0.418   47.120   15.627
  356.500    0.319    0.422   45.277   15.626
  356.750    0.315    0.414   44.664   15.333
  357.000    0.327    0.409   44.050   15.331
  357.250    0.318    0.410   45.281   15.620
  357.500    0.324    0.422   47.741   15.328
  357.750    0.319    0.432   45.898   15.326
  358.000    0.310    0.437   43.441   15.614
  358.250    0.316    0.441   44.056   15.614
  358.500    0.311    0.445   45.902   15.612
  358.750    0.313    0.464   47.132   15.611
  359.000    0.300    0.477   48.363   15.608
  359.250    0.286    0.459   50.824   15.607
  359.500    0.284    0.437   50.210   15.901
  359.750    0.279    0.426   48.982   15.900
  360.000    0.286    0.428   48.983   15.897
  360.250    0.275    0.442   47.140   15.896
  360.500    0.270    0.449   43.452   15.598
  360.750    0.283    0.468   40.995   15.596
  361.000    0.291    0.492   43.455   15.594
  361.250    0.321    0.481   46.530   15.593
  361.500    0.311    0.469   46.532   15.591
  361.750    0.323    0.455   46.532   15.589
