~VERSION INFORMATION
 VERS.                 2.0:   CWLS LOG ASCII STANDARD -VERSION 2.0
 WRAP.                  NO:   ONE LINE PER DEPTH STEP
~WELL INFORMATION BLOCK
#MNEM.UNIT           DATA                    DESCRIPTION OF MNEMONIC
#---------    -------------------            -------------------------------
# Generated from Intellog Unique Number	CS_73_76/WELL/804
WELL.         PACIFIC PHILLIPS AEC WIAU      : Well_name    - WELL
LOC .         00/10-01-073-09W4/0            : Location     - LOCATION
UWI .         00/10-01-073-09W4/0            : Uwi          - UNIQUE WELL ID
ENTR.         SP                             : Entered      - ENTERED BY
SRVC.         SCHLUMBERGER                   : Scn          - SERVICE COMPANY
STRT.M        320                            : top_depth    - START DEPTH
STOP.M        530                            : bot_depth    - STOP DEPTH
STEP.M        0.25                           : increment    - STEP LENGTH
 NULL. -999.2500:NULL Value
~CURVE INFORMATION BLOCK
#MNEM UNIT       ERCB CURVE CODE    CURVE DESCRIPTION
#-----------   ------------------   ----------------------------------
DEPT.M        00 001 00 00         : DEPTH        - DEPTH
ILD .OHMM     00 120 00 00         : RESD         - DEEP RESISTIVITY (DIL)
DPHI.V/V      00 890 00 00         : PHID         - DENSITY POROSITY (LIMESTONE)
NPHI.V/V      00 330 00 00         : PHIN         - NEUTRON POROSITY (LIMESTONE)
GR  .API      00 310 00 00         : GR           - GAMMA RAY
~PARAMETER INFORMATION
#MNEM.UNIT           DATA             DESCRIPTION OF MNEMONIC
#---------         -----------     ------------------------------
GL  .M        682.9                : gl           - GROUND LEVEL ELEVATION
EREF.M        685.9                : kb           - ELEVATION OF DEPTH REFERENCE
DATM.M        682.9                : datum        - DATUM ELEVATION
TDD .M        544                  : tdd          - TOTAL DEPTH DRILLER
RUN .         ONE                  : Run          - RUN NUMBER
ENG .         BILL                 : Engineer     - RECORDING ENGINEER
WIT .         JIM                  : Witness      - WITNESSED BY
MUD .         GEL                  : Mud_type     - MUD TYPE
MATR.         LIMESTONE            : Logunit      - NEUTRON MATRIX
TMAX.C        16                   : BHT          - MAXIMUM RECORDED TEMPERATURE
BHTD.M        544                  : BHTDEP       - MAXIMUM RECORDED TEMPERATURE
MATR.         1                    : LOGUNIT      - NEUTRON MATRIX
RMT .C        25                   : MDTP         - TEMPERATURE OF MUD
NEUT.         1                    : NEUTRON      - NEUTRON TYPE
RESI.         0                    : RESIST       - RESISTIVITY TYPE
RMC .OHMM     0.25                 : RMC          - RESISTIVITY OF MUD CAKE
RMF .OHMM     0.25                 : RMF          - RESISTIVITY OF MUD FILTRATE
SUFT.C        15                   : SUFT         - SURFACE TEMPERATURE
~A  DEPTH     RESD     PHID     PHIN       GR
# ...
  407.000    6.234    0.247    0.472   91.832
  407.250    6.714    0.239    0.464   91.229
  407.500    7.233    0.240    0.461   90.625
  407.750    7.235    0.240    0.468   89.417
  408.000    5.804    0.251    0.468   90.023
  408.250    4.656    0.256    0.463   88.815
  408.500    3.599    0.250    0.463   88.816
  408.750    3.224    0.244    0.469   94.262
  409.000    3.052    0.238    0.489   97.287
  409.250    2.999    0.241    0.524  101.522
  409.500    3.001    0.245    0.553  102.733
  409.750    3.002    0.234    0.575  102.130
  410.000    3.003    0.224    0.540  103.946
  410.250    2.896    0.215    0.552  105.762
  410.500    2.845    0.224    0.560  108.183
  410.750    2.744    0.235    0.580  108.184
  411.000    2.796    0.245    0.592  105.767
  411.250    3.183    0.251    0.578  101.534
  411.500    4.048    0.257    0.584   93.067
  411.750    5.537    0.262    0.592   87.020
  412.000    6.541    0.247    0.570   84.602
  412.250    6.664    0.258    0.517   83.394
  412.500    6.668    0.266    0.486   84.000
  412.750    6.550    0.264    0.475   85.212
  413.000    6.203    0.263    0.464   85.213
  413.250    5.982    0.261    0.468   84.610
  413.500    5.875    0.273    0.478   84.611
  413.750    5.770    0.281    0.484   80.983
  414.000    5.773    0.290    0.474   81.590
  414.250    6.105    0.285    0.473   82.801
  414.500    6.222    0.280    0.487   84.012
  414.750    6.341    0.278    0.491   84.014
  415.000    6.584    0.280    0.497   84.015
  415.250    6.709    0.291    0.497   84.016
  415.500    6.964    0.281    0.490   83.413
  415.750    7.229    0.241    0.479   82.809
  416.000    8.079    0.209    0.463   79.787
  416.250    8.700    0.179    0.413   75.554
  416.500    8.707    0.080    0.287   69.507
  416.750    8.395    0.084    0.257   77.977
  417.000    7.521    0.175    0.299   81.607
  417.250    6.991    0.238    0.337   86.447
  417.500    6.619    0.259    0.394   90.683
  417.750    6.384    0.275    0.439   92.498
  418.000    6.269    0.249    0.452   90.081
  418.250    6.391    0.234    0.469   93.711
  418.500    6.393    0.247    0.483   93.108
  418.750    6.515    0.236    0.476   91.899
  419.000    6.401    0.246    0.486   93.715
  419.250    6.286    0.235    0.473   93.112
  419.500    6.178    0.235    0.478   90.694
  419.750    6.067    0.235    0.485   91.905
  420.000    6.069    0.221    0.495   94.326
  420.250    6.072    0.211    0.497   97.352
  420.500    6.075    0.215    0.490   99.167
  420.750    6.080    0.227    0.480   96.144
  421.000    5.972    0.215    0.475   92.517
  421.250    5.759    0.216    0.470   90.099
  421.500    5.656    0.223    0.470   89.496
  421.750    5.454    0.229    0.482   90.102
  422.000    5.261    0.222    0.492   90.708
  422.250    5.263    0.213    0.493   91.919
  422.500    5.566    0.213    0.487   93.735
  422.750    5.672    0.219    0.484   94.946
  423.000    5.889    0.215    0.497   96.763
  423.250    6.001    0.219    0.507   97.369
  423.500    5.682    0.217    0.505   97.370
  423.750    4.642    0.210    0.515   95.557
  424.000    3.723    0.211    0.520   95.559
  424.250    3.042    0.217    0.525   97.980
  424.500    2.676    0.241    0.526  101.005
  424.750    2.533    0.242    0.544  104.030
  425.000    2.398    0.246    0.556  102.218
  425.250    2.444    0.251    0.568   99.195
  425.500    2.633    0.245    0.576  101.011
  425.750    2.732    0.241    0.564  102.222
  426.000    3.169    0.235    0.552  101.013
  426.250    3.289    0.232    0.527   98.596
  426.500    3.675    0.233    0.513   98.597
  426.750    4.107    0.225    0.503   96.784
  427.000    4.343    0.241    0.498   93.761
  427.250    4.678    0.256    0.485   91.948
  427.500    4.946    0.241    0.469   90.740
  427.750    4.770    0.233    0.462   90.136
  428.000    4.685    0.253    0.469   88.929
  428.250    4.865    0.259    0.478   86.510
  428.500    5.050    0.269    0.492   82.883
  428.750    5.242    0.281    0.497   81.069
  429.000    5.341    0.293    0.495   81.071
  429.250    5.546    0.275    0.491   83.492
  429.500    5.549    0.256    0.494   83.493
  429.750    5.253    0.247    0.479   82.890
  430.000    4.974    0.252    0.491   82.891
  430.250    4.797    0.271    0.499   81.683
  430.500    4.979    0.288    0.485   80.475
  430.750    5.074    0.299    0.482   78.662
  431.000    5.077    0.293    0.480   77.453
  431.250    5.369    0.290    0.471   76.245
  431.500    5.573    0.286    0.471   78.666
  431.750    5.786    0.286    0.493   82.901
  432.000    5.896    0.280    0.487   85.322
  432.250    5.899    0.264    0.486   85.929
  432.500    5.902    0.244    0.475   85.325
  432.750    5.798    0.244    0.471   84.117
  433.000    5.591    0.256    0.467   84.118
  433.250    5.493    0.265    0.458   82.910
  433.500    5.495    0.279    0.476   80.492
  433.750    5.498    0.291    0.484   78.074
  434.000    5.501    0.291    0.469   76.866
  434.250    5.606    0.298    0.465   75.052
  434.500    5.928    0.294    0.465   73.240
  434.750    6.504    0.285    0.470   72.031
  435.000    7.135    0.259    0.463   69.009
  435.250    7.544    0.218    0.448   65.986
  435.500    8.126    0.047    0.351   66.592
  435.750    8.130    0.031    0.222   76.271
  436.000    7.698    0.070    0.260   82.321
  436.250    6.648    0.137    0.331   86.556
  436.500    6.065    0.188    0.404   88.977
  436.750    5.637    0.231    0.442   90.188
  437.000    5.239    0.239    0.452   92.004
  437.250    5.052    0.214    0.423   92.005
  437.500    4.873    0.217    0.430   89.588
  437.750    4.875    0.234    0.464   85.960
  438.000    4.877    0.248    0.483   81.727
  438.250    4.972    0.264    0.483   79.310
  438.500    4.974    0.280    0.480   81.731
  438.750    5.165    0.263    0.482   82.337
  439.000    5.263    0.256    0.468   84.757
  439.250    5.265    0.243    0.459   84.154
  439.500    5.268    0.230    0.473   81.132
  439.750    5.469    0.237    0.482   78.713
  440.000    5.573    0.260    0.468   76.900
  440.250    5.682    0.280    0.460   76.297
  440.500    5.683    0.287    0.464   76.298
  440.750    5.688    0.285    0.470   78.115
  441.000    5.690    0.281    0.487   78.720
  441.250    5.693    0.274    0.474   79.932
  441.500    5.696    0.279    0.468   80.538
  441.750    5.805    0.266    0.471   79.330
  442.000    5.918    0.269    0.474   78.727
  442.250    5.920    0.275    0.464   78.123
  442.500    5.923    0.268    0.454   77.520
  442.750    6.036    0.266    0.451   78.126
  443.000    6.153    0.270    0.458   81.151
  443.250    6.155    0.259    0.459   81.758
  443.500    6.158    0.251    0.454   82.364
  443.750    6.277    0.241    0.452   83.575
  444.000    6.279    0.239    0.457   84.181
  444.250    6.169    0.248    0.459   85.393
  444.500    6.171    0.248    0.443   87.209
  444.750    5.632    0.242    0.437   87.815
  445.000    4.687    0.240    0.435   89.026
  445.250    3.829    0.237    0.442   90.237
  445.500    3.247    0.245    0.456   90.844
  445.750    3.130    0.245    0.479   90.845
  446.000    2.963    0.251    0.515   90.846
  446.250    3.312    0.280    0.557   89.638
  446.500    3.770    0.283    0.550   93.268
  446.750    4.136    0.270    0.546   90.246
  447.000    4.373    0.260    0.529   89.037
  447.250    4.625    0.259    0.504   87.829
  447.500    4.712    0.263    0.488   85.411
  447.750    4.893    0.266    0.471   83.598
  448.000    4.895    0.268    0.460   82.995
  448.250    4.988    0.269    0.455   79.368
  448.500    4.902    0.269    0.460   78.159
  448.750    4.903    0.260    0.468   81.185
  449.000    4.997    0.257    0.460   82.396
  449.250    5.092    0.245    0.468   83.002
  449.500    5.286    0.234    0.481   84.818
  449.750    5.591    0.236    0.482   87.238
  450.000    5.805    0.230    0.476   88.450
  450.250    6.027    0.229    0.485   88.451
