~VERSION INFORMATION
 VERS.                 2.0:   CWLS LOG ASCII STANDARD -VERSION 2.0
 WRAP.                  NO:   ONE LINE PER DEPTH STEP
~WELL INFORMATION BLOCK
#MNEM.UNIT           DATA                    DESCRIPTION OF MNEMONIC
#---------    -------------------            -------------------------------
# Generated from Intellog Unique Number	CS_77_79/WELL/951
WELL.         B0W VALLEY EXPLORATION         : Well_name    - WELL
LOC .         00/10-13-077-15W4/0            : Location     - LOCATION
UWI .         00/10-13-077-15W4/0            : Uwi          - UNIQUE WELL ID
ENTR.         SP                             : Entered      - ENTERED BY
SRVC.         SCHLUMBERGER                   : Scn          - SERVICE COMPANY
STRT.M        280                            : top_depth    - START DEPTH
STOP.M        530                            : bot_depth    - STOP DEPTH
STEP.M        0.25                           : increment    - STEP LENGTH
 NULL. -999.2500:NULL Value
~CURVE INFORMATION BLOCK
#MNEM UNIT       ERCB CURVE CODE    CURVE DESCRIPTION
#-----------   ------------------   ----------------------------------
DEPT.M        00 001 00 00         : DEPTH        - DEPTH
GR  .API      00 310 00 00         : GR           - GAMMA RAY
DPHI.V/V      00 890 00 00         : PHID         - DENSITY POROSITY (LIMESTONE)
NPHI.V/V      00 330 00 00         : PHIN         - NEUTRON POROSITY (LIMESTONE)
ILD .OHMM     00 120 00 00         : RESD         - DEEP RESISTIVITY (DIL)
~PARAMETER INFORMATION
#MNEM.UNIT           DATA             DESCRIPTION OF MNEMONIC
#---------         -----------     ------------------------------
GL  .M        675.4                : gl           - GROUND LEVEL ELEVATION
EREF.M        678.9                : kb           - ELEVATION OF DEPTH REFERENCE
DATM.M        675.4                : datum        - DATUM ELEVATION
TDD .M        537                  : tdd          - TOTAL DEPTH DRILLER
RUN .         ONE                  : Run          - RUN NUMBER
ENG .         BILL                 : Engineer     - RECORDING ENGINEER
WIT .         JIM                  : Witness      - WITNESSED BY
MUD .         GEL                  : Mud_type     - MUD TYPE
MATR.         LIMESTONE            : Logunit      - NEUTRON MATRIX
TMAX.C        21                   : BHT          - MAXIMUM RECORDED TEMPERATURE
BHTD.M        537                  : BHTDEP       - MAXIMUM RECORDED TEMPERATURE
MATR.         1                    : LOGUNIT      - NEUTRON MATRIX
RMT .C        25                   : MDTP         - TEMPERATURE OF MUD
NEUT.         1                    : NEUTRON      - NEUTRON TYPE
RESI.         0                    : RESIST       - RESISTIVITY TYPE
RMC .OHMM     0.25                 : RMC          - RESISTIVITY OF MUD CAKE
RMF .OHMM     0.25                 : RMF          - RESISTIVITY OF MUD FILTRATE
SUFT.C        15                   : SUFT         - SURFACE TEMPERATURE
~A  DEPTH       GR     PHID     PHIN     RESD
  280.000   93.981    0.253    0.492    2.941
  280.250   92.783    0.264    0.484    2.944
  280.500   92.184    0.255    0.477    2.836
  280.750   89.781    0.278    0.497    2.682
  281.000   88.581    0.264    0.519    2.584
  281.250   89.191    0.279    0.539    2.583
  281.500   89.195    0.276    0.554    2.632
  281.750   89.202    0.255    0.522    2.835
  282.000   89.811    0.265    0.524    2.998
  282.250   90.418    0.270    0.542    3.111
  282.500   91.626    0.254    0.550    3.169
  282.750   93.438    0.241    0.559    3.169
  283.000   93.446    0.238    0.565    3.228
  283.250   94.054    0.243    0.556    3.289
  283.500   95.263    0.225    0.515    3.350
  283.750   94.666    0.216    0.484    3.413
  284.000   95.876    0.215    0.492    3.542
  284.250   98.894    0.210    0.499    3.608
  284.500   95.887    0.213    0.509    3.745
  284.750   92.278    0.222    0.475    3.887
  285.000   91.682    0.221    0.450    4.034
  285.250   94.099    0.207    0.467    3.886
  285.500   94.705    0.220    0.480    3.886
  285.750   95.312    0.227    0.465    3.814
  286.000   95.317    0.225    0.479    3.674
  286.250   94.722    0.236    0.498    3.474
  286.500   92.919    0.220    0.507    3.347
  286.750   91.117    0.237    0.522    3.224
  287.000   90.519    0.248    0.531    3.346
  287.250   92.935    0.251    0.473    3.605
  287.500   92.337    0.234    0.488    3.672
  287.750   92.344    0.233    0.507    3.741
  288.000   93.553    0.226    0.500    3.672
  288.250   98.379    0.238    0.490    3.604
  288.500   98.384    0.220    0.482    3.537
  288.750   97.790    0.209    0.463    3.344
  289.000   97.190    0.232    0.454    3.222
  289.250   94.183    0.248    0.485    3.104
  289.500   94.792    0.231    0.506    3.046
  289.750   95.399    0.223    0.516    3.046
  290.000   94.202    0.209    0.503    3.046
  290.250   93.603    0.204    0.492    3.161
  290.500   92.404    0.210    0.474    3.281
  290.750   90.603    0.218    0.464    3.405
  291.000   90.005    0.229    0.464    3.534
  291.250   88.202    0.240    0.452    3.736
  291.500   88.811    0.235    0.471    3.806
  291.750   85.201    0.226    0.485    4.100
  292.000   81.591    0.187    0.488    4.500
  292.250   76.175    0.159    0.420    5.626
  292.500   69.555    0.136    0.397    6.904
  292.750   65.342    0.139    0.374    8.163
  293.000   60.528    0.252    0.393   10.398
  293.250   69.572    0.274    0.411   12.525
  293.500   70.178    0.275    0.417   14.535
  293.750   67.173    0.287    0.425   17.508
  294.000   62.962    0.301    0.370   19.944
  294.250   59.351    0.286    0.351   22.299
  294.500   56.948    0.267    0.336   24.021
  294.750   56.953    0.241    0.304   22.714
  295.000   58.162    0.281    0.330   18.854
  295.250   62.988    0.304    0.351   14.800
  295.500   70.826    0.304    0.374   11.835
  295.750   75.650    0.239    0.396   10.583
  296.000   78.668    0.241    0.407   10.387
  296.250   76.264    0.263    0.420   10.007
  296.500   75.666    0.277    0.408   10.194
  296.750   72.662    0.258    0.411   10.580
  297.000   70.858    0.246    0.415   11.186
  297.250   68.457    0.265    0.423   11.396
  297.500   66.652    0.291    0.403   11.609
  297.750   64.247    0.298    0.388   11.394
  298.000   65.457    0.290    0.391   10.976
  298.250   67.872    0.298    0.396   10.574
  298.500   68.480    0.283    0.409    9.999
  298.750   66.680    0.270    0.410    9.633
  299.000   66.082    0.256    0.418    9.454
  299.250   67.291    0.269    0.429    9.108
  299.500   67.901    0.283    0.441    8.612
  299.750   66.702    0.295    0.438    8.453
  300.000   66.105    0.286    0.429    8.143
  300.250   66.711    0.266    0.438    7.845
  300.500   67.922    0.260    0.447    8.142
  300.750   68.530    0.272    0.435    8.609
  301.000   67.332    0.287    0.421    8.935
  301.250   67.338    0.293    0.414    9.102
  301.500   67.945    0.321    0.403    9.101
  301.750   68.551    0.312    0.409    8.932
  302.000   69.159    0.293    0.430    8.446
  302.250   66.154    0.298    0.441    8.137
  302.500   66.158    0.288    0.430    7.986
  302.750   68.574    0.280    0.428    7.694
  303.000   70.388    0.287    0.444    7.551
  303.250   71.596    0.286    0.461    7.692
  303.500   72.807    0.293    0.471    7.692
  303.750   73.414    0.284    0.473    7.835
  304.000   72.817    0.289    0.479    7.982
  304.250   72.222    0.281    0.484    8.132
  304.500   72.229    0.257    0.468    8.439
  304.750   72.233    0.253    0.456    8.759
  305.000   70.431    0.255    0.455    9.090
  305.250   67.424    0.286    0.457    9.260
  305.500   62.007    0.309    0.434    9.611
  305.750   58.398    0.323    0.419    9.974
  306.000   57.198    0.330    0.407   10.161
  306.250   54.192    0.336    0.393   10.351
  306.500   52.992    0.347    0.386   10.544
  306.750   50.590    0.318    0.388   10.742
  307.000   50.594    0.313    0.402   10.741
  307.250   49.997    0.319    0.409   10.740
  307.500   51.210    0.325    0.425   10.541
  307.750   52.418    0.313    0.431   10.155
  308.000   54.833    0.330    0.416    9.252
  308.250   62.067    0.324    0.400    8.273
  308.500   71.108    0.279    0.403    7.823
  308.750   78.345    0.177    0.408    7.678
  309.000   83.169    0.125    0.417    7.677
  309.250   86.790    0.098    0.409    7.260
  309.500   91.615    0.118    0.392    6.254
  309.750   95.836    0.150    0.398    5.914
  310.000  100.661    0.185    0.427    5.698
  310.250  103.680    0.163    0.428    5.288
  310.500  106.096    0.152    0.460    5.190
  310.750  107.304    0.166    0.470    5.000
  311.000  108.515    0.192    0.484    4.817
  311.250  110.327    0.203    0.497    4.640
  311.500  112.141    0.213    0.490    4.554
  311.750  111.545    0.196    0.484    4.727
  312.000  109.743    0.182    0.459    4.906
  312.250  108.541    0.185    0.472    4.905
  312.500  106.139    0.164    0.470    4.814
  312.750  104.942    0.142    0.458    4.553
  313.000  105.547    0.165    0.470    4.147
  313.250  109.770    0.192    0.486    3.996
  313.500  110.978    0.198    0.493    3.849
  313.750  111.588    0.224    0.502    4.070
  314.000  110.990    0.222    0.520    4.902
  314.250  107.985    0.234    0.539    6.244
  314.500  106.181    0.240    0.445    7.113
  314.750  102.573    0.251    0.429    8.568
  315.000   99.566    0.239    0.422    9.580
  315.250   98.968    0.249    0.415    9.579
  315.500  101.384    0.238    0.423    9.578
  315.750  100.787    0.227    0.436    9.401
  316.000   97.780    0.236    0.451    9.227
  316.250   94.172    0.260    0.439    8.725
  316.500   91.766    0.277    0.433    7.948
  316.750   89.362    0.269    0.429    7.377
  317.000   92.982    0.251    0.446    7.107
  317.250   99.616    0.221    0.469    7.106
  317.500  106.246    0.153    0.481    7.946
  317.750  105.049    0.182    0.474    8.560
  318.000  100.838    0.217    0.457    9.394
  318.250   97.830    0.204    0.439    9.932
  318.500   95.424    0.227    0.427   10.309
  318.750   98.442    0.252    0.424   10.307
  319.000   96.642    0.270    0.431   10.117
  319.250   94.839    0.260    0.440    9.746
  319.500   93.040    0.269    0.447    9.216
  319.750   93.043    0.279    0.436    9.045
  320.000   97.265    0.264    0.426    8.878
  320.250  103.295    0.280    0.420    8.713
  320.500  106.916    0.287    0.419    8.876
  320.750  108.730    0.274    0.419    8.875
  321.000  108.132    0.245    0.423    9.041
  321.250  105.124    0.258    0.429    9.560
  321.500   97.901    0.268    0.440    9.739
  321.750   90.677    0.256    0.447   10.688
  322.000   80.441    0.269    0.436   10.888
  322.250   72.615    0.303    0.423   11.300
  322.500   67.800    0.293    0.423   11.511
  322.750   67.205    0.286    0.431   11.510
  323.000   67.810    0.270    0.436   11.726
  323.250   67.816    0.244    0.408   11.724
