~VERSION INFORMATION
 VERS.                 2.0:   CWLS LOG ASCII STANDARD -VERSION 2.0
 WRAP.                  NO:   ONE LINE PER DEPTH STEP
~WELL INFORMATION BLOCK
#MNEM.UNIT           DATA                    DESCRIPTION OF MNEMONIC
#---------    -------------------            -------------------------------
# Generated from Intellog Unique Number	CW_70_72/WELL/1044
NULL.         -999.25                        : NULL_VALUE
WELL.         UNIGAS ET AL SMITH 10-31       : Well_name    - WELL              
LOC .         10-31-071-24W4                 : Location     - LOCATION          
UWI .         00/10-31-071-24W4/0            : Uwi          - UNIQUE WELL ID    
ENTR.         JAYE                           : Entered      - ENTERED BY        
SRVC.         SCHLUMBERGER                   : Scn          - SERVICE COMPANY   
DATE.         14 NOV 71                      : Date         - LOG DATE          
STRT.M        435.254                        : top_depth    - START DEPTH       
STOP.M        635.254                        : bot_depth    - STOP DEPTH        
STEP.M        0.25                           : increment    - STEP LENGTH       
~CURVE INFORMATION BLOCK
#MNEM UNIT       ERCB CURVE CODE    CURVE DESCRIPTION
#-----------   ------------------   ----------------------------------
DEPT.M        00 001 00 00         : DEPTH        - DEPTH                       
DPHI.V/V      00 890 00 00         : PHID         - DENSITY POROSITY (SANDSTONE)
NPHI.V/V      00 330 00 00         : PHIN         - NEUTRON POROSITY (SANDSTONE)
CALI.MM       00 280 01 00         : CAL          - CALIPER                     
ILD .OHMM     00 120 00 00         : RESD         - DEEP RESISTIVITY (DIL)      
GR  .API      00 310 00 00         : GR           - GAMMA RAY                   
~PARAMETER INFORMATION       
#MNEM.UNIT           DATA             DESCRIPTION OF MNEMONIC
#---------         -----------     ------------------------------
GL  .M        656.783              : gl           - GROUND LEVEL ELEVATION      
EREF.M        659.221              : kb           - ELEVATION OF DEPTH REFERENCE
DATM.M        656.783              : datum        - DATUM ELEVATION             
TDD .M        645.566              : tdd          - TOTAL DEPTH DRILLER         
RUN .         ONE                  : Run          - RUN NUMBER                  
BASE.         EDM                  : Branch       - HOME BASE OF LOGGING UNIT   
MATR.         SANDSTONE            : Logunit      - NEUTRON MATRIX              
TMAX.C        22.2222              : BHT          - MAXIMUM RECORDED TEMPERATURE
BHTD.M        645.262              : BHTDEP       - MAXIMUM RECORDED TEMPERATURE
RMT .C        18.3333              : MDTP         - TEMPERATURE OF MUD          
MUDD.KG/M     0                    : MWT          - MUD DENSITY                 
NEUT.         1                    : NEUTRON      - NEUTRON TYPE                
RESI.         0                    : RESIST       - RESISTIVITY TYPE            
RM  .OHMM     2.03                 : RM           - RESISTIVITY OF MUD          
RMC .OHMM     0                    : RMC          - RESISTIVITY OF MUD CAKE     
RMF .OHMM     2.43                 : RMF          - RESISTIVITY OF MUD FILTRATE 
SUFT.C        -17.7778             : SUFT         - SURFACE TEMPERATURE         
~A  DEPTH     PHID     PHIN      CAL     RESD       GR
# ...
  471.754    0.458    0.604  168.433    4.119   99.157
  472.004    0.465    0.604  168.461    3.864   86.620
  472.254    0.500    0.605  168.384    3.279   85.393
  472.504    0.522    0.605  167.569    2.880   96.344
  472.754    0.523    0.605  166.747    2.881  116.678
  473.004    0.469    0.602  164.670    3.122  102.340
  473.254    0.455    0.596  160.592    3.606   88.624
  473.504    0.439    0.587  154.831    4.166   75.279
  473.754    0.423    0.580  146.230    4.368   65.104
  474.004    0.443    0.599  139.415    4.204   64.249
  474.254    0.449    0.605  136.706    4.046   69.235
  474.504    0.447    0.603  139.570    4.002   76.584
  474.754    0.441    0.588  147.804    4.114   81.817
  475.004    0.427    0.582  154.354    4.306   82.702
  475.254    0.424    0.581  153.855    4.434   84.333
  475.504    0.438    0.595  152.198    4.557   88.511
  475.754    0.451    0.605  153.590    4.658   92.071
  476.004    0.464    0.609  156.668    4.650   89.971
  476.254    0.468    0.611  160.272    4.616   91.354
  476.504    0.471    0.611  163.665    4.600   95.034
  476.754    0.472    0.611  165.688    4.550   97.721
  477.004    0.475    0.611  166.768    4.492   95.127
  477.254    0.476    0.611  167.320    4.484   95.082
  477.504    0.480    0.611  168.714    4.468   93.730
  477.754    0.484    0.611  169.791    4.428   92.067
  478.004    0.482    0.609  171.181    4.372   88.477
  478.254    0.475    0.607  172.259    4.324   92.036
  478.504    0.461    0.604  168.815    4.269   93.977
  478.754    0.445    0.596  162.951    4.208   88.337
  479.004    0.436    0.591  159.295    4.177   77.850
  479.254    0.432    0.586  156.903    4.162   71.901
  479.504    0.427    0.580  156.715    4.185   77.570
  479.754    0.423    0.576  156.638    4.255   81.252
  480.004    0.424    0.576  156.768    4.333   82.449
  480.254    0.430    0.589  157.003    4.438   82.773
  480.504    0.443    0.597  157.445    4.536   87.076
  480.754    0.451    0.600  159.577    4.688   91.441
  481.004    0.459    0.602  160.970    4.783   92.824
  481.254    0.473    0.604  162.051    4.731   93.273
  481.504    0.482    0.604  162.285    4.545   90.430
  481.754    0.478    0.605  159.259    4.295   77.459
  482.004    0.471    0.605  151.710    3.971   67.160
  482.254    0.466    0.604  149.631    3.698   60.091
  482.504    0.463    0.604  155.023    3.419   52.774
  482.754    0.469    0.604  161.256    3.382   59.501
  483.004    0.496    0.604  166.228    3.534   69.767
  483.254    0.519    0.605  169.199    3.767   77.489
  483.504    0.514    0.605  169.541    3.900   82.163
  483.754    0.487    0.605  167.250    4.053   69.689
  484.004    0.474    0.605  163.068    4.274   61.254
  484.254    0.500    0.604  159.412    4.531   50.333
  484.504    0.521    0.604  156.493    4.964   45.751
  484.754    0.500    0.603  153.781    5.429   34.767
  485.004    0.448    0.603  147.598    5.282   34.287
  485.254    0.435    0.602  142.469    4.709   37.843
  485.504    0.448    0.602  149.651    4.106   41.401
  485.754    0.457    0.603  151.781    3.440   42.286
  486.004    0.458    0.603  150.860    2.984   42.798
  486.254    0.456    0.602  147.938    2.759   43.930
  486.504    0.453    0.601  145.123    2.764   45.251
  486.754    0.449    0.600  145.151    2.815   45.576
  487.004    0.446    0.600  148.123    2.862   46.151
  487.254    0.443    0.597  152.040    2.904   42.686
  487.504    0.440    0.593  155.647    2.925   44.194
  487.754    0.437    0.591  157.880    2.952   43.773
  488.004    0.437    0.594  160.222    2.963   41.864
  488.254    0.439    0.598  160.983    2.963   40.325
  488.504    0.442    0.600  161.532    2.952   38.662
  488.754    0.443    0.602  161.034    2.963   36.939
  489.004    0.440    0.596  158.953    2.974   34.901
  489.254    0.434    0.590  155.825    2.980   35.662
  489.504    0.429    0.591  153.539    2.986   38.785
  489.754    0.436    0.600  152.827    2.986   41.223
  490.004    0.440    0.606  154.854    2.986   42.294
  490.254    0.441    0.603  156.877    3.002   41.254
  490.504    0.440    0.600  158.902    3.024   40.586
  490.754    0.436    0.592  160.295    3.041   40.165
  491.004    0.430    0.572  160.845    3.064   41.113
  491.254    0.391    0.541  160.764    3.081   43.303
  491.504    0.375    0.569  160.158    3.103   37.850
  491.754    0.428    0.582  159.239    3.132   36.747
  492.004    0.425    0.584  158.421    3.172   37.572
  492.254    0.423    0.583  158.346    3.213   39.139
  492.504    0.427    0.582  158.999    3.261   39.716
  492.754    0.429    0.583  158.817    3.291   39.420
  493.004    0.432    0.585  155.054    3.315   41.669
  493.254    0.432    0.589  148.452    3.333   48.458
  493.504    0.431    0.590  146.371    3.333   46.422
  493.754    0.428    0.590  153.555    3.346   45.070
  494.004    0.425    0.585  160.000    3.358   45.272
  494.254    0.424    0.578  162.969    3.395   46.593
  494.504    0.422    0.569  163.942    3.414   47.541
  494.754    0.415    0.557  163.650    3.433   48.488
  495.004    0.408    0.544  162.941    3.446   49.311
  495.254    0.399    0.547  161.177    3.497   50.258
  495.504    0.416    0.573  156.573    3.542   51.329
  495.754    0.430    0.588  150.603    3.561   52.276
  496.004    0.445    0.602  150.732    3.542   53.038
  496.254    0.436    0.593  154.130    3.542   54.108
  496.504    0.430    0.583  158.465    3.562   52.322
  496.754    0.429    0.563  163.120    3.825   49.043
  497.004    0.379    0.465  164.517    4.237   46.760
  497.254    0.305    0.412  164.647    5.002   45.470
  497.504    0.257    0.322  168.566    6.401   44.741
  497.754    0.209    0.276  173.641    8.371   43.574
  498.004    0.158    0.241  175.455   10.614   42.411
  498.254    0.120    0.186  174.743   11.973   41.620
  498.504    0.132    0.207  170.034   12.648   40.763
  498.754    0.152    0.198  164.486   12.718   38.914
  499.004    0.118    0.200  165.456   11.588   37.128
  499.254    0.145    0.229  168.849    8.103   39.814
  499.504    0.179    0.270  165.618    4.941   43.122
  499.754    0.296    0.443  164.169    3.757   43.510
  500.004    0.400    0.556  163.458    3.313   43.402
  500.254    0.413    0.566  162.538    3.069   41.242
  500.504    0.418    0.573  161.619    2.873   43.805
  500.754    0.423    0.578  161.217    2.740   46.802
  501.004    0.425    0.578  160.826    2.652   47.750
  501.254    0.421    0.572  160.743    2.618   45.341
  501.504    0.413    0.558  160.774    2.642   43.306
  501.754    0.406    0.550  160.797    2.691   42.950
  502.004    0.402    0.543  160.925    2.751   44.455
  502.254    0.402    0.539  160.533    2.807   48.509
  502.504    0.403    0.545  160.352    2.874   49.021
  502.754    0.404    0.553  160.267    2.901   44.998
  503.004    0.403    0.556  160.400    2.917   44.206
  503.254    0.403    0.553  160.530    2.928   47.700
  503.504    0.402    0.546  160.665    2.933   50.014
  503.754    0.402    0.549  160.582    2.950   44.996
  504.004    0.405    0.560  160.714    2.960   45.325
  504.254    0.415    0.567  160.744    2.961   46.892
  504.504    0.422    0.573  160.767    2.977   50.511
  504.754    0.415    0.573  160.788    2.993   50.401
  505.004    0.407    0.555  161.237    2.999   47.062
  505.254    0.402    0.545  161.791    3.021   49.749
  505.504    0.403    0.549  162.342    3.038   51.751
  505.754    0.400    0.548  162.471    3.049   52.824
  506.004    0.393    0.535  162.496    3.049   53.212
  506.254    0.391    0.533  162.101    3.055   49.437
  506.504    0.392    0.537  162.127    3.061   44.729
  506.754    0.389    0.535  161.845    3.083   46.733
  507.004    0.386    0.529  161.867    3.129   49.296
  507.254    0.383    0.521  161.783    3.186   53.163
  507.504    0.380    0.518  161.601    3.281   55.166
  507.754    0.377    0.519  161.207    3.336   56.053
  508.004    0.376    0.519  160.919    3.410   56.192
