~VERSION INFORMATION
 VERS.                 2.0:   CWLS LOG ASCII STANDARD -VERSION 2.0
 WRAP.                  NO:   ONE LINE PER DEPTH STEP
~WELL INFORMATION BLOCK
#MNEM.UNIT           DATA                    DESCRIPTION OF MNEMONIC
#---------    -------------------            -------------------------------
# Generated from Intellog Unique Number	CS_73_76/WELL/2209
WELL.         PEX WAPPAU                     : Well_name    - WELL
LOC .         00/12-10-074-11W4/0            : Location     - LOCATION
UWI .         00/12-10-074-11W4/0            : Uwi          - UNIQUE WELL ID
ENTR.         SP                             : Entered      - ENTERED BY
SRVC.         SCHLUMBERGER                   : Scn          - SERVICE COMPANY
STRT.M        330                            : top_depth    - START DEPTH
STOP.M        530                            : bot_depth    - STOP DEPTH
STEP.M        0.25                           : increment    - STEP LENGTH
 NULL. -999.2500:NULL Value
~CURVE INFORMATION BLOCK
#MNEM UNIT       ERCB CURVE CODE    CURVE DESCRIPTION
#-----------   ------------------   ----------------------------------
DEPT.M        00 001 00 00         : DEPTH        - DEPTH
ILD .OHMM     00 120 00 00         : RESD         - DEEP RESISTIVITY (DIL)
DPHI.V/V      00 890 00 00         : PHID         - DENSITY POROSITY (LIMESTONE)
NPHI.V/V      00 330 00 00         : PHIN         - NEUTRON POROSITY (LIMESTONE)
GR  .API      00 310 00 00         : GR           - GAMMA RAY
~PARAMETER INFORMATION
#MNEM.UNIT           DATA             DESCRIPTION OF MNEMONIC
#---------         -----------     ------------------------------
GL  .M        656.9                : gl           - GROUND LEVEL ELEVATION
EREF.M        660.1                : kb           - ELEVATION OF DEPTH REFERENCE
DATM.M        656.9                : datum        - DATUM ELEVATION
TDD .M        780                  : tdd          - TOTAL DEPTH DRILLER
RUN .         ONE                  : Run          - RUN NUMBER
ENG .         BILL                 : Engineer     - RECORDING ENGINEER
WIT .         JIM                  : Witness      - WITNESSED BY
MUD .         GEL                  : Mud_type     - MUD TYPE
MATR.         LIMESTONE            : Logunit      - NEUTRON MATRIX
TMAX.C        21                   : BHT          - MAXIMUM RECORDED TEMPERATURE
BHTD.M        780                  : BHTDEP       - MAXIMUM RECORDED TEMPERATURE
MATR.         1                    : LOGUNIT      - NEUTRON MATRIX
RMT .C        25                   : MDTP         - TEMPERATURE OF MUD
NEUT.         1                    : NEUTRON      - NEUTRON TYPE
RESI.         0                    : RESIST       - RESISTIVITY TYPE
RMC .OHMM     0.25                 : RMC          - RESISTIVITY OF MUD CAKE
RMF .OHMM     0.25                 : RMF          - RESISTIVITY OF MUD FILTRATE
SUFT.C        15                   : SUFT         - SURFACE TEMPERATURE
~A  DEPTH     RESD     PHID     PHIN       GR
# ...
  460.500    3.223    0.245    0.466   79.517
  460.750    2.990    0.241    0.472   78.902
  461.000    2.934    0.237    0.498   80.745
  461.250    3.163    0.242    0.520   83.818
  461.500    3.346    0.240    0.510   85.047
  461.750    3.816    0.225    0.462   81.358
  462.000    3.962    0.214    0.446   80.742
  462.250    4.434    0.203    0.432   81.356
  462.500    4.603    0.197    0.446   82.585
  462.750    4.870    0.198    0.486   83.199
  463.000    5.056    0.197    0.510   83.198
  463.250    5.250    0.195    0.473   80.124
  463.500    5.659    0.200    0.449   75.205
  463.750    6.100    0.182    0.432   70.901
  464.000    7.088    0.136    0.406   67.212
  464.250    8.236    0.081    0.375   71.514
  464.500    9.046    0.127    0.348   75.202
  464.750    9.570    0.161    0.392   75.816
  465.000    9.936    0.181    0.400   71.512
  465.250   10.316    0.183    0.406   68.437
  465.500   11.120    0.207    0.412   63.519
  465.750   11.764    0.242    0.422   64.747
  466.000   12.214    0.240    0.413   69.664
  466.250   12.921    0.221    0.385   72.123
  466.500   13.928    0.213    0.386   73.966
  466.750   15.299    0.226    0.391   77.654
  467.000   16.184    0.257    0.392   79.497
  467.250   17.777    0.269    0.385   81.956
  467.500   19.162    0.287    0.370   83.184
  467.750   20.272    0.277    0.390   84.413
  468.000   19.161    0.269    0.405   85.642
  468.250   16.183    0.257    0.411   73.346
  468.500   14.190    0.253    0.416   73.345
  468.750   15.011    0.251    0.408   67.812
  469.000   16.488    0.253    0.401   62.893
  469.250   20.653    0.253    0.392   62.277
  469.500   23.999    0.244    0.386   63.506
  469.750   25.870    0.260    0.390   65.964
  470.000   27.368    0.279    0.400   68.423
  470.250   18.801    0.272    0.396   72.725
  470.500   11.759    0.251    0.408   85.019
  470.750    9.931    0.213    0.417   88.707
  471.000    8.546    0.201    0.424   86.247
  471.250    7.780    0.214    0.428   85.632
  471.500    7.635    0.218    0.421   84.402
  471.750    7.635    0.214    0.411   86.860
  472.000    8.077    0.210    0.407   89.318
  472.250    9.386    0.214    0.419   93.006
  472.500   10.309    0.224    0.435   94.235
  472.750   12.437    0.229    0.437   85.627
  473.000   13.407    0.236    0.442   74.561
  473.250   15.579    0.251    0.433   65.339
  473.500   18.446    0.266    0.408   50.584
  473.750   19.884    0.276    0.403   43.821
  474.000   23.105    0.282    0.416   44.435
  474.250   25.859    0.279    0.422   46.279
  474.500   28.402    0.278    0.432   51.196
  474.750   28.940    0.276    0.427   55.498
  475.000   25.857    0.274    0.407   56.727
  475.250   23.540    0.268    0.392   59.800
  475.500   21.032    0.265    0.390   62.258
  475.750   18.791    0.254    0.386   63.487
  476.000   17.431    0.242    0.383   65.945
  476.250   16.789    0.229    0.376   62.256
  476.500   16.476    0.239    0.379   59.796
  476.750   18.097    0.260    0.401   60.410
  477.000   17.430    0.247    0.399   62.869
  477.250   17.760    0.224    0.378   65.942
  477.500   17.759    0.219    0.367   64.711
  477.750   17.759    0.235    0.363   61.022
  478.000   17.759    0.250    0.351   62.251
  478.250   17.758    0.257    0.368   63.480
  478.500   18.094    0.236    0.396   64.708
  478.750   18.437    0.217    0.394   64.707
  479.000   19.504    0.209    0.383   62.248
  479.250   21.423    0.201    0.391   57.944
  479.500   22.242    0.231    0.379   56.099
  479.750   23.530    0.261    0.373   56.713
  480.000   24.430    0.270    0.378   57.941
  480.250   25.363    0.247    0.399   56.096
  480.500   25.844    0.260    0.434   49.948
  480.750   24.428    0.272    0.422   48.103
  481.000   19.870    0.287    0.362   54.250
  481.250   15.278    0.224    0.361   99.126
  481.500   11.314    0.159    0.432  104.658
  481.750    8.699    0.122    0.472  108.346
  482.000    6.322    0.102    0.527  110.804
  482.250    5.756    0.169    0.554  107.729
  482.500    5.649    0.284    0.573   89.901
  482.750    7.485    0.299    0.545   68.998
  483.000   10.693    0.305    0.453   57.318
  483.250   31.172    0.309    0.395   43.177
  483.500   82.730    0.300    0.374   41.332
  483.750  105.592    0.294    0.374   42.561
  484.000  111.707    0.297    0.385   45.019
  484.250   85.889    0.308    0.388   45.633
  484.500   76.738    0.316    0.389   46.862
  484.750   72.535    0.313    0.382   49.320
  485.000   68.562    0.304    0.379   57.926
  485.250   62.417    0.305    0.395   67.146
  485.500   60.117    0.305    0.401   71.449
  485.750   54.730    0.294    0.400   62.842
  486.000   52.712    0.280    0.377   55.464
  486.250   48.898    0.275    0.372   53.004
  486.500   45.360    0.289    0.390   54.233
  486.750   39.034    0.298    0.404   54.232
  487.000   34.876    0.283    0.412   55.461
  487.250   31.160    0.271    0.423   57.304
  487.500   27.323    0.265    0.433   59.148
  487.750   22.225    0.260    0.411   64.680
  488.000   19.857    0.254    0.405   67.138
  488.250   16.152    0.240    0.410   72.055
  488.500   12.654    0.221    0.414   75.128
  488.750   11.739    0.213    0.401   76.972
  489.000   10.293    0.209    0.389   76.971
  489.250    9.914    0.208    0.387   75.741
  489.500    9.729    0.217    0.387   76.355
  489.750    9.729    0.225    0.378   76.969
  490.000    9.548    0.232    0.373   76.968
  490.250    9.370    0.228    0.395   77.582
  490.500    8.857    0.216    0.405   82.499
  490.750    8.216    0.206    0.409   89.876
  491.000    7.913    0.203    0.411   96.022
  491.250    7.766    0.202    0.411  101.554
  491.500    7.621    0.194    0.390  102.168
  491.750    8.371    0.179    0.394  103.397
  492.000    9.911    0.175    0.412   57.905
  492.250   11.303    0.216    0.433   48.068
  492.500   12.650    0.179    0.449   42.534
  492.750   14.978    0.002    0.233   46.222
  493.000   16.763    0.000    0.271   49.295
  493.250   16.762    0.186    0.304   57.901
  493.500   15.844    0.234    0.368   59.130
  493.750   15.549    0.258    0.387   54.211
  494.000   15.260    0.267    0.403   52.980
  494.250   15.548    0.270    0.390   54.824
  494.500   15.548    0.251    0.394   55.438
  494.750   15.258    0.254    0.394   52.978
  495.000   14.696    0.261    0.392   57.281
  495.250   14.154    0.251    0.383   59.124
  495.500   13.632    0.237    0.373   57.894
  495.750   12.411    0.222    0.393   57.278
  496.000   11.731    0.231    0.377   59.737
  496.250   11.088    0.216    0.352   60.965
  496.500   10.481    0.206    0.355   62.194
  496.750    9.542    0.223    0.358   60.349
  497.000    9.364    0.234    0.350   57.275
  497.250    9.019    0.238    0.338   60.347
  497.500    8.851    0.247    0.345   63.420
  497.750    8.524    0.251    0.355   64.034
  498.000    8.366    0.253    0.324   63.419
  498.250    8.057    0.138    0.308   75.099
  498.500    7.907    0.130    0.338   88.007
  498.750    7.474    0.189    0.366   91.695
  499.000    7.199    0.206    0.394   85.547
  499.250    6.933    0.234    0.424   83.087
  499.500    6.933    0.211    0.403   83.086
  499.750    6.933    0.191    0.420   87.389
  500.000    6.804    0.184    0.429   89.232
  500.250    6.804    0.202    0.427   88.002
  500.500    6.677    0.199    0.400   83.083
  500.750    6.553    0.216    0.390   76.935
  501.000    6.431    0.229    0.389   73.861
  501.250    5.854    0.243    0.397   69.556
  501.500    5.639    0.263    0.398   67.712
  501.750    5.330    0.271    0.395   72.014
  502.000    5.231    0.226    0.394   76.316
  502.250    5.038    0.216    0.415   78.160
  502.500    4.852    0.231    0.425   78.159
  502.750    4.762    0.239    0.404   77.544
  503.000    4.673    0.231    0.386   73.240
  503.250    4.501    0.242    0.378   68.321
  503.500    4.417    0.250    0.377   67.091
  503.750    4.335    0.233    0.375   70.164
