~VERSION INFORMATION
 VERS.                 2.0:   CWLS LOG ASCII STANDARD -VERSION 2.0
 WRAP.                  NO:   ONE LINE PER DEPTH STEP
~WELL INFORMATION BLOCK
#MNEM.UNIT           DATA                    DESCRIPTION OF MNEMONIC
#---------    -------------------            -------------------------------
# Generated from Intellog Unique Number	CS_73_76/WELL/1964
WELL.         AMOCO                          : Well_name    - WELL
LOC .         00/11-05-073-05W4/0            : Location     - LOCATION
UWI .         00/11-05-073-05W4/0            : Uwi          - UNIQUE WELL ID
ENTR.         T                              : Entered      - ENTERED BY
SRVC.         SCHLUMBERGER                   : Scn          - SERVICE COMPANY
STRT.M        325                            : top_depth    - START DEPTH
STOP.M        550                            : bot_depth    - STOP DEPTH
STEP.M        0.25                           : increment    - STEP LENGTH
 NULL. -999.2500:NULL Value
~CURVE INFORMATION BLOCK
#MNEM UNIT       ERCB CURVE CODE    CURVE DESCRIPTION
#-----------   ------------------   ----------------------------------
DEPT.M        00 001 00 00         : DEPTH        - DEPTH
GR  .API      00 310 00 00         : GR           - GAMMA RAY
NPHI.V/V      00 330 00 00         : PHIN         - NEUTRON POROSITY (SANDSTONE)
DPHI.V/V      00 890 00 00         : PHID         - DENSITY POROSITY (SANDSTONE)
ILD .OHMM     00 120 00 00         : RESD         - DEEP RESISTIVITY (DIL)
~PARAMETER INFORMATION
#MNEM.UNIT           DATA             DESCRIPTION OF MNEMONIC
#---------         -----------     ------------------------------
GL  .M        703.6                : gl           - GROUND LEVEL ELEVATION
EREF.M        708.1                : kb           - ELEVATION OF DEPTH REFERENCE
DATM.M        708.1                : datum        - DATUM ELEVATION
TDD .M        566                  : tdd          - TOTAL DEPTH DRILLER
RUN .         ONE                  : Run          - RUN NUMBER
ENG .         BILL                 : Engineer     - RECORDING ENGINEER
WIT .         JIM                  : Witness      - WITNESSED BY
MUD .         GEL                  : Mud_type     - MUD TYPE
MATR.         SANDSTONE            : Logunit      - NEUTRON MATRIX
TMAX.C        18                   : BHT          - MAXIMUM RECORDED TEMPERATURE
BHTD.M        566                  : BHTDEP       - MAXIMUM RECORDED TEMPERATURE
MATR.         1                    : LOGUNIT      - NEUTRON MATRIX
RMT .C        25                   : MDTP         - TEMPERATURE OF MUD
NEUT.         1                    : NEUTRON      - NEUTRON TYPE
RESI.         0                    : RESIST       - RESISTIVITY TYPE
RMC .OHMM     1.2                  : RMC          - RESISTIVITY OF MUD CAKE
RMF .OHMM     1.5                  : RMF          - RESISTIVITY OF MUD FILTRATE
SUFT.C        15                   : SUFT         - SURFACE TEMPERATURE
~A  DEPTH       GR     PHIN     PHID     RESD
# ...
  499.000   51.197    0.361    0.308   48.345
  499.250   48.842    0.370    0.300   50.258
  499.500   48.285    0.378    0.290   51.338
  499.750   49.528    0.382    0.293   52.377
  500.000   48.971    0.381    0.297   52.442
  500.250   47.215    0.379    0.296   51.552
  500.500   44.871    0.379    0.297   50.677
  500.750   43.715    0.379    0.300   48.911
  501.000   43.758    0.378    0.302   47.167
  501.250   43.190    0.380    0.298   43.031
  501.500   41.435    0.389    0.299   37.778
  501.750   39.080    0.400    0.307   30.780
  502.000   38.534    0.402    0.317   26.531
  502.250   41.564    0.402    0.312   22.035
  502.500   44.604    0.401    0.306   19.704
  502.750   48.844    0.400    0.305   13.558
  503.000   52.484    0.398    0.303   12.134
  503.250   56.146    0.399    0.303   10.463
  503.500   57.377    0.403    0.303    9.538
  503.750   58.619    0.406    0.301    8.698
  504.000   59.872    0.413    0.298    8.085
  504.250   61.103    0.424    0.294    7.649
  504.500   62.345    0.429    0.291    7.113
  504.750   65.986    0.409    0.287    6.859
  505.000   70.225    0.403    0.284    6.492
  505.250   74.465    0.391    0.277    6.040
  505.500   79.915    0.378    0.257    5.824
  505.750   84.754    0.373    0.242    5.614
  506.000   90.792    0.376    0.230    5.217
  506.250   96.231    0.376    0.214    5.331
  506.500   99.871    0.374    0.204    5.645
  506.750   98.715    0.371    0.195    6.093
  507.000   94.561    0.371    0.190    7.095
  507.250   86.211    0.364    0.190    7.661
  507.500   70.666    0.351    0.192    8.592
  507.750   64.114    0.344    0.237    9.454
  508.000   59.949    0.370    0.262   10.397
  508.250   56.395    0.376    0.281   11.656
  508.500   51.053    0.373    0.292   14.632
  508.750   48.687    0.372    0.287   12.612
  509.000   46.332    0.371    0.289   11.073
  509.250   49.983    0.369    0.293    9.725
  509.500   54.811    0.369    0.301    8.704
  509.750   62.659    0.365    0.300    7.796
  510.000   72.894    0.364    0.289    7.657
  510.250   72.348    0.362    0.278    7.250
  510.500   70.582    0.358    0.269    6.997
  510.750   67.038    0.363    0.279    6.878
  511.000   64.073    0.364    0.282    6.765
  511.250   63.516    0.340    0.224    6.770
  511.500   82.156    0.328    0.187    6.781
  511.750   94.789    0.319    0.154    6.927
  512.000   93.633    0.319    0.194    6.936
  512.250   87.680    0.324    0.217    7.076
  512.500   72.124    0.350    0.240    7.091
  512.750   59.577    0.355    0.246    7.234
  513.000   57.222    0.369    0.257    7.387
  513.250   53.068    0.382    0.271    7.399
  513.500   49.514    0.381    0.282    7.552
  513.750   50.756    0.369    0.274    7.574
  514.000   55.595    0.352    0.270    7.583
  514.250   59.235    0.350    0.274    7.451
  514.500   61.088    0.350    0.275    7.322
  514.750   61.730    0.353    0.268    6.935
  515.000   58.776    0.365    0.270    6.694
  515.250   56.410    0.391    0.287    6.575
  515.500   54.065    0.407    0.293    6.346
  515.750   58.915    0.400    0.264    6.238
  516.000   64.354    0.389    0.250    6.132
  516.250   73.390    0.379    0.223    6.028
  516.500   76.420    0.381    0.207    5.923
  516.750   80.071    0.382    0.200    5.719
  517.000   81.302    0.375    0.198    5.620
  517.250   83.754    0.368    0.193    5.419
  517.500   86.805    0.357    0.190    5.133
  517.750   88.636    0.355    0.183    4.950
  518.000   92.276    0.362    0.179    4.602
  518.250   95.917    0.360    0.204    4.438
  518.500  100.756    0.360    0.211    4.125
  518.750  102.608    0.361    0.219    4.053
  519.000   99.664    0.367    0.224    3.839
  519.250   97.887    0.372    0.225    3.773
  519.500   94.333    0.382    0.234    3.638
  519.750   88.980    0.397    0.256    3.576
  520.000   84.227    0.403    0.267    3.519
  520.250   77.675    0.393    0.278    3.523
  520.500   70.523    0.387    0.278    3.528
  520.750   64.571    0.394    0.278    3.602
  521.000   60.406    0.403    0.283    3.676
  521.250   54.454    0.402    0.294    4.121
  521.500   47.302    0.395    0.310    4.621
  521.750   52.141    0.380    0.285    4.807
  522.000   62.398    0.332    0.087    4.905
  522.250   67.227    0.356    0.057    4.917
  522.500   74.464    0.365    0.079    4.921
  522.750   81.102    0.385    0.175    4.929
  523.000   86.562    0.388    0.219    4.755
  523.250   76.391    0.396    0.244    4.590
  523.500   73.437    0.398    0.272    4.595
  523.750   68.084    0.391    0.286    4.519
  524.000   70.525    0.387    0.251    4.527
  524.250   75.964    0.383    0.178    4.532
  524.500   81.413    0.376    0.147    4.540
  524.750   85.653    0.371    0.198    4.548
  525.000   82.698    0.375    0.232    4.555
  525.250   83.940    0.373    0.235    4.566
  525.500   90.578    0.373    0.187    4.574
  525.750   95.418    0.403    0.217    4.580
  526.000   94.261    0.426    0.274    4.502
  526.250   87.710    0.423    0.279    4.426
  526.500   88.352    0.398    0.292    4.431
  526.750   93.791    0.392    0.240    4.356
  527.000   96.232    0.391    0.218    4.208
  527.250   91.489    0.396    0.260    4.135
  527.500   82.539    0.398    0.283    3.915
  527.750   80.173    0.403    0.305    3.774
  528.000   74.831    0.405    0.308    3.380
  528.250   62.273    0.405    0.313    3.197
  528.500   58.730    0.406    0.314    2.917
  528.750   56.353    0.406    0.313    2.763
  529.000   59.415    0.406    0.306    2.715
  529.250   63.055    0.406    0.301    2.718
  529.500   66.685    0.405    0.293    2.776
  529.750   71.535    0.400    0.285    2.887
  530.000   76.363    0.385    0.274    3.001
  530.250   81.213    0.377    0.263    3.304
  530.500   87.862    0.370    0.250    3.435
  530.750   89.104    0.365    0.233    3.709
  531.000   85.539    0.370    0.237    4.005
  531.250   80.785    0.376    0.244    4.246
  531.500   74.833    0.382    0.251    4.414
  531.750   76.675    0.386    0.254    4.594
  532.000   81.514    0.385    0.246    4.685
  532.250   85.754    0.385    0.240    4.784
  532.500   85.197    0.384    0.236    4.794
  532.750   84.041    0.384    0.234    4.800
  533.000   81.086    0.384    0.229    4.631
  533.250   81.129    0.384    0.225    4.637
  533.500   88.367    0.379    0.223    4.916
  533.750   93.217    0.378    0.227    5.112
  534.000   89.652    0.381    0.228    5.317
  534.250   84.299    0.381    0.229    5.426
  534.500   80.145    0.376    0.231    5.438
  534.750   77.790    0.365    0.230    5.444
  535.000   77.233    0.356    0.230    5.453
  535.250   77.276    0.329    0.229    5.465
  535.500   77.929    0.324    0.231    5.474
  535.750   79.171    0.353    0.234    5.483
  536.000   79.214    0.361    0.237    5.492
  536.250   78.058    0.361    0.239    5.504
  536.500   76.891    0.361    0.237    5.406
  536.750   76.335    0.359    0.237    5.318
  537.000   78.776    0.358    0.233    5.323
  537.250   80.628    0.362    0.233    5.235
  537.500   81.892    0.370    0.235    5.241
  537.750   81.913    0.373    0.238    5.252
  538.000   82.567    0.372    0.237    5.261
  538.250   82.609    0.375    0.233    5.367
  538.500   82.053    0.377    0.227    5.381
  538.750   82.096    0.377    0.221    5.387
  539.000   82.128    0.376    0.227    5.296
  539.250   81.582    0.375    0.240    5.206
  539.500   81.615    0.381    0.245    5.023
  539.750   81.058    0.389    0.247    4.844
  540.000   80.501    0.388    0.249    4.588
  540.250   78.746    0.384    0.251    4.426
  540.500   76.990    0.383    0.252    4.191
  540.750   75.834    0.380    0.250    3.969
  541.000   72.890    0.378    0.246    3.826
  541.250   71.124    0.375    0.247    3.623
  541.500   65.771    0.374    0.264    3.495
  541.750   59.219    0.375    0.281    3.372
  542.000   55.054    0.376    0.291    3.253
  542.250   48.502    0.382    0.295    3.140
