~VERSION INFORMATION
 VERS.                 2.0:   CWLS LOG ASCII STANDARD -VERSION 2.0
 WRAP.                  NO:   ONE LINE PER DEPTH STEP
~WELL INFORMATION BLOCK
#MNEM.UNIT           DATA                    DESCRIPTION OF MNEMONIC
#---------    -------------------            -------------------------------
# Generated from Intellog Unique Number	CX_WELLS/WELL/3051
WELL.         MLC ET AL MCADAMS              : Well_name    - WELL
LOC .         00/10-16-082-14W4/0            : Location     - LOCATION
UWI .         00/10-16-082-14W400            : Uwi          - UNIQUE WELL ID
ENTR.         TIM                            : Entered      - ENTERED BY
SRVC.         SCHLUMBERGER                   : Scn          - SERVICE COMPANY
STRT.M        135                            : top_depth    - START DEPTH
STOP.M        350                            : bot_depth    - STOP DEPTH
STEP.M        0.25                           : increment    - STEP LENGTH
 NULL. -999.2500:NULL Value
~CURVE INFORMATION BLOCK
#MNEM UNIT       ERCB CURVE CODE    CURVE DESCRIPTION
#-----------   ------------------   ----------------------------------
DEPT.M        00 001 00 00         : DEPTH        - DEPTH
GR  .API      00 310 00 00         : GR           - GAMMA RAY
NPHI.V/V      00 330 00 00         : PHIN         - NEUTRON POROSITY (SANDSTONE)
DPHI.V/V      00 890 00 00         : PHID         - DENSITY POROSITY (SANDSTONE)
ILD .OHMM     00 120 00 00         : RESD         - DEEP RESISTIVITY (OTHER)
~PARAMETER INFORMATION
#MNEM.UNIT           DATA             DESCRIPTION OF MNEMONIC
#---------         -----------     ------------------------------
GL  .M        581                  : gl           - GROUND LEVEL ELEVATION
EREF.M        584.4                : kb           - ELEVATION OF DEPTH REFERENCE
DATM.M        584.4                : datum        - DATUM ELEVATION
TDD .M        254                  : tdd          - TOTAL DEPTH DRILLER
RUN .         ONE                  : Run          - RUN NUMBER
ENG .         BILL                 : Engineer     - RECORDING ENGINEER
WIT .         JIM                  : Witness      - WITNESSED BY
MUD .         GEL                  : Mud_type     - MUD TYPE
MATR.         SANDSTONE            : Logunit      - NEUTRON MATRIX
TMAX.C        25                   : BHT          - MAXIMUM RECORDED TEMPERATURE
BHTD.M        254                  : BHTDEP       - MAXIMUM RECORDED TEMPERATURE
MATR.         1                    : LOGUNIT      - NEUTRON MATRIX
RMT .C        21                   : MDTP         - TEMPERATURE OF MUD
NEUT.         1                    : NEUTRON      - NEUTRON TYPE
RESI.         4                    : RESIST       - RESISTIVITY TYPE
RMC .OHMM     3.2                  : RMC          - RESISTIVITY OF MUD CAKE
RMF .OHMM     5                    : RMF          - RESISTIVITY OF MUD FILTRATE
SUFT.C        2                    : SUFT         - SURFACE TEMPERATURE
~A  DEPTH       GR     PHIN     PHID     RESD
# ...
  178.500  105.066    0.437    0.199    5.290
  178.750  105.663    0.428    0.197    5.288
  179.000  105.657    0.417    0.197    5.287
  179.250  105.642    0.406    0.197    5.186
  179.500  105.626    0.392    0.197    5.184
  179.750  106.234    0.391    0.198    5.181
  180.000  106.831    0.402    0.199    5.179
  180.250  107.442    0.419    0.202    5.177
  180.500  108.046    0.422    0.204    5.176
  180.750  109.263    0.422    0.207    5.273
  181.000  109.868    0.433    0.209    5.373
  181.250  109.855    0.431    0.209    5.579
  181.500  109.229    0.438    0.214    5.684
  181.750   98.734    0.450    0.224    6.248
  182.000   91.323    0.457    0.240    6.740
  182.250   81.447    0.434    0.282    7.844
  182.500   71.570    0.394    0.329    8.789
  182.750   62.927    0.352    0.355    9.662
  183.000   45.033    0.308    0.369   10.826
  183.250   38.856    0.294    0.380   13.087
  183.500   34.528    0.307    0.358   13.333
  183.750   36.981    0.329    0.294   13.078
  184.000   46.833    0.344    0.253   12.584
  184.250   62.233    0.353    0.255   12.344
  184.500   68.386    0.354    0.263   11.653
  184.750   71.456    0.354    0.275   11.430
  185.000   75.143    0.356    0.284   10.793
  185.250   79.443    0.365    0.279   10.386
  185.500   83.129    0.379    0.262    9.806
  185.750   86.203    0.390    0.263    9.437
  186.000   84.954    0.395    0.264    9.433
  186.250   76.927    0.401    0.272    9.430
  186.500   70.750    0.405    0.277    9.980
  186.750   63.956    0.405    0.286   10.363
  187.000   58.395    0.401    0.293   10.761
  187.250   50.985    0.400    0.300   11.389
  187.500   41.108    0.399    0.310   12.284
  187.750   31.229    0.399    0.324   13.504
  188.000   25.052    0.399    0.332   14.567
  188.250   21.340    0.397    0.343   15.415
  188.500   22.561    0.376    0.353   15.409
  188.750   22.548    0.355    0.366   15.402
  189.000   23.146    0.364    0.373   15.398
  189.250   23.140    0.373    0.373   15.390
  189.500   24.361    0.376    0.374   15.384
  189.750   25.575    0.377    0.379   15.380
  190.000   25.566    0.369    0.374   15.373
  190.250   24.937    0.363    0.367   15.370
  190.500   24.305    0.363    0.357   15.365
  190.750   24.293    0.365    0.352   15.359
  191.000   24.277    0.363    0.351   15.354
  191.250   24.271    0.360    0.352   15.347
  191.500   23.639    0.356    0.357   15.340
  191.750   23.013    0.352    0.362   15.047
  192.000   22.381    0.357    0.366   15.039
  192.250   22.982    0.362    0.367   15.035
  192.500   23.587    0.367    0.368   15.031
  192.750   23.574    0.372    0.370   15.024
  193.000   22.948    0.373    0.368   15.018
  193.250   21.083    0.372    0.365   15.014
  193.500   21.071    0.371    0.361   15.006
  193.750   22.908    0.366    0.356   15.002
  194.000   22.896    0.359    0.354   14.998
  194.250   22.887    0.356    0.348   14.990
  194.500   22.874    0.344    0.343   14.986
  194.750   23.475    0.346    0.348   14.979
  195.000   23.460    0.355    0.358   14.975
  195.250   22.834    0.369    0.360   15.256
  195.500   22.822    0.374    0.355   15.250
  195.750   22.806    0.375    0.350   15.537
  196.000   22.797    0.367    0.350   15.533
  196.250   23.398    0.359    0.353   15.527
  196.500   23.999    0.355    0.355   15.521
  196.750   24.609    0.351    0.358   15.515
  197.000   25.824    0.350    0.351   15.508
  197.250   27.047    0.355    0.348   15.502
  197.500   27.651    0.359    0.352   15.498
  197.750   27.636    0.366    0.354   15.197
  198.000   27.004    0.370    0.359   15.193
  198.250   26.378    0.373    0.361   14.902
  198.500   25.752    0.373    0.361   14.898
  198.750   24.507    0.371    0.368   14.893
  199.000   23.878    0.369    0.375   14.607
  199.250   26.332    0.369    0.369   13.792
  199.500   31.868    0.371    0.354   12.537
  199.750   41.103    0.374    0.327   10.970
  200.000   60.819    0.386    0.255    9.240
  200.250   81.151    0.396    0.242    8.561
  200.500   89.769    0.406    0.234    7.635
  200.750   89.757    0.418    0.233    7.208
  201.000   89.122    0.433    0.233    7.071
  201.250   89.110    0.444    0.233    6.805
  201.500   89.097    0.448    0.236    6.674
  201.750   88.468    0.448    0.244    6.671
  202.000   86.606    0.448    0.249    6.796
  202.250   83.515    0.447    0.254    6.924
  202.500   79.187    0.442    0.259    7.190
  202.750   74.243    0.412    0.269    7.466
  203.000   66.213    0.399    0.277    8.207
  203.250   65.584    0.405    0.277    8.686
  203.500   71.120    0.414    0.273    9.020
  203.750   75.420    0.420    0.280    9.015
  204.000   72.945    0.424    0.283    9.013
  204.250   66.767    0.424    0.283    9.009
  204.500   63.053    0.393    0.285    8.838
  204.750   68.592    0.406    0.285    8.667
  205.000   74.128    0.415    0.283    8.501
  205.250   77.198    0.423    0.279    8.025
  205.500   72.867    0.431    0.271    8.024
  205.750   69.153    0.436    0.279    8.654
  206.000   70.373    0.436    0.292    9.514
  206.250   71.591    0.434    0.304   10.263
  206.500   71.579    0.434    0.311   10.861
  206.750   70.956    0.439    0.321   12.403
  207.000   67.861    0.440    0.331   13.897
  207.250   63.533    0.444    0.341   15.277
  207.500   59.819    0.447    0.342   17.444
  207.750   57.957    0.440    0.342   18.112
  208.000   56.711    0.436    0.341   18.450
  208.250   56.083    0.436    0.341   18.447
  208.500   55.454    0.436    0.341   18.442
  208.750   54.208    0.430    0.341   18.433
  209.000   52.346    0.422    0.341   18.427
  209.250   50.481    0.422    0.343   18.075
  209.500   50.469    0.418    0.344   18.068
  209.750   51.076    0.413    0.344   17.720
  210.000   52.294    0.411    0.344   17.378
  210.250   53.511    0.411    0.343   17.373
  210.500   54.732    0.409    0.341   17.367
  210.750   55.333    0.411    0.341   17.359
  211.000   55.327    0.412    0.340   17.355
  211.250   55.931    0.416    0.340   17.345
  211.500   57.148    0.418    0.339   17.340
  211.750   57.756    0.422    0.339   17.336
  212.000   58.360    0.430    0.338   17.330
  212.250   59.581    0.434    0.335   17.322
  212.500   60.801    0.435    0.333   17.316
  212.750   62.019    0.435    0.330   17.309
  213.000   63.236    0.439    0.329   17.303
  213.250   63.843    0.442    0.326   17.298
  213.500   65.061    0.440    0.326   17.287
  213.750   65.668    0.433    0.327   17.283
  214.000   66.883    0.438    0.327   17.276
  214.250   66.873    0.445    0.327   17.272
  214.500   67.477    0.448    0.327   17.264
  214.750   68.082    0.448    0.326   17.259
  215.000   66.836    0.444    0.322   17.250
  215.250   64.358    0.434    0.320   17.244
  215.500   61.876    0.416    0.317   17.570
  215.750   63.707    0.409    0.316   17.565
  216.000   64.931    0.407    0.320   17.557
  216.250   66.155    0.406    0.323   17.551
  216.500   66.759    0.405    0.330   17.880
  216.750   67.360    0.401    0.333   18.215
  217.000   67.354    0.394    0.332   18.212
  217.250   67.335    0.417    0.331   17.862
  217.500   66.709    0.426    0.328   16.864
  217.750   66.694    0.435    0.327   16.229
  218.000   66.681    0.445    0.327   15.618
  218.250   66.666    0.447    0.326   15.318
  218.500   66.657    0.445    0.328   15.025
  218.750   66.644    0.422    0.332   15.019
  219.000   66.632    0.419    0.327   14.730
  219.250   66.620    0.429    0.325   14.447
  219.500   67.227    0.429    0.331   14.441
  219.750   69.064    0.415    0.335   14.164
  220.000   70.281    0.406    0.330   14.158
  220.250   70.266    0.410    0.327   14.155
  220.500   69.640    0.408    0.327   14.149
  220.750   69.005    0.405    0.327   14.145
  221.000   68.999    0.413    0.325   14.140
  221.250   68.981    0.429    0.325   14.133
  221.500   68.974    0.440    0.325   14.126
  221.750   68.956    0.431    0.325   14.393
