~VERSION INFORMATION
 VERS.                 2.0:   CWLS LOG ASCII STANDARD -VERSION 2.0
 WRAP.                  NO:   ONE LINE PER DEPTH STEP
~WELL INFORMATION BLOCK
#MNEM.UNIT           DATA                    DESCRIPTION OF MNEMONIC
#---------    -------------------            -------------------------------
# Generated from Intellog Unique Number	CW_73_75/WELL/2740
WELL.         SUNDALE ET AL FRANCIS 10-16    : Well_name    - WELL
LOC .         00/10-16-073-21W4/0            : Location     - LOCATION
UWI .         00/10-16-073-21W4/0            : Uwi          - UNIQUE WELL ID
ENTR.         JAYE                           : Entered      - ENTERED BY
SRVC.         SCHLUMBERGER                   : Scn          - SERVICE COMPANY
DATE.         11 FEB 1976                    : Date         - LOG DATE
STRT.M        377.952                        : top_depth    - START DEPTH
STOP.M        579.202                        : bot_depth    - STOP DEPTH
STEP.M        0.25                           : increment    - STEP LENGTH
 NULL. -999.2500:NULL Value
~CURVE INFORMATION BLOCK
#MNEM UNIT       ERCB CURVE CODE    CURVE DESCRIPTION
#-----------   ------------------   ----------------------------------
DEPT.M        00 001 00 00         : DEPTH        - DEPTH
ILD .OHMM     00 120 00 00         : RESD         - DEEP RESISTIVITY (DIL)
NPHI.V/V      00 330 00 00         : PHIN         - NEUTRON POROSITY (SANDSTONE)
DPHI.V/V      00 890 00 00         : PHID         - DENSITY POROSITY (SANDSTONE)
GR  .API      00 310 00 00         : GR           - GAMMA RAY
CALI.MM       00 280 01 00         : CAL          - CALIPER
~PARAMETER INFORMATION
#MNEM.UNIT           DATA             DESCRIPTION OF MNEMONIC
#---------         -----------     ------------------------------
GL  .M        668.731              : gl           - GROUND LEVEL ELEVATION
EREF.M        672.998              : kb           - ELEVATION OF DEPTH REFERENCE
DATM.M        668.731              : datum        - DATUM ELEVATION
TDD .M        609.6                : tdd          - TOTAL DEPTH DRILLER
RUN .         ONE                  : Run          - RUN NUMBER
MUD .         GEL CHEM             : Mud_type     - MUD TYPE
MATR.         SANDSTONE            : Logunit      - NEUTRON MATRIX
TMAX.C        21.6667              : BHT          - MAXIMUM RECORDED TEMPERATURE
BHTD.M        578.206              : BHTDEP       - MAXIMUM RECORDED TEMPERATURE
RMT .C        16.6667              : MDTP         - TEMPERATURE OF MUD
MUDD.KG/M     1080                 : MWT          - MUD DENSITY
NEUT.         1                    : NEUTRON      - NEUTRON TYPE
RESI.         0                    : RESIST       - RESISTIVITY TYPE
RM  .OHMM     3.62                 : RM           - RESISTIVITY OF MUD
RMC .OHMM     0                    : RMC          - RESISTIVITY OF MUD CAKE
RMF .OHMM     2.9                  : RMF          - RESISTIVITY OF MUD FILTRATE
SUFT.C        0                    : SUFT         - SURFACE TEMPERATURE
~A  DEPTH     RESD     PHIN     PHID       GR      CAL
# ...
  487.452    4.476    0.468    0.258   80.105  158.193
  487.702    4.532    0.469    0.268   80.784  158.093
  487.952    4.564    0.458    0.260   81.279  157.889
  488.202    4.562    0.467    0.252   81.343  157.893
  488.452    4.586    0.468    0.251   83.621  157.898
  488.702    4.601    0.465    0.243   85.960  157.903
  488.952    4.616    0.477    0.248   83.810  157.907
  489.202    4.622    0.474    0.257   84.920  157.703
  489.452    4.672    0.487    0.239   86.829  157.396
  489.702    4.748    0.487    0.247   89.230  156.982
  489.952    4.807    0.474    0.260   86.281  156.779
  490.202    4.823    0.465    0.245   88.621  156.679
  490.452    4.848    0.460    0.226   90.837  156.685
  490.702    4.864    0.488    0.210   93.361  156.688
  490.952    4.898    0.507    0.184   95.147  156.900
  491.202    4.834    0.522    0.234   93.612  157.426
  491.452    4.581    0.514    0.226   93.307  157.430
  491.702    4.139    0.496    0.237   94.109  157.539
  491.952    3.651    0.528    0.247   95.650  157.752
  492.202    2.982    0.589    0.271   97.190  157.444
  492.452    2.645    0.604    0.309   99.652  157.447
  492.702    2.615    0.586    0.303  101.869  157.452
  492.952    2.677    0.565    0.267  102.732  157.457
  493.202    2.859    0.571    0.254  104.149  157.461
  493.452    3.173    0.574    0.240  104.890  157.778
  493.702    3.555    0.560    0.241  104.770  157.783
  493.952    3.640    0.513    0.255  104.772  157.786
  494.202    3.430    0.497    0.201  104.898  157.791
  494.452    3.168    0.490    0.194  104.408  157.797
  494.702    3.081    0.485    0.200  102.689  157.800
  494.952    3.172    0.480    0.192  102.753  157.804
  495.202    3.319    0.477    0.172  104.170  157.809
  495.452    3.468    0.469    0.160  104.726  158.126
  495.702    3.724    0.470    0.177  106.389  158.444
  495.952    3.999    0.493    0.184  106.884  158.655
  496.202    4.248    0.487    0.196  104.980  158.973
  496.452    4.479    0.478    0.205  102.646  158.977
  496.702    4.731    0.477    0.192  100.988  159.086
  496.952    4.970    0.467    0.206   98.530  158.985
  497.202    5.060    0.466    0.202   94.966  158.990
  497.452    5.076    0.478    0.220   93.370  159.203
  497.702    5.047    0.487    0.193   98.969  159.414
  497.952    5.119    0.475    0.189  106.351  159.419
  498.202    5.280    0.447    0.202  108.076  159.424
  498.452    5.395    0.432    0.205  108.263  159.533
  498.702    5.534    0.451    0.211  110.295  159.642
  498.952    5.676    0.471    0.206  109.006  160.062
  499.202    5.779    0.477    0.189  106.426  160.275
  499.452    5.862    0.471    0.189  104.583  160.383
  499.702    5.935    0.465    0.210  102.433  160.596
  499.952    5.988    0.451    0.205   98.439  160.809
  500.202    5.986    0.446    0.198   96.719  160.917
  500.452    5.984    0.440    0.153   97.890  161.026
  500.702    5.992    0.446    0.173   97.524  161.030
  500.952    6.000    0.449    0.191   97.404  161.347
  501.202    5.976    0.448    0.170   97.652  161.351
  501.452    5.952    0.453    0.189   97.532  161.355
  501.702    5.917    0.461    0.186   98.026  161.360
  501.952    5.915    0.454    0.186   98.582  161.156
  502.202    5.945    0.446    0.188   98.093  160.952
  502.452    5.932    0.453    0.180   98.465  160.957
  502.702    5.929    0.457    0.191   97.299  160.960
  502.952    5.927    0.463    0.215   96.933  160.861
  503.202    5.903    0.468    0.229   97.304  160.970
  503.452    5.890    0.480    0.188   97.983  161.079
  503.702    5.812    0.483    0.183  100.138  161.084
  503.952    5.725    0.461    0.210  102.724  160.983
  504.202    5.557    0.443    0.196  101.435  160.988
  504.452    5.374    0.458    0.192   96.825  160.993
  504.702    5.226    0.466    0.182   97.381  160.997
  504.952    5.091    0.470    0.165   98.675  160.793
  505.202    4.933    0.479    0.214   97.755  160.693
  505.452    4.797    0.472    0.216   92.469  160.281
  505.702    4.866    0.469    0.203   85.030  160.181
  505.952    5.055    0.448    0.224   83.864  159.873
  506.202    5.281    0.426    0.238   87.864  159.878
  506.452    5.971    0.419    0.213   77.104  159.778
  506.702    6.902    0.413    0.195   61.609  159.574
  506.952    7.535    0.386    0.143   57.491  159.369
  507.202    7.194    0.331    0.139   62.291  157.083
  507.452    6.657    0.357    0.176   65.492  155.421
  507.702    5.619    0.412    0.215   67.647  154.175
  507.952    5.039    0.431    0.265   68.510  153.555
  508.202    4.955    0.458    0.265   68.574  153.560
  508.452    5.091    0.441    0.264   68.023  153.981
  508.702    5.358    0.416    0.241   64.705  154.506
  508.952    6.273    0.404    0.207   65.814  154.718
  509.202    6.282    0.385    0.154   69.077  154.411
  509.452    5.867    0.349    0.196   71.478  154.102
  509.702    5.330    0.410    0.258   74.187  154.107
  509.952    5.024    0.453    0.272   74.250  154.008
  510.202    4.761    0.444    0.270   73.822  153.907
  510.452    5.085    0.441    0.265   73.149  153.912
  510.702    5.613    0.434    0.255   72.352  154.437
  510.952    6.129    0.455    0.242   73.031  154.962
  511.202    5.981    0.462    0.243   76.047  155.487
  511.452    5.816    0.453    0.239   74.635  155.492
  511.702    6.258    0.453    0.238   69.594  155.496
  511.952    6.683    0.438    0.175   66.953  155.397
  512.202    7.270    0.403    0.117   66.709  155.193
  512.452    8.144    0.352    0.126   67.573  155.093
  512.702    7.776    0.346    0.117   70.220  154.785
  512.952    6.948    0.335    0.121   76.803  154.789
  513.202    6.186    0.381    0.162   86.584  155.210
  513.452    5.497    0.408    0.215   92.245  155.839
  513.702    5.162    0.445    0.226   95.937  156.678
  513.952    4.794    0.443    0.227   96.186  157.202
  514.202    4.404    0.437    0.212   96.188  157.518
  514.452    4.135    0.450    0.195   97.237  157.835
  514.702    3.890    0.462    0.181  101.605  158.257
  514.952    3.749    0.471    0.185  104.745  158.574
  515.202    3.706    0.478    0.176  104.747  158.681
  515.452    3.794    0.486    0.165  102.105  159.104
  515.702    4.212    0.490    0.187  100.693  159.420
  515.952    4.797    0.488    0.193  102.972  159.737
  516.202    5.305    0.475    0.201  100.084  159.741
  516.452    5.835    0.467    0.193   94.428  159.745
  516.702    6.301    0.455    0.175   92.709  159.438
  516.952    6.439    0.442    0.151   92.896  159.235
  517.202    6.436    0.432    0.149   93.637  159.133
  517.452    6.398    0.428    0.191   94.869  158.826
  517.702    6.372    0.432    0.206   92.904  158.622
  517.952    6.346    0.437    0.200   92.906  158.418
  518.202    6.309    0.463    0.170   96.476  158.422
  518.452    6.271    0.474    0.183   97.770  158.427
  518.702    6.201    0.472    0.196   99.987  158.224
  518.952    6.029    0.449    0.193  102.326  157.915
  519.202    5.918    0.442    0.183  104.112  157.711
  519.452    5.775    0.455    0.171  106.329  157.299
  519.702    5.752    0.445    0.171  102.150  156.783
  519.952    5.792    0.440    0.168  101.722  156.474
  520.202    5.897    0.441    0.174  103.692  156.480
  520.452    6.038    0.448    0.159  105.171  156.483
  520.702    6.261    0.459    0.149  104.989  156.488
  520.952    6.351    0.462    0.152  105.545  156.492
  521.202    6.314    0.465    0.142  105.178  156.184
  521.452    6.277    0.454    0.146  104.505  156.084
  521.702    6.274    0.435    0.138  104.507  154.630
  521.952    6.237    0.440    0.109  102.972  152.135
  522.202    6.201    0.442    0.154  103.528  151.515
  522.452    6.233    0.435    0.178  103.593  151.833
  522.702    6.276    0.432    0.160  101.812  152.045
  522.952    6.297    0.441    0.128  106.365  152.361
  523.202    6.271    0.430    0.172  109.381  152.575
  523.452    6.292    0.440    0.155  101.635  152.787
  523.702    6.382    0.418    0.140   99.177  152.791
