~VERSION INFORMATION
 VERS.                 2.0:   CWLS LOG ASCII STANDARD -VERSION 2.0
 WRAP.                  NO:   ONE LINE PER DEPTH STEP
~WELL INFORMATION BLOCK
#MNEM.UNIT           DATA                    DESCRIPTION OF MNEMONIC
#---------    -------------------            -------------------------------
# Generated from Intellog Unique Number	CS_67_68/WELL/822
WELL.         ESSO RESOURCES CANADA LTD      : Well_name    - WELL
LOC .         00/11-19-068-06W4/0            : Location     - LOCATION
UWI .         00/11-19-068-06W4/0            : Uwi          - UNIQUE WELL ID
ENTR.         SP                             : Entered      - ENTERED BY
SRVC.         SCHLUMBERGER                   : Scn          - SERVICE COMPANY
STRT.M        330                            : top_depth    - START DEPTH
STOP.M        550                            : bot_depth    - STOP DEPTH
STEP.M        0.25                           : increment    - STEP LENGTH
 NULL. -999.2500:NULL Value
~CURVE INFORMATION BLOCK
#MNEM UNIT       ERCB CURVE CODE    CURVE DESCRIPTION
#-----------   ------------------   ----------------------------------
DEPT.M        00 001 00 00         : DEPTH        - DEPTH
ILD .OHMM     00 120 00 00         : RESD         - DEEP RESISTIVITY (DIL)
DPHI.V/V      00 890 00 00         : PHID         - DENSITY POROSITY (LIMESTONE)
NPHI.V/V      00 330 00 00         : PHIN         - NEUTRON POROSITY (LIMESTONE)
GR  .API      00 310 00 00         : GR           - GAMMA RAY
~PARAMETER INFORMATION
#MNEM.UNIT           DATA             DESCRIPTION OF MNEMONIC
#---------         -----------     ------------------------------
GL  .M        668.73               : gl           - GROUND LEVEL ELEVATION
EREF.M        672                  : kb           - ELEVATION OF DEPTH REFERENCE
DATM.M        672.6                : datum        - DATUM ELEVATION
TDD .M        557                  : tdd          - TOTAL DEPTH DRILLER
RUN .         ONE                  : Run          - RUN NUMBER
ENG .         BILL                 : Engineer     - RECORDING ENGINEER
WIT .         JIM                  : Witness      - WITNESSED BY
MUD .         GEL                  : Mud_type     - MUD TYPE
MATR.         LIMESTONE            : Logunit      - NEUTRON MATRIX
TMAX.C        28                   : BHT          - MAXIMUM RECORDED TEMPERATURE
BHTD.M        557                  : BHTDEP       - MAXIMUM RECORDED TEMPERATURE
MATR.         1                    : LOGUNIT      - NEUTRON MATRIX
RMT .C        25                   : MDTP         - TEMPERATURE OF MUD
NEUT.         1                    : NEUTRON      - NEUTRON TYPE
RESI.         0                    : RESIST       - RESISTIVITY TYPE
RMC .OHMM     0.25                 : RMC          - RESISTIVITY OF MUD CAKE
RMF .OHMM     0.25                 : RMF          - RESISTIVITY OF MUD FILTRATE
SUFT.C        15                   : SUFT         - SURFACE TEMPERATURE
~A  DEPTH     RESD     PHID     PHIN       GR
# ...
  373.500    5.575    0.259    0.472   92.973
  373.750    5.586    0.250    0.464   91.322
  374.000    5.524    0.257    0.456   88.230
  374.250    5.463    0.266    0.456   87.138
  374.500    5.413    0.252    0.497   90.976
  374.750    5.323    0.240    0.526   92.443
  375.000    4.918    0.250    0.521   91.722
  375.250    4.683    0.248    0.497   90.257
  375.500    4.562    0.239    0.493   92.533
  375.750    4.469    0.253    0.478   96.436
  376.000    4.555    0.265    0.469   98.150
  376.250    4.643    0.259    0.491   96.182
  376.500    4.751    0.251    0.523   92.656
  376.750    5.029    0.266    0.505   89.703
  377.000    5.058    0.274    0.471   88.480
  377.250    5.175    0.280    0.449   87.695
  377.500    5.305    0.275    0.437   87.726
  377.750    5.367    0.264    0.432   88.195
  378.000    5.409    0.254    0.443   89.730
  378.250    5.471    0.260    0.460   90.629
  378.500    5.556    0.265    0.469   88.662
  378.750    5.674    0.266    0.446   84.580
  379.000    5.740    0.281    0.444   83.359
  379.250    5.773    0.294    0.468   82.016
  379.500    5.764    0.297    0.475   79.490
  379.750    5.732    0.289    0.465   81.890
  380.000    5.647    0.276    0.460   85.979
  380.250    5.554    0.264    0.475   88.944
  380.500    5.565    0.254    0.499   90.221
  380.750    5.535    0.246    0.508   89.439
  381.000    5.588    0.247    0.494   86.104
  381.250    5.849    0.259    0.487   85.384
  381.500    6.491    0.246    0.498   79.114
  381.750    7.109    0.208    0.524   65.045
  382.000    7.539    0.133    0.250   58.148
  382.250    7.670    0.041    0.232   64.614
  382.500    7.345    0.094    0.387   69.630
  382.750    6.412    0.144    0.437   74.025
  383.000    5.869    0.228    0.459   78.865
  383.250    5.494    0.260    0.473   82.513
  383.500    5.403    0.266    0.487   85.289
  383.750    5.435    0.266    0.482   87.753
  384.000    5.375    0.260    0.480   89.094
  384.250    5.295    0.251    0.488   89.434
  384.500    5.158    0.248    0.506   89.840
  384.750    4.977    0.246    0.504   85.629
  385.000    4.876    0.234    0.495   76.242
  385.250    4.723    0.228    0.488   65.726
  385.500    4.662    0.276    0.466   53.964
  385.750    4.671    0.306    0.434   47.505
  386.000    4.663    0.328    0.430   45.416
  386.250    4.665    0.338    0.421   43.075
  386.500    4.692    0.329    0.409   54.965
  386.750    4.764    0.325    0.409   65.225
  387.000    4.884    0.317    0.416   72.117
  387.250    5.121    0.293    0.416   77.764
  387.500    5.289    0.269    0.435   81.102
  387.750    5.311    0.247    0.445   81.636
  388.000    5.312    0.231    0.441   79.359
  388.250    5.404    0.224    0.429   77.326
  388.500    5.519    0.221    0.415   78.105
  388.750    5.615    0.219    0.404   79.009
  389.000    5.669    0.215    0.393   76.174
  389.250    5.670    0.225    0.387   74.332
  389.500    5.650    0.233    0.404   77.107
  389.750    5.588    0.226    0.412   74.206
  390.000    5.568    0.245    0.415   71.372
  390.250    5.548    0.256    0.428   70.336
  390.500    5.538    0.264    0.408   70.368
  390.750    5.539    0.268    0.398   71.707
  391.000    5.509    0.264    0.408   69.930
  391.250    5.490    0.269    0.416   68.032
  391.500    5.470    0.270    0.434   70.680
  391.750    5.451    0.260    0.443   72.519
  392.000    5.441    0.255    0.439   69.181
  392.250    5.392    0.258    0.428   65.341
  392.500    5.372    0.263    0.423   66.123
  392.750    5.313    0.270    0.431   69.209
  393.000    5.214    0.275    0.434   71.049
  393.250    5.099    0.268    0.434   70.145
  393.500    5.014    0.268    0.437   72.360
  393.750    4.875    0.262    0.446   72.452
  394.000    4.793    0.273    0.438   65.754
  394.250    4.740    0.287    0.421   63.722
  394.500    4.688    0.298    0.418   62.999
  394.750    4.663    0.305    0.435   64.153
  395.000    4.663    0.300    0.437   63.999
  395.250    4.656    0.304    0.422   60.347
  395.500    4.630    0.310    0.414   57.321
  395.750    4.605    0.313    0.422   57.103
  396.000    4.624    0.314    0.431   61.194
  396.250    4.633    0.309    0.435   65.025
  396.500    4.660    0.301    0.448   69.302
  396.750    4.653    0.295    0.441   70.578
  397.000    4.671    0.303    0.444   68.304
  397.250    4.690    0.318    0.453   68.581
  397.500    4.718    0.305    0.452   71.046
  397.750    4.745    0.286    0.444   69.577
  398.000    4.756    0.273    0.441   66.059
  398.250    4.774    0.263    0.442   65.460
  398.500    4.784    0.260    0.447   69.740
  398.750    4.804    0.273    0.446   71.572
  399.000    4.814    0.276    0.442   70.359
  399.250    4.815    0.269    0.441   66.404
  399.500    4.798    0.271    0.439   65.739
  399.750    4.763    0.286    0.432   66.769
  400.000    4.737    0.300    0.437   69.172
  400.250    4.711    0.297    0.449   71.138
  400.500    4.712    0.298    0.459   74.721
  400.750    4.757    0.288    0.449   81.056
  401.000    4.794    0.255    0.435   85.704
  401.250    4.850    0.235    0.430   88.103
  401.500    4.925    0.221    0.437   81.903
  401.750    4.945    0.245    0.449   79.058
  402.000    4.936    0.268    0.468   77.714
  402.250    4.928    0.281    0.459   78.560
  402.500    4.929    0.270    0.439   80.403
  402.750    4.939    0.258    0.430   82.549
  403.000    4.931    0.253    0.441   82.891
  403.250    4.942    0.249    0.453   82.738
  403.500    4.961    0.243    0.452   83.517
  403.750    4.963    0.237    0.449   82.864
  404.000    4.954    0.248    0.454   79.272
  404.250    4.927    0.260    0.435   82.735
  404.500    4.900    0.250    0.424   87.694
  404.750    4.846    0.230    0.450   91.658
  405.000    4.748    0.230    0.466   90.814
  405.250    4.695    0.247    0.450   86.666
  405.500    4.626    0.263    0.444   89.069
  405.750    4.609    0.252    0.443   91.404
  406.000    4.566    0.239    0.439   93.997
  406.250    4.533    0.231    0.431   95.649
  406.500    4.500    0.244    0.453   87.567
  406.750    4.400    0.261    0.478   79.986
  407.000    4.270    0.277    0.489   83.701
  407.250    4.006    0.257    0.450   85.787
  407.500    3.916    0.240    0.481   86.381
  407.750    3.844    0.240    0.498   80.803
  408.000    3.780    0.253    0.505   78.144
  408.250    3.752    0.267    0.484   74.307
  408.500    4.132    0.280    0.468   71.406
  408.750    4.955    0.284    0.470   72.374
  409.000    5.509    0.282    0.482   72.654
  409.250    5.490    0.280    0.489   72.807
  409.500    4.554    0.269    0.489   73.029
  409.750    2.856    0.255    0.472   73.992
  410.000    2.128    0.245    0.455   76.707
  410.250    2.585    0.253    0.442   78.733
  410.500    3.559    0.271    0.448   81.198
  410.750    3.875    0.283    0.479   82.414
  411.000    4.010    0.282    0.497   83.258
  411.250    4.080    0.265    0.495   86.222
  411.500    3.791    0.257    0.481   89.621
  411.750    3.353    0.249    0.506   92.769
  412.000    3.098    0.243    0.513   95.796
  412.250    2.934    0.239    0.510   97.517
  412.500    2.794    0.237    0.517   97.480
  412.750    2.726    0.242    0.518   95.954
  413.000    2.671    0.248    0.518   95.795
  413.250    2.616    0.263    0.517   96.393
  413.500    2.592    0.268    0.513   97.291
  413.750    2.583    0.259    0.508   99.699
  414.000    2.589    0.254    0.515  101.284
  414.250    2.589    0.257    0.540  103.435
  414.500    2.575    0.264    0.552  105.594
  414.750    2.571    0.271    0.556  103.498
  415.000    2.528    0.278    0.538  103.092
  415.250    2.448    0.281    0.518  107.928
  415.500    2.394    0.288    0.555  113.765
  415.750    2.363    0.305    0.568  113.978
  416.000    2.422    0.283    0.547  106.338
  416.250    2.378    0.264    0.535  100.250
  416.500    2.217    0.262    0.532   95.172
  416.750    1.977    0.269    0.520   94.701
