~VERSION INFORMATION
 VERS.                 2.0:   CWLS LOG ASCII STANDARD -VERSION 2.0
 WRAP.                  NO:   ONE LINE PER DEPTH STEP
~WELL INFORMATION BLOCK
#MNEM.UNIT           DATA                    DESCRIPTION OF MNEMONIC
#---------    -------------------            -------------------------------
# Generated from Intellog Unique Number	CS_77_79/WELL/952
WELL.         PARAMOUNT RESOURCES LTD.       : Well_name    - WELL
LOC .         00/10-14-077-10W4/0            : Location     - LOCATION
UWI .         00/10-14-077-10W4/0            : Uwi          - UNIQUE WELL ID
ENTR.         SP                             : Entered      - ENTERED BY
SRVC.         SCHLUMBERGER                   : Scn          - SERVICE COMPANY
STRT.M        210.25                         : top_depth    - START DEPTH
STOP.M        440                            : bot_depth    - STOP DEPTH
STEP.M        0.25                           : increment    - STEP LENGTH
 NULL. -999.2500:NULL Value
~CURVE INFORMATION BLOCK
#MNEM UNIT       ERCB CURVE CODE    CURVE DESCRIPTION
#-----------   ------------------   ----------------------------------
DEPT.M        00 001 00 00         : DEPTH        - DEPTH
ILD .OHMM     00 120 00 00         : RESD         - DEEP RESISTIVITY (DIL)
DPHI.V/V      00 890 00 00         : PHID         - DENSITY POROSITY (LIMESTONE)
NPHI.V/V      00 330 00 00         : PHIN         - NEUTRON POROSITY (LIMESTONE)
GR  .API      00 310 00 00         : GR           - GAMMA RAY
~PARAMETER INFORMATION
#MNEM.UNIT           DATA             DESCRIPTION OF MNEMONIC
#---------         -----------     ------------------------------
GL  .M        632                  : gl           - GROUND LEVEL ELEVATION
EREF.M        635                  : kb           - ELEVATION OF DEPTH REFERENCE
DATM.M        632                  : datum        - DATUM ELEVATION
TDD .M        470                  : tdd          - TOTAL DEPTH DRILLER
RUN .         ONE                  : Run          - RUN NUMBER
ENG .         BILL                 : Engineer     - RECORDING ENGINEER
WIT .         JIM                  : Witness      - WITNESSED BY
MUD .         GEL                  : Mud_type     - MUD TYPE
MATR.         LIMESTONE            : Logunit      - NEUTRON MATRIX
TMAX.C        22                   : BHT          - MAXIMUM RECORDED TEMPERATURE
BHTD.M        470                  : BHTDEP       - MAXIMUM RECORDED TEMPERATURE
MATR.         1                    : LOGUNIT      - NEUTRON MATRIX
RMT .C        25                   : MDTP         - TEMPERATURE OF MUD
NEUT.         1                    : NEUTRON      - NEUTRON TYPE
RESI.         0                    : RESIST       - RESISTIVITY TYPE
RMC .OHMM     0.25                 : RMC          - RESISTIVITY OF MUD CAKE
RMF .OHMM     0.25                 : RMF          - RESISTIVITY OF MUD FILTRATE
SUFT.C        15                   : SUFT         - SURFACE TEMPERATURE
~A  DEPTH     RESD     PHID     PHIN       GR
# ...
  340.750    8.725    0.332    0.370   52.704
  341.000    8.525    0.327    0.356   49.658
  341.250    8.525    0.334    0.361   45.395
  341.500    8.526    0.332    0.369   48.449
  341.750    8.527    0.336    0.364   49.061
  342.000    8.527    0.335    0.350   49.067
  342.250    8.326    0.325    0.355   48.460
  342.500    8.327    0.317    0.402   50.902
  342.750    8.127    0.342    0.379   55.785
  343.000    7.927    0.342    0.435   58.837
  343.250    7.927    0.333    0.455   51.525
  343.500    7.727    0.339    0.459   50.309
  343.750    7.928    0.344    0.430   50.922
  344.000    7.929    0.340    0.402   49.708
  344.250    8.130    0.335    0.407   50.321
  344.500    8.131    0.331    0.411   49.715
  344.750    8.131    0.338    0.396   47.280
  345.000    8.333    0.342    0.378   46.674
  345.250    8.333    0.350    0.393   47.897
  345.500    8.334    0.345    0.387   49.122
  345.750    8.334    0.331    0.364   48.518
  346.000    8.335    0.325    0.371   48.521
  346.250    8.335    0.327    0.382   48.524
  346.500    8.336    0.331    0.396   47.919
  346.750    8.136    0.346    0.404   45.484
  347.000    8.136    0.347    0.382   43.657
  347.250    7.936    0.342    0.375   43.662
  347.500    8.138    0.339    0.382   46.105
  347.750    7.937    0.341    0.383   48.548
  348.000    7.938    0.340    0.386   54.650
  348.250    7.737    0.350    0.396   56.483
  348.500    7.738    0.353    0.400   56.486
  348.750    7.739    0.351    0.376   50.394
  349.000    7.538    0.345    0.385   52.225
  349.250    7.539    0.343    0.397   54.059
  349.500    7.540    0.346    0.413   51.627
  349.750    7.540    0.351    0.431   52.848
  350.000    7.340    0.348    0.404   53.462
  350.250    7.340    0.342    0.397   53.466
  350.500    7.341    0.335    0.398   56.519
  350.750    7.341    0.329    0.389   57.132
  351.000    7.342    0.356    0.393   51.649
  351.250    7.343    0.356    0.380   51.043
  351.500    7.343    0.352    0.374   51.658
  351.750    7.344    0.347    0.368   51.051
  352.000    7.344    0.345    0.363   49.836
  352.250    7.345    0.345    0.358   46.791
  352.500    7.345    0.337    0.383   46.186
  352.750    7.346    0.336    0.415   48.627
  353.000    7.347    0.345    0.410   54.120
  353.250    7.347    0.353    0.403   57.173
  353.500    7.347    0.357    0.406   54.127
  353.750    7.348    0.360    0.400   51.692
  354.000    7.550    0.357    0.405   49.258
  354.250    7.550    0.353    0.405   50.481
  354.500    7.751    0.352    0.410   49.875
  354.750    7.953    0.354    0.400   46.221
  355.000    8.355    0.358    0.406   43.785
  355.250    8.556    0.359    0.399   45.618
  355.500    8.758    0.353    0.378   49.891
  355.750    8.959    0.346    0.394   50.505
  356.000    8.960    0.347    0.400   51.728
  356.250    9.161    0.350    0.406   46.855
  356.500    9.162    0.349    0.424   45.639
  356.750    9.363    0.347    0.407   46.861
  357.000    9.363    0.344    0.397   44.427
  357.250    8.962    0.342    0.405   45.041
  357.500    8.361    0.342    0.415   49.313
  357.750    7.959    0.346    0.429   46.878
  358.000    7.960    0.353    0.438   49.322
  358.250    7.760    0.354    0.421   51.155
  358.500    7.560    0.350    0.398   52.378
  358.750    7.560    0.341    0.389   51.163
  359.000    7.561    0.338    0.375   48.728
  359.250    7.561    0.336    0.376   48.122
  359.500    7.361    0.336    0.387   46.908
  359.750    7.362    0.336    0.401   47.520
  360.000    7.161    0.343    0.377   50.574
  360.250    7.162    0.343    0.353   52.406
  360.500    6.962    0.344    0.347   54.239
  360.750    6.962    0.344    0.358   50.585
  361.000    6.963    0.344    0.371   53.029
  361.250    6.963    0.339    0.370   57.302
  361.500    6.763    0.335    0.373   59.134
  361.750    6.764    0.314    0.382   61.578
  362.000    6.764    0.332    0.382   62.190
  362.250    6.765    0.339    0.385   51.218
  362.500    6.564    0.322    0.362   46.954
  362.750    6.565    0.336    0.360   51.227
  363.000    6.365    0.345    0.412   55.499
  363.250    6.365    0.348    0.427   54.283
  363.500    6.366    0.347    0.389   53.068
  363.750    6.366    0.337    0.368   60.389
  364.000    6.568    0.276    0.372   69.541
  364.250    6.769    0.262    0.376   75.032
  364.500    7.171    0.240    0.365   78.695
  364.750    7.573    0.265    0.348   54.917
  365.000    8.177    0.296    0.364   51.264
  365.250    8.177    0.304    0.362   51.877
  365.500    8.378    0.313    0.350   56.148
  365.750    8.379    0.285    0.360   54.933
  366.000    8.379    0.143    0.347   51.888
  366.250    8.179    0.164    0.276   54.331
  366.500    7.979    0.208    0.325   57.994
  366.750    7.779    0.243    0.366   57.388
  367.000    7.579    0.281    0.367   54.953
  367.250    7.579    0.291    0.366   54.347
  367.500    7.579    0.285    0.343   52.522
  367.750    7.580    0.281    0.334   54.355
  368.000    7.581    0.269    0.340   61.676
  368.250    7.782    0.273    0.349   58.022
  368.500    7.783    0.279    0.353   54.367
  368.750    7.783    0.269    0.343   51.932
  369.000    7.583    0.237    0.343   52.546
  369.250    7.583    0.234    0.321   60.477
  369.500    7.584    0.243    0.348   65.359
  369.750    7.585    0.270    0.365   59.875
  370.000    7.585    0.279    0.357   58.659
  370.250    7.586    0.281    0.354   58.665
  370.500    7.586    0.275    0.345   60.498
  370.750    7.386    0.269    0.338   64.160
  371.000    7.186    0.257    0.339   64.164
  371.250    6.986    0.255    0.362   63.558
  371.500    6.986    0.254    0.367   61.123
  371.750    6.786    0.257    0.328   62.957
  372.000    6.585    0.253    0.337   62.350
  372.250    6.385    0.232    0.323   69.063
  372.500    6.386    0.238    0.318   73.335
  372.750    6.386    0.247    0.340   71.509
  373.000    6.387    0.260    0.372   70.294
  373.250    6.388    0.286    0.388   75.176
  373.500    6.388    0.289    0.409   73.960
  373.750    6.589    0.276    0.404   73.354
  374.000    6.590    0.277    0.452   73.971
  374.250    6.591    0.264    0.482   75.803
  374.500    6.591    0.277    0.455   80.075
  374.750    6.391    0.272    0.429   83.127
  375.000    6.391    0.260    0.408   81.911
  375.250    6.191    0.234    0.389   81.305
  375.500    5.991    0.218    0.360   80.091
  375.750    5.791    0.196    0.337   77.654
  376.000    5.390    0.201    0.352   80.098
  376.250    4.988    0.218    0.377   86.201
  376.500    4.387    0.242    0.386   80.715
  376.750    3.986    0.247    0.390   78.890
  377.000    3.585    0.236    0.395   78.284
  377.250    3.384    0.242    0.396   73.410
  377.500    3.184    0.282    0.414   75.855
  377.750    2.984    0.313    0.444   75.858
  378.000    2.984    0.318    0.539   78.910
  378.250    2.985    0.318    0.507   70.378
  378.500    2.985    0.316    0.500   69.772
  378.750    2.986    0.312    0.500   72.825
  379.000    2.986    0.313    0.500   73.438
  379.250    2.987    0.313    0.511   74.662
  379.500    3.189    0.324    0.530   77.716
  379.750    3.189    0.329    0.529   80.159
  380.000    3.190    0.315    0.527   82.601
  380.250    3.391    0.281    0.476   86.263
  380.500    3.592    0.278    0.476   79.560
  380.750    3.794    0.282    0.477   82.004
  381.000    3.995    0.270    0.499   82.617
  381.250    4.598    0.254    0.414   85.671
  381.500    5.000    0.237    0.362   89.942
  381.750    5.201    0.230    0.382   82.629
  382.000    5.604    0.220    0.365   75.317
  382.250    5.805    0.204    0.291   72.271
  382.500    6.006    0.151    0.277   68.616
  382.750    6.007    0.108    0.277   68.620
  383.000    5.807    0.171    0.302   74.722
  383.250    5.406    0.182    0.327   82.043
  383.500    5.205    0.216    0.336   75.340
  383.750    4.804    0.234    0.347   74.124
  384.000    4.604    0.237    0.352   77.787
