~VERSION INFORMATION
 VERS.                 2.0:   CWLS LOG ASCII STANDARD -VERSION 2.0
 WRAP.                  NO:   ONE LINE PER DEPTH STEP
~WELL INFORMATION BLOCK
#MNEM.UNIT           DATA                    DESCRIPTION OF MNEMONIC
#---------    -------------------            -------------------------------
# Generated from Intellog Unique Number	CW_76_78/WELL/3588
WELL.         MARK RESOURCES INC.            : Well_name    - WELL
LOC .         00/14-03-077-19W4/0            : Location     - LOCATION
UWI .         00/14-03-077-19W4/0            : Uwi          - UNIQUE WELL ID
ENTR.         JOETTE                         : Entered      - ENTERED BY
SRVC.         SCHLUMBERGER                   : Scn          - SERVICE COMPANY
DATE.         08/26/92                       : Date         - LOG DATE
STRT.M        210                            : top_depth    - START DEPTH
STOP.M        455                            : bot_depth    - STOP DEPTH
STEP.M        0.25                           : increment    - STEP LENGTH
 NULL. -999.2500:NULL Value
~CURVE INFORMATION BLOCK
#MNEM UNIT       ERCB CURVE CODE    CURVE DESCRIPTION
#-----------   ------------------   ----------------------------------
DEPT.M        00 001 00 00         : DEPTH        - DEPTH
GR  .API      00 310 00 00         : GR           - GAMMA RAY
NPHI.V/V      00 330 00 00         : PHIN         - NEUTRON POROSITY (SANDSTONE)
DPHI.V/V      00 890 00 00         : PHID         - DENSITY POROSITY (SANDSTONE)
ILD .OHMM     00 120 00 00         : RESD         - DEEP RESISTIVITY (DIL)
~PARAMETER INFORMATION
#MNEM.UNIT           DATA             DESCRIPTION OF MNEMONIC
#---------         -----------     ------------------------------
GL  .M        561                  : gl           - GROUND LEVEL ELEVATION
EREF.M        564.3                : kb           - ELEVATION OF DEPTH REFERENCE
DATM.M        564.3                : datum        - DATUM ELEVATION
TDD .M        458                  : tdd          - TOTAL DEPTH DRILLER
RUN .         ONE                  : Run          - RUN NUMBER
ENG .         BILL                 : Engineer     - RECORDING ENGINEER
WIT .         JIM                  : Witness      - WITNESSED BY
MUD .         GEL                  : Mud_type     - MUD TYPE
MATR.         SANDSTONE            : Logunit      - NEUTRON MATRIX
TMAX.C        28                   : BHT          - MAXIMUM RECORDED TEMPERATURE
BHTD.M        458                  : BHTDEP       - MAXIMUM RECORDED TEMPERATURE
MATR.         1                    : LOGUNIT      - NEUTRON MATRIX
RMT .C        21                   : MDTP         - TEMPERATURE OF MUD
NEUT.         1                    : NEUTRON      - NEUTRON TYPE
RESI.         0                    : RESIST       - RESISTIVITY TYPE
RMC .OHMM     4.75                 : RMC          - RESISTIVITY OF MUD CAKE
RMF .OHMM     4.75                 : RMF          - RESISTIVITY OF MUD FILTRATE
SUFT.C        15                   : SUFT         - SURFACE TEMPERATURE
~A  DEPTH       GR     PHIN     PHID     RESD
  210.000   92.426    0.513    0.259    3.682
  210.250   89.488    0.523    0.259    3.683
  210.500   87.137    0.503    0.252    3.617
  210.750   87.753    0.515    0.244    3.618
  211.000   91.924    0.530    0.240    3.553
  211.250   90.170    0.522    0.240    3.489
  211.500   85.456    0.487    0.243    3.427
  211.750   86.664    0.484    0.249    3.429
  212.000   90.841    0.486    0.249    3.430
  212.250   90.272    0.480    0.244    3.431
  212.500   90.889    0.479    0.243    3.432
  212.750   92.690    0.493    0.247    3.497
  213.000   91.535    0.502    0.250    3.563
  213.250   89.776    0.492    0.261    3.565
  213.500   88.615    0.479    0.274    3.632
  213.750   89.824    0.478    0.273    3.633
  214.000   89.854    0.471    0.253    3.913
  214.250   88.693    0.461    0.248    4.061
  214.500   87.526    0.482    0.248    4.373
  214.750   82.219    0.480    0.254    4.798
  215.000   68.027    0.466    0.262    5.361
  215.250   64.502    0.425    0.234    7.336
  215.500   67.482    0.415    0.222    7.614
  215.750   71.060    0.418    0.304    8.508
  216.000   69.900    0.454    0.308    9.506
  216.250   65.777    0.456    0.311   13.009
  216.500   53.362    0.428    0.315   14.537
  216.750   48.647    0.427    0.325   15.653
  217.000   43.938    0.436    0.350   16.550
  217.250   56.401    0.438    0.364   16.866
  217.500   59.974    0.433    0.336   16.560
  217.750   63.552    0.435    0.304   15.107
  218.000   65.951    0.434    0.263   14.300
  218.250   65.389    0.426    0.255   12.574
  218.500   63.624    0.431    0.267   11.471
  218.750   58.909    0.387    0.339   12.352
  219.000   53.009    0.371    0.347   19.957
  219.250   47.702    0.421    0.355   21.490
  219.500   44.172    0.428    0.353   24.461
  219.750   46.565    0.421    0.347   25.863
  220.000   50.155    0.418    0.342   24.933
  220.250   50.760    0.421    0.340   24.039
  220.500   48.420    0.425    0.334   21.928
  220.750   46.667    0.419    0.309   18.930
  221.000   52.621    0.396    0.300   16.952
  221.250   55.014    0.389    0.278   12.396
  221.500   53.847    0.415    0.268   10.700
  221.750   53.883    0.430    0.255    9.236
  222.000   56.265    0.444    0.256    8.582
  222.250   58.664    0.424    0.298    9.590
  222.500   53.943    0.363    0.321   10.138
  222.750   44.490    0.346    0.326    9.421
  223.000   60.513    0.448    0.310    8.284
  223.250   65.270    0.505    0.312    7.150
  223.500   87.816    0.548    0.308    5.629
  223.750   90.203    0.500    0.254    5.134
  224.000   94.380    0.451    0.231    4.771
  224.250   95.594    0.446    0.225    4.773
  224.500   95.606    0.451    0.265    5.236
  224.750   95.636    0.464    0.272    5.638
  225.000   95.074    0.457    0.282    6.299
  225.250   93.309    0.432    0.306    9.630
  225.500   49.504    0.424    0.313   10.760
  225.750   37.669    0.417    0.324   14.726
  226.000   35.922    0.416    0.335   15.568
  226.250   36.532    0.419    0.337   20.535
  226.500   38.938    0.413    0.342   20.923
  226.750   40.739    0.410    0.348   21.320
  227.000   44.311    0.412    0.353   21.724
  227.250   53.813    0.423    0.341   21.338
  227.500   55.614    0.430    0.327   21.343
  227.750   55.057    0.417    0.327   20.959
  228.000   53.292    0.405    0.327   20.209
  228.250   51.539    0.412    0.295   19.484
  228.500   52.748    0.414    0.270   18.784
  228.750   56.332    0.390    0.302   18.113
  229.000   60.497    0.387    0.310   17.464
  229.250   64.093    0.396    0.300   16.530
  229.500   64.105    0.414    0.292   15.646
  229.750   62.944    0.424    0.281   14.274
  230.000   65.338    0.420    0.265   14.016
  230.250   74.839    0.419    0.269   12.324
  230.500   80.787    0.428    0.262   10.444
  230.750   83.186    0.439    0.257    9.353
  231.000   82.025    0.440    0.259    8.691
  231.250   82.049    0.432    0.269    8.227
  231.500   85.035    0.433    0.266    8.079
  231.750   86.244    0.438    0.258    8.864
  232.000   84.491    0.421    0.255    9.544
  232.250   80.967    0.418    0.284   10.469
  232.500   79.794    0.410    0.295   12.137
  232.750   81.607    0.393    0.272   12.831
  233.000   85.179    0.375    0.261   14.076
  233.250   88.763    0.372    0.255   14.341
  233.500   88.781    0.365    0.249   14.085
  233.750   85.844    0.370    0.249   13.832
  234.000   81.129    0.388    0.256   14.357
  234.250   74.643    0.383    0.281   15.752
  234.500   70.514    0.386    0.287   16.652
  234.750   65.799    0.388    0.293   17.282
  235.000   59.900    0.388    0.285   17.940
  235.250   54.593    0.394    0.274   18.279
  235.500   42.763    0.385    0.280   18.283
  235.750   38.048    0.373    0.305   18.980
  236.000   30.970    0.356    0.327   19.336
  236.250   30.408    0.361    0.329   21.214
  236.500   29.827    0.357    0.334   21.616
  236.750   27.482    0.345    0.339   22.028
  237.000   28.104    0.345    0.345   22.032
  237.250   30.498    0.381    0.345   22.040
  237.500   36.445    0.381    0.339   22.047
  237.750   41.800    0.380    0.336   21.256
  238.000   45.385    0.405    0.328   20.494
  238.250   44.810    0.406    0.308   18.698
  238.500   42.465    0.395    0.311   17.375
  238.750   41.304    0.395    0.313   16.146
  239.000   44.290    0.398    0.310   15.854
  239.250   58.536    0.399    0.284   15.287
  239.500   65.669    0.392    0.251   15.012
  239.750   69.845    0.375    0.243   14.473
  240.000   69.277    0.365    0.225   13.699
  240.250   70.480    0.390    0.260   12.730
  240.500   72.281    0.412    0.286   11.402
  240.750   67.566    0.385    0.302   10.402
  241.000   62.258    0.366    0.314    9.488
  241.250   63.467    0.431    0.284    8.190
  241.500   80.670    0.513    0.256    5.362
  241.750   96.693    0.536    0.239    4.891
  242.000  101.456    0.519    0.238    4.381
  242.250  102.078    0.489    0.233    4.146
  242.500  100.319    0.486    0.228    3.998
  242.750   98.566    0.519    0.241    3.926
  243.000   99.775    0.541    0.267    3.856
  243.250  102.168    0.532    0.262    3.857
  243.500  101.008    0.536    0.233    3.930
  243.750  104.586    0.568    0.241    4.156
  244.000  116.469    0.578    0.269    4.475
  244.250  118.270    0.554    0.276    4.908
  244.500  112.957    0.528    0.252    5.384
  244.750  106.471    0.463    0.244    6.243
  245.000  104.706    0.444    0.237    6.723
  245.250  102.366    0.434    0.238    7.107
  245.500  101.798    0.432    0.241    7.242
  245.750  101.236    0.428    0.241    7.244
  246.000  100.069    0.424    0.235    7.115
  246.250   98.316    0.424    0.228    7.117
  246.500  100.709    0.428    0.225    6.989
  246.750  102.522    0.439    0.238    7.390
  247.000   98.388    0.446    0.297    7.958
  247.250   77.081    0.426    0.292    8.892
  247.500   65.850    0.426    0.287   11.946
  247.750   65.880    0.437    0.293   12.398
  248.000   66.490    0.426    0.314   12.868
  248.250   67.119    0.424    0.321   13.360
  248.500   67.149    0.426    0.320   13.363
  248.750   67.161    0.419    0.316   13.122
  249.000   66.592    0.420    0.308   12.652
  249.250   70.763    0.414    0.305   11.543
  249.500   76.710    0.408    0.306   10.925
  249.750   80.289    0.422    0.304   10.152
  250.000   77.357    0.437    0.294    9.787
  250.250   83.298    0.457    0.294    9.264
  250.500   79.182    0.463    0.304    9.267
  250.750   76.830    0.438    0.309    9.443
  251.000   78.045    0.433    0.282    9.622
  251.250   83.394    0.433    0.275    9.988
  251.500   98.826    0.426    0.264    9.808
  251.750  103.588    0.419    0.255    9.632
  252.000  104.797    0.411    0.244    9.286
  252.250  102.452    0.416    0.259    8.474
  252.500   98.329    0.427    0.297    8.321
  252.750   85.920    0.466    0.305    8.172
  253.000   69.352    0.441    0.315    8.174
  253.250   61.083    0.429    0.326    9.303
