~VERSION INFORMATION
 VERS.                 2.0:   CWLS LOG ASCII STANDARD -VERSION 2.0
 WRAP.                  NO:   ONE LINE PER DEPTH STEP
~WELL INFORMATION BLOCK
#MNEM.UNIT           DATA                    DESCRIPTION OF MNEMONIC
#---------    -------------------            -------------------------------
# Generated from Intellog Unique Number	CS_69_70/WELL/881
WELL.         HUSKEY OIL OPERATION           : Well_name    - WELL
LOC .         00/10-34-069-05W4/0            : Location     - LOCATION
UWI .         00/10-34-069-05W4/0            : Uwi          - UNIQUE WELL ID
ENTR.         SP                             : Entered      - ENTERED BY
SRVC.         SCHLUMBERGER                   : Scn          - SERVICE COMPANY
STRT.M        300                            : top_depth    - START DEPTH
STOP.M        550                            : bot_depth    - STOP DEPTH
STEP.M        0.25                           : increment    - STEP LENGTH
 NULL. -999.2500:NULL Value
~CURVE INFORMATION BLOCK
#MNEM UNIT       ERCB CURVE CODE    CURVE DESCRIPTION
#-----------   ------------------   ----------------------------------
DEPT.M        00 001 00 00         : DEPTH        - DEPTH
ILD .OHMM     00 120 00 00         : RESD         - DEEP RESISTIVITY (DIL)
DPHI.V/V      00 890 00 00         : PHID         - DENSITY POROSITY (LIMESTONE)
NPHI.V/V      00 330 00 00         : PHIN         - NEUTRON POROSITY (LIMESTONE)
GR  .API      00 310 00 00         : GR           - GAMMA RAY
~PARAMETER INFORMATION
#MNEM.UNIT           DATA             DESCRIPTION OF MNEMONIC
#---------         -----------     ------------------------------
GL  .M        673.5                : gl           - GROUND LEVEL ELEVATION
EREF.M        677.2                : kb           - ELEVATION OF DEPTH REFERENCE
DATM.M        673.5                : datum        - DATUM ELEVATION
TDD .M        558                  : tdd          - TOTAL DEPTH DRILLER
RUN .         ONE                  : Run          - RUN NUMBER
ENG .         BILL                 : Engineer     - RECORDING ENGINEER
WIT .         JIM                  : Witness      - WITNESSED BY
MUD .         GEL                  : Mud_type     - MUD TYPE
MATR.         LIMESTONE            : Logunit      - NEUTRON MATRIX
TMAX.C        22                   : BHT          - MAXIMUM RECORDED TEMPERATURE
BHTD.M        558                  : BHTDEP       - MAXIMUM RECORDED TEMPERATURE
MATR.         1                    : LOGUNIT      - NEUTRON MATRIX
RMT .C        25                   : MDTP         - TEMPERATURE OF MUD
NEUT.         1                    : NEUTRON      - NEUTRON TYPE
RESI.         0                    : RESIST       - RESISTIVITY TYPE
RMC .OHMM     0.25                 : RMC          - RESISTIVITY OF MUD CAKE
RMF .OHMM     0.25                 : RMF          - RESISTIVITY OF MUD FILTRATE
SUFT.C        15                   : SUFT         - SURFACE TEMPERATURE
~A  DEPTH     RESD     PHID     PHIN       GR
  300.000    2.883    0.266    0.510   96.484
  300.250    2.829    0.263    0.520   97.693
  300.500    2.819    0.269    0.532   98.901
  300.750    2.808    0.285    0.517   97.805
  301.000    2.766    0.298    0.524   96.770
  301.250    2.710    0.304    0.562   95.191
  301.500    2.649    0.268    0.576   93.611
  301.750    2.595    0.275    0.582   93.608
  302.000    2.561    0.276    0.573   94.452
  302.250    2.522    0.280    0.565   95.903
  302.500    2.508    0.306    0.575   97.232
  302.750    2.522    0.321    0.588   97.531
  303.000    2.537    0.302    0.595   95.345
  303.250    2.595    0.316    0.596   93.584
  303.500    2.630    0.323    0.593   93.458
  303.750    2.685    0.316    0.560   94.181
  304.000    2.716    0.309    0.532   95.025
  304.250    2.737    0.302    0.524   94.233
  304.500    2.773    0.293    0.522   93.079
  304.750    2.784    0.287    0.524   92.044
  305.000    2.837    0.282    0.542   90.464
  305.250    2.875    0.302    0.556   88.400
  305.500    2.942    0.294    0.565   89.365
  305.750    2.986    0.282    0.572   89.725
  306.000    3.049    0.263    0.570   87.236
  306.250    3.120    0.236    0.542   83.232
  306.500    3.149    0.230    0.526   83.168
  306.750    3.144    0.240    0.517   90.860
  307.000    3.108    0.249    0.542   94.978
  307.250    3.138    0.258    0.557   98.125
  307.500    3.222    0.256    0.543   99.273
  307.750    3.391    0.244    0.533   97.208
  308.000    3.522    0.251    0.517   92.052
  308.250    3.617    0.255    0.475   89.866
  308.500    3.651    0.246    0.453   88.711
  308.750    3.631    0.238    0.470   89.252
  309.000    3.516    0.245    0.503   90.400
  309.250    3.304    0.251    0.514   91.184
  309.500    3.110    0.244    0.525   91.785
  309.750    3.029    0.243    0.535   90.690
  310.000    2.983    0.252    0.535   89.595
  310.250    3.158    0.260    0.550   89.167
  310.500    3.380    0.254    0.534   88.860
  310.750    3.471    0.251    0.505   89.584
  311.000    3.406    0.251    0.508   94.307
  311.250    3.349    0.252    0.484   97.515
  311.500    3.355    0.251    0.484   97.390
  311.750    3.368    0.249    0.510   97.507
  312.000    3.426    0.245    0.522   96.230
  312.250    3.479    0.236    0.503   92.166
  312.500    3.518    0.241    0.492   89.555
  312.750    3.572    0.246    0.477   89.127
  313.000    3.613    0.235    0.494   95.365
  313.250    3.662    0.251    0.498   99.846
  313.500    3.689    0.258    0.475   98.387
  313.750    3.600    0.247    0.465   95.292
  314.000    3.357    0.240    0.492   93.471
  314.250    3.251    0.238    0.505   94.012
  314.500    3.332    0.241    0.495   92.796
  314.750    4.484    0.239    0.506   89.944
  315.000    5.788    0.237    0.519   89.939
  315.250    7.318    0.231    0.499   86.905
  315.500   10.907    0.227    0.263   78.052
  315.750   17.566    0.281    0.206   72.291
  316.000   23.417    0.317    0.175   66.408
  316.250   30.058    0.350    0.159   62.889
  316.500   36.248    0.374    0.157   60.521
  316.750   40.604    0.390    0.160   58.941
  317.000   43.714    0.370    0.166   56.695
  317.250   34.973    0.362    0.171   56.812
  317.500   26.942    0.351    0.214   63.838
  317.750   21.111    0.338    0.246   67.653
  318.000   16.636    0.331    0.264   65.406
  318.250   14.630    0.353    0.250   58.493
  318.500   15.367    0.349    0.251   63.944
  318.750   16.327    0.338    0.278   66.182
  319.000   16.082    0.329    0.293   57.814
  319.250   15.139    0.349    0.259   51.567
  319.500   15.341    0.349    0.247   48.715
  319.750   17.218    0.336    0.266   52.227
  320.000   13.517    0.327    0.282   59.313
  320.250   10.938    0.299    0.278   56.461
  320.500    9.209    0.269    0.281   64.516
  320.750    7.842    0.272    0.328   70.876
  321.000    7.410    0.281    0.386   76.388
  321.250    7.244    0.294    0.414   80.808
  321.500    7.055    0.295    0.415   82.744
  321.750    6.976    0.293    0.409   86.740
  322.000    7.109    0.301    0.411   89.402
  322.250    7.904    0.306    0.422   90.186
  322.500    9.109    0.299    0.424   89.152
  322.750   10.379    0.309    0.411   84.723
  323.000    7.526    0.316    0.402   90.658
  323.250    7.111    0.292    0.393   97.624
  323.500    6.822    0.273    0.393  102.226
  323.750    6.556    0.265    0.435  102.404
  324.000    6.422    0.277    0.455   95.734
  324.250    6.410    0.289    0.367   87.002
  324.500    6.759    0.270    0.381   78.695
  324.750    6.993    0.241    0.395   85.479
  325.000    7.113    0.228    0.404   89.414
  325.250    7.168    0.230    0.408   89.107
  325.500    7.264    0.234    0.395   91.103
  325.750    7.333    0.219    0.415   97.766
  326.000    7.417    0.221    0.429  101.338
  326.250    7.460    0.253    0.440   96.242
  326.500    7.265    0.281    0.427   93.996
  326.750    6.826    0.290    0.414  105.022
  327.000    6.234    0.279    0.417  110.534
  327.250    5.846    0.235    0.443  111.802
  327.500    5.400    0.202    0.457  104.828
  327.750    4.960    0.174    0.467  102.097
  328.000    4.625    0.157    0.488  104.275
  328.250    4.453    0.175    0.494  109.422
  328.500    4.337    0.216    0.484  111.600
  328.750    4.176    0.227    0.480  112.020
  329.000    4.006    0.218    0.491  111.895
  329.250    3.800    0.212    0.509  111.770
  329.500    3.577    0.220    0.523  111.220
  329.750    3.851    0.241    0.535  110.186
  330.000    4.177    0.254    0.545  106.060
  330.250    4.697    0.256    0.512  103.572
  330.500    5.067    0.238    0.466  105.083
  330.750    5.622    0.220    0.451  103.322
  331.000    6.251    0.249    0.444   82.106
  331.250    6.653    0.287    0.387   59.677
  331.500    7.082    0.324    0.376   44.764
  331.750    7.383    0.336    0.377   42.396
  332.000    7.496    0.337    0.382   44.695
  332.250    7.568    0.332    0.379   47.478
  332.500    7.597    0.330    0.371   53.717
  332.750    7.526    0.331    0.376   59.410
  333.000    7.357    0.330    0.382   58.134
  333.250    7.275    0.335    0.382   57.160
  333.500    7.247    0.340    0.384   57.580
  333.750    7.207    0.341    0.391   59.394
  334.000    7.126    0.336    0.395   59.754
  334.250    7.153    0.345    0.401   60.174
  334.500    7.194    0.352    0.411   61.988
  334.750    7.318    0.359    0.409   65.984
  335.000    7.444    0.351    0.394   69.253
  335.250    7.688    0.334    0.391   72.461
  335.500    7.924    0.317    0.396   78.638
  335.750    8.107    0.300    0.400   84.331
  336.000    8.153    0.281    0.405   87.419
  336.250    8.231    0.258    0.413   73.960
  336.500    8.216    0.256    0.417   56.441
  336.750    8.154    0.287    0.377   47.831
  337.000    8.093    0.314    0.365   57.341
  337.250    7.942    0.315    0.376   61.519
  337.500    8.233    0.315    0.392   63.879
  337.750    8.697    0.313    0.399   58.178
  338.000    8.982    0.196    0.361   55.568
  338.250    8.898    0.258    0.343   58.412
  338.500    8.407    0.296    0.352   59.681
  338.750    8.096    0.318    0.372   58.950
  339.000    7.945    0.325    0.382   56.946
  339.250    7.885    0.330    0.389   56.154
  339.500    7.900    0.332    0.392   55.362
  339.750    7.946    0.326    0.394   54.813
  340.000    8.037    0.318    0.393   54.081
  340.250    8.160    0.313    0.402   54.077
  340.500    8.269    0.329    0.400   55.346
  340.750    8.379    0.325    0.391   61.403
  341.000    8.524    0.306    0.384   67.701
  341.250    8.736    0.287    0.386   71.576
  341.500    8.786    0.271    0.372   74.905
  341.750    8.541    0.249    0.344   79.326
  342.000    8.193    0.224    0.340   84.412
  342.250    8.040    0.227    0.357   87.984
  342.500    7.950    0.241    0.368   87.556
  342.750    7.846    0.252    0.366   79.794
  343.000    7.743    0.265    0.358   80.638
  343.250    7.555    0.268    0.380   83.847
