~VERSION INFORMATION
 VERS.                 2.0:   CWLS LOG ASCII STANDARD -VERSION 2.0
 WRAP.                  NO:   ONE LINE PER DEPTH STEP
~WELL INFORMATION BLOCK
#MNEM.UNIT           DATA                    DESCRIPTION OF MNEMONIC
#---------    -------------------            -------------------------------
# Generated from Intellog Unique Number	CS_69_70/WELL/873
WELL.         ET AL HEART LAKE               : Well_name    - WELL
LOC .         00/10-29-069-10W4/0            : Location     - LOCATION
UWI .         00/10-29-069-10W4/0            : Uwi          - UNIQUE WELL ID
ENTR.         SP                             : Entered      - ENTERED BY
SRVC.         SCHLUMBERGER                   : Scn          - SERVICE COMPANY
STRT.M        250                            : top_depth    - START DEPTH
STOP.M        460                            : bot_depth    - STOP DEPTH
STEP.M        0.25                           : increment    - STEP LENGTH
 NULL. -999.2500:NULL Value
~CURVE INFORMATION BLOCK
#MNEM UNIT       ERCB CURVE CODE    CURVE DESCRIPTION
#-----------   ------------------   ----------------------------------
DEPT.M        00 001 00 00         : DEPTH        - DEPTH
ILD .OHMM     00 120 00 00         : RESD         - DEEP RESISTIVITY (DIL)
DPHI.V/V      00 890 00 00         : PHID         - DENSITY POROSITY (LIMESTONE)
NPHI.V/V      00 330 00 00         : PHIN         - NEUTRON POROSITY (LIMESTONE)
GR  .API      00 310 00 00         : GR           - GAMMA RAY
~PARAMETER INFORMATION
#MNEM.UNIT           DATA             DESCRIPTION OF MNEMONIC
#---------         -----------     ------------------------------
GL  .M        598                  : gl           - GROUND LEVEL ELEVATION
EREF.M        601.5                : kb           - ELEVATION OF DEPTH REFERENCE
DATM.M        598                  : datum        - DATUM ELEVATION
TDD .M        500                  : tdd          - TOTAL DEPTH DRILLER
RUN .         ONE                  : Run          - RUN NUMBER
ENG .         BILL                 : Engineer     - RECORDING ENGINEER
WIT .         JIM                  : Witness      - WITNESSED BY
MUD .         GEL                  : Mud_type     - MUD TYPE
MATR.         LIMESTONE            : Logunit      - NEUTRON MATRIX
TMAX.C        22                   : BHT          - MAXIMUM RECORDED TEMPERATURE
BHTD.M        500                  : BHTDEP       - MAXIMUM RECORDED TEMPERATURE
MATR.         1                    : LOGUNIT      - NEUTRON MATRIX
RMT .C        25                   : MDTP         - TEMPERATURE OF MUD
NEUT.         1                    : NEUTRON      - NEUTRON TYPE
RESI.         0                    : RESIST       - RESISTIVITY TYPE
RMC .OHMM     0.25                 : RMC          - RESISTIVITY OF MUD CAKE
RMF .OHMM     0.25                 : RMF          - RESISTIVITY OF MUD FILTRATE
SUFT.C        15                   : SUFT         - SURFACE TEMPERATURE
~A  DEPTH     RESD     PHID     PHIN       GR
# ...
  424.000    2.326    0.224    0.504  102.831
  424.250    2.296    0.223    0.496   98.103
  424.500    2.280    0.223    0.489   95.735
  424.750    2.264    0.224    0.494   95.062
  425.000    2.291    0.232    0.508   99.714
  425.250    2.313    0.238    0.520  103.821
  425.500    2.345    0.238    0.534  107.381
  425.750    2.363    0.231    0.534  109.069
  426.000    2.356    0.223    0.501  105.371
  426.250    2.334    0.218    0.468   96.952
  426.500    2.254    0.213    0.479  101.360
  426.750    2.139    0.210    0.507  104.500
  427.000    2.054    0.215    0.530  107.153
  427.250    2.002    0.222    0.540  107.994
  427.500    1.980    0.217    0.543  107.140
  427.750    1.992    0.217    0.545  107.313
  428.000    2.268    0.223    0.537  107.245
  428.250    2.777    0.233    0.530  105.180
  428.500    3.518    0.240    0.523   95.189
  428.750    4.514    0.244    0.516   86.166
  429.000    5.654    0.253    0.455   76.476
  429.250    6.436    0.220    0.372   67.755
  429.500    7.111    0.197    0.355   62.180
  429.750    7.568    0.215    0.360   62.052
  430.000    7.816    0.237    0.367   60.411
  430.250    7.878    0.227    0.363   59.919
  430.500    7.778    0.223    0.367   64.327
  430.750    7.666    0.243    0.387   67.407
  431.000    7.626    0.247    0.403   65.342
  431.250    7.716    0.226    0.403   58.375
  431.500    7.734    0.183    0.335   55.464
  431.750    7.722    0.160    0.320   59.691
  432.000    7.511    0.200    0.338   64.706
  432.250    7.090    0.237    0.360   70.991
  432.500    6.435    0.249    0.378   78.245
  432.750    6.018    0.245    0.383   86.163
  433.000    6.146    0.252    0.402   93.718
  433.250    7.023    0.262    0.425   96.434
  433.500    7.950    0.274    0.423   89.468
  433.750    8.637    0.295    0.404   82.017
  434.000    8.936    0.308    0.399   76.625
  434.250    8.515    0.303    0.393   81.942
  434.500    7.860    0.288    0.382   94.580
  434.750    7.268    0.255    0.373  103.165
  435.000    6.621    0.222    0.397  108.906
  435.250    6.251    0.217    0.419   99.035
  435.500    6.714    0.246    0.393   87.167
  435.750    7.268    0.262    0.372   80.262
  436.000    7.519    0.251    0.379   76.382
  436.250    7.751    0.234    0.385   76.555
  436.500    7.740    0.238    0.389   79.271
  436.750    7.064    0.258    0.385   83.801
  437.000    6.693    0.253    0.379   87.001
  437.250    6.307    0.241    0.376   89.352
  437.500    6.192    0.237    0.376   90.374
  437.750    6.012    0.243    0.382   88.611
  438.000    5.859    0.250    0.385   87.817
  438.250    5.688    0.255    0.382   88.413
  438.500    5.502    0.257    0.388   90.948
  438.750    5.382    0.258    0.410   94.268
  439.000    5.245    0.264    0.428   96.802
  439.250    5.083    0.268    0.431   97.762
  439.500    4.972    0.254    0.399   86.076
  439.750    4.919    0.237    0.381   78.445
  440.000    4.976    0.225    0.371   74.141
  440.250    5.072    0.212    0.387   79.337
  440.500    5.151    0.184    0.390   82.778
  440.750    5.192    0.212    0.392   77.748
  441.000    5.243    0.253    0.384   73.445
  441.250    5.206    0.279    0.378   76.825
  441.500    5.131    0.277    0.371   81.779
  441.750    4.991    0.262    0.366   86.189
  442.000    4.937    0.249    0.371   82.551
  442.250    4.976    0.240    0.387   71.167
  442.500    5.092    0.240    0.354   60.328
  442.750    5.210    0.236    0.319   60.502
  443.000    5.270    0.200    0.306   71.205
  443.250    5.382    0.188    0.311   82.814
  443.500    5.496    0.192    0.337   90.613
  443.750    5.550    0.194    0.355   93.267
  444.000    5.563    0.211    0.373   94.167
  444.250    5.514    0.241    0.392   91.013
  444.500    5.475    0.262    0.393   85.136
  444.750    5.365    0.307    0.369   78.654
  445.000    5.161    0.243    0.342   81.671
  445.250    5.029    0.191    0.322   84.507
  445.500    4.828    0.180    0.312   86.981
  445.750    4.627    0.184    0.311   88.183
  446.000    4.247    0.210    0.324   74.501
  446.250    4.016    0.240    0.324   63.299
  446.500    3.721    0.252    0.322   64.320
  446.750    3.441    0.240    0.351   62.678
  447.000    3.059    0.268    0.382   56.438
  447.250    2.872    0.297    0.386   58.306
  447.500    3.000    0.281    0.361   73.729
  447.750    3.150    0.234    0.347   93.023
  448.000    3.322    0.182    0.412  111.228
  448.250    3.424    0.147    0.444  117.029
  448.500    3.549    0.153    0.462  119.925
  448.750    3.631    0.141    0.473  121.430
  449.000    3.668    0.107    0.481  120.878
  449.250    3.662    0.087    0.482  117.785
  449.500    3.630    0.068    0.489  118.321
  449.750    3.692    0.115    0.505  120.856
  450.000    3.857    0.146    0.501  123.208
  450.250    3.953    0.161    0.455  123.865
  450.500    4.053    0.174    0.408  118.109
  450.750    4.084    0.182    0.385   97.529
  451.000    3.878    0.204    0.375   84.331
  451.250    3.807    0.255    0.378   74.823
  451.500    3.731    0.244    0.377   74.816
  451.750    3.712    0.247    0.367   81.280
  452.000    3.862    0.251    0.363   84.239
  452.250    3.981    0.234    0.369   87.560
  452.500    4.143    0.223    0.358   90.395
  452.750    4.270    0.213    0.347   92.325
  453.000    4.370    0.207    0.340   88.323
  453.250    4.454    0.214    0.337   86.198
  453.500    4.583    0.222    0.335   87.520
  453.750    4.741    0.226    0.334   89.933
  454.000    4.897    0.205    0.331   93.434
  454.250    5.001    0.182    0.330   96.695
  454.500    5.108    0.165    0.342  101.044
  454.750    5.148    0.186    0.351  102.610
  455.000    5.160    0.192    0.367  108.471
  455.250    5.075    0.195    0.380  114.151
  455.500    5.222    0.204    0.375  118.137
  455.750    5.684    0.178    0.359  106.270
  456.000    6.755    0.161    0.352   87.202
  456.250    8.556    0.141    0.338   77.694
  456.500   10.960    0.039    0.281   67.703
  456.750   13.600   -0.007    0.232   48.212
  457.000   16.469    0.002    0.218   34.953
  457.250   19.646    0.012    0.230   31.738
  457.500   22.958    0.010    0.171   29.370
  457.750   26.431    0.011    0.143   22.526
  458.000   30.090    0.014    0.124   22.033
  458.250   33.936    0.009    0.119   23.418
  458.500   36.113    0.015    0.155   22.563
  458.750   36.061    0.016    0.151   19.893
  459.000   34.174    0.020    0.137   21.277
  459.250   32.927    0.028    0.124   24.596
  459.500   31.082    0.036    0.144   27.978
  459.750   28.316    0.039    0.160   31.601
  460.000   25.413    0.040    0.169   34.497
