~VERSION INFORMATION
 VERS.                 2.0:   CWLS LOG ASCII STANDARD -VERSION 2.0
 WRAP.                  NO:   ONE LINE PER DEPTH STEP
~WELL INFORMATION BLOCK
#MNEM.UNIT           DATA                    DESCRIPTION OF MNEMONIC
#---------    -------------------            -------------------------------
# Generated from Intellog Unique Number	CX_WELLS/WELL/4063
WELL.         10-01-079-01W5                 : Well_name    - WELL
LOC .         00/10-01-079-01W5/0            : Location     - LOCATION
UWI .         00/10-01-079-01W5/0            : Uwi          - UNIQUE WELL ID
ENTR.         MAX                            : Entered      - ENTERED BY
SRVC.         COMPUTALOG                     : Scn          - SERVICE COMPANY
STRT.F        950                            : top_depth    - START DEPTH
STOP.F        1789.9                         : bot_depth    - STOP DEPTH
STEP.F        0.82                           : increment    - STEP LENGTH
 NULL. -999.2500:NULL Value
~CURVE INFORMATION BLOCK
#MNEM UNIT       ERCB CURVE CODE    CURVE DESCRIPTION
#-----------   ------------------   ----------------------------------
DEPT.F        00 001 00 00         : DEPTH        - DEPTH
ILD .OHMM     00 120 00 00         : RESD         - DEEP RESISTIVITY (DIL)
GR  .API      00 310 00 00         : GR           - GAMMA RAY
NPHI.V/V      00 330 00 00         : PHIN         - NEUTRON POROSITY (SANDSTONE)
DPHI.V/V      00 890 00 00         : PHID         - DENSITY POROSITY (SANDSTONE)
~PARAMETER INFORMATION
#MNEM.UNIT           DATA             DESCRIPTION OF MNEMONIC
#---------         -----------     ------------------------------
GL  .F        1935.5               : gl           - GROUND LEVEL ELEVATION
EREF.F        1947.5               : kb           - ELEVATION OF DEPTH REFERENCE
DATM.F        1935.5               : datum        - DATUM ELEVATION
TDD .F        1802                 : tdd          - TOTAL DEPTH DRILLER
RUN .         ONE                  : Run          - RUN NUMBER
ENG .         BILL                 : Engineer     - RECORDING ENGINEER
WIT .         JIM                  : Witness      - WITNESSED BY
MUD .         GEL                  : Mud_type     - MUD TYPE
MATR.         SANDSTONE            : Logunit      - NEUTRON MATRIX
TMAX.F        65                   : BHT          - MAXIMUM RECORDED TEMPERATURE
BHTD.F        1800                 : BHTDEP       - MAXIMUM RECORDED TEMPERATURE
RMT .F        62.06                : MDTP         - TEMPERATURE OF MUD
MUDD.LB/G     1.15                 : MWT          - MUD DENSITY
NEUT.         1                    : NEUTRON      - NEUTRON TYPE
RESI.         0                    : RESIST       - RESISTIVITY TYPE
RM  .OHMM     5.1                  : RM           - RESISTIVITY OF MUD
RMC .OHMM     0                    : RMC          - RESISTIVITY OF MUD CAKE
RMF .OHMM     4.7                  : RMF          - RESISTIVITY OF MUD FILTRATE
SUFT.F        -4                   : SUFT         - SURFACE TEMPERATURE
~A  DEPTH     RESD       GR     PHIN     PHID
# ...
 1520.870   10.097   92.720    0.430    0.126
 1521.690   10.115   94.044    0.456    0.144
 1522.510   10.324   93.464    0.464    0.151
 1523.330   10.533   91.623    0.464    0.148
 1524.150   10.746   89.794    0.462    0.145
 1524.970   11.587   88.595    0.461    0.121
 1525.790   12.033   88.015    0.459    0.121
 1526.610   12.724   86.804    0.451    0.132
 1527.430   14.221   84.319    0.443    0.143
 1528.250   16.178   82.478    0.433    0.154
 1529.070   18.081   78.743    0.407    0.153
 1529.890   19.836   75.640    0.396    0.127
 1530.710   21.781   73.168    0.386    0.102
 1531.530   22.608   70.077    0.351    0.087
 1532.350   23.928   66.974    0.330    0.077
 1533.170   24.412   62.621    0.320    0.066
 1533.990   24.928   60.780    0.320    0.063
 1534.810   24.951   60.212    0.327    0.075
 1535.630   24.997   60.238    0.332    0.087
 1536.450   24.605   60.944    0.340    0.092
 1537.270   24.229   61.613    0.337    0.087
 1538.090   23.815   61.059    0.330    0.084
 1538.910   23.019   61.096    0.310    0.075
 1539.730   22.637   60.504    0.306    0.065
 1540.550   20.730   61.198    0.303    0.055
 1541.370   19.658   63.154    0.307    0.053
 1542.190   18.642   64.453    0.309    0.050
 1543.010   16.757   67.027    0.311    0.047
 1543.830   15.324   74.673    0.317    0.045
 1544.650   13.057   78.496    0.347    0.046
 1545.470   12.603   82.356    0.372    0.052
 1546.290   11.530   82.420    0.387    0.103
 1547.110   11.140   83.089    0.401    0.094
 1547.930   10.768   84.388    0.394    0.083
 1548.750   10.589   88.893    0.388    0.077
 1549.570   10.417   90.192    0.386    0.075
 1550.390   10.258   92.779    0.390    0.074
 1551.210   10.088   93.435    0.390    0.079
 1552.030    9.760   95.391    0.391    0.117
 1552.850    9.598   96.703    0.397    0.105
 1553.670    9.606   98.659    0.406    0.099
 1554.490    9.980   99.971    0.422    0.093
 1555.310   10.373   99.391    0.433    0.122
 1556.140   10.777   95.657    0.443    0.129
 1556.960   11.196   92.554    0.444    0.126
 1557.780   11.422   89.450    0.437    0.121
 1558.600   12.100   87.621    0.413    0.117
 1559.420   12.334   87.672    0.407    0.114
 1560.240   12.368   89.615    0.384    0.112
 1561.060   12.162   95.343    0.380    0.101
 1561.880   11.960   98.560    0.372    0.116
 1562.700   11.555   99.911    0.359    0.130
 1563.520   11.368  100.579    0.362    0.134
 1564.340   11.195  101.248    0.374    0.127
 1565.160   11.014  102.548    0.381    0.125
 1565.980   10.841  105.147    0.385    0.126
 1566.800   10.856  106.447    0.389    0.123
 1567.620   10.685  108.403    0.392    0.123
 1568.440   10.700  109.084    0.400    0.125
 1569.260   10.725  107.242    0.425    0.127
 1570.080   10.740  102.877    0.435    0.128
 1570.900   10.759   99.143    0.434    0.129
 1571.720   10.784   96.040    0.432    0.131
 1572.540   10.804   94.211    0.431    0.131
 1573.360   10.829   93.013    0.431    0.130
 1574.180   11.048   92.420    0.432    0.129
 1575.000   11.069   89.973    0.433    0.128
 1575.820   11.084   88.737    0.436    0.125
 1576.640   11.308   85.646    0.436    0.111
 1577.460   11.334   83.161    0.434    0.088
 1578.280   11.775   78.796    0.431    0.085
 1579.100   12.019   74.431    0.429    0.109
 1579.920   12.942   68.817    0.424    0.137
 1580.740   14.730   63.821    0.422    0.161
 1581.560   17.695   58.182    0.416    0.185
 1582.380   25.966   51.294    0.409    0.223
 1583.200   45.691   34.313    0.405    0.236
 1584.020   83.371   28.056    0.402    0.256
 1584.840  101.987   28.106    0.399    0.274
 1585.660  106.003   28.157    0.394    0.287
 1586.480  108.195   28.233    0.389    0.287
 1587.300  108.446   28.927    0.388    0.287
 1588.120  108.597   28.953    0.388    0.284
 1588.940  106.791   29.634    0.386    0.281
 1589.760  107.138   30.316    0.385    0.278
 1590.580  105.405   30.379    0.384    0.277
 1591.400  105.552   30.442    0.382    0.279
 1592.220  103.893   30.506    0.382    0.280
 1593.040  104.086   29.913    0.383    0.280
 1593.860  104.182   29.951    0.384    0.279
 1594.690  102.592   30.014    0.386    0.276
 1595.510  102.783   30.090    0.385    0.274
 1596.330  101.121   30.116    0.387    0.274
 1597.150  101.261   30.192    0.387    0.276
 1597.970  101.449   29.599    0.388    0.277
 1598.790  101.684   29.675    0.390    0.282
 1599.610  101.920   29.713    0.390    0.284
 1600.430  102.109   29.146    0.390    0.284
 1601.250  102.345   29.171    0.388    0.280
 1602.070  100.644   28.604    0.387    0.274
 1602.890  100.830   28.654    0.386    0.269
 1603.710   99.200   28.705    0.384    0.267
 1604.530   95.884   28.756    0.386    0.267
 1605.350   92.637   28.806    0.391    0.268
 1606.170   87.889   28.895    0.397    0.268
 1606.990   81.847   28.920    0.401    0.268
 1607.810   70.914   29.602    0.402    0.265
 1608.630   62.567   29.652    0.395    0.265
 1609.450   55.203   30.359    0.384    0.265
 1610.270   49.620   30.397    0.378    0.265
 1611.090   47.918   30.461    0.380    0.265
 1611.910   44.685   30.499    0.389    0.262
 1612.730   43.922   31.824    0.394    0.262
 1613.550   40.204   33.767    0.394    0.261
 1614.370   37.492   35.723    0.392    0.261
 1615.190   36.189   36.391    0.390    0.263
 1616.010   33.732   37.729    0.387    0.264
 1616.830   32.003   38.423    0.384    0.264
 1617.650   30.905   38.449    0.380    0.267
 1618.470   28.302   39.143    0.379    0.269
 1619.290   27.818   39.181    0.378    0.270
 1620.110   26.392   40.518    0.373    0.269
 1620.930   25.052   41.818    0.368    0.264
 1621.750   24.203   42.499    0.366    0.255
 1622.570   23.823   43.812    0.359    0.243
 1623.390   23.427   45.768    0.355    0.209
 1624.210   22.633   47.080    0.342    0.201
 1625.030   20.707   49.666    0.320    0.175
 1625.850   18.270   52.897    0.315    0.172
 1626.670   12.514   54.196    0.366    0.222
 1627.490   11.444   54.865    0.376    0.238
 1628.310    9.910   56.177    0.382    0.240
 1629.130    9.579   58.133    0.386    0.212
 1629.950    9.429   60.732    0.388    0.192
 1630.770    9.268   63.294    0.384    0.182
 1631.590    8.793   65.867    0.358    0.152
 1632.410    8.196   70.346    0.353    0.139
 1633.230    7.639   74.169    0.349    0.120
 1634.060    7.512   86.874    0.344    0.110
 1634.880    7.258   88.792    0.393    0.123
 1635.700    7.015   94.520    0.441    0.138
 1636.520    7.032   99.629    0.466    0.129
 1637.340    7.170  100.311    0.485    0.108
 1638.160    7.593   95.959    0.464    0.107
 1638.980    8.176   93.474    0.445    0.114
 1639.800    9.301   91.001    0.422    0.122
 1640.620   10.780   87.910    0.416    0.128
 1641.440   11.820   84.201    0.406    0.128
 1642.260   13.700   81.111    0.391    0.129
 1643.080   15.305   79.244    0.364    0.132
 1643.900   16.790   78.033    0.352    0.134
 1644.720   18.428   79.333    0.348    0.142
 1645.540   18.138   86.335    0.395    0.174
 1646.360   17.532   90.183    0.403    0.203
 1647.180   17.548   87.710    0.410    0.196
 1648.000   16.954   83.976    0.410    0.186
 1648.820   16.085   82.135    0.409    0.179
 1649.640   14.993   82.816    0.407    0.179
 1650.460   13.471   86.046    0.406    0.180
 1651.280   11.885   87.977    0.408    0.180
 1652.100    8.902   91.837    0.406    0.176
 1652.920    8.293   93.124    0.412    0.172
 1653.740    7.324   94.437    0.435    0.169
 1654.560    6.945   97.023    0.477    0.157
 1655.380    6.710  100.228    0.489    0.147
 1656.200    6.602  102.171    0.499    0.131
 1657.020    6.495  100.329    0.505    0.111
 1657.840    6.507   95.334    0.475    0.082
 1658.660    6.528   93.492    0.434    0.059
 1659.480    6.776   97.996    0.404    0.049
 1660.300    7.168   99.283    0.394    0.036
 1661.120    7.864  103.131    0.354    0.115
 1661.940    8.472  104.444    0.478    0.133
 1662.760    8.651  102.615    0.477    0.141
