~VERSION INFORMATION
 VERS.                 2.0:   CWLS LOG ASCII STANDARD -VERSION 2.0
 WRAP.                  NO:   ONE LINE PER DEPTH STEP
~WELL INFORMATION BLOCK
#MNEM.UNIT           DATA                    DESCRIPTION OF MNEMONIC
#---------    -------------------            -------------------------------
# Generated from Intellog Unique Number	CC_84_87/WELL/1182
NULL.         -999.25                        : NULL_VALUE
WELL.         CANADIAN SUPERIOR ALGAR        : Well_name    - WELL              
LOC .         10-01-084-16W4                 : Location     - LOCATION          
UWI .         00/10-01-084-16W400            : Uwi          - UNIQUE WELL ID    
ENTR.         JHS                            : Entered      - ENTERED BY        
SRVC.         SCHLUMBERGER                   : Scn          - SERVICE COMPANY   
DATE.         25 MAR 76                      : Date         - LOG DATE
STRT.M        85.344                         : top_depth    - START DEPTH       
STOP.M        271.645                        : bot_depth    - STOP DEPTH        
STEP.M        0.3                            : increment    - STEP LENGTH       
~CURVE INFORMATION BLOCK
#MNEM UNIT       ERCB CURVE CODE    CURVE DESCRIPTION
#-----------   ------------------   ----------------------------------
DEPT.M        00 001 00 00         : DEPTH        - DEPTH                       
ILD .OHMM     00 120 00 00         : RESD         - DEEP RESISTIVITY (DIL)      
GR  .API      00 310 00 00         : GR           - GAMMA RAY                   
NPHI.V/V      00 330 00 00         : PHIN         - NEUTRON POROSITY (LIMESTONE)
DPHI.V/V      00 890 00 00         : PHID         - DENSITY POROSITY (LIMESTONE)
~PARAMETER INFORMATION       
#MNEM.UNIT           DATA             DESCRIPTION OF MNEMONIC
#---------         -----------     ------------------------------
GL  .M        527.609              : gl           - GROUND LEVEL ELEVATION      
EREF.M        531.754              : kb           - ELEVATION OF DEPTH REFERENCE
DATM.M        531.754              : datum        - DATUM ELEVATION             
TDD .M        271.272              : tdd          - TOTAL DEPTH DRILLER         
RUN .         ONE                  : Run          - RUN NUMBER                  
ENG .         BILL                 : Engineer     - RECORDING ENGINEER          
WIT .         JIM                  : Witness      - WITNESSED BY                
MUD .         GEL                  : Mud_type     - MUD TYPE                    
MATR.         LIMESTONE            : Logunit      - NEUTRON MATRIX              
TMAX.C        60                   : BHT          - MAXIMUM RECORDED TEMPERATURE
BHTD.M        271.272              : BHTDEP       - MAXIMUM RECORDED TEMPERATURE
MATR.         1                    : LOGUNIT      - NEUTRON MATRIX              
RMT .C        25                   : MDTP         - TEMPERATURE OF MUD          
NEUT.         1                    : NEUTRON      - NEUTRON TYPE                
RESI.         0                    : RESIST       - RESISTIVITY TYPE            
RMC .OHMM     0.25                 : RMC          - RESISTIVITY OF MUD CAKE     
RMF .OHMM     0.25                 : RMF          - RESISTIVITY OF MUD FILTRATE 
SUFT.C        15                   : SUFT         - SURFACE TEMPERATURE         
~A  DEPTH     RESD       GR     PHIN     PHID
# ...
  189.745   10.884   56.689    0.419    0.328
  190.045   11.091   58.479    0.414    0.337
  190.345   11.097   59.079    0.411    0.324
  190.645   11.104   57.891    0.417    0.319
  190.945   11.108   58.491    0.404    0.325
  191.245   11.321   59.685    0.401    0.327
  191.545   11.535   60.284    0.403    0.335
  191.845   12.191   58.502    0.400    0.332
  192.145   13.863   52.553    0.394    0.306
  192.445   16.350   48.391    0.379    0.287
  192.745   19.639   45.418    0.245    0.240
  193.045   21.141   44.827    0.165    0.045
  193.345   19.663   48.403    0.209    0.062
  193.645   16.997   55.549    0.358    0.086
  193.945   13.167   61.505    0.420    0.161
  194.245   11.806   64.485    0.427    0.270
  194.545   10.782   65.679    0.422    0.295
  194.845   10.211   67.469    0.426    0.299
  195.145    9.497   68.663    0.438    0.285
  195.445    8.673   69.858    0.458    0.271
  195.745    8.366   70.457    0.470    0.274
  196.045    8.372   71.056    0.468    0.269
  196.345    8.688   69.869    0.461    0.270
  196.645    9.183   64.516    0.455    0.288
  196.945   10.068   63.924    0.458    0.291
  197.245   10.448   65.714    0.447    0.278
  197.545   10.078   68.099    0.417    0.281
  197.845    9.036   72.865    0.427    0.294
  198.145    7.811   76.440    0.466    0.278
  198.445    7.134   79.419    0.456    0.290
  198.745    6.882   80.018    0.441    0.303
  199.045    6.760   81.213    0.449    0.265
  199.345    6.764   84.193    0.443    0.244
  199.645    6.767   85.983    0.445    0.250
  199.945    6.896   88.367    0.441    0.243
  200.245    7.158   84.205    0.461    0.265
  200.545    7.428   83.018    0.474    0.254
  200.845    7.432   84.212    0.468    0.267
  201.145    7.435   86.597    0.465    0.259
  201.445    7.044   87.196    0.471    0.259
  201.745    6.794   86.605    0.479    0.247
  202.045    6.554   84.228    0.481    0.250
  202.345    6.439   84.231    0.469    0.244
  202.645    6.326   87.211    0.468    0.256
  202.945    6.215   84.834    0.481    0.248
  203.245    6.219   80.671    0.498    0.295
  203.545    6.337   76.509    0.503    0.320
  203.845    6.577   73.536    0.497    0.305
  204.145    7.079   71.754    0.480    0.276
  204.445    8.049   70.568    0.469    0.246
  204.745    9.493   69.977    0.446    0.248
  205.045   10.599   68.195    0.456    0.275
  205.345   10.802   68.199    0.450    0.279
  205.645   10.419   69.393    0.443    0.280
  205.945    9.691   68.206    0.444    0.276
  206.245    9.179   63.447    0.448    0.278
  206.545    9.186   62.856    0.461    0.264
  206.845    9.189   67.027    0.441    0.264
  207.145    9.538   67.031    0.436    0.266
  207.445    9.541   68.225    0.459    0.265
  207.745    9.548   71.800    0.468    0.263
  208.045    9.729   71.209    0.450    0.267
  208.345    9.914   68.237    0.427    0.288
  208.645   10.289   67.050    0.437    0.277
  208.945   10.874   68.839    0.436    0.286
  209.245   12.141   71.820    0.428    0.296
  209.545   12.370   74.800    0.427    0.290
  209.845   12.153   77.779    0.397    0.257
  210.145   11.098   77.189    0.422    0.190
  210.445    9.772   75.406    0.436    0.223
  210.745    9.426   73.030    0.424    0.257
  211.045    9.433   72.438    0.424    0.267
  211.345    9.436   76.013    0.430    0.265
  211.645    9.617   80.184    0.425    0.259
  211.945    9.799   82.568    0.417    0.251
  212.245    9.805   83.762    0.436    0.253
  212.545    9.458   81.981    0.444    0.247
  212.845    9.124   80.199    0.437    0.248
  213.145    8.962   81.393    0.453    0.242
  213.445    8.336   85.564    0.468    0.254
  213.745    7.207   91.520    0.476    0.265
  214.045    6.344   93.905    0.486    0.279
  214.345    5.900   89.742    0.492    0.284
  214.645    6.236   86.174    0.495    0.287
  214.945    7.222   80.821    0.488    0.287
  215.245    8.518   77.848    0.444    0.284
  215.545    9.865   79.043    0.422    0.264
  215.845    9.692   82.618    0.424    0.191
  216.145    8.378   86.789    0.444    0.229
  216.445    7.112   89.769    0.456    0.229
  216.745    6.377   87.987    0.488    0.237
  217.045    6.039   88.586    0.501    0.215
  217.345    6.044   92.160    0.483    0.232
  217.645    6.387   95.736    0.468    0.220
  217.945    7.132   98.716    0.494    0.224
  218.245    7.267   98.721    0.489    0.226
  218.545    7.139   97.534    0.457    0.223
  218.845    6.640   96.347    0.469    0.218
  219.145    6.523   96.947    0.469    0.224
  219.445    6.527   97.545    0.491    0.240
  219.745    6.898   96.954    0.499    0.260
  220.045    7.425   95.172    0.485    0.245
  220.345    8.758   89.223    0.441    0.212
  220.645    9.601   85.655    0.404    0.227
  220.945   10.721   91.016    0.408    0.159
  221.245   11.124   97.567    0.413    0.191
  221.545   10.931   94.595    0.401    0.229
  221.845   10.738   92.814    0.412    0.221
  222.145    9.988   94.603    0.407    0.220
  222.445    9.459   96.393    0.400    0.234
  222.745    8.638   96.992    0.405    0.218
  223.045    8.182   96.996    0.422    0.212
  223.345    8.337   95.213    0.446    0.216
  223.645    8.813   91.647    0.445    0.221
  223.945    9.661   88.079    0.427    0.240
  224.245   10.591   85.702    0.423    0.254
  224.545   10.598   84.515    0.433    0.241
  224.845   10.602   83.923    0.442    0.239
  225.145   10.229   82.141    0.433    0.248
  225.445    9.867   77.384    0.439    0.228
  225.745    9.871   76.197    0.443    0.196
  226.045    9.698   78.582    0.414    0.256
  226.345    9.704   80.966    0.410    0.248
  226.645    9.710   80.375    0.407    0.233
  226.945    9.714   78.593    0.414    0.224
  227.245    9.900   72.049    0.419    0.263
  227.545    9.905   73.243    0.413    0.266
  227.845    9.910   69.675    0.413    0.250
  228.145   10.099   63.727    0.407    0.250
  228.445   10.290   60.159    0.375    0.240
  228.745   14.306   53.616    0.256    0.204
  229.045   30.284   50.048    0.191    0.136
  229.345   29.214   56.600    0.211    0.034
  229.645   25.719   61.961    0.286    0.105
  229.945   18.184   65.536    0.411    0.171
  230.245   11.734   69.706    0.437    0.255
  230.545    9.780   71.496    0.443    0.266
  230.845    8.931   73.881    0.444    0.263
  231.145    8.305   76.266    0.438    0.244
  231.445    8.012   80.436    0.449    0.242
  231.745    8.625   83.416    0.445    0.224
  232.045    9.283   83.420    0.426    0.256
  232.345   10.179   79.257    0.436    0.241
  232.645   10.370   82.237    0.427    0.243
  232.945   10.379   85.217    0.411    0.256
  233.245   10.383   83.436    0.413    0.259
  233.546   10.016   84.035    0.411    0.236
  233.846    9.661   80.466    0.420    0.234
  234.146    9.320   73.923    0.421    0.222
  234.446    8.827   75.117    0.418    0.205
  234.746    8.209   78.097    0.451    0.192
  235.046    7.776   79.292    0.468    0.217
  235.346    7.365   82.271    0.476    0.241
  235.646    6.726   86.442    0.465    0.241
  235.946    6.255   88.826    0.453    0.251
  236.246    5.712   88.236    0.466    0.293
  236.546    4.938   90.025    0.491    0.264
  236.846    4.428   93.600    0.478    0.238
  237.146    4.194   94.200    0.482    0.249
  237.446    4.046   94.798    0.494    0.239
  237.746    4.122   96.588    0.494    0.236
  238.046    4.774   98.377    0.489    0.241
  238.346    6.399   98.977    0.490    0.215
  238.646    9.571   93.623    0.458    0.204
  238.946   14.316   81.126    0.418    0.219
  239.246   17.836   81.726    0.396    0.206
  239.546   21.427   84.112    0.395    0.172
  239.846   20.670   88.281    0.405    0.178
  240.146   18.874   90.666    0.393    0.194
  240.446   16.923   89.479    0.401    0.214
  240.746   15.174   90.674    0.408    0.216
  241.046   13.858   90.678    0.409    0.209
  241.346   13.367   88.300    0.401    0.217
  241.646   13.374   81.161    0.400    0.211
