~VERSION INFORMATION
 VERS.                 2.0:   CWLS LOG ASCII STANDARD -VERSION 2.0
 WRAP.                  NO:   ONE LINE PER DEPTH STEP
~WELL INFORMATION BLOCK
#MNEM.UNIT           DATA                    DESCRIPTION OF MNEMONIC
#---------    -------------------            -------------------------------
# Generated from Intellog Unique Number	CS_69_70/WELL/858
NULL.         -999.25                        : NULL_VALUE
WELL.         HB CS PITLOCHRIE               : Well_name    - WELL              
LOC .         00/10-04-070-12W4/0            : Location     - LOCATION          
UWI .         00/10-04-070-12W4/0            : Uwi          - UNIQUE WELL ID    
ENTR.         SP                             : Entered      - ENTERED BY        
SRVC.         SCHLUMBERGER                   : Scn          - SERVICE COMPANY   
STRT.M        286.512                        : top_depth    - START DEPTH       
STOP.M        493.512                        : bot_depth    - STOP DEPTH        
STEP.M        0.25                           : increment    - STEP LENGTH       
~CURVE INFORMATION BLOCK
#MNEM UNIT       ERCB CURVE CODE    CURVE DESCRIPTION
#-----------   ------------------   ----------------------------------
DEPT.M        00 001 00 00         : DEPTH        - DEPTH                       
GR  .API      00 310 00 00         : GR           - GAMMA RAY                   
DPHI.V/V      00 890 00 00         : PHID         - DENSITY POROSITY (SANDSTONE)
NPHI.V/V      00 330 00 00         : PHIN         - NEUTRON POROSITY (SANDSTONE)
ILD .OHMM     00 120 00 00         : RESD         - DEEP RESISTIVITY (DIL)      
~PARAMETER INFORMATION       
#MNEM.UNIT           DATA             DESCRIPTION OF MNEMONIC
#---------         -----------     ------------------------------
GL  .M        601.98               : gl           - GROUND LEVEL ELEVATION      
EREF.M        604.418              : kb           - ELEVATION OF DEPTH REFERENCE
DATM.M        601.98               : datum        - DATUM ELEVATION             
TDD .M        496.824              : tdd          - TOTAL DEPTH DRILLER         
RUN .         ONE                  : Run          - RUN NUMBER                  
ENG .         BILL                 : Engineer     - RECORDING ENGINEER          
WIT .         JIM                  : Witness      - WITNESSED BY                
MUD .         GEL                  : Mud_type     - MUD TYPE                    
MATR.         SANDSTONE            : Logunit      - NEUTRON MATRIX              
TMAX.C        21                   : BHT          - MAXIMUM RECORDED TEMPERATURE
BHTD.M        481.2                : BHTDEP       - MAXIMUM RECORDED TEMPERATURE
MATR.         1                    : LOGUNIT      - NEUTRON MATRIX              
RMT .C        25                   : MDTP         - TEMPERATURE OF MUD          
NEUT.         1                    : NEUTRON      - NEUTRON TYPE                
RESI.         0                    : RESIST       - RESISTIVITY TYPE            
RMC .OHMM     0.25                 : RMC          - RESISTIVITY OF MUD CAKE     
RMF .OHMM     0.25                 : RMF          - RESISTIVITY OF MUD FILTRATE 
SUFT.C        15                   : SUFT         - SURFACE TEMPERATURE         
~A  DEPTH       GR     PHID     PHIN     RESD
# ...
  460.512   81.566    0.181    0.391    4.620
  460.762   77.691    0.181    0.381    4.445
  461.012   73.916    0.185    0.384    4.304
  461.262   77.830    0.224    0.369    4.252
  461.512   80.877    0.211    0.348    4.220
  461.762   81.043    0.203    0.357    4.162
  462.012   77.837    0.183    0.366    4.119
  462.262   75.797    0.190    0.371    4.121
  462.512   75.156    0.212    0.372    4.173
  462.762   73.514    0.221    0.378    4.417
  463.012   71.362    0.215    0.386    4.736
  463.262   68.662    0.208    0.385    4.969
  463.512   67.575    0.206    0.377    5.123
  463.762   67.355    0.218    0.392    4.967
  464.012   66.992    0.240    0.410    4.434
  464.262   65.352    0.275    0.422    3.923
  464.512   63.166    0.286    0.406    3.497
  464.762   65.111    0.275    0.393    3.072
  465.012   69.685    0.277    0.401    2.823
  465.262   73.884    0.271    0.409    2.733
  465.512   78.930    0.276    0.413    2.885
  465.762   84.306    0.253    0.413    3.123
  466.012   91.686    0.239    0.407    3.450
  466.262   97.706    0.231    0.401    3.851
  466.512  108.023    0.219    0.397    4.019
  466.762  115.647    0.171    0.395    4.127
  467.012  122.024    0.145    0.423    4.127
  467.262  122.308    0.129    0.453    4.034
  467.512  118.525    0.124    0.506    4.031
  467.762  115.716    0.117    0.562    4.234
  468.012  115.575    0.104    0.545    4.528
  468.262  112.946    0.098    0.539    4.831
  468.512  103.296    0.135    0.528    5.135
  468.762   93.811    0.173    0.478    5.278
  469.012   83.978    0.204    0.432    5.056
  469.262   77.186    0.232    0.405    4.351
  469.512   73.091    0.267    0.401    3.714
  469.762   69.266    0.301    0.413    3.349
  470.012   64.631    0.286    0.426    3.036
  470.262   62.506    0.291    0.427    2.831
  470.512   64.137    0.297    0.422    2.718
  470.762   67.180    0.292    0.418    2.680
  471.012   69.456    0.295    0.413    2.720
  471.262   72.161    0.283    0.410    2.964
  471.512   75.078    0.270    0.415    3.276
  471.762   76.384    0.259    0.419    3.514
  472.012   78.800    0.244    0.415    3.827
  472.262   81.042    0.213    0.403    4.084
  472.512   85.905    0.156    0.395    4.325
  472.762   91.516    0.138    0.388    4.544
  473.012   95.504    0.187    0.394    4.818
  473.262   98.877    0.205    0.389    4.946
  473.512  102.384    0.172    0.385    4.986
  473.762  106.043    0.166    0.380    4.927
  474.012  109.072    0.186    0.378    4.770
  474.262  110.911    0.165    0.394    4.597
  474.512  108.128    0.163    0.414    4.248
  474.762   97.953    0.191    0.431    3.897
  475.012   90.081    0.202    0.414    3.675
  475.262   82.903    0.211    0.386    3.694
  475.512   81.779    0.230    0.386    3.912
  475.762   87.691    0.230    0.396    4.114
  476.012   91.757    0.203    0.382    4.039
  476.262   81.673    0.177    0.367    3.835
  476.512   70.275    0.155    0.374    3.439
  476.762   61.551    0.201    0.382    2.994
  477.012   57.308    0.193    0.386    2.577
  477.262   55.213    0.219    0.406    2.368
  477.512   52.112    0.258    0.421    2.328
  477.762   49.952    0.273    0.432    2.384
  478.012   58.879    0.277    0.414    2.577
  478.262   66.919    0.279    0.398    2.903
  478.512   79.162    0.274    0.388    3.388
  478.762   95.023    0.263    0.404    3.915
  479.012  105.559    0.230    0.430    4.355
  479.262  101.942    0.227    0.457    4.744
  479.512   95.075    0.163    0.501    4.983
  479.762   98.201    0.125    0.388    5.047
  480.012  107.341    0.081    0.384    5.057
  480.262  110.397    0.055    0.421    5.126
  480.512  109.839    0.065    0.442    5.268
  480.762  108.600    0.042    0.426    5.391
  481.012  109.533    0.060    0.394    5.460
  481.262  115.690    0.038    0.377    5.377
  481.512  122.635    0.053    0.368    5.213
  481.762  129.933    0.046    0.374    4.985
  482.012  136.968    0.057    0.382    4.816
  482.262  143.315    0.074    0.387    4.634
  482.512  148.109    0.086    0.396    4.526
  482.762  150.369    0.078    0.403    4.425
  483.012  151.160    0.082    0.406    4.354
  483.262  151.250    0.092    0.413    4.319
  483.512  150.618    0.089    0.422    4.296
  483.762  148.225    0.098    0.431    4.248
  484.012  145.863    0.091    0.428    4.176
  484.262  143.223    0.102    0.414    4.098
  484.512  138.936    0.106    0.406    4.007
  484.762  133.272    0.104    0.413    3.955
  485.012  128.867    0.106    0.419    3.881
  485.262  128.939    0.117    0.438    3.850
  485.512  130.683    0.113    0.451    3.800
  485.762  132.071    0.093    0.443    3.769
  486.012  133.069    0.094    0.436    3.741
  486.262  133.549    0.111    0.441    3.704
  486.512  133.155    0.128    0.449    3.706
  486.762  131.058    0.116    0.458    3.708
  487.012  128.418    0.123    0.469    3.691
  487.262  126.595    0.118    0.469    3.645
  487.512  126.175    0.108    0.470    3.610
  487.762  126.192    0.123    0.476    3.581
  488.012  126.194    0.136    0.487    3.535
  488.262  126.347    0.141    0.500    3.499
  488.512  126.469    0.130    0.505    3.475
  488.762  126.638    0.125    0.499    3.483
  489.012  126.391    0.134    0.492    3.493
  489.262  124.057    0.145    0.492    3.556
  489.512  125.979    0.136    0.482    3.619
  489.762  124.460    0.132    0.463    3.722
  490.012  121.510    0.121    0.463    3.882
  490.262  120.236    0.105    0.472    4.117
  490.512  105.359    0.093    0.478    4.453
  490.762   88.303    0.077    0.463    4.781
  491.012   27.252    0.071    0.447    5.021
  491.262   20.154    0.082    0.429    5.360
  491.512   12.670    0.092    0.391    5.793
  491.762   11.219    0.082    0.362    6.346
  492.012   11.261    0.082    0.372    7.067
  492.262   11.240    0.089    0.381    7.765
  492.512   13.849    0.085    0.375    8.552
  492.762   18.002    0.081    0.344    9.348
  493.012   27.839    0.078    0.314    9.950
  493.262   55.016    0.073    0.305   10.604
  493.512   65.448    0.070    0.305   10.987
