~VERSION INFORMATION
 VERS.                 2.0:   CWLS LOG ASCII STANDARD -VERSION 2.0
 WRAP.                  NO:   ONE LINE PER DEPTH STEP
~WELL INFORMATION BLOCK
#MNEM.UNIT           DATA                    DESCRIPTION OF MNEMONIC
#---------    -------------------            -------------------------------
# Generated from Intellog Unique Number	CW_82_90/WELL/1031
WELL.         13-22-083-22W4                 : Well_name    - WELL
LOC .         13-22-083-22W4                 : Location     - LOCATION
UWI .         00/13-22-083-22W4/0            : Uwi          - UNIQUE WELL ID
ENTR.         JAYE                           : Entered      - ENTERED BY
SRVC.         SCHLUMBERGER                   : Scn          - SERVICE COMPANY
DATE.         16 FEB 86                      : Date         - LOG DATE
STRT.M        210                            : top_depth    - START DEPTH
STOP.M        441                            : bot_depth    - STOP DEPTH
STEP.M        0.25                           : increment    - STEP LENGTH
 NULL. -999.2500:NULL Value
~CURVE INFORMATION BLOCK
#MNEM UNIT       ERCB CURVE CODE    CURVE DESCRIPTION
#-----------   ------------------   ----------------------------------
DEPT.M        00 001 00 00         : DEPTH        - DEPTH
CALI.MM       00 280 01 00         : CAL          - CALIPER
GR  .API      00 310 00 00         : GR           - GAMMA RAY
NPHI.V/V      00 330 00 00         : PHIN         - NEUTRON POROSITY (SANDSTONE)
DPHI.V/V      00 890 00 00         : PHID         - DENSITY POROSITY (SANDSTONE)
ILD .OHMM     00 120 00 00         : RESD         - DEEP RESISTIVITY (DIL)
~PARAMETER INFORMATION
#MNEM.UNIT           DATA             DESCRIPTION OF MNEMONIC
#---------         -----------     ------------------------------
GL  .M        607.4                : gl           - GROUND LEVEL ELEVATION
EREF.M        611                  : kb           - ELEVATION OF DEPTH REFERENCE
DATM.M        607.4                : datum        - DATUM ELEVATION
TDD .M        442                  : tdd          - TOTAL DEPTH DRILLER
RUN .         ONE                  : Run          - RUN NUMBER
ENG .         NAGY                 : Engineer     - RECORDING ENGINEER
WIT .         KOSS                 : Witness      - WITNESSED BY
BASE.         S.L.                 : Branch       - HOME BASE OF LOGGING UNIT
MUD .         GEL CHEM             : Mud_type     - MUD TYPE
MATR.         SANDSTONE            : Logunit      - NEUTRON MATRIX
TMAX.C        20                   : BHT          - MAXIMUM RECORDED TEMPERATURE
BHTD.M        442                  : BHTDEP       - MAXIMUM RECORDED TEMPERATURE
RMT .C        12                   : MDTP         - TEMPERATURE OF MUD
MUDD.KG/M     1125                 : MWT          - MUD DENSITY
NEUT.         1                    : NEUTRON      - NEUTRON TYPE
RESI.         0                    : RESIST       - RESISTIVITY TYPE
RM  .OHMM     5.87                 : RM           - RESISTIVITY OF MUD
RMC .OHMM     0                    : RMC          - RESISTIVITY OF MUD CAKE
RMF .OHMM     5.23                 : RMF          - RESISTIVITY OF MUD FILTRATE
SUFT.C        0                    : SUFT         - SURFACE TEMPERATURE
~A  DEPTH      CAL       GR     PHIN     PHID     RESD
# ...
  356.000  250.755   85.432    0.467    0.208    8.581
  356.250  236.472   81.173    0.444    0.226    9.149
  356.500  236.870   78.103    0.427    0.232    9.644
  356.750  242.682   77.464    0.410    0.226   10.111
  357.000  247.245   78.892    0.397    0.220   10.461
  357.250  247.642   79.756    0.396    0.215   10.885
  357.500  247.725   76.744    0.404    0.222   11.117
  357.750  247.494   77.294    0.400    0.242   11.023
  358.000  247.272   78.411    0.387    0.243   10.986
  358.250  247.253   77.524    0.389    0.245   11.034
  358.500  246.087   74.450    0.402    0.250   11.396
  358.750  245.026   70.319    0.410    0.271   11.704
  359.000  244.802   68.995    0.418    0.291   12.361
  359.250  244.573   67.485    0.439    0.268   13.128
  359.500  244.557   65.787    0.396    0.228   14.717
  359.750  245.269   66.650    0.316    0.030   18.939
  360.000  244.523   70.949    0.252    0.022   23.701
  360.250  245.126   77.247    0.273    0.132   22.341
  360.500  247.088   83.671    0.365    0.201   18.938
  360.750  249.672   85.847    0.406    0.219   16.112
  361.000  249.653   84.523    0.428    0.232   12.606
  361.250  247.134   76.202    0.441    0.244   10.627
  361.500  246.284   76.129    0.434    0.257   10.130
  361.750  245.121   77.554    0.430    0.271   10.098
  362.000  244.371   75.795    0.432    0.277   10.587
  362.250  244.564   73.284    0.431    0.263   11.244
  362.500  245.585   71.588    0.416    0.234   12.030
  362.750  247.649   71.200    0.402    0.211   12.848
  363.000  250.234   68.378    0.412    0.191   13.647
  363.250  251.464   66.681    0.434    0.191   14.120
  363.500  251.441   66.108    0.420    0.177   14.667
  363.750  251.732   67.096    0.405    0.166   15.034
  364.000  251.408   71.143    0.401    0.176   14.959
  364.250  251.281   75.944    0.395    0.185   14.101
  364.500  251.264   80.430    0.401    0.191   13.194
  364.750  251.247   82.981    0.437    0.199   11.895
  365.000  251.226   84.344    0.450    0.208   11.253
  365.250  251.207   85.645    0.441    0.229   10.727
  365.500  251.188   87.696    0.436    0.240   10.555
  365.750  251.278   90.308    0.452    0.236   10.484
  366.000  251.570   93.545    0.439    0.219   10.451
  366.250  251.241   95.909    0.441    0.212   10.496
  366.500  249.346   95.209    0.453    0.213   10.561
  366.750  248.287   94.011    0.466    0.214   10.666
  367.000  249.622   93.376    0.458    0.209   10.773
  367.250  252.937   88.242    0.443    0.184   10.859
  367.500  253.855   85.606    0.433    0.169   11.030
  367.750  253.002   89.343    0.427    0.192   11.097
  368.000  251.943   92.145    0.424    0.204   11.125
  368.250  252.862   91.568    0.423    0.208   11.028
  368.500  254.716   88.935    0.422    0.208   10.894
  368.750  256.261   89.736    0.431    0.211   10.839
  369.000  254.889   88.351    0.435    0.218   10.805
  369.250  252.681   87.716    0.429    0.215   10.872
  369.500  252.972   91.390    0.422    0.199   11.102
  369.750  252.958   94.815    0.418    0.186   11.683
  370.000  253.357   94.367    0.411    0.180   12.133
  370.250  253.543   97.854    0.394    0.175   12.074
  370.500  254.569   96.342    0.387    0.184   11.834
  370.750  254.860   94.895    0.417    0.197   11.410
  371.000  250.470   92.760    0.421    0.198   11.247
  371.250  248.889   91.124    0.426    0.187   11.192
  371.500  248.664   92.424    0.473    0.181   11.155
  371.750  250.829   93.913    0.485    0.210   11.142
  372.000  253.729   96.277    0.477    0.218   11.147
  372.250  256.938   98.513    0.459    0.208   11.134
  372.500  259.000   96.191    0.448    0.196   10.998
  372.750  259.607   92.617    0.439    0.179   10.920
  373.000  259.585   95.542    0.426    0.161   10.866
  373.250  259.251   97.595    0.438    0.183   10.872
  373.500  259.131   96.643    0.443    0.185   10.759
  373.750  256.929   96.136    0.435    0.182   10.745
  374.000  258.261   94.249    0.430    0.177   10.691
  374.250  259.600   92.865    0.421    0.187   10.697
  374.500  260.620   94.287    0.412    0.192   10.697
  374.750  260.806   96.775    0.416    0.199   10.113
  375.000  260.687   99.515    0.430    0.204   10.059
  375.250  260.462  101.315    0.443    0.208    9.878
  375.500  260.132  101.304    0.421    0.210    9.866
  375.750  258.133   98.233    0.418    0.212   10.230
  376.000  253.741   86.789    0.417    0.209   10.701
  376.250  252.161   85.903    0.409    0.198   11.757
  376.500  252.244   90.075    0.393    0.167   11.807
  376.750  252.230   95.876    0.386    0.173   11.790
  377.000  257.312   98.739    0.404    0.220   11.797
  377.250  259.894   97.292    0.437    0.213   12.025
  377.500  256.129   82.598    0.416    0.200   12.844
  377.750  251.426   80.399    0.401    0.218   13.925
  378.000  249.948   80.453    0.408    0.232   14.871
  378.250  249.827   81.317    0.404    0.225   16.611
  378.500  249.599   80.743    0.389    0.208   18.380
  378.750  249.892   67.176    0.352    0.216   20.036
  379.000  249.666   63.415    0.300    0.223   22.131
  379.250  249.023   63.218    0.281    0.161   23.771
  379.500  248.484   71.390    0.343    0.149   25.008
  379.750  248.987   75.440    0.385    0.184   26.861
  380.000  248.863   73.117    0.345    0.179   28.903
  380.250  248.742   61.362    0.300    0.077   30.524
  380.500  248.826   58.163    0.287    0.067   32.849
  380.750  248.597   58.215    0.282    0.081   34.627
  381.000  248.787   60.764    0.288    0.087   36.502
  381.250  248.562   61.566    0.305    0.109   32.786
  381.500  244.692   61.428    0.362    0.190   30.332
  381.750  244.255   60.482    0.359    0.214   27.089
  382.000  243.608   60.283    0.339    0.202   25.110
  382.250  243.385   64.896    0.295    0.169   23.277
  382.500  243.990   70.694    0.302    0.136   20.595
  382.750  245.848   70.493    0.346    0.148   16.325
  383.000  248.745   67.485    0.382    0.196   14.257
  383.250  252.056   53.481    0.475    0.243   15.002
  383.500  251.206   52.718    0.405    0.283   17.295
  383.750  251.706   54.708    0.359    0.250   19.208
  384.000  252.418   62.943    0.315    0.130   20.979
  384.250  252.814   68.051    0.340    0.123   21.546
  384.500  252.797   69.603    0.350    0.123   21.006
  384.750  253.193   71.967    0.342    0.135   19.506
  385.000  253.488   78.641    0.376    0.191   15.843
  385.250  254.094   82.064    0.403    0.227   14.602
  385.500  254.387   80.555    0.415    0.239   13.741
  385.750  254.682   74.048    0.423    0.245   12.906
  386.000  254.869   73.534    0.426    0.240   12.839
  386.250  255.268   74.898    0.419    0.237   12.992
  386.500  255.460   74.701    0.437    0.230   13.518
  386.750  255.962   70.692    0.437    0.217   14.438
  387.000  257.088   67.056    0.411    0.201   15.976
  387.250  257.585   68.607    0.360    0.188   17.877
  387.500  257.363   69.282    0.337    0.177   20.004
  387.750  256.616   68.585    0.322    0.139   21.606
  388.000  255.245   66.325    0.307    0.097   22.482
  388.250  250.643   66.939    0.302    0.089   22.537
  388.500  247.503   70.801    0.310    0.114   21.605
  388.750  246.539   75.350    0.331    0.155   20.826
  389.000  246.630   73.340    0.351    0.140   19.815
  389.250  246.506   71.580    0.353    0.122   18.438
  389.500  246.490   77.440    0.354    0.136   17.059
  389.750  247.514   83.425    0.362    0.168   15.725
  390.000  250.408   86.976    0.377    0.191   14.714
  390.250  252.679   86.090    0.406    0.208   13.692
  390.500  254.116   81.957    0.416    0.210   12.763
  390.750  254.101   80.194    0.420    0.215   12.030
  391.000  253.875   80.434    0.406    0.213   11.576
  391.250  255.731   84.295    0.401    0.190   11.284
  391.500  257.683   88.034    0.416    0.202   11.061
  391.750  257.772   87.022    0.418    0.215   10.864
  392.000  257.547   84.263    0.420    0.217   10.729
  392.250  257.215   82.003    0.452    0.212   10.716
