~VERSION INFORMATION
 VERS.                 2.0:   CWLS LOG ASCII STANDARD -VERSION 2.0
 WRAP.                  NO:   ONE LINE PER DEPTH STEP
~WELL INFORMATION BLOCK
#MNEM.UNIT           DATA                    DESCRIPTION OF MNEMONIC
#---------    -------------------            -------------------------------
# Generated from Intellog Unique Number	CW_76_78/WELL/2580
WELL.         10-33-078-21W4                 : Well_name    - WELL
LOC .         00/10-33-078-21W4/0            : Location     - LOCATION
UWI .         00/10-33-078-21W4/0            : Uwi          - UNIQUE WELL ID
ENTR.         MAX                            : Entered      - ENTERED BY
SRVC.         SCHLUMBERGER                   : Scn          - SERVICE COMPANY
STRT.M        220                            : top_depth    - START DEPTH
STOP.M        435                            : bot_depth    - STOP DEPTH
STEP.M        0.25                           : increment    - STEP LENGTH
 NULL. -999.2500:NULL Value
~CURVE INFORMATION BLOCK
#MNEM UNIT       ERCB CURVE CODE    CURVE DESCRIPTION
#-----------   ------------------   ----------------------------------
DEPT.M        00 001 00 00         : DEPTH        - DEPTH
ILD .OHMM     00 120 00 00         : RESD         - DEEP RESISTIVITY (DIL)
NPHI.V/V      00 330 00 00         : PHIN         - NEUTRON POROSITY (SANDSTONE)
DPHI.V/V      00 890 00 00         : PHID         - DENSITY POROSITY (SANDSTONE)
CALI.MM       00 280 01 00         : CAL          - CALIPER
GR  .API      00 310 00 00         : GR           - GAMMA RAY
~PARAMETER INFORMATION
#MNEM.UNIT           DATA             DESCRIPTION OF MNEMONIC
#---------         -----------     ------------------------------
GL  .M        566.16               : gl           - GROUND LEVEL ELEVATION
EREF.M        570.12               : kb           - ELEVATION OF DEPTH REFERENCE
DATM.M        566.16               : datum        - DATUM ELEVATION
TDD .M        435.5                : tdd          - TOTAL DEPTH DRILLER
RUN .         ONE                  : Run          - RUN NUMBER
ENG .         BILL                 : Engineer     - RECORDING ENGINEER
WIT .         JIM                  : Witness      - WITNESSED BY
MUD .         GEL                  : Mud_type     - MUD TYPE
MATR.         SANDSTONE            : Logunit      - NEUTRON MATRIX
TMAX.C        22                   : BHT          - MAXIMUM RECORDED TEMPERATURE
BHTD.M        435.5                : BHTDEP       - MAXIMUM RECORDED TEMPERATURE
RMT .C        13                   : MDTP         - TEMPERATURE OF MUD
MUDD.KG/M     1128                 : MWT          - MUD DENSITY
NEUT.         1                    : NEUTRON      - NEUTRON TYPE
RESI.         0                    : RESIST       - RESISTIVITY TYPE
RM  .OHMM     3.18                 : RM           - RESISTIVITY OF MUD
RMC .OHMM     0                    : RMC          - RESISTIVITY OF MUD CAKE
RMF .OHMM     1.6                  : RMF          - RESISTIVITY OF MUD FILTRATE
SUFT.C        -20                  : SUFT         - SURFACE TEMPERATURE
~A  DEPTH     RESD     PHIN     PHID      CAL       GR
# ...
  256.500    6.000    0.524    0.288  176.836   86.391
  256.750    7.633    0.507    0.298  173.421   80.482
  257.000    9.355    0.489    0.305  166.036   73.674
  257.250   10.178    0.469    0.314  162.132   70.431
  257.500   10.094    0.468    0.316  162.177   73.439
  257.750    7.884    0.487    0.304  163.227   78.226
  258.000    6.156    0.487    0.287  163.774   82.121
  258.250    4.634    0.503    0.238  165.808   85.425
  258.500    3.789    0.516    0.216  170.820   86.943
  258.750    3.274    0.527    0.229  176.315   84.002
  259.000    3.130    0.547    0.279  184.299   83.447
  259.250    3.223    0.567    0.299  188.321   83.478
  259.500    3.473    0.541    0.306  184.404   81.421
  259.750    4.257    0.507    0.292  179.998   72.536
  260.000    7.266    0.437    0.251  166.180   64.542
  260.250   10.320    0.364    0.208  159.303   62.200
  260.500   19.317    0.295    0.147  159.369   59.849
  260.750   29.541    0.239    0.075  160.399   56.021
  261.000   29.567    0.243    0.098  160.444   57.836
  261.250   20.117    0.293    0.138  160.001   61.429
  261.500   16.446    0.341    0.243  159.558   65.923
  261.750   13.450    0.400    0.312  158.626   67.440
  262.000   12.280    0.467    0.319  158.685   67.174
  262.250   11.111    0.494    0.323  158.685   67.206
  262.500   10.432    0.512    0.326  158.287   68.430
  262.750   10.358    0.512    0.326  157.844   68.457
  263.000   10.460    0.492    0.329  157.401   65.219
  263.250   10.762    0.482    0.335  156.964   63.174
  263.500   10.982    0.468    0.335  156.514   62.904
  263.750   11.828    0.475    0.339  156.567   65.911
  264.000   13.467    0.482    0.338  156.625   68.328
  264.250   14.515    0.481    0.339  156.684   68.653
  264.500   14.136    0.473    0.337  157.232   67.789
  264.750   12.441    0.470    0.331  157.284   68.712
  265.000    9.896    0.479    0.318  157.329   72.611
  265.250    8.018    0.495    0.305  156.886   77.397
  265.500    6.928    0.511    0.296  156.938   80.995
  265.750    6.099    0.524    0.288  156.991   80.729
  266.000    5.995    0.524    0.301  157.043   77.491
  266.250    6.169    0.489    0.315  157.108   71.578
  266.500    7.562    0.473    0.319  157.160   62.990
  266.750    8.224    0.458    0.329  156.228   61.837
  267.000   11.364    0.470    0.337  156.267   63.057
  267.250   12.707    0.470    0.339  155.831   62.494
  267.500   13.075    0.468    0.330  155.394   61.039
  267.750   13.215    0.467    0.326  154.944   55.717
  268.000   13.351    0.467    0.322  154.996   55.459
  268.250   13.492    0.458    0.322  155.049   57.566
  268.500   13.635    0.448    0.334  155.114   58.787
  268.750   13.635    0.452    0.327  155.153   61.200
  269.000   13.543    0.462    0.326  154.221   63.902
  269.250   13.308    0.478    0.332  154.267   62.744
  269.500   12.846    0.473    0.338  154.325   58.321
  269.750   12.857    0.464    0.334  155.375   60.136
  270.000   12.989    0.485    0.334  155.909   61.352
  270.250   12.887    0.499    0.333  156.965   58.712
  270.500   12.669    0.504    0.340  157.513   57.852
  270.750   12.682    0.479    0.351  157.565   58.478
  271.000   12.697    0.473    0.348  157.624   56.722
  271.250   13.069    0.469    0.343  157.663   54.078
  271.500   13.700    0.464    0.342  157.721   53.820
  271.750   14.098    0.448    0.340  157.774   53.852
  272.000   14.509    0.455    0.339  157.826   52.397
  272.250   14.528    0.465    0.343  157.872   52.725
  272.500   14.682    0.459    0.351  156.946   52.761
  272.750   15.393    0.450    0.348  156.503   51.595
  273.000   15.986    0.469    0.347  156.066   51.333
  273.250   16.153    0.470    0.347  156.105   51.955
  273.500   16.026    0.461    0.349  156.105   52.288
  273.750   15.463    0.461    0.350  155.721   52.620
  274.000   14.384    0.456    0.345  155.278   54.434
  274.250   13.499    0.444    0.347  154.828   57.735
  274.500   11.665    0.434    0.343  154.887   58.662
  274.750   10.083    0.433    0.324  154.450   59.577
  275.000    9.908    0.438    0.294  154.502   61.396
  275.250   10.011    0.444    0.303  154.554   62.322
  275.500   10.496    0.439    0.321  155.102   63.543
  275.750   11.311    0.439    0.314  155.656   67.735
  276.000   12.419    0.452    0.316  155.695   69.546
  276.250   12.898    0.461    0.337  155.747   66.902
  276.500   13.272    0.461    0.343  155.311   63.070
  276.750   13.289    0.466    0.356  155.363   60.430
  277.000   13.183    0.478    0.362  155.422   58.084
  277.250   13.318    0.475    0.365  155.474   56.328
  277.500   14.225    0.462    0.358  155.519   57.556
  277.750   14.910    0.451    0.359  155.585   59.366
  278.000   15.632    0.459    0.354  155.637   58.807
  278.250   16.088    0.456    0.337  155.676   56.160
  278.500   16.270    0.441    0.321  155.741   53.227
  278.750   16.275    0.429    0.341  155.780   52.061
  279.000   16.294    0.420    0.349  155.839   51.498
  279.250   15.437    0.416    0.356  155.898   52.425
  279.500   14.491    0.440    0.378  155.943   53.352
  279.750   13.727    0.466    0.369  155.996   55.460
  280.000   13.246    0.447    0.348  156.054   58.463
  280.250   13.386    0.427    0.345  156.100   63.250
  280.500   13.651    0.432    0.345  156.159   65.956
  280.750   13.671    0.443    0.346  155.722   65.100
  281.000   13.671    0.449    0.351  155.768   63.645
  281.250   13.700    0.454    0.352  155.338   61.001
  281.500   13.589    0.462    0.349  155.383   58.362
  281.750   13.605    0.474    0.352  155.429   58.389
  282.000   13.746    0.476    0.353  155.488   56.637
  282.250   13.890    0.473    0.356  155.533   59.050
  282.500   14.036    0.476    0.346  155.585   60.864
  282.750   14.057    0.479    0.346  155.638   59.711
  283.000   14.073    0.469    0.342  155.696   59.738
  283.250   14.085    0.449    0.338  155.749   57.689
  283.500   14.102    0.425    0.333  155.801   53.853
  283.750   14.118    0.417    0.334  155.358   52.101
  284.000   13.877    0.436    0.350  155.423   54.217
  284.250   13.391    0.467    0.355  154.973   55.139
  284.500   12.804    0.481    0.350  155.514   54.279
  284.750   11.913    0.491    0.344  156.062   53.126
  285.000   11.494    0.495    0.362  156.120   54.052
  285.250   11.401    0.498    0.362  155.690   55.265
  285.500   11.845    0.486    0.357  155.729   57.079
  285.750   12.416    0.473    0.354  155.293   58.605
  286.000   12.896    0.475    0.345  155.338   58.640
  286.250   12.913    0.481    0.341  155.391   59.555
  286.500   12.574    0.485    0.336  155.443   58.996
  286.750   12.252    0.508    0.330  155.006   56.055
  287.000   12.262    0.511    0.329  155.052   56.379
  287.250   12.735    0.495    0.333  155.123   56.415
  287.500   13.231    0.489    0.336  155.163   54.956
  287.750   13.620    0.479    0.337  155.163   54.991
  288.000   13.631    0.476    0.340  155.273   56.806
  288.250   13.649    0.481    0.345  155.332   59.817
  288.500   13.540    0.484    0.356  155.378   57.760
  288.750   13.432    0.481    0.341  154.446   56.606
  289.000   13.324    0.483    0.329  154.492   60.502
  289.250   13.340    0.486    0.330  154.550   62.320
  289.500   13.353    0.505    0.327  154.596   60.564
  289.750   13.369    0.506    0.342  154.661   56.732
  290.000   13.390    0.490    0.348  154.205   57.357
  290.250   13.526    0.475    0.344  154.264   57.393
  290.500   13.797    0.479    0.344  154.322   57.127
  290.750   14.068    0.489    0.343  154.361   57.154
  291.000   14.346    0.496    0.355  154.420   55.406
  291.250   14.762    0.492    0.357  154.466   57.217
  291.500   14.648    0.478    0.353  154.538   59.626
  291.750   14.394    0.472    0.341  154.577   59.958
  292.000   13.763    0.475    0.327  155.144   66.235
  292.250   12.801    0.505    0.310  156.174   68.937
  292.500   10.662    0.524    0.290  156.715   75.515
  292.750    9.047    0.515    0.281  156.780   74.353
