~VERSION INFORMATION
 VERS.                 2.0:   CWLS LOG ASCII STANDARD -VERSION 2.0
 WRAP.                  NO:   ONE LINE PER DEPTH STEP
~WELL INFORMATION BLOCK
#MNEM.UNIT           DATA                    DESCRIPTION OF MNEMONIC
#---------    -------------------            -------------------------------
# Generated from Intellog Unique Number	CS_67_68/WELL/2199
WELL.         10-30-067-18W4                 : Well_name    - WELL
LOC .         00/10-30-067-18W4/0            : Location     - LOCATION
UWI .         00/10-30-067-18W4/0            : Uwi          - UNIQUE WELL ID
ENTR.         JHS                            : Entered      - ENTERED BY
SRVC.         SCHLUMBERGER                   : Scn          - SERVICE COMPANY
STRT.M        350.52                         : top_depth    - START DEPTH
STOP.M        554.52                         : bot_depth    - STOP DEPTH
STEP.M        0.25                           : increment    - STEP LENGTH
 NULL. -999.2500:NULL Value
~CURVE INFORMATION BLOCK
#MNEM UNIT       ERCB CURVE CODE    CURVE DESCRIPTION
#-----------   ------------------   ----------------------------------
DEPT.M        00 001 00 00         : DEPTH        - DEPTH
CALI.MM       00 280 01 00         : CAL          - CALIPER
GR  .API      00 310 00 00         : GR           - GAMMA RAY
DPHI.V/V      00 890 00 00         : PHID         - DENSITY POROSITY (SANDSTONE)
NPHI.V/V      00 330 00 00         : PHIN         - NEUTRON POROSITY (SANDSTONE)
ILD .OHMM     00 120 00 00         : RESD         - DEEP RESISTIVITY (DIL)
~PARAMETER INFORMATION
#MNEM.UNIT           DATA             DESCRIPTION OF MNEMONIC
#---------         -----------     ------------------------------
GL  .M        578                  : gl           - GROUND LEVEL ELEVATION
EREF.M        578                  : kb           - ELEVATION OF DEPTH REFERENCE
DATM.M        578                  : datum        - DATUM ELEVATION
TDD .M        556                  : tdd          - TOTAL DEPTH DRILLER
RUN .         ONE                  : Run          - RUN NUMBER
ENG .         BILL                 : Engineer     - RECORDING ENGINEER
WIT .         JIM                  : Witness      - WITNESSED BY
MUD .         GEL                  : Mud_type     - MUD TYPE
MATR.         SANDSTONE            : Logunit      - NEUTRON MATRIX
TMAX.C        22.7778              : BHT          - MAXIMUM RECORDED TEMPERATURE
BHTD.M        558.698              : BHTDEP       - MAXIMUM RECORDED TEMPERATURE
BTZC.MM       0                    : BITZC        - BIT SIZE CONSTANT
MATR.         1                    : LOGUNIT      - NEUTRON MATRIX
RMT .C        25                   : MDTP         - TEMPERATURE OF MUD
NEUT.         1                    : NEUTRON      - NEUTRON TYPE
RESI.         0                    : RESIST       - RESISTIVITY TYPE
RMC .OHMM     0.25                 : RMC          - RESISTIVITY OF MUD CAKE
RMF .OHMM     0.6                  : RMF          - RESISTIVITY OF MUD FILTRATE
SUFT.C        13                   : SUFT         - SURFACE TEMPERATURE
~A  DEPTH      CAL       GR     PHID     PHIN     RESD
# ...
  496.520  155.003   89.987    0.206    0.449    4.959
  496.770  155.929   92.736    0.216    0.449    3.547
  497.020  156.672  101.097    0.229    0.449    2.746
  497.270  157.460  112.546    0.217    0.476    2.463
  497.520  158.110  117.161    0.203    0.497    2.216
  497.770  158.488  118.687    0.215    0.515    2.414
  498.020  158.390  114.347    0.203    0.513    2.861
  498.270  158.318  108.587    0.190    0.521    3.318
  498.520  158.389  102.365    0.178    0.499    3.723
  498.770  158.893   97.575    0.166    0.457    4.076
  499.020  159.470   93.981    0.160    0.436    4.409
  499.270  160.052   92.154    0.134    0.424    4.664
  499.520  160.885   92.310    0.123    0.428    4.822
  499.770  160.979   94.043    0.133    0.441    4.835
  500.020  160.408   95.256    0.110    0.431    4.728
  500.270  159.766   95.818    0.094    0.418    4.574
  500.520  159.512   98.448    0.145    0.432    4.540
  500.770  159.087   96.790    0.175    0.429    4.733
  501.020  158.847   93.262    0.144    0.427    5.226
  501.270  158.878   91.662    0.118    0.431    5.613
  501.520  159.062   90.662    0.086    0.407    5.885
  501.770  159.254   94.741    0.044    0.365    6.147
  502.020  159.197  102.280    0.033    0.339    5.750
  502.270  159.544  112.398    0.095    0.364    5.154
  502.520  160.309  118.475    0.150    0.401    4.704
  502.770  162.507  111.935    0.168    0.415    4.340
  503.020  163.623  108.616    0.164    0.429    4.000
  503.270  164.238  111.358    0.155    0.432    3.777
  503.520  164.383  113.720    0.141    0.446    3.606
  503.770  164.721  107.594    0.139    0.475    3.510
  504.020  165.045  107.593    0.161    0.487    3.413
  504.270  164.975  110.337    0.147    0.463    3.400
  504.520  164.340  112.159    0.146    0.460    3.409
  504.770  163.556  112.691    0.163    0.462    3.401
  505.020  162.714  113.295    0.174    0.451    3.309
  505.270  161.825  113.302    0.165    0.441    3.198
  505.520  161.151  113.842    0.152    0.443    3.022
  505.770  160.431  114.780    0.166    0.456    2.885
  506.020  159.964  115.958    0.179    0.454    2.765
  506.270  159.745  117.738    0.171    0.445    2.661
  506.520  159.508  119.059    0.164    0.466    2.603
  506.770  159.417  118.888    0.156    0.480    2.578
  507.020  159.284  112.496    0.120    0.471    2.609
  507.270  157.708  112.198    0.092    0.439    2.610
  507.520  159.158  115.893    0.083    0.441    2.610
  507.770  160.210  118.337    0.146    0.460    2.606
  508.020  160.879  118.078    0.163    0.476    2.610
  508.270  160.895  113.556    0.150    0.489    2.626
  508.520  159.870  110.926    0.150    0.488    2.654
  508.770  158.676  108.730    0.140    0.469    2.690
  509.020  157.768  109.554    0.151    0.456    2.736
  509.270  156.770  112.985    0.138    0.459    2.767
  509.520  156.130  116.191    0.127    0.463    2.781
  509.770  155.831  118.431    0.147    0.460    2.772
  510.020  155.829  120.634    0.166    0.471    2.770
  510.270  155.977  118.358    0.176    0.480    2.810
  510.520  156.427  115.420    0.175    0.472    2.873
  510.770  156.583  116.462    0.162    0.457    2.999
  511.020  156.588  110.057    0.174    0.456    3.071
  511.270  156.549  103.466    0.118    0.471    3.038
  511.520  156.257  111.600    0.072    0.442    2.871
  511.770  156.828  119.367    0.053    0.409    2.788
  512.020  157.277  128.058    0.117    0.431    2.745
  512.270  157.599  125.664    0.154    0.477    2.736
  512.520  157.757  124.798    0.175    0.497    2.889
  512.770  158.133  123.166    0.182    0.502    3.239
  513.020  157.892  110.583    0.175    0.500    3.623
  513.270  157.912  100.849    0.156    0.429    4.406
  513.520  157.823   91.566    0.135    0.387    5.577
  513.770  158.124   80.674    0.114    0.362    7.119
  514.020  158.197   73.558    0.094    0.346    8.178
  514.270  158.329   71.573    0.112    0.394    8.832
  514.520  158.443   71.913    0.194    0.407    9.212
  514.770  158.421   70.271    0.223    0.392    9.721
  515.020  158.461   65.877    0.225    0.395   10.213
  515.270  158.366   65.135    0.239    0.408   10.860
  515.520  157.979   65.284    0.245    0.406   11.269
  515.770  157.526   65.494    0.235    0.416   11.523
  516.020  157.085   65.004    0.229    0.407   11.471
  516.270  156.770   63.702    0.245    0.399   10.941
  516.520  156.295   63.699    0.233    0.396   10.448
  516.770  156.072   65.916    0.228    0.395   10.153
  517.020  155.891   67.835    0.245    0.403    9.800
  517.270  155.852   68.735    0.250    0.400    9.556
  517.520  155.853   67.686    0.251    0.389    9.432
  517.770  155.802   69.115    0.248    0.389    9.217
  518.020  155.457   72.566    0.228    0.388    8.870
  518.270  155.385   77.034    0.212    0.384    8.425
  518.520  155.475   81.608    0.224    0.384    8.053
  518.770  155.684   85.646    0.221    0.394    7.767
  519.020  155.937   89.935    0.212    0.386    7.375
  519.270  156.032   93.183    0.206    0.371    6.995
  519.520  156.126   95.731    0.185    0.357    6.414
  519.770  156.131   96.602    0.193    0.356    5.706
  520.020  156.135   95.747    0.208    0.374    5.209
  520.270  156.236   92.558    0.210    0.359    4.870
  520.520  156.292   78.677    0.166    0.364    4.612
  520.770  156.480   65.242    0.153    0.356    4.476
  521.020  156.642   65.719    0.142    0.342    4.371
  521.270  157.142   67.344    0.125    0.334    4.316
  521.520  157.944   66.742    0.115    0.332    4.308
  521.770  158.857   65.936    0.132    0.331    4.326
  522.020  159.915   68.900    0.144    0.332    4.362
  522.270  161.416   71.547    0.147    0.333    4.366
  522.520  161.421   74.009    0.154    0.340    4.365
  522.770  159.757   75.397    0.131    0.350    4.389
  523.020  158.777   76.388    0.103    0.356    4.468
  523.270  158.214   79.348    0.129    0.351    4.412
  523.520  157.527   81.822    0.148    0.343    4.516
  523.770  157.300   84.363    0.157    0.338    4.616
  524.020  156.946   90.909    0.123    0.345    4.693
  524.270  156.988   97.308    0.099    0.345    4.818
  524.520  157.023  104.647    0.088    0.367    5.003
  524.770  156.842  111.054    0.123    0.388    5.078
  525.020  157.011  117.557    0.108    0.404    5.150
  525.270  157.132  124.599    0.074    0.425    5.192
  525.520  157.125  130.880    0.048    0.440    5.221
  525.770  156.667  137.316    0.042    0.435    5.212
  526.020  156.041  143.891    0.056    0.438    5.169
  526.270  155.533  150.095    0.065    0.445    5.064
  526.520  154.968  142.881    0.072    0.432    4.973
  526.770  154.090  136.872    0.077    0.412    4.903
  527.020  153.214  128.429    0.093    0.399    4.871
  527.270  152.721  122.124    0.096    0.384    4.884
  527.520  152.567  117.423    0.078    0.372    4.908
  527.770  152.980  112.629    0.086    0.366    4.891
  528.020  153.846  106.069    0.104    0.358    4.836
  528.270  155.012   96.175    0.101    0.350    4.739
  528.520  155.354   87.177    0.108    0.340    4.612
  528.770  155.356   80.951    0.099    0.333    4.514
  529.020  153.852   78.292    0.088    0.327    4.353
  529.270  151.068   75.737    0.112    0.331    4.239
  529.520  148.987   73.130    0.131    0.333    4.123
  529.770  147.640   71.454    0.135    0.334    4.070
  530.020  148.304   69.719    0.136    0.333    4.033
  530.270  150.107   68.059    0.136    0.325    4.012
  530.520  151.670   66.192    0.155    0.319    4.022
  530.770  153.074   64.302    0.143    0.322    4.048
  531.020  154.649   64.212    0.134    0.325    4.108
  531.270  155.851   64.624    0.129    0.326    4.129
  531.520  156.661   63.264    0.137    0.331    4.099
  531.770  157.535   61.356    0.124    0.339    4.058
  532.020  157.534   61.623    0.132    0.340    4.010
  532.270  156.977   62.818    0.137    0.341    3.981
  532.520  155.689   64.595    0.117    0.346    3.960
  532.770  155.396   67.325    0.100    0.343    3.949
