~VERSION INFORMATION
 VERS.                 2.0:   CWLS LOG ASCII STANDARD -VERSION 2.0
 WRAP.                  NO:   ONE LINE PER DEPTH STEP
~WELL INFORMATION BLOCK
#MNEM.UNIT           DATA                    DESCRIPTION OF MNEMONIC
#---------    -------------------            -------------------------------
# Generated from Intellog Unique Number	CC_80_83/WELL/2410
NULL.         -999.25                        : NULL_VALUE
WELL.         NOVALTA NEWBY                  : Well_name    - WELL
LOC .         11-27-081-04W4                 : Location     - LOCATION          
UWI .         00/11-27-081-04W400            : Uwi          - UNIQUE WELL ID    
ENTR.         DW                             : Entered      - ENTERED BY        
SRVC.         SCHLUMBERGER                   : Scn          - SERVICE COMPANY   
DATE.         25 JAN 83                      : Date         - LOG DATE
STRT.M        95                             : top_depth    - START DEPTH       
STOP.M        265.101                        : bot_depth    - STOP DEPTH        
STEP.M        0.3                            : increment    - STEP LENGTH       
~CURVE INFORMATION BLOCK
#MNEM UNIT       ERCB CURVE CODE    CURVE DESCRIPTION
#-----------   ------------------   ----------------------------------
DEPT.M        00 001 00 00         : DEPTH        - DEPTH                       
DPHI.V/V      00 890 00 00         : PHID         - DENSITY POROSITY (LIMESTONE)
NPHI.V/V      00 330 00 00         : PHIN         - NEUTRON POROSITY (LIMESTONE)
GR  .API      00 310 00 00         : GR           - GAMMA RAY                   
ILD .OHMM     00 120 00 00         : RESD         - DEEP RESISTIVITY (DIL)      
~PARAMETER INFORMATION       
#MNEM.UNIT           DATA             DESCRIPTION OF MNEMONIC
#---------         -----------     ------------------------------
GL  .M        464.62               : gl           - GROUND LEVEL ELEVATION      
EREF.M        468.27               : kb           - ELEVATION OF DEPTH REFERENCE
DATM.M        468.27               : datum        - DATUM ELEVATION             
TDD .M        285                  : tdd          - TOTAL DEPTH DRILLER         
RUN .         ONE                  : Run          - RUN NUMBER                  
ENG .         BILL                 : Engineer     - RECORDING ENGINEER          
WIT .         JIM                  : Witness      - WITNESSED BY                
MUD .         GEL                  : Mud_type     - MUD TYPE                    
MATR.         LIMESTONE            : Logunit      - NEUTRON MATRIX              
TMAX.C        23                   : BHT          - MAXIMUM RECORDED TEMPERATURE
BHTD.M        285                  : BHTDEP       - MAXIMUM RECORDED TEMPERATURE
MATR.         1                    : LOGUNIT      - NEUTRON MATRIX              
RMT .C        25                   : MDTP         - TEMPERATURE OF MUD          
NEUT.         1                    : NEUTRON      - NEUTRON TYPE                
RESI.         0                    : RESIST       - RESISTIVITY TYPE            
RMC .OHMM     0.25                 : RMC          - RESISTIVITY OF MUD CAKE     
RMF .OHMM     0.25                 : RMF          - RESISTIVITY OF MUD FILTRATE 
SUFT.C        15                   : SUFT         - SURFACE TEMPERATURE         
~A  DEPTH     PHID     PHIN       GR     RESD
# ...
  147.201    0.329    0.429   47.986    5.659
  147.501    0.345    0.429   49.170    5.656
  147.801    0.356    0.409   50.968    5.654
  148.101    0.339    0.412   51.552    5.548
  148.401    0.341    0.419   50.304    5.442
  148.701    0.346    0.444   49.069    5.339
  149.001    0.339    0.458   49.040    5.238
  149.301    0.340    0.443   50.832    5.138
  149.601    0.348    0.432   51.415    5.137
  149.901    0.379    0.442   53.204    5.134
  150.201    0.390    0.444   55.001    5.133
  150.501    0.378    0.429   52.542    5.131
  150.801    0.352    0.397   47.053    5.128
  151.101    0.355    0.393   48.849    5.126
  151.401    0.359    0.411   54.279    5.124
  151.701    0.359    0.432   54.857    5.122
  152.001    0.359    0.444   53.623    5.120
  152.301    0.351    0.440   51.161    5.119
  152.601    0.349    0.418   51.740    5.116
  152.901    0.357    0.418   53.531    5.020
  153.201    0.342    0.428   52.901    5.018
  153.501    0.333    0.430   52.268    4.922
  153.801    0.339    0.424   52.234    4.829
  154.101    0.368    0.396   51.596    4.737
  154.401    0.396    0.413   50.969    4.562
  154.701    0.403    0.423   50.333    4.392
  155.001    0.373    0.422   52.131    4.229
  155.301    0.285    0.443   60.602    3.638
  155.601    0.296    0.468   76.355    3.015
  155.901    0.303    0.499   83.613    2.498
  156.201    0.301    0.545   92.690    2.317
  156.501    0.297    0.573   91.447    2.316
  156.801    0.287    0.595   88.994    2.359
  157.101    0.311    0.598   86.531    2.402
  157.401    0.319    0.592   85.285    2.494
  157.701    0.280    0.564   85.265    2.687
  158.001    0.274    0.520   88.270    2.950
  158.301    0.262    0.488   91.892    3.238
  158.601    0.265    0.490   93.074    3.425
  158.901    0.267    0.521   91.221    3.760
  159.201    0.247    0.544   89.981    4.533
  159.501    0.251    0.509   89.345    4.885
  159.801    0.244    0.461   87.495    5.264
  160.101    0.232    0.465   85.651    5.463
  160.401    0.238    0.479   81.978    5.359
  160.701    0.266    0.503   80.738    5.258
  161.001    0.294    0.490   78.273    5.255
  161.301    0.288    0.472   77.652    5.353
  161.601    0.271    0.490   74.590    5.660
  161.901    0.239    0.466   68.489    5.985
  162.201    0.239    0.460   64.208    6.212
  162.501    0.287    0.487   65.397    6.328
  162.801    0.305    0.482   69.620    6.566
  163.101    0.315    0.466   71.411    6.564
  163.401    0.315    0.448   70.783    6.440
  163.701    0.296    0.431   71.363    6.200
  164.001    0.284    0.454   74.969    6.197
  164.301    0.280    0.470   78.588    6.313
  164.601    0.293    0.494   79.775    6.430
  164.901    0.307    0.492   76.709    6.799
  165.201    0.295    0.481   74.856    6.925
  165.501    0.278    0.473   74.837    7.186
  165.801    0.270    0.441   77.230    7.184
  166.101    0.267    0.428   79.634    7.318
  166.401    0.250    0.445   82.644    7.314
  166.701    0.257    0.461   83.227    7.043
  167.001    0.268    0.462   78.941    6.290
  167.301    0.273    0.453   77.098    5.834
  167.601    0.274    0.473   75.251    5.723
  167.901    0.255    0.502   74.615    5.830
  168.201    0.238    0.484   86.122    6.281
  168.501    0.248    0.483   91.559    6.397
  168.801    0.254    0.467   78.780    6.277
  169.101    0.254    0.392   76.931    5.502
  169.401    0.253    0.406   82.968    5.008
  169.701    0.254    0.459   85.984    4.732
  170.001    0.249    0.489   91.416    4.730
  170.301    0.246    0.517   88.352    4.728
  170.601    0.251    0.493   84.073    4.639
  170.901    0.265    0.503   85.260    4.466
  171.201    0.268    0.492   86.450    3.915
  171.501    0.270    0.494   87.031    3.841
  171.801    0.274    0.523   88.211    4.062
  172.101    0.277    0.536   90.008    4.718
  172.401    0.294    0.514   87.557    5.277
  172.701    0.306    0.453   71.737    5.375
  173.001    0.307    0.418   70.504    3.906
  173.301    0.285    0.445   79.580    3.555
  173.601    0.266    0.505   86.232    3.488
  173.901    0.266    0.544   90.450    3.829
  174.201    0.279    0.496   87.386    4.617
  174.501    0.304    0.420   77.650    5.464
  174.801    0.292    0.427   76.406    6.229
  175.101    0.244    0.449   81.841    6.967
  175.401    0.241    0.427   86.666    7.096
  175.701    0.242    0.425   78.753    7.094
  176.001    0.240    0.437   73.869    6.959
  176.301    0.237    0.448   73.233    6.453
  176.601    0.237    0.447   75.628    5.874
  176.901    0.258    0.442   78.034    5.053
  177.201    0.268    0.457   81.647    4.775
  177.501    0.268    0.498   83.439    4.773
  177.801    0.247    0.504   83.416    4.954
  178.101    0.247    0.486   82.768    5.439
  178.401    0.256    0.468   82.747    5.970
  178.701    0.255    0.451   79.685    6.197
  179.001    0.252    0.441   78.437    6.311
  179.301    0.251    0.456   78.421    6.310
  179.601    0.239    0.464   83.853    6.306
  179.901    0.234    0.458   85.649    6.305
  180.201    0.238    0.430   86.832    6.070
  180.501    0.244    0.422   84.979    5.844
  180.801    0.254    0.428   84.350    5.419
  181.101    0.271    0.429   83.713    5.219
  181.401    0.286    0.428   82.475    4.661
  181.701    0.286    0.438   76.375    4.404
  182.001    0.274    0.438   74.525    4.162
  182.301    0.255    0.442   75.107    3.581
  182.601    0.277    0.487   75.689    2.967
  182.901    0.307    0.531   75.054    2.601
  183.201    0.308    0.531   72.597    2.367
  183.501    0.321    0.547   69.531    2.196
  183.801    0.342    0.548   65.855    2.154
  184.101    0.348    0.525   64.623    2.194
  184.401    0.340    0.507   63.984    2.408
  184.701    0.296    0.518   71.851    2.547
  185.001    0.293    0.509   74.860    3.071
  185.301    0.332    0.451   62.685    3.635
  185.601    0.422    0.461   65.084    4.382
  185.901    0.361    0.421   71.733    4.811
  186.201    0.231    0.423   73.535    5.282
  186.501    0.249    0.429   73.506    5.483
  186.801    0.266    0.429   71.046    5.584
  187.101    0.275    0.437   70.410    5.178
  187.401    0.276    0.461   74.637    4.212
  187.701    0.281    0.482   86.140    3.425
  188.001    0.292    0.497   89.753    3.298
  188.301    0.299    0.489   87.904    3.175
  188.601    0.290    0.498   80.598    3.115
  188.901    0.265    0.508   76.320    3.113
  189.201    0.251    0.489   77.507    3.172
  189.501    0.251    0.486   80.509    3.354
  189.801    0.248    0.487   81.701    3.546
  190.101    0.241    0.482   82.280    3.612
  190.401    0.236    0.462   74.969    3.610
  190.701    0.252    0.459   76.760    3.542
  191.001    0.277    0.456   80.973    3.410
  191.301    0.269    0.445   81.556    3.345
  191.601    0.243    0.457   80.317    3.408
  191.901    0.240    0.497   78.469    3.603
  192.201    0.271    0.492   77.229    3.883
  192.501    0.276    0.450   77.196    4.344
  192.801    0.254    0.426   73.531    4.594
  193.101    0.242    0.412   72.894    4.423
  193.401    0.236    0.421   73.476    4.258
  193.701    0.235    0.479   77.085    4.257
  194.001    0.230    0.481   79.493    4.417
  194.301    0.220    0.466   85.534    4.850
  194.601    0.199    0.454   87.327    5.225
  194.901    0.117    0.426   72.732    5.526
  195.201    0.157    0.425   72.096    5.735
  195.501    0.235    0.437   72.665    5.625
  195.801    0.275    0.391   72.037    5.519
  196.101    0.308    0.345   68.976    5.517
  196.401    0.339    0.281   51.948    5.620
  196.701    0.329    0.281   49.496    5.943
  197.001    0.311    0.308   49.468    5.830
  197.301    0.310    0.366   51.867    5.111
  197.601    0.323    0.422   54.877    4.740
  197.901    0.335    0.419   57.885    4.078
  198.201    0.334    0.416   61.500    3.443
  198.501    0.312    0.450   65.719    3.378
  198.801    0.311    0.489   70.545    3.376
  199.101    0.323    0.473   72.341    3.504
