~VERSION INFORMATION
 VERS.                 2.0:   CWLS LOG ASCII STANDARD -VERSION 2.0
 WRAP.                  NO:   ONE LINE PER DEPTH STEP
~WELL INFORMATION BLOCK
#MNEM.UNIT           DATA                    DESCRIPTION OF MNEMONIC
#---------    -------------------            -------------------------------
# Generated from Intellog Unique Number	CW_82_90/WELL/2591
WELL.         AMOCO D-1 WABASCA 10-03        : Well_name    - WELL
LOC .         00/10-03-084-22W4/0            : Location     - LOCATION
UWI .         00/10-03-084-22W4/0            : Uwi          - UNIQUE WELL ID
ENTR.         JJ                             : Entered      - ENTERED BY
SRVC.         SCHLUMBERGER                   : Scn          - SERVICE COMPANY
DATE.         8 MAR 72                       : Date         - LOG DATE
STRT.M        272.491                        : top_depth    - START DEPTH
STOP.M        400.491                        : bot_depth    - STOP DEPTH
STEP.M        0.25                           : increment    - STEP LENGTH
 NULL. -999.2500:NULL Value
~CURVE INFORMATION BLOCK
#MNEM UNIT       ERCB CURVE CODE    CURVE DESCRIPTION
#-----------   ------------------   ----------------------------------
DEPT.M        00 001 00 00         : DEPTH        - DEPTH
ILD .OHMM     00 120 00 00         : RESD         - DEEP RESISTIVITY (DIL)
CALI.MM       00 280 01 00         : CAL          - CALIPER
GR  .API      00 310 00 00         : GR           - GAMMA RAY
NPHI.V/V      00 330 00 00         : PHIN         - NEUTRON POROSITY (SANDSTONE)
DPHI.V/V      00 890 00 00         : PHID         - DENSITY POROSITY (SANDSTONE)
~PARAMETER INFORMATION
#MNEM.UNIT           DATA             DESCRIPTION OF MNEMONIC
#---------         -----------     ------------------------------
GL  .M        605.333              : gl           - GROUND LEVEL ELEVATION
EREF.M        607.771              : kb           - ELEVATION OF DEPTH REFERENCE
DATM.M        607.771              : datum        - DATUM ELEVATION
TDD .M        399.288              : tdd          - TOTAL DEPTH DRILLER
RUN .         ONE                  : Run          - RUN NUMBER
ENG .         WORONUK              : Engineer     - RECORDING ENGINEER
WIT .         HUCULAK              : Witness      - WITNESSED BY
BASE.         EDM                  : Branch       - HOME BASE OF LOGGING UNIT
MUD .         GEL-SAWDUST          : Mud_type     - MUD TYPE
MATR.         SANDSTONE            : Logunit      - NEUTRON MATRIX
TMAX.C        26.1111              : BHT          - MAXIMUM RECORDED TEMPERATURE
BHTD.M        399.898              : BHTDEP       - MAXIMUM RECORDED TEMPERATURE
RMT .C        20                   : MDTP         - TEMPERATURE OF MUD
MUDD.KG/M     1164                 : MWT          - MUD DENSITY
NEUT.         1                    : NEUTRON      - NEUTRON TYPE
RESI.         0                    : RESIST       - RESISTIVITY TYPE
RM  .OHMM     7.15                 : RM           - RESISTIVITY OF MUD
RMC .OHMM     0                    : RMC          - RESISTIVITY OF MUD CAKE
RMF .OHMM     6.84                 : RMF          - RESISTIVITY OF MUD FILTRATE
SUFT.C        5                    : SUFT         - SURFACE TEMPERATURE
~A  DEPTH     RESD      CAL       GR     PHIN     PHID
# ...
  308.991   16.761  161.080   67.188    0.366    0.257
  309.241   17.842  160.459   69.331    0.400    0.285
  309.491   20.180  160.459   70.616    0.382    0.317
  309.741   20.180  160.045   72.881    0.381    0.301
  309.991   15.067  159.113   75.329    0.395    0.270
  310.241   12.264  157.456   78.145    0.375    0.242
  310.491   15.234  156.731   70.495    0.379    0.256
  310.741   19.381  156.732   70.557    0.402    0.274
  310.991   18.241  157.043   71.536    0.382    0.295
  311.241   14.498  157.562   71.904    0.375    0.249
  311.491   13.176  158.184   74.413    0.375    0.204
  311.741   12.424  159.325   78.208    0.384    0.193
  311.991   11.148  160.154   79.616    0.402    0.253
  312.241   10.415  161.295   77.842    0.407    0.276
  312.491   10.301  162.850   80.535    0.386    0.273
  312.741   10.454  163.887   75.823    0.347    0.254
  312.991   11.651  164.613   70.866    0.314    0.228
  313.241   14.027  164.510   72.151    0.272    0.187
  313.491   20.146  164.096   70.010    0.275    0.160
  313.741   29.041  163.164   70.010    0.337    0.121
  313.991   17.845  161.507   71.724    0.343    0.150
  314.241   17.944  160.471   70.929    0.299    0.186
  314.491   26.250  162.129   78.946    0.368    0.233
  314.741   14.210  165.861   88.616    0.398    0.165
  314.991    8.668  173.012   79.437    0.309    0.164
  315.241   15.808  168.867   62.179    0.278    0.206
  315.491   22.788  168.764   59.119    0.267    0.160
  315.741   40.208  169.594   71.788    0.316    0.121
  315.991   21.765  170.113   75.583    0.344    0.146
  316.241   13.252  164.621   73.319    0.327    0.179
  316.491    8.976  168.974   68.484    0.289    0.212
  316.741   15.578  178.094   63.344    0.277    0.212
  316.991   26.447  169.804   62.610    0.298    0.156
  317.241   31.434  168.872   71.790    0.337    0.168
  317.491   20.942  172.707   73.014    0.318    0.182
  317.741   14.555  169.081   66.160    0.337    0.178
  317.991   16.829  165.972   68.976    0.323    0.158
  318.241   22.212  164.418   73.872    0.305    0.180
  318.491   23.994  164.005   75.464    0.364    0.176
  318.741   24.260  164.109   73.751    0.384    0.176
  318.991   20.374  164.317   72.649    0.384    0.219
  319.241   15.240  163.799   74.486    0.384    0.254
  319.491   12.543  165.354   77.791    0.374    0.245
  319.741   14.317  169.915   79.627    0.360    0.246
  319.991   16.105  176.340   82.688    0.352    0.226
  320.241   15.074  179.553   91.807    0.349    0.213
  320.491   10.949  180.176   92.052    0.362    0.230
  320.741    9.788  176.757   90.277    0.400    0.233
  320.991   10.006  169.710   85.320    0.415    0.241
  321.241   10.949  169.918   83.362    0.381    0.242
  321.491   11.612  171.059   83.669    0.356    0.212
  321.741   12.966  165.360   85.995    0.403    0.174
  321.991   15.496  167.122   90.891    0.401    0.189
  322.241   12.990  172.719   93.462    0.380    0.220
  322.491   12.271  177.901   91.443    0.362    0.234
  322.741   13.904  178.420   90.035    0.378    0.236
  322.991   13.651  178.109   88.995    0.380    0.209
  323.241   13.111  181.944   93.586    0.393    0.241
  323.491   12.801  182.463  101.297    0.408    0.240
  323.741   12.825  172.308  101.909    0.406    0.221
  323.991   12.991  156.038   98.054    0.400    0.217
  324.241   14.189  150.443   91.690    0.374    0.244
  324.491   16.436  150.754   90.160    0.362    0.253
  324.741   19.464  153.346   91.017    0.386    0.255
  324.991   21.416  155.730   94.016    0.393    0.258
  325.241   17.021  158.218   95.486    0.387    0.240
  325.491   15.077  160.498   93.772    0.377    0.236
  325.741   11.830  161.431   89.795    0.367    0.247
  325.991   16.681  161.639   86.246    0.353    0.271
  326.241   23.307  160.604   95.487    0.335    0.264
  326.491   17.370  158.532   90.347    0.300    0.219
  326.741   14.803  157.289   77.679    0.251    0.190
  326.991   23.179  156.460   66.357    0.231    0.159
  327.241   52.511  155.735   60.299    0.271    0.144
  327.491   68.798  156.461   60.116    0.264    0.119
  327.741   46.600  159.571   61.524    0.259    0.120
  327.991   39.642  163.820   62.809    0.225    0.144
  328.241   47.031  170.142   63.238    0.208    0.144
  328.491   57.251  173.874   65.197    0.204    0.127
  328.741   84.060  173.875   70.093    0.269    0.100
  328.991  102.515  170.870   73.337    0.322    0.091
  329.241   69.694  152.631   78.723    0.359    0.108
  329.491   27.858  149.419   85.210    0.353    0.155
  329.741   15.388  151.078   82.946    0.348    0.235
  329.991   22.141  153.255   78.602    0.337    0.232
  330.241   23.569  159.473   74.134    0.319    0.213
  330.491   27.252  163.930   70.646    0.305    0.179
  330.741   35.313  165.071   73.768    0.334    0.148
  330.991   32.095  163.724   78.297    0.354    0.129
  331.241   24.724  161.341   78.848    0.366    0.201
  331.491   24.588  159.476   83.132    0.382    0.227
  331.741   24.008  156.161   86.927    0.356    0.248
  331.991   22.846  154.607   84.663    0.347    0.257
  332.241   25.416  154.608   81.359    0.342    0.258
  332.491   20.879  155.748   78.789    0.332    0.223
  332.741   22.431  158.651   77.932    0.320    0.207
  332.991   26.271  160.827   81.237    0.313    0.193
  333.241   26.031  162.175   84.053    0.297    0.200
  333.491   26.710  164.456   77.260    0.267    0.153
  333.741   29.879  166.529   71.936    0.278    0.109
  333.991   34.547  169.638   76.832    0.289    0.093
  334.241   38.859  169.639   81.729    0.300    0.104
  334.491   26.128  162.178   81.362    0.321    0.159
  334.741   33.919  166.946   85.157    0.337    0.203
  334.991   41.290  172.024   79.833    0.337    0.219
  335.241   22.933  172.543   77.263    0.358    0.210
  335.491   18.771  171.507   86.320    0.336    0.201
  335.741   19.617  172.751   88.769    0.312    0.222
  335.991   20.277  172.338   87.851    0.299    0.217
  336.241   20.427  170.162   91.707    0.330    0.197
  336.491   21.824  165.914   93.850    0.361    0.185
  336.741   23.146  161.458   94.278    0.385    0.183
  336.991   20.654  159.386   93.177    0.374    0.234
  337.241   18.634  157.521   89.689    0.344    0.255
  337.491   19.085  157.315   84.243    0.315    0.213
  337.741   24.459  159.284   77.695    0.294    0.193
  337.991   33.002  162.912   77.511    0.317    0.161
  338.241   38.724  164.156   84.488    0.346    0.156
  338.491   29.775  163.742   83.999    0.337    0.174
  338.741   18.808  163.225   85.897    0.352    0.201
  338.991   18.163  162.396   92.568    0.331    0.221
  339.241   19.405  161.879   94.404    0.326    0.224
  339.491   21.039  161.361   86.877    0.335    0.209
  339.741   23.406  160.740   85.286    0.345    0.214
  339.991   19.802  160.326   88.285    0.336    0.219
  340.241   18.774  160.119   91.346    0.339    0.210
  340.491   19.513  160.535   96.120    0.348    0.205
  340.741   20.468  161.986   97.956    0.330    0.207
  340.991   21.510  164.474   90.918    0.324    0.181
  341.241   21.789  165.718   87.308    0.320    0.159
  341.491   20.060  165.615   87.186    0.317    0.164
  341.741   20.171  167.895   89.573    0.328    0.200
  341.991   20.926  172.352   95.877    0.355    0.213
  342.241   16.723  175.358   98.570    0.351    0.200
  342.491   15.005  176.395   96.490    0.328    0.222
  342.741   15.396  176.292   92.818    0.332    0.199
  342.991   17.510  176.085   88.045    0.342    0.207
  343.241   18.066  175.671   86.026    0.338    0.188
  343.491   15.228  174.947   94.655    0.345    0.182
  343.741   14.814  174.014   98.878    0.353    0.223
  343.991   15.741  171.839   93.432    0.342    0.212
  344.241   17.256  168.627   88.597    0.339    0.222
  344.491   20.434  163.860   80.030    0.336    0.222
  344.741   27.269  163.758   80.214    0.320    0.198
  344.991   21.122  169.769   88.782    0.319    0.160
  345.241   16.942  170.909   94.352    0.360    0.144
