~VERSION INFORMATION
 VERS.                 2.0:   CWLS LOG ASCII STANDARD -VERSION 2.0
 WRAP.                  NO:   ONE LINE PER DEPTH STEP
~WELL INFORMATION BLOCK
#MNEM.UNIT           DATA                    DESCRIPTION OF MNEMONIC
#---------    -------------------            -------------------------------
# Generated from Intellog Unique Number	CW_70_72/WELL/1036
NULL.         -999.25                        : NULL_VALUE
WELL.         JOFFRE ET AL CALLW 10-15       : Well_name    - WELL              
LOC .         10-15-071-20W4                 : Location     - LOCATION          
UWI .         00/10-15-071-20W4/0            : Uwi          - UNIQUE WELL ID    
ENTR.         JAYE                           : Entered      - ENTERED BY        
SRVC.         SCHLUMBERGER                   : Scn          - SERVICE COMPANY   
DATE.         13 JAN 79                      : Date         - LOG DATE          
STRT.M        315                            : top_depth    - START DEPTH       
STOP.M        500                            : bot_depth    - STOP DEPTH        
STEP.M        0.25                           : increment    - STEP LENGTH       
~CURVE INFORMATION BLOCK
#MNEM UNIT       ERCB CURVE CODE    CURVE DESCRIPTION
#-----------   ------------------   ----------------------------------
DEPT.M        00 001 00 00         : DEPTH        - DEPTH                       
DPHI.V/V      00 890 00 00         : PHID         - DENSITY POROSITY (SANDSTONE)
NPHI.V/V      00 330 00 00         : PHIN         - NEUTRON POROSITY (SANDSTONE)
GR  .API      00 310 00 00         : GR           - GAMMA RAY                   
CALI.MM       00 280 01 00         : CAL          - CALIPER                     
ILD .OHMM     00 120 00 00         : RESD         - DEEP RESISTIVITY (DIL)      
~PARAMETER INFORMATION       
#MNEM.UNIT           DATA             DESCRIPTION OF MNEMONIC
#---------         -----------     ------------------------------
GL  .M        584.3                : gl           - GROUND LEVEL ELEVATION      
EREF.M        587.6                : kb           - ELEVATION OF DEPTH REFERENCE
DATM.M        584.3                : datum        - DATUM ELEVATION             
TDD .M        530                  : tdd          - TOTAL DEPTH DRILLER         
RUN .         ONE                  : Run          - RUN NUMBER                  
ENG .         MOORE                : Engineer     - RECORDING ENGINEER          
WIT .         O'REILLY             : Witness      - WITNESSED BY                
BASE.         EDM                  : Branch       - HOME BASE OF LOGGING UNIT   
MUD .         FGM                  : Mud_type     - MUD TYPE                    
MATR.         SANDSTONE            : Logunit      - NEUTRON MATRIX              
TMAX.C        26                   : BHT          - MAXIMUM RECORDED TEMPERATURE
BHTD.M        531                  : BHTDEP       - MAXIMUM RECORDED TEMPERATURE
RMT .C        48.9                 : MDTP         - TEMPERATURE OF MUD          
MUDD.KG/M     1090                 : MWT          - MUD DENSITY                 
NEUT.         1                    : NEUTRON      - NEUTRON TYPE                
RESI.         0                    : RESIST       - RESISTIVITY TYPE            
RM  .OHMM     2.79                 : RM           - RESISTIVITY OF MUD          
RMC .OHMM     0                    : RMC          - RESISTIVITY OF MUD CAKE     
RMF .OHMM     4.18                 : RMF          - RESISTIVITY OF MUD FILTRATE 
SUFT.C        0                    : SUFT         - SURFACE TEMPERATURE         
~A  DEPTH     PHID     PHIN       GR      CAL     RESD
# ...
  388.000    0.165    0.426   90.620  171.091    5.551
  388.250    0.169    0.423   91.231  173.032    5.555
  388.500    0.178    0.420   92.334  175.180    5.547
  388.750    0.172    0.411   93.438  176.917    5.508
  389.000    0.165    0.426   94.972  178.857    5.480
  389.250    0.186    0.449   95.952  179.671    5.382
  389.500    0.198    0.456   95.824  179.971    5.275
  389.750    0.188    0.460   95.205  180.270    5.142
  390.000    0.160    0.468   95.877  180.262    4.938
  390.250    0.157    0.457   98.334  180.768    4.768
  390.500    0.160    0.441   99.992  181.787    4.460
  390.750    0.169    0.434  101.526  182.497    4.235
  391.000    0.166    0.441  101.890  182.182    4.060
  391.250    0.160    0.451  100.040  182.072    3.972
  391.500    0.155    0.470  102.005  184.219    3.937
  391.750    0.198    0.490   95.722  184.621    3.924
  392.000    0.234    0.482   83.346  177.227    3.978
  392.250    0.229    0.443   81.495  169.321    4.093
  392.500    0.227    0.431   85.922  167.570    4.212
  392.750    0.232    0.425   85.610  167.972    4.383
  393.000    0.248    0.425   83.451  168.683    4.509
  393.250    0.257    0.421   81.600  169.596    4.789
  393.500    0.200    0.428   83.749  170.103    5.330
  393.750    0.189    0.433   84.606  170.712    5.965
  394.000    0.180    0.422   81.894  170.703    7.022
  394.250    0.167    0.410   78.751  171.210    8.468
  394.500    0.128    0.395   74.991  171.920   10.963
  394.750    0.099    0.342   71.170  172.732   13.147
  395.000    0.016    0.178   64.949  173.546   16.459
  395.250   -0.010    0.156   61.006  177.230   19.701
  395.500   -0.030    0.153   59.093  177.120   21.721
  395.750   -0.030    0.156   58.165  175.575   24.310
  396.000   -0.029    0.159   58.222  175.465   23.963
  396.250   -0.028    0.166   60.126  176.893   21.920
  396.500   -0.025    0.176   64.368  177.398   19.029
  396.750   -0.016    0.190   62.948  176.773   15.160
  397.000    0.009    0.204   60.358  176.459   11.591
  397.250    0.042    0.220   61.708  177.786    9.166
  397.500    0.117    0.252   65.580  180.445    7.898
  397.750    0.161    0.290   70.130  179.925    6.095
  398.000    0.205    0.373   74.927  175.814    5.213
  398.250    0.242    0.412   81.016  171.496    4.751
  398.500    0.231    0.438   83.043  170.567    4.461
  398.750    0.200    0.421   84.022  171.278    4.324
  399.000    0.194    0.422   85.126  173.937    4.199
  399.250    0.193    0.423   90.784  177.725    4.139
  399.500    0.208    0.419   85.609  176.281    4.095
  399.750    0.227    0.416   82.343  170.529    4.074
  400.000    0.232    0.428   79.199  170.727    4.069
  400.250    0.202    0.443   78.887  173.488    4.071
  400.500    0.209    0.450   83.375  173.274    4.096
  400.750    0.233    0.446   83.555  172.242    4.152
  401.000    0.256    0.430   83.304  171.106    4.225
  401.250    0.240    0.421   84.716  170.380    4.267
  401.500    0.241    0.432   87.050  169.347    4.309
  401.750    0.230    0.448   91.169  168.826    4.344
  402.000    0.220    0.462   94.550  168.203    4.362
  402.250    0.219    0.445   91.468  168.298    4.389
  402.500    0.212    0.427   85.739  169.829    4.449
  402.750    0.200    0.440   80.872  170.335    4.561
  403.000    0.230    0.434   77.851  171.045    4.754
  403.250    0.245    0.431   79.509  171.243    5.078
  403.500    0.233    0.439   81.536  170.619    5.245
  403.750    0.221    0.434   83.255  169.176    5.247
  404.000    0.208    0.415   78.695  167.835    5.058
  404.250    0.147    0.402   75.613  167.417    4.902
  404.500    0.153    0.396   77.948  167.512    4.726
  404.750    0.175    0.410   82.005  168.632    4.640
  405.000    0.227    0.426   85.078  169.241    4.548
  405.250    0.234    0.440   85.443  169.540    4.517
  405.500    0.239    0.446   84.269  169.429    4.502
  405.750    0.246    0.446   83.895  169.114    4.497
  406.000    0.236    0.441   84.998  168.901    4.507
  406.250    0.225    0.433   86.717  169.100    4.484
  406.500    0.219    0.425   89.420  169.502    4.453
  406.750    0.181    0.432   92.863  170.315    4.415
  407.000    0.196    0.456   96.490  171.025    4.384
  407.250    0.224    0.471   94.885  169.889    4.354
  407.500    0.251    0.457   90.757  168.446    4.323
  407.750    0.276    0.446   89.767  166.899    4.317
  408.000    0.252    0.451   90.009  165.867    4.376
  408.250    0.232    0.424   87.727  164.730    4.487
  408.500    0.229    0.409   83.537  165.029    4.573
  408.750    0.242    0.417   74.362  166.151    4.584
  409.000    0.258    0.435   67.648  168.913    4.321
  409.250    0.273    0.453   66.535  169.418    4.072
  409.500    0.275    0.427   65.669  169.410    3.874
  409.750    0.273    0.425   67.018  169.197    3.741
  410.000    0.273    0.437   68.861  169.190    3.619
  410.250    0.272    0.437   69.718  168.873    3.528
  410.500    0.266    0.437   71.929  168.662    3.477
  410.750    0.258    0.442   73.771  168.962    3.447
  411.000    0.252    0.447   74.074  168.955    3.423
  411.250    0.260    0.446   73.700  168.844    3.412
  411.500    0.269    0.430   73.141  168.632    3.408
  411.750    0.279    0.426   72.583  168.315    3.422
  412.000    0.288    0.417   71.040  168.308    3.437
  412.250    0.294    0.419   68.450  168.199    3.477
  412.500    0.283    0.434   64.322  167.987    3.531
  412.750    0.285    0.436   61.670  167.876    3.640
  413.000    0.286    0.431   63.574  167.664    3.711
  413.250    0.278    0.443   64.431  167.246    3.964
  413.500    0.256    0.426   63.934  166.724    4.709
  413.750    0.218    0.376   63.314  167.538    6.400
  414.000    0.173    0.334   62.448  169.274    7.805
  414.250    0.077    0.296   61.335  171.523    9.608
  414.500    0.058    0.273   59.977  172.747   10.515
  414.750    0.075    0.276   58.679  173.355   10.060
  415.000    0.090    0.310   58.675  168.628    7.984
  415.250    0.120    0.343   60.517  163.492    6.255
  415.500    0.184    0.368   64.390  163.074    5.049
  415.750    0.218    0.411   66.601  164.810    4.278
  416.000    0.272    0.437   67.274  167.572    3.558
  416.250    0.295    0.448   67.331  169.206    3.254
  416.500    0.286    0.436   67.019  170.633    3.056
  416.750    0.272    0.422   66.890  170.729    2.951
  417.000    0.277    0.412   65.655  170.822    2.892
  417.250    0.282    0.432   64.235  171.021    2.872
  417.500    0.287    0.429   63.984  171.526    2.950
  417.750    0.293    0.425   63.241  171.928    3.075
  418.000    0.284    0.428   63.791  172.332    3.334
  418.250    0.273    0.429   67.848  172.632    3.574
  418.500    0.240    0.430   73.506  173.035    3.782
  418.750    0.227    0.431   74.671  173.026    3.892
  419.000    0.219    0.432   73.743  173.020    3.923
  419.250    0.215    0.430   74.477  172.704    3.838
  419.500    0.211    0.430   79.458  172.595    3.693
  419.750    0.205    0.440   83.024  172.792    3.513
  420.000    0.206    0.453   87.081  176.169    3.354
  420.250    0.211    0.471   92.247  179.958    3.086
  420.500    0.225    0.491   96.797  185.900    2.881
  420.750    0.207    0.512   99.685  186.508    2.626
  421.000    0.188    0.509  101.465  183.730    2.434
  421.250    0.190    0.497  103.738  184.235    2.368
  421.500    0.210    0.520  107.981  186.073    2.450
  421.750    0.212    0.537  109.699  187.708    2.676
  422.000    0.240    0.555  107.849  189.547    2.934
  422.250    0.243    0.549  106.551  192.206    3.199
  422.500    0.232    0.519  106.423  191.276    3.455
  422.750    0.189    0.485  107.466  185.524    3.746
  423.000    0.181    0.471  110.169  180.489    3.957
  423.250    0.173    0.473  110.411  179.147    4.156
  423.500    0.180    0.490  106.159  179.037    4.308
  423.750    0.124    0.505   99.199  178.722    4.475
  424.000    0.141    0.491   94.702  177.278    4.621
  424.250    0.147    0.446   95.251  175.219    4.809
