~VERSION INFORMATION
 VERS.                 2.0:   CWLS LOG ASCII STANDARD -VERSION 2.0
 WRAP.                  NO:   ONE LINE PER DEPTH STEP
~WELL INFORMATION BLOCK
#MNEM.UNIT           DATA                    DESCRIPTION OF MNEMONIC
#---------    -------------------            -------------------------------
# Generated from Intellog Unique Number	CW_70_72/WELL/1050
NULL.         -999.25                        : NULL_VALUE
WELL.         GULF FRANS 10-34               : Well_name    - WELL              
LOC .         10-34-071-21W4                 : Location     - LOCATION          
UWI .         00/10-34-071-21W4/0            : Uwi          - UNIQUE WELL ID    
ENTR.         JAYE                           : Entered      - ENTERED BY        
SRVC.         SCHLUMBERGER                   : Scn          - SERVICE COMPANY   
DATE.         7 MAR 86                       : Date         - LOG DATE          
STRT.M        320                            : top_depth    - START DEPTH       
STOP.M        505                            : bot_depth    - STOP DEPTH        
STEP.M        0.25                           : increment    - STEP LENGTH       
~CURVE INFORMATION BLOCK
#MNEM UNIT       ERCB CURVE CODE    CURVE DESCRIPTION
#-----------   ------------------   ----------------------------------
DEPT.M        00 001 00 00         : DEPTH        - DEPTH                       
DPHI.V/V      00 890 00 00         : PHID         - DENSITY POROSITY (SANDSTONE)
NPHI.V/V      00 330 00 00         : PHIN         - NEUTRON POROSITY (SANDSTONE)
GR  .API      00 310 00 00         : GR           - GAMMA RAY                   
CALI.MM       00 280 01 00         : CAL          - CALIPER                     
ILD .OHMM     00 120 00 00         : RESD         - DEEP RESISTIVITY (DIL)      
~PARAMETER INFORMATION       
#MNEM.UNIT           DATA             DESCRIPTION OF MNEMONIC
#---------         -----------     ------------------------------
GL  .M        593                  : gl           - GROUND LEVEL ELEVATION      
EREF.M        597.3                : kb           - ELEVATION OF DEPTH REFERENCE
DATM.M        593                  : datum        - DATUM ELEVATION             
TDD .M        524                  : tdd          - TOTAL DEPTH DRILLER         
RUN .         ONE                  : Run          - RUN NUMBER                  
ENG .         GEORGE               : Engineer     - RECORDING ENGINEER          
WIT .         CLAPHAM              : Witness      - WITNESSED BY                
BASE.         SL                   : Branch       - HOME BASE OF LOGGING UNIT   
MUD .         GEL CHEM             : Mud_type     - MUD TYPE                    
MATR.         SANDSTONE            : Logunit      - NEUTRON MATRIX              
TMAX.C        22                   : BHT          - MAXIMUM RECORDED TEMPERATURE
BHTD.M        525                  : BHTDEP       - MAXIMUM RECORDED TEMPERATURE
RMT .C        12.8                 : MDTP         - TEMPERATURE OF MUD          
MUDD.KG/M     1120                 : MWT          - MUD DENSITY                 
NEUT.         1                    : NEUTRON      - NEUTRON TYPE                
RESI.         0                    : RESIST       - RESISTIVITY TYPE            
RM  .OHMM     3.15                 : RM           - RESISTIVITY OF MUD          
RMC .OHMM     0                    : RMC          - RESISTIVITY OF MUD CAKE     
RMF .OHMM     3.2                  : RMF          - RESISTIVITY OF MUD FILTRATE 
SUFT.C        0                    : SUFT         - SURFACE TEMPERATURE         
~A  DEPTH     PHID     PHIN       GR      CAL     RESD
  320.000    0.234    0.506   97.613  218.455    2.911
  320.250    0.225    0.512   93.944  218.370    2.974
  320.500    0.233    0.518   89.837  218.283    3.056
  320.750    0.236    0.525   88.663  218.300    3.111
  321.000    0.228    0.509   91.480  217.697    3.137
  321.250    0.217    0.467   95.856  217.505    3.175
  321.500    0.214    0.452   99.672  217.624    3.213
  321.750    0.222    0.471  102.552  217.643    3.227
  322.000    0.224    0.488   99.630  217.867    3.241
  322.250    0.224    0.492   93.903  217.989    3.262
  322.500    0.227    0.506   92.480  218.008    3.264
  322.750    0.233    0.496   91.055  218.127    3.267
  323.000    0.226    0.495   89.568  218.464    3.262
  323.250    0.218    0.499   93.509  218.579    3.215
  323.500    0.215    0.461   92.834  218.600    3.145
  323.750    0.213    0.444   90.787  218.513    3.082
  324.000    0.206    0.455   88.426  218.215    3.095
  324.250    0.215    0.497   85.068  214.388    3.354
  324.500    0.173    0.506   80.775  205.985    3.951
  324.750    0.142    0.376   73.238  197.166    4.880
  325.000    0.151    0.355   81.980  193.546    5.419
  325.250    0.243    0.376   88.852  199.593    5.261
  325.500    0.237    0.393   86.929  206.054    5.039
  325.750    0.221    0.405   89.996  213.972    4.711
  326.000    0.220    0.423   94.185  217.940    4.529
  326.250    0.272    0.445   93.260  213.698    4.430
  326.500    0.283    0.459   92.522  206.020    4.492
  326.750    0.277    0.460   92.222  192.733    4.767
  327.000    0.273    0.451   88.988  188.072    5.001
  327.250    0.285    0.431   83.946  191.834    5.308
  327.500    0.297    0.420   78.343  195.384    5.643
  327.750    0.269    0.422   70.745  198.728    5.921
  328.000    0.243    0.421   66.015  200.930    6.015
  328.250    0.231    0.414   65.277  202.093    5.929
  328.500    0.204    0.399   70.340  202.837    5.766
  328.750    0.172    0.394   76.587  202.853    5.503
  329.000    0.190    0.412   80.715  202.454    5.271
  329.250    0.218    0.428   81.038  202.367    5.126
  329.500    0.230    0.419   83.043  202.385    4.995
  329.750    0.234    0.422   89.603  202.197    4.849
  330.000    0.241    0.427   88.367  201.068    4.725
  330.250    0.258    0.429   88.064  196.204    4.701
  330.500    0.299    0.429   89.511  191.335    4.867
  330.750    0.300    0.429   90.520  188.958    5.107
  331.000    0.284    0.424   91.590  190.017    5.359
  331.250    0.265    0.413   92.472  193.051    5.590
  331.500    0.246    0.395   92.733  196.185    5.943
  331.750    0.220    0.387   91.870  199.844    6.392
  332.000    0.204    0.387   85.394  200.898    7.045
  332.250    0.223    0.401   76.486  200.604    7.634
  332.500    0.249    0.411   66.704  199.373    8.560
  332.750    0.262    0.402   58.294  197.833    9.707
  333.000    0.276    0.380   50.570  197.228   11.198
  333.250    0.299    0.355   41.349  196.620   12.414
  333.500    0.317    0.375   44.479  196.326   12.926
  333.750    0.325    0.416   50.103  196.133   11.787
  334.000    0.320    0.392   56.725  196.154    9.646
  334.250    0.306    0.392   57.547  195.755    7.331
  334.500    0.293    0.416   50.820  195.874    5.562
  334.750    0.290    0.369   42.348  196.620    4.683
  335.000    0.288    0.346   42.670  198.202    4.905
  335.250    0.260    0.339   65.385  199.776    5.165
  335.500    0.236    0.376   76.311  201.038    5.419
  335.750    0.235    0.392   80.812  199.497    5.392
  336.000    0.246    0.398   76.082  195.252    5.345
  336.250    0.256    0.382   73.598  193.192    5.338
  336.500    0.258    0.375   81.343  192.380    5.392
  336.750    0.251    0.379   86.841  191.776    5.509
  337.000    0.244    0.380   89.533  191.790    5.780
  337.250    0.240    0.370   91.790  191.806    5.883
  337.500    0.234    0.378   94.420  192.345    5.626
  337.750    0.231    0.371   94.119  193.297    5.238
  338.000    0.242    0.414   97.186  194.982    4.477
  338.250    0.235    0.476  104.368  196.142    3.184
  338.500    0.220    0.512  107.310  197.300    2.774
  338.750    0.228    0.506  107.322  199.085    2.643
  339.000    0.253    0.513  108.516  201.497    2.669
  339.250    0.237    0.504  112.083  203.069    2.759
  339.500    0.208    0.498  115.586  205.893    2.900
  339.750    0.205    0.510  119.152  208.095    3.166
  340.000    0.229    0.500  122.031  209.984    3.591
  340.250    0.229    0.454  118.486  211.771    4.049
  340.500    0.219    0.440  107.332  213.760    4.601
  340.750    0.202    0.421   94.868  215.234    5.100
  341.000    0.208    0.421  105.794  213.382    5.485
  341.250    0.222    0.437  105.181  209.659    5.876
  341.500    0.235    0.464  100.077  205.307    6.248
  341.750    0.261    0.480   94.101  198.463    6.848
  342.000    0.284    0.462   87.749  187.878    7.664
  342.250    0.302    0.457   82.458  186.337    8.543
  342.500    0.316    0.463   77.167  187.496    9.381
  342.750    0.318    0.452   70.879  189.698   10.223
  343.000    0.320    0.452   66.335  192.004   10.768
  343.250    0.318    0.465   62.167  193.684   10.960
  343.500    0.307    0.464   57.873  194.323   11.197
  343.750    0.309    0.459   56.137  197.044   11.354
  344.000    0.326    0.459   57.834  198.725   11.625
  344.250    0.330    0.459   59.153  198.743   11.831
  344.500    0.313    0.444   59.849  198.033   12.066
  344.750    0.308    0.419   60.233  195.971   12.257
  345.000    0.303    0.427   61.430  192.870   12.405
  345.250    0.295    0.436   62.314  192.575   11.883
  345.500    0.287    0.444   62.261  196.233   11.361
  345.750    0.291    0.425   60.899  198.953   10.379
  346.000    0.299    0.412   57.168  199.177    9.286
  346.250    0.306    0.426   60.360  200.342    8.372
  346.500    0.303    0.444   65.235  200.253    7.677
  346.750    0.285    0.460   72.106  199.231    7.257
  347.000    0.266    0.457   73.240  198.000    6.991
  347.250    0.277    0.436   68.075  196.356    6.685
  347.500    0.271    0.411   65.091  195.230    6.236
  347.750    0.240    0.426   63.541  193.375    5.817
  348.000    0.251    0.446   66.046  191.937    5.385
  348.250    0.290    0.450   72.232  190.812    4.800
  348.500    0.311    0.448   80.600  192.596    4.376
  348.750    0.289    0.449   87.784  198.850    4.075
  349.000    0.277    0.456   92.097  203.756    4.001
  349.250    0.273    0.449   91.986  206.062    4.088
  349.500    0.268    0.423   89.187  207.326    4.379
  349.750    0.259    0.405   87.014  206.615    4.665
  350.000    0.250    0.403   91.080  205.383    4.904
  350.250    0.255    0.409   98.886  207.376    4.964
  350.500    0.254    0.415  107.505  209.577    4.938
  350.750    0.244    0.423  115.373  208.972    4.904
  351.000    0.230    0.437   91.933  207.119    4.889
  351.250    0.229    0.456   84.645  204.019    4.995
  351.500    0.237    0.438   77.608  201.021    5.181
  351.750    0.250    0.427   73.377  198.235    5.344
  352.000    0.274    0.436   70.394  197.315    5.543
  352.250    0.319    0.431   67.099  196.810    5.707
  352.500    0.323    0.417   63.742  196.412    5.733
  352.750    0.310    0.423   60.633  195.702    5.671
  353.000    0.305    0.442   65.134  195.305    5.526
  353.250    0.293    0.451   71.133  195.116    5.426
  353.500    0.294    0.464   73.826  194.612    5.378
  353.750    0.297    0.453   75.146  193.173    5.351
  354.000    0.293    0.440   75.779  191.839    5.314
  354.250    0.284    0.439   77.849  191.440    5.318
  354.500    0.274    0.452   81.228  193.122    5.320
  354.750    0.265    0.458   83.920  194.388    5.264
  355.000    0.272    0.454   80.811  194.611    5.218
  355.250    0.283    0.427   76.767  195.047    5.171
  355.500    0.294    0.424   73.910  196.206    5.116
  355.750    0.299    0.441   71.862  197.263    5.100
  356.000    0.300    0.473   71.997  196.760    5.084
  356.250    0.302    0.489   72.132  195.116    5.068
