~VERSION INFORMATION
 VERS.                 2.0:   CWLS LOG ASCII STANDARD -VERSION 2.0
 WRAP.                  NO:   ONE LINE PER DEPTH STEP
~WELL INFORMATION BLOCK
#MNEM.UNIT           DATA                    DESCRIPTION OF MNEMONIC
#---------    -------------------            -------------------------------
# Generated from Intellog Unique Number	CW_76_78/WELL/1033
WELL.         SUNCOR DROWNED 12-29           : Well_name    - WELL
LOC .         00/12-29-076-22W4/0            : Location     - LOCATION
UWI .         00/12-29-076-22W4/0            : Uwi          - UNIQUE WELL ID
ENTR.         JAYE                           : Entered      - ENTERED BY
SRVC.         SCHLUMBERGER                   : Scn          - SERVICE COMPANY
DATE.         25 FEB 83                      : Date         - LOG DATE
STRT.M        470                            : top_depth    - START DEPTH
STOP.M        690                            : bot_depth    - STOP DEPTH
STEP.M        0.25                           : increment    - STEP LENGTH
 NULL. -999.2500:NULL Value
~CURVE INFORMATION BLOCK
#MNEM UNIT       ERCB CURVE CODE    CURVE DESCRIPTION
#-----------   ------------------   ----------------------------------
DEPT.M        00 001 00 00         : DEPTH        - DEPTH
ILD .OHMM     00 120 00 00         : RESD         - DEEP RESISTIVITY (DIL)
NPHI.V/V      00 330 00 00         : PHIN         - NEUTRON POROSITY (SANDSTONE)
DPHI.V/V      00 890 00 00         : PHID         - DENSITY POROSITY (SANDSTONE)
GR  .API      00 310 00 00         : GR           - GAMMA RAY
CALI.MM       00 280 01 00         : CAL          - CALIPER
~PARAMETER INFORMATION
#MNEM.UNIT           DATA             DESCRIPTION OF MNEMONIC
#---------         -----------     ------------------------------
GL  .M        748.9                : gl           - GROUND LEVEL ELEVATION
EREF.M        752.9                : kb           - ELEVATION OF DEPTH REFERENCE
DATM.M        748.9                : datum        - DATUM ELEVATION
TDD .M        1180                 : tdd          - TOTAL DEPTH DRILLER
RUN .         ONE                  : Run          - RUN NUMBER
ENG .         GAGGING              : Engineer     - RECORDING ENGINEER
WIT .         LYSZKIEWICH          : Witness      - WITNESSED BY
BASE.         EDM                  : Branch       - HOME BASE OF LOGGING UNIT
MUD .         GEL CHEM             : Mud_type     - MUD TYPE
MATR.         SANDSTONE            : Logunit      - NEUTRON MATRIX
TMAX.C        34.4                 : BHT          - MAXIMUM RECORDED TEMPERATURE
BHTD.M        1177                 : BHTDEP       - MAXIMUM RECORDED TEMPERATURE
RMT .C        16.6                 : MDTP         - TEMPERATURE OF MUD
MUDD.KG/M     9.5                  : MWT          - MUD DENSITY
NEUT.         1                    : NEUTRON      - NEUTRON TYPE
RESI.         0                    : RESIST       - RESISTIVITY TYPE
RM  .OHMM     3.648                : RM           - RESISTIVITY OF MUD
RMC .OHMM     0                    : RMC          - RESISTIVITY OF MUD CAKE
RMF .OHMM     2.673                : RMF          - RESISTIVITY OF MUD FILTRATE
SUFT.C        0                    : SUFT         - SURFACE TEMPERATURE
~A  DEPTH     RESD     PHIN     PHID       GR      CAL
# ...
  506.500    5.159    0.460    0.342   47.876  216.049
  506.750    5.548    0.437    0.340   48.933  216.056
  507.000    5.660    0.449    0.332   50.548  215.649
  507.250    5.785    0.476    0.316   51.357  215.553
  507.500    6.337    0.452    0.234   50.369  215.558
  507.750    7.566    0.163    0.112   46.221  215.770
  508.000    9.736    0.153    0.035   39.905  215.673
  508.250   14.857    0.146    0.014   40.838  215.576
  508.500   20.185    0.142    0.011   42.267  215.685
  508.750   24.743    0.136    0.015   41.713  215.795
  509.000   25.527    0.147    0.035   42.461  215.698
  509.250   21.157    0.237    0.158   46.244  215.911
  509.500   15.877    0.437    0.278   49.532  215.607
  509.750   10.144    0.448    0.329   50.526  215.923
  510.000    8.486    0.438    0.336   51.583  216.032
  510.250    7.207    0.435    0.341   52.641  216.245
  510.500    6.413    0.452    0.339   55.804  216.768
  510.750    5.848    0.473    0.334   59.030  217.497
  511.000    5.453    0.498    0.327   59.033  218.742
  511.250    5.085    0.483    0.324   59.408  221.020
  511.500    4.576    0.496    0.344   60.527  225.982
  511.750    3.937    0.525    0.380   63.258  249.843
  512.000    3.337    0.512    0.363   66.173  242.827
  512.250    2.987    0.478    0.284   69.957  240.355
  512.500    2.875    0.518    0.314   73.306  243.769
  512.750    2.842    0.551    0.353   76.036  241.607
  513.000    3.010    0.528    0.321   77.588  234.280
  513.250    3.429    0.539    0.308   76.849  233.254
  513.500    4.056    0.513    0.298   72.329  230.988
  513.750    4.727    0.492    0.282   67.996  225.316
  514.000    5.316    0.486    0.301   60.564  219.848
  514.250    5.651    0.481    0.334   56.541  216.033
  514.500    5.691    0.470    0.345   52.208  215.214
  514.750    5.666    0.437    0.341   50.105  215.324
  515.000    5.663    0.477    0.345   47.816  215.226
  515.250    5.608    0.465    0.339   46.147  215.335
  515.500    5.531    0.466    0.342   44.973  215.342
  515.750    5.446    0.480    0.336   46.526  215.761
  516.000    5.354    0.464    0.327   47.211  215.974
  516.250    5.348    0.467    0.336   50.560  216.292
  516.500    5.368    0.469    0.346   52.051  216.606
  516.750    5.374    0.454    0.350   50.258  217.026
  517.000    5.382    0.457    0.350   52.678  217.444
  517.250    5.369    0.458    0.347   55.160  217.863
  517.500    5.364    0.459    0.343   51.446  218.076
  517.750    5.381    0.467    0.340   49.653  218.082
  518.000    5.419    0.478    0.335   52.445  218.192
  518.250    5.456    0.471    0.319   55.918  218.198
  518.500    5.463    0.457    0.309   52.948  218.203
  518.750    5.511    0.439    0.316   52.518  218.108
  519.000    5.549    0.453    0.322   54.071  218.010
  519.250    5.641    0.438    0.315   56.491  218.120
  519.500    5.735    0.449    0.308   58.849  218.022
  519.750    5.849    0.468    0.316   60.216  218.132
  520.000    6.150    0.483    0.331   60.219  218.241
  520.250    6.452    0.483    0.328   57.807  218.041
  520.500    6.988    0.433    0.311   53.225  217.944
  520.750    8.175    0.238    0.094   50.379  217.950
  521.000    9.296    0.183    0.026   49.329  218.369
  521.250   11.589    0.160    0.026   51.564  219.098
  521.500   14.364    0.181    0.056   54.975  219.620
  521.750   17.344    0.263    0.104   58.758  221.072
  522.000   15.551    0.385    0.155   63.161  222.937
  522.250   11.649    0.437    0.230   67.192  225.937
  522.500    8.941    0.450    0.235   69.798  229.558
  522.750    7.233    0.454    0.233   73.581  233.902
  523.000    6.118    0.449    0.215   79.161  239.380
  523.250    5.455    0.465    0.196   76.439  246.408
  523.500    4.845    0.481    0.213   70.928  245.795
  523.750    4.443    0.487    0.216   70.870  258.709
  524.000    4.206    0.468    0.187   75.954  260.884
  524.250    4.133    0.463    0.184   76.392  260.582
  524.500    4.194    0.474    0.212   74.970  259.967
  524.750    4.393    0.488    0.214   76.027  259.560
  525.000    4.609    0.498    0.195   76.031  259.566
  525.250    4.844    0.502    0.201   75.477  259.160
  525.500    5.150    0.497    0.206   75.295  258.133
  525.750    5.354    0.467    0.209   75.298  256.487
  526.000    5.411    0.457    0.210   75.116  253.292
  526.250    5.398    0.457    0.209   75.553  252.678
  526.500    5.375    0.455    0.207   75.681  255.576
  526.750    5.303    0.432    0.204   75.995  258.783
  527.000    5.181    0.443    0.196   76.060  262.094
  527.250    4.998    0.457    0.214   75.011  263.649
  527.500    4.847    0.474    0.226   75.882  263.242
  527.750    4.641    0.489    0.226   72.168  262.009
  528.000    4.467    0.498    0.232   72.172  258.711
  528.250    4.317    0.506    0.237   77.256  254.793
  528.500    4.148    0.508    0.226   79.986  252.527
  528.750    3.949    0.492    0.216   79.432  249.643
  529.000    3.772    0.476    0.198   77.577  247.376
  529.250    3.551    0.484    0.220   79.006  243.665
  529.500    3.477    0.482    0.242   78.885  239.438
  529.750    3.682    0.473    0.286   77.526  230.356
  530.000    4.332    0.462    0.299   76.043  213.427
  530.250    5.001    0.447    0.286   74.621  210.232
  530.500    5.551    0.475    0.270   73.262  209.309
  530.750    5.878    0.481    0.276   71.283  208.799
  531.000    6.054    0.471    0.294   69.614  209.011
  531.250    6.108    0.481    0.299   68.131  209.224
  531.500    6.081    0.480    0.294   65.842  209.953
  531.750    6.022    0.466    0.295   62.252  211.199
  532.000    6.019    0.451    0.296   59.963  212.135
  532.250    5.959    0.447    0.298   57.550  212.243
  532.500    5.912    0.454    0.301   57.430  212.146
  532.750    5.874    0.484    0.300   60.470  212.258
  533.000    5.926    0.498    0.294   65.740  212.468
  533.250    5.912    0.484    0.285   63.327  212.476
  533.500    5.855    0.471    0.288   58.188  212.584
  533.750    5.808    0.458    0.303   54.350  212.899
  534.000    5.761    0.445    0.302   54.293  213.114
  534.250    5.778    0.458    0.298   59.996  213.223
  534.500    5.929    0.461    0.307   59.877  213.332
  534.750    6.278    0.445    0.305   53.870  213.027
  535.000    6.726    0.437    0.248   45.013  212.931
  535.250    7.057    0.420    0.116   35.723  212.730
  535.500    7.432    0.379    0.064   42.357  212.635
  535.750    7.541    0.350    0.109   50.539  212.227
  536.000    7.327    0.416    0.199   55.995  211.820
  536.250    7.081    0.464    0.299   50.546  211.515
  536.500    6.690    0.482    0.312   47.700  211.316
  536.750    6.089    0.489    0.310   51.235  211.528
  537.000    5.615    0.450    0.304   55.638  211.845
  537.250    5.316    0.447    0.293   58.740  211.953
  537.500    5.214    0.465    0.280   58.805  212.476
  537.750    5.192    0.466    0.274   58.066  213.102
  538.000    5.140    0.453    0.285   57.822  213.314
  538.250    5.137    0.443    0.281   58.135  213.734
  538.500    5.116    0.439    0.275   59.006  213.636
  538.750    5.064    0.434    0.269   60.434  213.746
  539.000    5.005    0.414    0.265   62.670  214.166
  539.250    4.955    0.430    0.267   64.841  214.377
  539.500    4.825    0.451    0.276   69.430  214.693
  539.750    4.680    0.470    0.286   71.664  216.352
  540.000    4.651    0.453    0.288   72.969  218.526
  540.250    4.665    0.449    0.282   76.504  221.321
  540.500    4.483    0.462    0.266   78.924  223.289
  540.750    4.291    0.473    0.257   75.210  226.393
  541.000    4.100    0.485    0.240   71.434  230.014
  541.250    3.897    0.508    0.231   68.216  230.433
  541.500    3.829    0.496    0.262   67.229  221.558
  541.750    3.899    0.476    0.258   68.844  219.706
  542.000    3.956    0.454    0.247   71.077  220.950
  542.250    3.983    0.460    0.233   74.675  225.604
  542.500    4.049    0.492    0.242   78.520  223.752
  542.750    4.099    0.506    0.246   80.506  221.589
