~VERSION INFORMATION
 VERS.                 2.0:   CWLS LOG ASCII STANDARD -VERSION 2.0
 WRAP.                  NO:   ONE LINE PER DEPTH STEP
~WELL INFORMATION BLOCK
#MNEM.UNIT           DATA                    DESCRIPTION OF MNEMONIC
#---------    -------------------            -------------------------------
# Generated from Intellog Unique Number	CS_67_68/WELL/2206
WELL.         DOME CAVALIER GRASSLAND        : Well_name    - WELL
LOC .         00/11-10-067-18W4/0            : Location     - LOCATION
UWI .         00/11-10-067-18W4/0            : Uwi          - UNIQUE WELL ID
ENTR.         SUSAN                          : Entered      - ENTERED BY
SRVC.         SCHLUMBERGER                   : Scn          - SERVICE COMPANY
STRT.M        375                            : top_depth    - START DEPTH
STOP.M        571                            : bot_depth    - STOP DEPTH
STEP.M        0.25                           : increment    - STEP LENGTH
 NULL. -999.2500:NULL Value
~CURVE INFORMATION BLOCK
#MNEM UNIT       ERCB CURVE CODE    CURVE DESCRIPTION
#-----------   ------------------   ----------------------------------
DEPT.M        00 001 00 00         : DEPTH        - DEPTH
ILD .OHMM     00 120 00 00         : RESD         - DEEP RESISTIVITY (DIL)
DPHI.V/V      00 890 00 00         : PHID         - DENSITY POROSITY (LIMESTONE)
NPHI.V/V      00 330 00 00         : PHIN         - NEUTRON POROSITY (LIMESTONE)
GR  .API      00 310 00 00         : GR           - GAMMA RAY
CALI.MM       00 280 01 00         : CAL          - CALIPER
~PARAMETER INFORMATION
#MNEM.UNIT           DATA             DESCRIPTION OF MNEMONIC
#---------         -----------     ------------------------------
GL  .M        598.39               : gl           - GROUND LEVEL ELEVATION
EREF.M        602                  : kb           - ELEVATION OF DEPTH REFERENCE
DATM.M        602                  : datum        - DATUM ELEVATION
TDD .M        574                  : tdd          - TOTAL DEPTH DRILLER
RUN .         ONE                  : Run          - RUN NUMBER
ENG .         BILL                 : Engineer     - RECORDING ENGINEER
WIT .         JIM                  : Witness      - WITNESSED BY
MUD .         GEL                  : Mud_type     - MUD TYPE
MATR.         LIMESTONE            : Logunit      - NEUTRON MATRIX
TMAX.C        24                   : BHT          - MAXIMUM RECORDED TEMPERATURE
BHTD.M        573                  : BHTDEP       - MAXIMUM RECORDED TEMPERATURE
MATR.         1                    : LOGUNIT      - NEUTRON MATRIX
RMT .C        25                   : MDTP         - TEMPERATURE OF MUD
NEUT.         1                    : NEUTRON      - NEUTRON TYPE
RESI.         0                    : RESIST       - RESISTIVITY TYPE
RMC .OHMM     0.25                 : RMC          - RESISTIVITY OF MUD CAKE
RMF .OHMM     0.25                 : RMF          - RESISTIVITY OF MUD FILTRATE
SUFT.C        15                   : SUFT         - SURFACE TEMPERATURE
~A  DEPTH     RESD     PHID     PHIN       GR      CAL
# ...
  411.500    3.466    0.180    0.339  119.607  187.523
  411.750    3.467    0.174    0.326  123.182  186.698
  412.000    3.615    0.176    0.320  126.881  185.665
  412.250    3.799    0.180    0.332  124.349  185.250
  412.500    4.023    0.167    0.321  118.919  185.143
  412.750    4.156    0.159    0.315  121.260  185.036
  413.000    4.133    0.154    0.319  123.540  185.341
  413.250    3.941    0.157    0.333  125.510  185.645
  413.500    3.681    0.210    0.360  126.557  185.847
  413.750    3.470    0.234    0.400  127.295  185.020
  414.000    3.284    0.248    0.412  127.539  184.297
  414.250    3.144    0.240    0.376  126.982  182.442
  414.500    3.004    0.210    0.354  126.980  181.102
  414.750    2.959    0.196    0.340  127.347  180.377
  415.000    2.959    0.214    0.333  121.547  179.758
  415.250    3.034    0.192    0.326  110.566  178.828
  415.500    3.256    0.169    0.326  100.140  177.385
  415.750    3.408    0.159    0.342   96.005  175.839
  416.000    3.435    0.168    0.357   94.091  175.321
  416.250    3.396    0.185    0.351   98.097  174.699
  416.500    3.288    0.203    0.340  101.857  174.696
  416.750    3.048    0.217    0.335  103.767  174.281
  417.000    2.862    0.248    0.345  103.271  173.660
  417.250    2.788    0.284    0.364   97.471  172.935
  417.500    2.836    0.297    0.395   90.252  172.727
  417.750    2.941    0.233    0.423   85.994  172.826
  418.000    3.132    0.206    0.350   93.084  172.924
  418.250    3.132    0.201    0.324   94.809  173.125
  418.500    3.045    0.207    0.316   95.485  173.944
  418.750    2.898    0.206    0.324   95.853  174.351
  419.000    2.748    0.198    0.334   85.303  174.552
  419.250    2.641    0.197    0.344   85.733  174.651
  419.500    2.646    0.205    0.338   87.149  174.545
  419.750    2.596    0.215    0.331   87.886  173.924
  420.000    2.448    0.228    0.334   85.972  172.891
  420.250    2.312    0.238    0.350   85.723  171.037
  420.500    2.192    0.247    0.362   82.020  167.435
  420.750    2.063    0.247    0.356   78.502  165.067
  421.000    1.975    0.243    0.348   75.415  164.035
  421.250    1.923    0.237    0.341   74.426  163.311
  421.500    1.876    0.231    0.339   77.816  164.335
  421.750    1.855    0.226    0.346   81.638  167.312
  422.000    1.906    0.223    0.347   85.891  170.494
  422.250    2.014    0.226    0.345   90.391  173.471
  422.500    2.178    0.233    0.349   93.719  176.757
  422.750    2.423    0.239    0.356   95.875  179.632
  423.000    2.722    0.242    0.368   97.537  183.637
  423.250    3.017    0.229    0.381   97.721  187.436
  423.500    3.165    0.216    0.390   97.102  189.282
  423.750    3.245    0.209    0.380   93.090  188.970
  424.000    3.264    0.199    0.377   90.004  188.555
  424.250    3.233    0.192    0.378   87.719  188.448
  424.500    3.161    0.185    0.371   91.788  188.957
  424.750    3.084    0.185    0.360   96.966  189.981
  425.000    3.020    0.214    0.364  103.686  190.799
  425.250    2.981    0.238    0.388  106.830  191.412
  425.500    3.217    0.248    0.396  109.171  191.408
  425.750    3.459    0.231    0.383  112.067  190.787
  426.000    3.655    0.214    0.371  114.038  190.167
  426.250    3.733    0.198    0.355  115.640  189.546
  426.500    3.734    0.188    0.339  112.677  189.747
  426.750    3.664    0.180    0.333  108.789  190.257
  427.000    3.575    0.175    0.354  111.685  190.870
  427.250    3.442    0.186    0.368  115.260  191.585
  427.500    3.351    0.180    0.380  116.121  192.096
  427.750    3.327    0.183    0.397  113.404  192.606
  428.000    3.340    0.202    0.401  110.441  193.629
  428.250    3.346    0.211    0.389  108.589  194.550
  428.500    3.271    0.203    0.390  106.613  194.957
  428.750    3.126    0.198    0.403  104.390  195.056
  429.000    3.044    0.219    0.422  103.833  194.641
  429.250    2.987    0.260    0.427  104.324  194.123
  429.500    3.097    0.243    0.396  108.022  192.783
  429.750    3.330    0.223    0.374  109.869  190.825
  430.000    3.712    0.210    0.366  109.435  189.588
  430.250    3.991    0.198    0.361  109.001  189.172
  430.500    4.186    0.189    0.363  107.272  188.963
  430.750    4.366    0.180    0.366  104.309  188.856
  431.000    4.493    0.172    0.362  102.579  188.543
  431.250    4.528    0.166    0.357  101.529  188.231
  431.500    4.520    0.185    0.351  106.214  188.021
  431.750    4.418    0.200    0.337  108.863  187.606
  432.000    4.230    0.213    0.321  109.108  186.574
  432.250    3.957    0.223    0.328  106.576  184.925
  432.500    3.668    0.220    0.334  104.107  182.351
  432.750    3.419    0.205    0.331  106.448  182.142
  433.000    3.174    0.191    0.336  108.111  182.549
  433.250    3.080    0.174    0.345  108.355  182.750
  433.500    3.206    0.164    0.354  108.168  182.951
  433.750    3.473    0.168    0.362  107.240  183.668
  434.000    3.699    0.175    0.360  105.634  184.280
  434.250    3.843    0.180    0.356  101.807  184.379
  434.500    3.970    0.182    0.369   98.598  183.758
  434.750    3.955    0.186    0.370   95.141  182.829
  435.000    3.779    0.203    0.341   92.425  180.974
  435.250    3.404    0.237    0.327   89.339  179.223
  435.500    2.957    0.264    0.326   85.142  177.883
  435.750    2.549    0.282    0.340   81.439  176.645
  436.000    2.240    0.294    0.345   77.860  175.921
  436.250    2.040    0.309    0.342   75.883  175.608
  436.500    1.902    0.307    0.340   72.859  176.221
  436.750    1.759    0.296    0.340   69.772  176.525
  437.000    1.618    0.288    0.342   72.361  176.624
  437.250    1.675    0.283    0.342   75.689  176.518
  437.500    1.727    0.279    0.338   77.660  176.616
  437.750    1.787    0.272    0.340   79.323  176.304
  438.000    1.822    0.268    0.349   79.073  175.889
  438.250    1.829    0.268    0.355   77.221  175.473
  438.500    1.812    0.269    0.364   72.839  175.160
  438.750    1.781    0.271    0.354   70.431  175.465
  439.000    1.792    0.278    0.347   69.936  175.872
  439.250    1.930    0.273    0.347   72.585  176.177
  439.500    2.056    0.251    0.362   77.640  176.481
  439.750    2.202    0.232    0.364   81.462  178.019
  440.000    2.349    0.213    0.346   86.270  179.763
  440.250    2.535    0.200    0.336   90.770  181.095
  440.500    2.742    0.211    0.330   94.407  181.913
  440.750    3.004    0.221    0.331   97.550  182.012
  441.000    3.212    0.208    0.334   97.609  181.699
  441.250    3.440    0.198    0.337   96.805  181.695
  441.500    3.299    0.202    0.336   94.151  181.177
  441.750    2.905    0.207    0.338   89.954  181.276
  442.000    2.781    0.210    0.342   87.176  181.478
  442.250    2.642    0.212    0.348   85.138  181.988
  442.500    2.548    0.212    0.343   86.555  183.114
  442.750    2.553    0.206    0.341   85.133  184.241
  443.000    2.578    0.201    0.351   87.721  186.395
  443.250    2.699    0.211    0.368   96.107  188.139
  443.500    2.907    0.219    0.386  103.691  189.882
  443.750    3.084    0.210    0.375  108.006  189.981
  444.000    3.241    0.193    0.359  106.215  189.155
  444.250    3.336    0.205    0.349  103.807  186.170
  444.500    3.139    0.223    0.341  109.726  183.288
  444.750    2.909    0.239    0.343  109.168  180.919
  445.000    2.796    0.248    0.348  101.271  178.653
  445.250    2.769    0.259    0.349   88.810  177.827
  445.500    2.861    0.249    0.357   92.384  179.056
  445.750    2.978    0.244    0.373   95.034  181.416
  446.000    3.088    0.240    0.393   97.684  183.880
  446.250    3.214    0.236    0.405   97.065  186.342
  446.500    3.264    0.234    0.406   96.076  186.750
  446.750    3.077    0.256    0.401   93.791  184.587
  447.000    2.761    0.275    0.388   92.370  182.116
  447.250    2.559    0.279    0.377   90.641  180.981
  447.500    2.332    0.277    0.371   88.726  179.744
  447.750    2.177    0.277    0.366   86.442  178.711
