~VERSION INFORMATION
 VERS.                 2.0:   CWLS LOG ASCII STANDARD -VERSION 2.0
 WRAP.                  NO:   ONE LINE PER DEPTH STEP
~WELL INFORMATION BLOCK
#MNEM.UNIT           DATA                    DESCRIPTION OF MNEMONIC
#---------    -------------------            -------------------------------
# Generated from Intellog Unique Number	CS_73_76/WELL/805
WELL.         BOW VALLEY INDUSTRIES LTD      : Well_name    - WELL
LOC .         00/10-01-073-15W4/0            : Location     - LOCATION
UWI .         00/10-01-073-15W4/0            : Uwi          - UNIQUE WELL ID
ENTR.         SP                             : Entered      - ENTERED BY
SRVC.         SCHLUMBERGER                   : Scn          - SERVICE COMPANY
STRT.M        289.56                         : top_depth    - START DEPTH
STOP.M        482.06                         : bot_depth    - STOP DEPTH
STEP.M        0.25                           : increment    - STEP LENGTH
 NULL. -999.2500:NULL Value
~CURVE INFORMATION BLOCK
#MNEM UNIT       ERCB CURVE CODE    CURVE DESCRIPTION
#-----------   ------------------   ----------------------------------
DEPT.M        00 001 00 00         : DEPTH        - DEPTH
GR  .API      00 310 00 00         : GR           - GAMMA RAY
DPHI.V/V      00 890 00 00         : PHID         - DENSITY POROSITY (SANDSTONE)
NPHI.V/V      00 330 00 00         : PHIN         - NEUTRON POROSITY (SANDSTONE)
ILD .OHMM     00 120 00 00         : RESD         - DEEP RESISTIVITY (DIL)
~PARAMETER INFORMATION
#MNEM.UNIT           DATA             DESCRIPTION OF MNEMONIC
#---------         -----------     ------------------------------
GL  .M        625.45               : gl           - GROUND LEVEL ELEVATION
EREF.M        629.107              : kb           - ELEVATION OF DEPTH REFERENCE
DATM.M        625.45               : datum        - DATUM ELEVATION
TDD .M        490.728              : tdd          - TOTAL DEPTH DRILLER
RUN .         ONE                  : Run          - RUN NUMBER
ENG .         BILL                 : Engineer     - RECORDING ENGINEER
WIT .         JIM                  : Witness      - WITNESSED BY
MUD .         GEL                  : Mud_type     - MUD TYPE
MATR.         SANDSTONE            : Logunit      - NEUTRON MATRIX
TMAX.C        15.5556              : BHT          - MAXIMUM RECORDED TEMPERATURE
BHTD.M        490.728              : BHTDEP       - MAXIMUM RECORDED TEMPERATURE
MATR.         1                    : LOGUNIT      - NEUTRON MATRIX
RMT .C        25                   : MDTP         - TEMPERATURE OF MUD
NEUT.         1                    : NEUTRON      - NEUTRON TYPE
RESI.         0                    : RESIST       - RESISTIVITY TYPE
RMC .OHMM     0.25                 : RMC          - RESISTIVITY OF MUD CAKE
RMF .OHMM     0.25                 : RMF          - RESISTIVITY OF MUD FILTRATE
SUFT.C        15                   : SUFT         - SURFACE TEMPERATURE
~A  DEPTH       GR     PHID     PHIN     RESD
# ...
  420.060  113.076    0.226    0.455    4.464
  420.310  111.176    0.217    0.461    4.383
  420.560  107.732    0.241    0.484    4.384
  420.810  106.674    0.229    0.476    4.392
  421.060  106.625    0.207    0.464    4.545
  421.310  108.398    0.220    0.459    4.595
  421.560  111.753    0.229    0.476    4.648
  421.810  113.646    0.242    0.490    4.727
  422.060  113.888    0.251    0.485    4.834
  422.310  109.694    0.244    0.470    4.827
  422.560  107.269    0.236    0.457    4.921
  422.810  106.099    0.220    0.447    4.895
  423.060  106.661    0.205    0.460    4.833
  423.310  110.476    0.207    0.475    4.846
  423.560  111.006    0.225    0.470    4.746
  423.810  109.873    0.247    0.477    4.679
  424.060  109.459    0.241    0.465    4.531
  424.310  109.987    0.233    0.462    4.493
  424.560  113.628    0.234    0.464    4.421
  424.810  114.684    0.231    0.477    4.460
  425.060  113.991    0.216    0.485    4.510
  425.310  114.374    0.216    0.469    4.512
  425.560  116.077    0.228    0.469    4.489
  425.810  117.662    0.247    0.474    4.436
  426.060  118.765    0.241    0.477    4.388
  426.310  116.992    0.228    0.479    4.233
  426.560  114.104    0.216    0.480    4.131
  426.810  113.113    0.225    0.489    3.920
  427.060  111.093    0.223    0.500    3.886
  427.310  104.323    0.226    0.417    3.765
  427.560  101.732    0.211    0.384    3.766
  427.810  104.049    0.232    0.403    4.059
  428.060  103.096    0.258    0.427    5.205
  428.310   95.379    0.231    0.455    6.601
  428.560   89.663    0.047    0.231    7.819
  428.810   83.817    0.071    0.230    9.505
  429.060   81.751    0.098    0.251   10.976
  429.310   84.967    0.144    0.280   12.792
  429.560   88.351    0.174    0.315   14.324
  429.810   91.811    0.210    0.373   15.217
  430.060   95.745    0.239    0.432   13.164
  430.310   99.321    0.249    0.457   11.190
  430.560   98.132    0.243    0.473    9.094
  430.810   96.611    0.210    0.479    8.207
  431.060   97.812    0.213    0.468    7.089
  431.310   98.452    0.247    0.459    6.248
  431.560  100.076    0.242    0.451    5.911
  431.810  100.771    0.226    0.455    5.697
  432.060   98.375    0.222    0.462    5.415
  432.310   94.676    0.221    0.469    5.252
  432.560   93.533    0.200    0.458    5.235
  432.810   94.106    0.179    0.423    5.139
  433.060   97.282    0.162    0.400    5.128
  433.310  101.895    0.232    0.460    5.239
  433.560  104.971    0.246    0.489    5.326
  433.810  103.175    0.248    0.498    5.386
  434.060  102.029    0.254    0.481    5.441
  434.310  102.489    0.229    0.464    5.381
  434.560  104.655    0.209    0.448    5.107
  434.810  106.994    0.187    0.433    4.966
  435.060  109.504    0.192    0.467    4.830
  435.310  106.318    0.190    0.467    4.586
  435.560  105.690    0.156    0.461    4.458
  435.810  108.315    0.175    0.460    4.411
  436.060  111.181    0.187    0.463    4.389
  436.310  111.342    0.191    0.454    4.304
  436.560  111.081    0.203    0.446    4.352
  436.810  113.054    0.187    0.439    4.308
  437.060  113.420    0.187    0.427    4.380
  437.310  115.219    0.183    0.418    4.385
  437.560  115.479    0.190    0.418    4.486
  437.810  118.043    0.187    0.439    4.693
  438.060  120.438    0.196    0.451    4.850
  438.310  120.858    0.189    0.445    5.108
  438.560  118.747    0.171    0.431    5.161
  438.810  119.504    0.176    0.410    5.312
  439.060  119.773    0.191    0.398    5.308
  439.310  117.134    0.199    0.414    5.314
  439.560  115.302    0.186    0.422    5.333
  439.810  110.648    0.172    0.431    5.419
  440.060  104.931    0.187    0.430    5.421
  440.310  101.088    0.152    0.419    5.424
  440.560  103.902    0.155    0.421    5.424
  440.810  107.005    0.184    0.436    5.394
  441.060  108.249    0.191    0.449    5.226
  441.310  110.310    0.186    0.460    4.918
  441.560  112.209    0.198    0.461    4.630
  441.810  111.867    0.227    0.481    3.910
  442.060  112.891    0.248    0.500    3.326
  442.310  113.961    0.236    0.520    3.016
  442.560  115.995    0.236    0.536    2.718
  442.810  117.695    0.238    0.533    2.463
  443.060  118.629    0.235    0.535    2.232
  443.310  120.163    0.223    0.525    2.148
  443.560  121.111    0.221    0.528    1.989
  443.810  122.693    0.213    0.535    1.980
  444.060  118.480    0.203    0.533    2.012
  444.310  114.187    0.183    0.490    2.051
  444.560  108.812    0.166    0.463    2.304
  444.810  107.785    0.150    0.429    2.557
  445.060  109.098    0.162    0.431    2.994
  445.310  108.959    0.177    0.438    3.314
  445.560  107.608    0.168    0.443    3.805
  445.810  106.614    0.147    0.436    4.310
  446.060  100.715    0.124    0.410    4.786
  446.310  102.120    0.111    0.400    5.220
  446.560  106.713    0.148    0.410    5.421
  446.810  109.781    0.158    0.421    5.502
  447.060  101.190    0.153    0.418    5.624
  447.310   93.881    0.110    0.393    5.614
  447.560   91.227    0.054    0.362    5.832
  447.810   97.302    0.047    0.323    6.409
  448.060  102.868    0.074    0.324    7.021
  448.310  108.370    0.111    0.339    7.742
  448.560  112.843    0.160    0.368    8.346
  448.810  116.843    0.179    0.420    8.307
  449.060  113.812    0.157    0.448    7.249
  449.310  113.878    0.154    0.464    5.441
  449.560  114.871    0.165    0.479    4.707
  449.810  116.620    0.174    0.488    4.040
  450.060  116.816    0.168    0.470    3.750
  450.310  117.265    0.156    0.460    3.652
  450.560  118.232    0.154    0.454    3.568
  450.810  119.902    0.139    0.477    3.503
  451.060  121.348    0.127    0.496    3.461
  451.310  121.582    0.120    0.499    3.432
  451.560  119.355    0.122    0.482    3.322
  451.810  116.757    0.118    0.487    3.291
  452.060  119.825    0.105    0.504    3.188
  452.310  122.690    0.160    0.517    3.151
  452.560  125.459    0.177    0.519    3.087
  452.810  124.797    0.186    0.518    3.095
  453.060  119.897    0.185    0.505    3.058
  453.310  120.810    0.178    0.519    2.906
  453.560  117.255    0.169    0.509    2.768
  453.810  110.941    0.153    0.493    2.717
  454.060  104.498    0.121    0.428    2.883
  454.310  106.617    0.079    0.412    3.222
  454.560  114.582    0.094    0.413    3.675
  454.810  119.786    0.131    0.431    4.030
  455.060  125.218    0.151    0.445    4.496
  455.310  127.065    0.161    0.458    4.232
  455.560  125.037    0.170    0.471    4.071
  455.810  119.810    0.188    0.484    3.773
  456.060  114.437    0.161    0.491    3.511
  456.310  106.692    0.141    0.414    3.353
  456.560   99.457    0.133    0.415    3.578
  456.810   94.822    0.115    0.371    3.860
  457.060   87.037    0.087    0.269    4.466
  457.310   78.610    0.058    0.230    5.604
  457.560   75.397    0.148    0.279    7.491
  457.810   75.882    0.202    0.288   10.335
  458.060   73.616    0.222    0.297   13.142
  458.310   73.100    0.246    0.302   16.027
  458.560   78.545    0.238    0.316   17.413
  458.810   81.978    0.229    0.331   18.444
  459.060   84.510    0.222    0.345   17.728
  459.310   86.033    0.219    0.362   17.506
  459.560   86.961    0.214    0.375   17.521
  459.810   88.650    0.222    0.392   17.531
  460.060   89.001    0.275    0.424   17.765
  460.310   84.859    0.288    0.393   18.315
  460.560   80.692    0.295    0.389   21.151
  460.810   83.062    0.283    0.390   23.907
  461.060   86.647    0.262    0.390   27.603
  461.310   91.391    0.241    0.386   29.908
  461.560   95.939    0.196    0.364   30.259
  461.810  102.848    0.148    0.347   24.732
  462.060  109.172    0.079    0.347   18.817
  462.310  116.598    0.143    0.356   14.285
  462.560  121.805    0.171    0.371   12.221
  462.810  127.883    0.154    0.381   10.164
  463.060  132.417    0.148    0.399    8.596
  463.310  134.584    0.154    0.421    7.975
