~VERSION INFORMATION
 VERS.                 2.0:   CWLS LOG ASCII STANDARD -VERSION 2.0
 WRAP.                  NO:   ONE LINE PER DEPTH STEP
~WELL INFORMATION BLOCK
#MNEM.UNIT           DATA                    DESCRIPTION OF MNEMONIC
#---------    -------------------            -------------------------------
# Generated from Intellog Unique Number	CW_79_81/WELL/2468
WELL.         10-18-080-20W4                 : Well_name    - WELL
LOC .         00/10-18-080-20W4/0            : Location     - LOCATION
UWI .         00/10-18-080-20W4/0            : Uwi          - UNIQUE WELL ID
ENTR.         MAX                            : Entered      - ENTERED BY
SRVC.         SCHLUMBERGER                   : Scn          - SERVICE COMPANY
STRT.M        152.4                          : top_depth    - START DEPTH
STOP.M        408.15                         : bot_depth    - STOP DEPTH
STEP.M        0.25                           : increment    - STEP LENGTH
 NULL. -999.2500:NULL Value
~CURVE INFORMATION BLOCK
#MNEM UNIT       ERCB CURVE CODE    CURVE DESCRIPTION
#-----------   ------------------   ----------------------------------
DEPT.M        00 001 00 00         : DEPTH        - DEPTH
ILD .OHMM     00 120 00 00         : RESD         - DEEP RESISTIVITY (DIL)
NPHI.V/V      00 330 00 00         : PHIN         - NEUTRON POROSITY (SANDSTONE)
DPHI.V/V      00 890 00 00         : PHID         - DENSITY POROSITY (SANDSTONE)
GR  .API      00 310 00 00         : GR           - GAMMA RAY
CALI.MM       00 280 01 00         : CAL          - CALIPER
~PARAMETER INFORMATION
#MNEM.UNIT           DATA             DESCRIPTION OF MNEMONIC
#---------         -----------     ------------------------------
GL  .M        579.272              : gl           - GROUND LEVEL ELEVATION
EREF.M        582.778              : kb           - ELEVATION OF DEPTH REFERENCE
DATM.M        579.272              : datum        - DATUM ELEVATION
TDD .M        411.48               : tdd          - TOTAL DEPTH DRILLER
RUN .         ONE                  : Run          - RUN NUMBER
ENG .         BILL                 : Engineer     - RECORDING ENGINEER
WIT .         JIM                  : Witness      - WITNESSED BY
MUD .         GEL                  : Mud_type     - MUD TYPE
MATR.         SANDSTONE            : Logunit      - NEUTRON MATRIX
TMAX.C        23.3333              : BHT          - MAXIMUM RECORDED TEMPERATURE
BHTD.M        411.48               : BHTDEP       - MAXIMUM RECORDED TEMPERATURE
MATR.         1                    : LOGUNIT      - NEUTRON MATRIX
RMT .C        10                   : MDTP         - TEMPERATURE OF MUD
NEUT.         1                    : NEUTRON      - NEUTRON TYPE
RESI.         0                    : RESIST       - RESISTIVITY TYPE
RMC .OHMM     7.01                 : RMC          - RESISTIVITY OF MUD CAKE
RMF .OHMM     3.48                 : RMF          - RESISTIVITY OF MUD FILTRATE
SUFT.C        -15                  : SUFT         - SURFACE TEMPERATURE
~A  DEPTH     RESD     PHIN     PHID       GR      CAL
# ...
  298.400    9.927    0.338    0.173   79.511  199.677
  298.650   10.926    0.248    0.102   73.210  199.888
  298.900   12.784    0.239    0.052   72.085  199.998
  299.150   16.515    0.305    0.065   75.433  200.414
  299.400   19.583    0.412    0.107   82.629  200.422
  299.650   17.133    0.464    0.210   89.061  200.432
  299.900   13.300    0.502    0.267   90.494  200.743
  300.150   10.468    0.510    0.288   91.689  200.954
  300.400    8.889    0.498    0.288   93.896  200.862
  300.650    8.396    0.503    0.286   95.251  200.387
  300.900    8.146    0.503    0.289   97.241  199.978
  301.150    8.147    0.510    0.287   97.960  201.196
  301.400    8.103    0.503    0.283   98.679  203.624
  301.650    8.015    0.491    0.278  100.946  205.244
  301.900    7.870    0.483    0.274  103.273  205.656
  302.150    7.621    0.486    0.278  101.533  206.156
  302.400    7.507    0.495    0.281  103.523  206.586
  302.650    7.398    0.501    0.276  105.908  208.609
  302.900    7.251    0.505    0.279  104.903  209.727
  303.150    7.068    0.509    0.280  103.600  210.340
  303.400    6.865    0.514    0.276  103.486  210.652
  303.650    6.648    0.521    0.274  104.592  210.580
  303.900    6.548    0.529    0.263  105.343  210.169
  304.150    6.549    0.531    0.251  104.872  210.583
  304.400    6.621    0.525    0.241  105.116  210.391
  304.650    6.719    0.515    0.237  105.478  209.795
  304.900    6.831    0.504    0.237  105.305  209.200
  305.150    7.016    0.494    0.232  103.834  209.213
  305.400    7.179    0.485    0.232  103.592  209.222
  305.650    7.392    0.481    0.228  103.122  209.635
  305.900    7.529    0.480    0.221  103.186  209.744
  306.150    7.641    0.488    0.216  103.311  209.752
  306.400    7.740    0.502    0.218  103.793  209.561
  306.650    7.798    0.509    0.225  105.605  208.766
  306.900    7.799    0.500    0.231  105.114  208.775
  307.150    7.799    0.482    0.235  105.833  209.188
  307.400    7.757    0.468    0.243  105.840  209.600
  307.650    7.673    0.460    0.244  105.488  210.013
  307.900    7.548    0.462    0.239  104.482  210.425
  308.150    7.351    0.486    0.236  102.218  211.428
  308.400    7.186    0.511    0.229  103.958  214.377
  308.650    7.031    0.512    0.237  103.251  218.414
  308.900    6.878    0.513    0.263  102.721  220.338
  309.150    6.829    0.524    0.268  102.369  216.924
  309.400    7.025    0.539    0.252  100.708  210.283
  309.650    7.893    0.534    0.258   94.121  206.870
  309.900    8.792    0.495    0.279   90.904  201.842
  310.150   10.007    0.472    0.286   91.861  199.432
  310.400   11.230    0.451    0.268   90.141  198.233
  310.650   12.533    0.431    0.245   87.053  198.444
  310.900   14.178    0.402    0.225   83.310  199.863
  311.150   17.449    0.339    0.185   79.231  202.058
  311.400   21.353    0.276    0.092   80.228  202.907
  311.650   21.827    0.341    0.149   85.469  202.917
  311.900   20.758    0.411    0.203   92.139  202.019
  312.150   18.320    0.457    0.236   95.715  201.424
  312.400   15.577    0.472    0.241   96.851  201.837
  312.650   13.213    0.465    0.216  102.024  203.797
  312.900   12.344    0.438    0.187  105.253  205.484
  313.150   12.166    0.448    0.174  107.400  206.704
  313.400   12.189    0.464    0.194  107.228  207.922
  313.650   12.280    0.473    0.212  105.924  209.140
  313.900   12.348    0.473    0.215  104.858  210.358
  314.150   12.254    0.476    0.218  105.283  211.914
  314.400   11.799    0.482    0.226  103.800  213.604
  314.650   11.458    0.477    0.225  103.330  214.822
  314.900   11.066    0.476    0.224  104.287  216.040
  315.150   10.750    0.477    0.223  104.055  217.460
  315.400   10.576    0.478    0.222  102.989  218.881
  315.650   10.594    0.481    0.222  104.672  219.866
  315.900   10.675    0.478    0.218  105.918  220.714
  316.150   10.676    0.471    0.217  104.971  221.529
  316.400   10.677    0.471    0.220  105.096  222.043
  316.650   10.639    0.472    0.225  106.529  222.455
  316.900   10.563    0.472    0.226  108.201  222.766
  317.150   10.455    0.480    0.217  107.237  222.862
  317.400   10.298    0.492    0.211  104.762  223.293
  317.650   10.223    0.491    0.204  102.388  224.511
  317.900   10.094    0.494    0.200  101.441  225.125
  318.150    9.948    0.492    0.203  102.280  224.530
  318.400    9.786    0.482    0.208  104.665  223.229
  318.650    9.531    0.466    0.203  108.955  222.921
  318.900    9.317    0.474    0.202  114.910  223.351
  319.150    8.916    0.504    0.192  118.725  221.345
  319.400    8.581    0.504    0.201  121.111  220.850
  319.650    8.304    0.497    0.214  123.376  219.852
  319.900    8.066    0.497    0.224  124.572  216.840
  320.150    7.835    0.511    0.222  118.213  210.218
  320.400    7.836    0.516    0.204  101.858  207.290
  320.650    8.068    0.510    0.189   97.340  205.686
  320.900    8.897    0.494    0.145   92.646  204.386
  321.150   10.633    0.438    0.100   87.296  203.791
  321.400   13.805    0.348    0.071   81.709  203.801
  321.650   19.732    0.278    0.078   78.085  203.897
  321.900   27.431    0.342    0.096   82.553  204.326
  322.150   27.235    0.378    0.118   92.792  204.741
  322.400   23.983    0.403    0.167   96.964  205.151
  322.650   19.913    0.422    0.204   98.279  205.159
  322.900   16.724    0.439    0.218   98.700  204.766
  323.150   14.775    0.457    0.227   98.945  204.291
  323.400   13.701    0.470    0.230   98.951  203.880
  323.650   12.822    0.467    0.226   97.291  203.889
  323.900   12.552    0.459    0.218   96.701  203.899
  324.150   12.780    0.448    0.202   92.423  204.111
  324.400   13.448    0.430    0.170   84.872  204.524
  324.650   14.673    0.376    0.104   79.742  205.272
  324.900   15.723    0.308    0.096   80.243  206.961
  325.150   15.724    0.394    0.136   87.150  208.180
  325.400   15.041    0.441    0.182   94.949  208.494
  325.650   14.133    0.462    0.208   99.954  208.504
  325.900   13.365    0.466    0.209  100.734  208.512
  326.150   12.962    0.454    0.195   97.775  208.606
  326.400   12.865    0.422    0.179   96.045  209.035
  326.650   13.343    0.383    0.164   95.336  209.046
  326.900   14.064    0.373    0.164   96.949  209.358
  327.150   14.651    0.389    0.179  100.168  209.769
  327.400   14.702    0.423    0.202  104.398  210.181
  327.650   13.710    0.473    0.216  109.461  210.764
  327.900   12.524    0.482    0.223  110.954  211.614
  328.150   12.073    0.471    0.224  111.198  212.026
  328.400   11.900    0.465    0.216  112.156  212.136
  328.650   12.031    0.467    0.211  111.804  212.146
  328.900   12.346    0.476    0.210  109.965  212.257
  329.150   12.529    0.477    0.201  108.059  212.669
  329.400   12.530    0.466    0.203  106.826  212.678
  329.650   12.716    0.451    0.193  106.117  212.286
  329.900   12.904    0.440    0.203  106.836  211.893
  330.150   13.095    0.443    0.210  108.269  211.500
  330.400   13.241    0.457    0.211  109.643  211.209
  330.650   13.263    0.471    0.219  109.829  211.218
  330.900   13.365    0.478    0.213  108.347  211.228
  331.150   13.366    0.485    0.212  106.448  211.236
  331.400   13.221    0.487    0.224  104.371  211.245
  331.650   12.982    0.483    0.232  104.139  210.852
  331.900   12.749    0.475    0.232  105.871  210.258
  332.150   12.677    0.470    0.234  108.277  210.184
  332.400   12.775    0.462    0.228  110.761  209.774
  332.650   13.059    0.450    0.221  113.623  209.381
  332.900   13.277    0.448    0.213  113.807  209.290
  333.150   13.376    0.457    0.209  111.670  209.299
  333.400   13.328    0.475    0.212  109.117  209.207
  333.650   13.096    0.491    0.220  110.046  208.815
  333.900   12.899    0.498    0.223  112.284  208.825
  334.150   12.806    0.496    0.210  110.861  208.433
  334.400   12.784    0.480    0.212  109.796  207.737
  334.650   12.832    0.476    0.212  108.135  206.538
