~VERSION INFORMATION
 VERS.                 2.0:   CWLS LOG ASCII STANDARD -VERSION 2.0
 WRAP.                  NO:   ONE LINE PER DEPTH STEP
~WELL INFORMATION BLOCK
#MNEM.UNIT           DATA                    DESCRIPTION OF MNEMONIC
#---------    -------------------            -------------------------------
# Generated from Intellog Unique Number	CC_88_90/WELL/3147
WELL.         CANTERRA ENERGY LTD.           : Well_name    - WELL
LOC .         00/10-12-089-18W4/0            : Location     - LOCATION
UWI .         00/10-12-089-18W400            : Uwi          - UNIQUE WELL ID
ENTR.         JOETTE                         : Entered      - ENTERED BY
SRVC.         SCHLUMBERGER                   : Scn          - SERVICE COMPANY
DATE.         03/04/92                       : Date         - LOG DATE
STRT.M        100                            : top_depth    - START DEPTH
STOP.M        185                            : bot_depth    - STOP DEPTH
STEP.M        0.25                           : increment    - STEP LENGTH
 NULL. -999.2500:NULL Value
~CURVE INFORMATION BLOCK
#MNEM UNIT       ERCB CURVE CODE    CURVE DESCRIPTION
#-----------   ------------------   ----------------------------------
DEPT.M        00 001 00 00         : DEPTH        - DEPTH
GR  .API      00 310 00 00         : GR           - GAMMA RAY
ILD .OHMM     00 120 00 00         : RESD         - DEEP RESISTIVITY (DIL)
NPHI.V/V      00 330 00 00         : PHIN         - NEUTRON POROSITY (SANDSTONE)
DPHI.V/V      00 890 00 00         : PHID         - DENSITY POROSITY (SANDSTONE)
~PARAMETER INFORMATION
#MNEM.UNIT           DATA             DESCRIPTION OF MNEMONIC
#---------         -----------     ------------------------------
GL  .M        476.25               : gl           - GROUND LEVEL ELEVATION
EREF.M        479.25               : kb           - ELEVATION OF DEPTH REFERENCE
DATM.M        479.25               : datum        - DATUM ELEVATION
TDD .M        183.5                : tdd          - TOTAL DEPTH DRILLER
RUN .         ONE                  : Run          - RUN NUMBER
ENG .         BILL                 : Engineer     - RECORDING ENGINEER
WIT .         JIM                  : Witness      - WITNESSED BY
MUD .         GEL                  : Mud_type     - MUD TYPE
MATR.         SANDSTONE            : Logunit      - NEUTRON MATRIX
TMAX.C        18.3                 : BHT          - MAXIMUM RECORDED TEMPERATURE
BHTD.M        183.5                : BHTDEP       - MAXIMUM RECORDED TEMPERATURE
RMT .C        13.8                 : MDTP         - TEMPERATURE OF MUD
MUDD.KG/M     1070                 : MWT          - MUD DENSITY
NEUT.         1                    : NEUTRON      - NEUTRON TYPE
RESI.         0                    : RESIST       - RESISTIVITY TYPE
RM  .OHMM     2.1                  : RM           - RESISTIVITY OF MUD
RMC .OHMM     2.1                  : RMC          - RESISTIVITY OF MUD CAKE
RMF .OHMM     2.1                  : RMF          - RESISTIVITY OF MUD FILTRATE
SUFT.C        4                    : SUFT         - SURFACE TEMPERATURE
~A  DEPTH       GR     RESD     PHIN     PHID
  100.000   85.425   13.898    0.507    0.272
  100.250   84.199    9.392    0.523    0.283
  100.500   87.275    8.556    0.527    0.283
  100.750   96.496    8.090    0.518    0.275
  101.000  112.478    7.509    0.521    0.248
  101.250  106.336    7.509    0.535    0.214
  101.500  105.725    8.719    0.505    0.172
  101.750  119.863   12.431    0.467    0.167
  102.000  127.241   18.057    0.429    0.172
  102.250  113.723   19.825    0.416    0.213
  102.500  111.268   20.580    0.423    0.219
  102.750  124.792   21.767    0.434    0.216
  103.000  121.108   21.768    0.445    0.189
  103.250  110.048   21.366    0.439    0.133
  103.500  109.437   19.831    0.414    0.220
  103.750  105.138   18.065    0.437    0.263
  104.000  102.683   17.082    0.451    0.290
  104.250  103.916   15.274    0.459    0.294
  104.500  112.523   13.656    0.456    0.309
  104.750  105.765   11.545    0.456    0.293
  105.000   93.477    7.657    0.465    0.257
  105.250  100.855    7.377    0.480    0.249
  105.500   95.942    6.976    0.504    0.236
  105.750  108.237    6.597    0.529    0.213
  106.000  115.614    5.789    0.539    0.166
  106.250  119.920    5.577    0.555    0.176
  106.500  127.297    5.578    0.516    0.206
  106.750  112.551    5.578    0.504    0.227
  107.000  104.565    5.578    0.528    0.236
  107.250  107.641    5.684    0.543    0.244
  107.500  118.706    5.684    0.543    0.247
  107.750  121.168    5.684    0.546    0.247
  108.000  121.171    5.685    0.557    0.249
  108.250  109.497    5.792    0.562    0.236
  108.500   90.449    5.902    0.566    0.248
  108.750   89.838    6.359    0.589    0.283
  109.000   93.528    7.384    0.537    0.309
  109.250   94.760    9.954    0.498    0.315
  109.500  108.899   13.171    0.503    0.308
  109.750  120.578   17.106    0.487    0.305
  110.000  126.727   19.134    0.465    0.308
  110.250  125.501   20.618    0.473    0.305
  110.500  106.453   21.807    0.475    0.303
  110.750   84.331   21.809    0.476    0.325
  111.000   97.856   20.622    0.457    0.294
  111.250   89.255   19.500    0.444    0.232
  111.500   91.102   17.764    0.448    0.260
  111.750   99.094   16.797    0.454    0.293
  112.000   99.712   14.741    0.484    0.287
  112.250  102.173   15.020    0.523    0.224
  112.500   96.030   16.801    0.512    0.201
  112.750  102.794   17.441    0.468    0.207
  113.000  124.307   18.794    0.435    0.222
  113.250  135.987   18.795    0.429    0.238
  113.500  129.230   18.449    0.463    0.242
  113.750  116.941   18.108    0.488    0.243
  114.000  102.195   17.774    0.490    0.240
  114.250  112.646   17.447    0.484    0.212
  114.500  114.493   17.125    0.480    0.209
  114.750  118.183   17.126    0.483    0.220
  115.000  121.874   17.450    0.495    0.223
  115.250  118.189   17.780    0.491    0.217
  115.500  115.734   18.116    0.480    0.204
  115.750  118.196   18.806    0.469    0.190
  116.000  120.043   18.808    0.448    0.195
  116.250  108.984   18.808    0.450    0.280
  116.500  100.998   18.121    0.466    0.289
  116.750  102.229   17.786    0.469    0.298
  117.000  113.295   17.787    0.468    0.306
  117.250  102.850   17.789    0.478    0.308
  117.500  101.625   18.125    0.467    0.301
  117.750  104.701   18.126    0.437    0.269
  118.000  110.849   18.127    0.447    0.263
  118.250  112.082   17.463    0.469    0.269
  118.500  105.325   16.825    0.465    0.235
  118.750  109.630   16.826    0.429    0.225
  119.000  109.633   16.827    0.438    0.286
  119.250  107.792   17.145    0.465    0.262
  119.500  108.410   17.146    0.467    0.251
  119.750   99.809   17.147    0.451    0.242
  120.000   99.812   17.148    0.444    0.262
  120.250   97.972   16.832    0.450    0.277
  120.500   83.225   16.522    0.462    0.281
  120.750   88.145   16.218    0.445    0.289
  121.000   94.909   16.219    0.439    0.288
  121.250   89.380   16.219    0.434    0.267
  121.500   91.842   16.526    0.425    0.235
  121.750  101.678   16.221    0.408    0.189
  122.000  102.296   14.503    0.464    0.215
  122.250   93.081   13.714    0.476    0.237
  122.500  105.375   13.974    0.475    0.250
  122.750  120.742   14.779    0.460    0.245
  123.000  120.131   15.342    0.461    0.243
  123.250  117.061   15.059    0.462    0.243
  123.500  120.137   12.265    0.449    0.215
  123.750  109.079    7.273    0.432    0.168
  124.000   99.249    6.035    0.438    0.188
  124.250   94.949    5.102    0.536    0.219
  124.500   98.640    4.234    0.545    0.193
  124.750   99.258    4.003    0.515    0.148
  125.000  100.490    3.857    0.499    0.239
  125.250   98.650    4.235    0.542    0.293
  125.500   91.892    4.917    0.577    0.308
  125.750   96.197    6.038    0.576    0.304
  126.000  108.492    7.277    0.565    0.298
  126.250   94.975   10.571    0.549    0.278
  126.500   95.593   11.605    0.516    0.236
  126.750  102.356   13.226    0.472    0.214
  127.000   92.526   13.989    0.465    0.150
  127.250  101.747   13.989    0.431    0.169
  127.500  100.522   12.984    0.444    0.224
  127.750   89.463   12.745    0.464    0.217
  128.000   88.852   12.745    0.480    0.203
  128.250   94.386   13.231    0.500    0.212
  128.500   98.691   14.800    0.498    0.223
  128.750   95.621   17.184    0.482    0.218
  129.000   88.864   17.509    0.442    0.206
  129.250   91.325   17.510    0.414    0.189
  129.500  118.369   17.187    0.427    0.207
  129.750  104.852   17.188    0.435    0.229
  130.000   93.178   17.513    0.426    0.232
  130.250   90.723   21.108    0.437    0.240
  130.500   89.498   23.611    0.455    0.201
  130.750  112.239   25.922    0.420    0.117
  131.000  123.919   29.542    0.347    0.091
  131.250  113.475   30.668    0.310    0.077
  131.500  114.708   30.669    0.323    0.088
  131.750  114.710   30.670    0.331    0.106
  132.000  104.266   30.106    0.351    0.122
  132.250   98.738   29.004    0.354    0.137
  132.500   97.512   26.422    0.320    0.149
  132.750  109.806   24.522    0.310    0.153
  133.000  120.258   21.520    0.349    0.168
  133.250  110.427   18.536    0.360    0.195
  133.500  107.357   16.267    0.403    0.223
  133.750  109.819   14.275    0.363    0.197
  134.000  108.593   12.528    0.388    0.232
  134.250  108.597   12.297    0.416    0.252
  134.500  116.589   12.765    0.447    0.232
  134.750  112.290   14.015    0.430    0.199
  135.000   93.241   15.972    0.437    0.215
  135.250   87.099   18.202    0.446    0.231
  135.500   82.800   18.896    0.440    0.223
  135.750   80.960   18.548    0.429    0.229
  136.000   72.974   18.548    0.439    0.238
  136.250   64.987   18.899    0.451    0.246
  136.500   74.823   20.366    0.461    0.250
  136.750   83.430   21.539    0.474    0.255
  137.000   88.350   23.210    0.469    0.227
  137.250   96.957   24.095    0.413    0.175
  137.500  116.012   24.096    0.376    0.200
  137.750  106.797   24.097    0.408    0.216
  138.000  117.862   23.653    0.426    0.190
  138.250  127.084   22.367    0.353    0.087
  138.500  120.327   21.548    0.321    0.091
  138.750  116.642   20.000    0.351    0.121
  139.000  120.948   19.631    0.422    0.113
  139.250  124.024   18.913    0.387    0.129
  139.500  128.329   18.221    0.417    0.185
  139.750  116.655   15.119    0.444    0.203
  140.000  110.512   13.518    0.444    0.219
  140.250   95.766   14.298    0.433    0.190
  140.500   90.239   14.568    0.423    0.189
  140.750   97.002   15.123    0.441    0.198
  141.000  102.536   15.124    0.432    0.220
  141.250  110.528   14.571    0.427    0.222
  141.500  106.844   14.302    0.434    0.220
  141.750  111.764   14.039    0.452    0.214
  142.000  106.850   13.525    0.481    0.206
  142.250  108.697   13.030    0.454    0.198
  142.500  105.627   12.790    0.446    0.198
  142.750   93.954   12.790    0.455    0.205
  143.000   93.957   13.033    0.472    0.214
  143.250  104.408   12.792    0.472    0.208
