~VERSION INFORMATION
 VERS.                 2.0:   CWLS LOG ASCII STANDARD -VERSION 2.0
 WRAP.                  NO:   ONE LINE PER DEPTH STEP
~WELL INFORMATION BLOCK
#MNEM.UNIT           DATA                    DESCRIPTION OF MNEMONIC
#---------    -------------------            -------------------------------
# Generated from Intellog Unique Number	CC_80_83/WELL/2343
NULL.         -999.25                        : NULL_VALUE
WELL.         BVX ET AL WATCHUSK             : Well_name    - WELL
LOC .         10-09-082-03W4                 : Location     - LOCATION          
UWI .         00/10-09-082-03W400            : Uwi          - UNIQUE WELL ID    
ENTR.         DW                             : Entered      - ENTERED BY        
SRVC.         SCHLUMBERGER                   : Scn          - SERVICE COMPANY   
DATE.         18 FEB 78                      : Date         - LOG DATE
STRT.M        115.824                        : top_depth    - START DEPTH       
STOP.M        262.126                        : bot_depth    - STOP DEPTH        
STEP.M        0.305                          : increment    - STEP LENGTH       
~CURVE INFORMATION BLOCK
#MNEM UNIT       ERCB CURVE CODE    CURVE DESCRIPTION
#-----------   ------------------   ----------------------------------
DEPT.M        00 001 00 00         : DEPTH        - DEPTH                       
DPHI.V/V      00 890 00 00         : PHID         - DENSITY POROSITY (LIMESTONE)
NPHI.V/V      00 330 00 00         : PHIN         - NEUTRON POROSITY (LIMESTONE)
GR  .API      00 310 00 00         : GR           - GAMMA RAY                   
ILD .OHMM     00 120 00 00         : RESD         - DEEP RESISTIVITY (DIL)      
~PARAMETER INFORMATION       
#MNEM.UNIT           DATA             DESCRIPTION OF MNEMONIC
#---------         -----------     ------------------------------
GL  .M        454.152              : gl           - GROUND LEVEL ELEVATION      
EREF.M        457.2                : kb           - ELEVATION OF DEPTH REFERENCE
DATM.M        457.2                : datum        - DATUM ELEVATION             
TDD .M        267.005              : tdd          - TOTAL DEPTH DRILLER         
RUN .         ONE                  : Run          - RUN NUMBER                  
ENG .         BILL                 : Engineer     - RECORDING ENGINEER          
WIT .         JIM                  : Witness      - WITNESSED BY                
MUD .         GEL                  : Mud_type     - MUD TYPE                    
MATR.         LIMESTONE            : Logunit      - NEUTRON MATRIX              
TMAX.C        15.5556              : BHT          - MAXIMUM RECORDED TEMPERATURE
BHTD.M        267.005              : BHTDEP       - MAXIMUM RECORDED TEMPERATURE
MATR.         1                    : LOGUNIT      - NEUTRON MATRIX              
RMT .C        25                   : MDTP         - TEMPERATURE OF MUD          
NEUT.         1                    : NEUTRON      - NEUTRON TYPE                
RESI.         0                    : RESIST       - RESISTIVITY TYPE            
RMC .OHMM     0.25                 : RMC          - RESISTIVITY OF MUD CAKE     
RMF .OHMM     0.25                 : RMF          - RESISTIVITY OF MUD FILTRATE 
SUFT.C        15                   : SUFT         - SURFACE TEMPERATURE         
~A  DEPTH     PHID     PHIN       GR     RESD
# ...
  221.893    0.265    0.358   54.332    2.538
  222.198    0.271    0.360   53.723    2.310
  222.502    0.285    0.375   47.067    2.064
  222.807    0.306    0.384   39.805    1.711
  223.112    0.314    0.392   36.776    1.648
  223.417    0.312    0.408   36.169    1.556
  223.721    0.314    0.400   31.931    1.584
  224.026    0.319    0.393   28.296    1.583
  224.331    0.322    0.396   27.688    1.610
  224.636    0.318    0.413   28.290    1.639
  224.941    0.320    0.422   30.706    1.669
  225.245    0.323    0.423   33.725    1.699
  225.550    0.320    0.395   34.327    1.761
  225.855    0.277    0.383   31.299    1.759
  226.160    0.293    0.382   27.062    1.726
  226.465    0.316    0.399   24.639    1.600
  226.769    0.323    0.446   27.053    1.484
  227.074    0.330    0.422   31.889    1.483
  227.379    0.340    0.415   34.909    1.656
  227.684    0.342    0.398   36.115    1.885
  227.989    0.322    0.378   39.136    2.028
  228.293    0.318    0.370   40.946    2.103
  228.598    0.304    0.360   44.572    2.102
  228.903    0.278    0.358   56.060    1.877
  229.208    0.273    0.375   55.452    1.708
  229.513    0.273    0.433   46.979    1.615
  229.817    0.277    0.435   41.532    1.497
  230.122    0.327    0.422   36.689    1.468
  230.427    0.362    0.445   34.871    1.494
  230.732    0.352    0.453   35.473    1.493
  231.037    0.311    0.432   33.655    1.606
  231.341    0.319    0.417   30.021    1.698
  231.646    0.325    0.419   30.017    1.861
  231.951    0.327    0.418   31.829    1.966
  232.256    0.307    0.403   42.108    2.077
  232.561    0.305    0.394   76.579    2.154
  232.865    0.270    0.406   82.624    2.233
  233.170    0.253    0.442   71.129    2.273
  233.475    0.263    0.439   59.028    2.446
  233.780    0.278    0.420   71.724    2.537
  234.084    0.266    0.420   73.535    2.582
  234.389    0.249    0.422   71.112    2.579
  234.694    0.276    0.418   67.480    2.577
  234.999    0.297    0.420   69.896    2.480
  235.304    0.259    0.441   78.359    2.433
  235.608    0.264    0.465   72.913    2.256
  235.913    0.277    0.490   65.046    2.131
  236.218    0.282    0.450   58.994    2.129
  236.523    0.276    0.467   72.901    2.207
  236.828    0.264    0.493   74.712    2.247
  237.132    0.288    0.458   63.216    2.463
  237.437    0.307    0.444   71.680    2.555
  237.742    0.257    0.449   81.353    2.601
  238.047    0.247    0.450   79.536    2.746
  238.352    0.264    0.438   76.508    2.744
  238.656    0.274    0.417   71.664    2.793
  238.961    0.251    0.405   73.476    2.688
  239.266    0.231    0.443   71.053    2.686
  239.571    0.229    0.424   59.557    2.633
  239.876    0.234    0.403   51.086    2.631
  240.180    0.236    0.380   64.388    2.679
  240.485    0.227    0.406   67.409    2.676
  240.790    0.244    0.434   61.961    2.673
  241.095    0.275    0.423   59.538    2.772
  241.400    0.264    0.420   64.978    2.983
  241.704    0.245    0.416   77.071    3.036
  242.009    0.236    0.420   85.534    3.091
  242.314    0.224    0.434   83.716    3.030
  242.619    0.241    0.435   73.430    2.972
  242.924    0.265    0.432   77.056    2.860
  243.228    0.230    0.427   81.284    2.858
  243.533    0.228    0.421   81.282    2.700
  243.838    0.234    0.425   74.626    2.504
  244.143    0.286    0.438   69.783    2.237
  244.447    0.294    0.452   64.940    2.235
  244.752    0.280    0.446   59.493    2.317
  245.057    0.281    0.428   60.093    2.359
  245.362    0.296    0.425   60.695    2.446
  245.667    0.294    0.435   62.504    2.444
  245.971    0.282    0.442   62.502    2.397
  246.276    0.281    0.452   57.659    2.393
  246.581    0.305    0.483   55.840    2.437
  246.886    0.328    0.490   55.233    2.526
  247.191    0.329    0.452   63.092    2.571
  247.495    0.273    0.434   72.161    2.617
  247.800    0.286    0.455   69.132    2.567
  248.105    0.296    0.479   61.870    2.380
  248.410    0.293    0.460   55.213    2.291
  248.715    0.287    0.454   53.396    2.289
  249.019    0.329    0.456   56.415    2.374
  249.324    0.285    0.461   64.275    2.507
  249.629    0.262    0.452   70.925    2.505
  249.934    0.256    0.439   67.292    2.411
  250.239    0.261    0.431   61.239    2.235
  250.543    0.263    0.422   53.372    2.153
  250.848    0.264    0.420   56.998    1.996
  251.153    0.284    0.420   60.623    1.921
  251.458    0.304    0.444   58.804    1.884
  251.763    0.314    0.455   54.566    1.882
  252.067    0.315    0.455   51.539    1.845
  252.372    0.299    0.450   45.488    1.744
  252.677    0.270    0.445   60.000    1.587
  252.982    0.260    0.459   50.924    1.472
  253.287    0.310    0.442   40.033    1.340
  253.591    0.363    0.433   41.239    1.289
  253.896    0.367    0.434   52.727    1.289
  254.201    0.369    0.448   70.263    1.311
  254.506    0.350    0.441   79.332    1.335
  254.811    0.324    0.427   67.232    1.358
  255.115    0.311    0.412   52.106    1.357
  255.420    0.298    0.402   52.102    1.331
  255.725    0.330    0.426   54.519    1.329
  256.030    0.324    0.441   66.612    1.404
  256.335    0.305    0.426   87.172    1.540
  256.639    0.281    0.421   92.612    1.658
  256.944    0.249    0.485   92.004    1.995
  257.249    0.202    0.513   88.975    2.401
  257.554    0.232    0.478   55.101    3.112
  257.859    0.239    0.453   61.750    3.288
  258.163    0.217    0.540   67.795    3.409
  258.468    0.261    0.484   39.969    3.669
  258.773    0.283    0.448   24.844    4.023
  259.078    0.280    0.420   23.630    4.663
  259.383    0.187    0.379   25.441    5.309
  259.687    0.097    0.335   26.646    6.755
  259.992    0.069    0.237   26.037    7.977
  260.297    0.082    0.225   22.404    8.909
  260.602    0.088    0.232   20.587    9.416
  260.907    0.064    0.242   18.769   10.711
  261.211    0.056    0.249   18.160   11.107
  261.516    0.041    0.227   18.760   11.519
  261.821    0.029    0.214   18.756   11.946
  262.126    0.046    0.205   19.359   12.851
