~VERSION INFORMATION
 VERS.                 2.0:   CWLS LOG ASCII STANDARD -VERSION 2.0
 WRAP.                  NO:   ONE LINE PER DEPTH STEP
~WELL INFORMATION BLOCK
#MNEM.UNIT           DATA                    DESCRIPTION OF MNEMONIC
#---------    -------------------            -------------------------------
# Generated from Intellog Unique Number	CS_77_79/WELL/984
WELL.         CANADIAN WORLDWIDE ENERGY      : Well_name    - WELL
LOC .         00/11-03-077-04W4/0            : Location     - LOCATION
UWI .         00/11-03-077-04W4/0            : Uwi          - UNIQUE WELL ID
ENTR.         SP                             : Entered      - ENTERED BY
SRVC.         SCHLUMBERGER                   : Scn          - SERVICE COMPANY
STRT.M        175                            : top_depth    - START DEPTH
STOP.M        450                            : bot_depth    - STOP DEPTH
STEP.M        0.25                           : increment    - STEP LENGTH
 NULL. -999.2500:NULL Value
~CURVE INFORMATION BLOCK
#MNEM UNIT       ERCB CURVE CODE    CURVE DESCRIPTION
#-----------   ------------------   ----------------------------------
DEPT.M        00 001 00 00         : DEPTH        - DEPTH
ILD .OHMM     00 120 00 00         : RESD         - DEEP RESISTIVITY (DIL)
DPHI.V/V      00 890 00 00         : PHID         - DENSITY POROSITY (LIMESTONE)
NPHI.V/V      00 330 00 00         : PHIN         - NEUTRON POROSITY (LIMESTONE)
GR  .API      00 310 00 00         : GR           - GAMMA RAY
~PARAMETER INFORMATION
#MNEM.UNIT           DATA             DESCRIPTION OF MNEMONIC
#---------         -----------     ------------------------------
GL  .M        577.9                : gl           - GROUND LEVEL ELEVATION
EREF.M        581.55               : kb           - ELEVATION OF DEPTH REFERENCE
DATM.M        577.9                : datum        - DATUM ELEVATION
TDD .M        450                  : tdd          - TOTAL DEPTH DRILLER
RUN .         ONE                  : Run          - RUN NUMBER
ENG .         BILL                 : Engineer     - RECORDING ENGINEER
WIT .         JIM                  : Witness      - WITNESSED BY
MUD .         GEL                  : Mud_type     - MUD TYPE
MATR.         LIMESTONE            : Logunit      - NEUTRON MATRIX
TMAX.C        23                   : BHT          - MAXIMUM RECORDED TEMPERATURE
BHTD.M        450                  : BHTDEP       - MAXIMUM RECORDED TEMPERATURE
MATR.         1                    : LOGUNIT      - NEUTRON MATRIX
RMT .C        25                   : MDTP         - TEMPERATURE OF MUD
NEUT.         1                    : NEUTRON      - NEUTRON TYPE
RESI.         0                    : RESIST       - RESISTIVITY TYPE
RMC .OHMM     0.25                 : RMC          - RESISTIVITY OF MUD CAKE
RMF .OHMM     0.25                 : RMF          - RESISTIVITY OF MUD FILTRATE
SUFT.C        15                   : SUFT         - SURFACE TEMPERATURE
~A  DEPTH     RESD     PHID     PHIN       GR
# ...
  262.000   12.988    0.329    0.442   89.633
  262.250   11.180    0.310    0.447   95.836
  262.500    9.097    0.237    0.443  103.278
  262.750    7.130    0.238    0.436  107.002
  263.000    6.495    0.235    0.425  105.766
  263.250    5.697    0.233    0.395  101.435
  263.500    5.289    0.240    0.395  100.198
  263.750    5.497    0.255    0.396   95.864
  264.000    5.605    0.274    0.399   92.149
  264.250    5.824    0.276    0.402   90.294
  264.500    6.053    0.227    0.415   97.118
  264.750    6.059    0.217    0.434  104.560
  265.000    5.839    0.233    0.451  107.663
  265.250    5.736    0.244    0.456  105.809
  265.500    5.742    0.250    0.434  105.814
  265.750    5.640    0.245    0.413  111.398
  266.000    5.645    0.240    0.408  115.741
  266.250    5.236    0.234    0.447  118.844
  266.500    4.771    0.238    0.457  118.228
  266.750    4.685    0.238    0.460  113.275
  267.000    4.516    0.239    0.442  110.800
  267.250    4.435    0.243    0.455  108.945
  267.500    4.524    0.248    0.469  106.471
  267.750    4.613    0.245    0.474  102.136
  268.000    5.073    0.249    0.463   98.422
  268.250    5.475    0.257    0.455  100.906
  268.500    5.689    0.262    0.449  103.390
  268.750    5.802    0.270    0.455   97.816
  269.000    5.805    0.255    0.439   93.481
  269.250    6.036    0.238    0.428   92.868
  269.500    6.040    0.238    0.416   94.730
  269.750    6.043    0.229    0.412   97.836
  270.000    6.050    0.248    0.423   99.079
  270.250    6.053    0.271    0.429   96.604
  270.500    6.531    0.290    0.426   87.931
  270.750    7.048    0.311    0.422   79.258
  271.000    8.047    0.307    0.421   74.924
  271.250    9.018    0.312    0.431   74.928
  271.500    9.730    0.314    0.439   75.554
  271.750   10.500    0.312    0.428   75.557
  272.000   11.118    0.309    0.413   78.042
  272.250   11.339    0.311    0.402   78.046
  272.500   10.928    0.316    0.403   76.811
  272.750    8.894    0.312    0.427   81.776
  273.000    7.656    0.297    0.457   86.739
  273.250    5.888    0.268    0.489   90.461
  273.500    4.791    0.266    0.528   96.664
  273.750    4.125    0.277    0.511  103.488
  274.000    3.757    0.280    0.479  107.211
  274.250    3.422    0.272    0.469  110.316
  274.500    3.299    0.261    0.469  110.940
  274.750    3.840    0.251    0.466  107.845
  275.000    4.143    0.267    0.474  102.891
  275.250    4.469    0.318    0.471   97.317
  275.500    5.299    0.348    0.458   85.545
  275.750    6.522    0.360    0.442   75.012
  276.000    8.658    0.365    0.426   66.339
  276.250   10.860    0.364    0.408   60.765
  276.500   12.633    0.362    0.400   63.250
  276.750   15.550    0.360    0.396   58.296
  277.000   19.146    0.354    0.397   57.060
  277.250   19.535    0.351    0.401   60.165
  277.500   18.817    0.348    0.407   62.029
  277.750   19.192    0.355    0.409   64.512
  278.000   19.945    0.360    0.402   65.757
  278.250   20.340    0.360    0.397   65.141
  278.500   20.357    0.355    0.395   60.808
  278.750   19.997    0.352    0.404   61.431
  279.000   20.018    0.349    0.419   62.676
  279.250   20.027    0.352    0.432   63.921
  279.500   19.670    0.354    0.424   65.784
  279.750   19.319    0.350    0.412   62.690
  280.000   18.976    0.345    0.404   61.455
  280.250   18.641    0.349    0.399   64.560
  280.500   18.305    0.355    0.393   66.423
  280.750   17.983    0.364    0.399   65.808
  281.000   17.655    0.361    0.412   64.573
  281.250   17.345    0.355    0.424   64.578
  281.500   17.038    0.351    0.424   64.582
  281.750   17.044    0.347    0.429   65.206
  282.000   17.058    0.340    0.434   64.592
  282.250   17.074    0.336    0.429   63.357
  282.500   17.748    0.351    0.417   65.841
  282.750   17.765    0.356    0.412   68.325
  283.000   17.772    0.355    0.424   67.709
  283.250   17.788    0.354    0.430   63.375
  283.500   18.143    0.351    0.419   60.900
  283.750   18.164    0.350    0.411   61.526
  284.000   18.175    0.342    0.394   60.910
  284.250   19.242    0.307    0.380   59.674
  284.500   21.159    0.225    0.307   55.341
  284.750   27.561    0.132    0.240   52.866
  285.000   30.876    0.038    0.182   52.871
  285.250   35.950    0.034    0.172   54.735
  285.500   33.982    0.074    0.206   57.838
  285.750   26.628    0.251    0.246   62.183
  286.000   21.263    0.279    0.323   64.666
  286.250   19.007    0.319    0.399   66.530
  286.500   17.644    0.360    0.414   67.155
  286.750   16.380    0.356    0.423   69.638
  287.000   16.085    0.350    0.404   73.361
  287.250   15.801    0.354    0.392   76.466
  287.500   15.816    0.352    0.379   74.611
  287.750   15.824    0.345    0.404   70.896
  288.000   16.142    0.340    0.418   70.281
  288.250   16.153    0.336    0.430   72.766
  288.500   16.171    0.332    0.428   73.389
  288.750   16.178    0.337    0.418   66.577
  289.000   16.193    0.345    0.412   64.722
  289.250   16.216    0.349    0.410   63.487
  289.500   16.227    0.335    0.408   62.871
  289.750   15.934    0.327    0.407   64.115
  290.000   15.945    0.321    0.415   65.979
  290.250   15.661    0.339    0.426   61.645
  290.500   15.097    0.351    0.424   59.790
  290.750   15.109    0.357    0.413   64.135
  291.000   14.837    0.353    0.407   66.618
  291.250   14.575    0.346    0.415   68.481
  291.500   14.311    0.339    0.426   69.727
  291.750   14.321    0.345    0.435   72.830
  292.000   14.339    0.350    0.434   77.795
  292.250   14.349    0.350    0.416   77.178
  292.500   14.357    0.346    0.412   69.744
  292.750   14.645    0.356    0.416   67.270
  293.000   14.658    0.360    0.412   66.655
  293.250   14.666    0.348    0.405   65.420
  293.500   14.959    0.341    0.404   69.143
  293.750   15.255    0.345    0.408   72.249
  294.000   14.982    0.340    0.416   74.113
  294.250   14.995    0.332    0.421   74.736
  294.500   14.729    0.329    0.423   73.502
  294.750   14.196    0.331    0.424   73.506
  295.000   13.682    0.332    0.424   74.750
  295.250   13.187    0.332    0.424   75.994
  295.500   12.955    0.332    0.423   76.619
  295.750   12.723    0.331    0.430   79.103
  296.000   10.101    0.327    0.445   80.967
  296.250   10.383    0.317    0.453   83.451
  296.500   10.566    0.305    0.460   88.415
  296.750    9.444    0.290    0.471   96.477
  297.000    7.830    0.248    0.468  101.440
  297.250    6.253    0.241    0.453  102.684
  297.500    4.994    0.256    0.449  102.069
  297.750    4.299    0.268    0.531  109.512
  298.000    3.432    0.263    0.550  114.474
  298.250    2.955    0.259    0.556  117.578
  298.500    2.849    0.256    0.562  117.583
  298.750    2.799    0.243    0.547  113.250
  299.000    2.800    0.234    0.499  109.536
  299.250    2.966    0.239    0.483  108.299
  299.500    3.082    0.243    0.474  113.884
  299.750    3.203    0.247    0.482  119.468
  300.000    3.266    0.249    0.494  123.810
  300.250    3.268    0.254    0.499  123.814
  300.500    3.150    0.260    0.504  118.861
  300.750    3.095    0.254    0.508  115.766
  301.000    3.155    0.247    0.500  112.671
  301.250    3.536    0.239    0.467  107.098
  301.500    3.888    0.231    0.468  103.383
  301.750    4.275    0.226    0.473   98.430
  302.000    4.790    0.239    0.464   94.095
  302.250    5.367    0.267    0.455   89.761
  302.500    6.014    0.280    0.457   87.285
  302.750    6.488    0.286    0.453   90.390
  303.000    7.134    0.284    0.489  116.427
  303.250    7.701    0.264    0.507  125.729
  303.500    7.852    0.257    0.510  119.535
  303.750    7.567    0.255    0.509  109.624
  304.000    7.294    0.260    0.453  104.050
  304.250    7.167    0.264    0.406   99.095
  304.500    7.171    0.262    0.390   92.901
  304.750    7.175    0.255    0.393   89.188
  305.000    7.457    0.245    0.409   89.813
  305.250    7.749    0.263    0.450   85.478
