~VERSION INFORMATION
 VERS.                 2.0:   CWLS LOG ASCII STANDARD -VERSION 2.0
 WRAP.                  NO:   ONE LINE PER DEPTH STEP
~WELL INFORMATION BLOCK
#MNEM.UNIT           DATA                    DESCRIPTION OF MNEMONIC
#---------    -------------------            -------------------------------
# Generated from Intellog Unique Number	CX_WELLS/WELL/3044
WELL.         10-06-082-14W4                 : Well_name    - WELL
LOC .         00/10-06-082-14W4/0            : Location     - LOCATION
UWI .         00/10-06-082-14W400            : Uwi          - UNIQUE WELL ID
ENTR.         T                              : Entered      - ENTERED BY
SRVC.         SCHLUMBERGER                   : Scn          - SERVICE COMPANY
STRT.M        135                            : top_depth    - START DEPTH
STOP.M        350                            : bot_depth    - STOP DEPTH
STEP.M        0.25                           : increment    - STEP LENGTH
 NULL. -999.2500:NULL Value
~CURVE INFORMATION BLOCK
#MNEM UNIT       ERCB CURVE CODE    CURVE DESCRIPTION
#-----------   ------------------   ----------------------------------
DEPT.M        00 001 00 00         : DEPTH        - DEPTH
GR  .API      00 310 00 00         : GR           - GAMMA RAY
NPHI.V/V      00 330 00 00         : PHIN         - NEUTRON POROSITY (SANDSTONE)
DPHI.V/V      00 890 00 00         : PHID         - DENSITY POROSITY (SANDSTONE)
ILD .OHMM     00 120 00 00         : RESD         - DEEP RESISTIVITY (OTHER)
~PARAMETER INFORMATION
#MNEM.UNIT           DATA             DESCRIPTION OF MNEMONIC
#---------         -----------     ------------------------------
GL  .M        578                  : gl           - GROUND LEVEL ELEVATION
EREF.M        581.8                : kb           - ELEVATION OF DEPTH REFERENCE
DATM.M        581.8                : datum        - DATUM ELEVATION
TDD .M        352                  : tdd          - TOTAL DEPTH DRILLER
RUN .         ONE                  : Run          - RUN NUMBER
ENG .         BILL                 : Engineer     - RECORDING ENGINEER
WIT .         JIM                  : Witness      - WITNESSED BY
MUD .         GEL                  : Mud_type     - MUD TYPE
MATR.         SANDSTONE            : Logunit      - NEUTRON MATRIX
TMAX.C        29                   : BHT          - MAXIMUM RECORDED TEMPERATURE
BHTD.M        352                  : BHTDEP       - MAXIMUM RECORDED TEMPERATURE
MATR.         1                    : LOGUNIT      - NEUTRON MATRIX
RMT .C        25                   : MDTP         - TEMPERATURE OF MUD
NEUT.         1                    : NEUTRON      - NEUTRON TYPE
RESI.         2.6                  : RESIST       - RESISTIVITY TYPE
RMC .OHMM     1.5                  : RMC          - RESISTIVITY OF MUD CAKE
RMF .OHMM     3                    : RMF          - RESISTIVITY OF MUD FILTRATE
SUFT.C        4                    : SUFT         - SURFACE TEMPERATURE
~A  DEPTH       GR     PHIN     PHID     RESD
# ...
  265.500   69.499    0.308    0.199   11.724
  265.750   64.798    0.279    0.079   12.906
  266.000   61.282    0.259    0.078   14.767
  266.250   67.265    0.256    0.109   16.266
  266.500   79.167    0.304    0.159   15.096
  266.750   84.546    0.334    0.211   14.540
  267.000   84.017    0.391    0.246   12.987
  267.250   84.048    0.424    0.253   12.049
  267.500   84.101    0.434    0.253   11.393
  267.750   85.319    0.441    0.253   10.984
  268.000   87.140    0.452    0.256   10.790
  268.250   89.554    0.467    0.263   10.599
  268.500   91.376    0.463    0.271   10.408
  268.750   93.197    0.457    0.269   10.227
  269.000   94.446    0.451    0.265    9.860
  269.250   94.489    0.450    0.260    9.503
  269.500   95.134    0.456    0.254    8.986
  269.750   95.156    0.463    0.249    8.661
  270.000   95.791    0.472    0.244    8.038
  270.250   97.030    0.480    0.241    7.742
  270.500   97.654    0.489    0.240    7.321
  270.750   98.893    0.486    0.238    6.923
  271.000   99.550    0.483    0.239    6.548
  271.250   98.989    0.474    0.243    6.430
  271.500   95.473    0.472    0.246    6.438
  271.750   91.947    0.464    0.251    6.824
  272.000   87.849    0.455    0.249    7.664
  272.250   84.926    0.443    0.223    7.968
  272.500   84.968    0.436    0.186    8.609
  272.750   86.779    0.429    0.182    9.667
  273.000   89.786    0.435    0.232   10.048
  273.250   95.758    0.449    0.254   10.060
  273.500  102.345    0.457    0.252    9.516
  273.750  104.759    0.465    0.233    8.662
  274.000  104.791    0.471    0.228    8.191
  274.250  104.240    0.475    0.230    7.892
  274.500  104.293    0.476    0.229    7.468
  274.750  104.325    0.477    0.231    7.333
  275.000  104.960    0.478    0.229    7.203
  275.250  105.595    0.482    0.228    7.212
  275.500  106.241    0.484    0.228    7.223
  275.750  106.887    0.487    0.226    7.231
  276.000  106.919    0.489    0.226    7.238
  276.250  106.961    0.490    0.226    7.532
  276.500  107.014    0.485    0.226    7.829
  276.750  107.056    0.478    0.226    8.301
  277.000  105.912    0.464    0.222    8.802
  277.250  104.176    0.447    0.215    9.507
  277.500  102.439    0.428    0.203   10.468
  277.750  100.703    0.416    0.191   11.752
  278.000  100.162    0.416    0.174   12.219
  278.250  100.184    0.417    0.172   12.952
  278.500  101.433    0.417    0.197   12.028
  278.750  102.661    0.413    0.205   11.585
  279.000  102.111    0.416    0.223   10.955
  279.250  102.163    0.430    0.221    9.241
  279.500  103.392    0.445    0.218    8.741
  279.750  105.202    0.459    0.215    8.266
  280.000  105.245    0.456    0.216    8.120
  280.250  104.101    0.452    0.215    8.127
  280.500  102.354    0.445    0.213    8.455
  280.750  100.617    0.438    0.210    9.307
  281.000   99.484    0.431    0.226   10.646
  281.250   98.933    0.424    0.245   12.898
  281.500   95.418    0.419    0.251   13.939
  281.750   91.309    0.420    0.260   13.181
  282.000   91.966    0.425    0.263   12.464
  282.250   92.580    0.429    0.262   11.786
  282.500   93.226    0.435    0.254   11.577
  282.750   94.454    0.438    0.245   11.369
  283.000   95.100    0.441    0.235   11.168
  283.250   95.121    0.443    0.239   10.977
  283.500   93.395    0.444    0.243   10.983
  283.750   91.648    0.446    0.249   10.001
  284.000   88.143    0.449    0.255    9.460
  284.250   86.395    0.442    0.260    9.117
  284.500   83.484    0.435    0.246    9.304
  284.750   81.154    0.419    0.067   10.245
  285.000   78.824    0.398    0.119   11.065
  285.250   80.645    0.360    0.141   12.661
  285.500   87.804    0.378    0.178   13.168
  285.750   90.811    0.400    0.233   13.179
  286.000   92.039    0.408    0.254   12.004
  286.250   91.499    0.411    0.250   11.137
  286.500   89.180    0.443    0.244   10.940
  286.750   88.015    0.454    0.239   10.953
  287.000   85.707    0.459    0.239   10.963
  287.250   85.749    0.457    0.239   10.976
  287.500   86.977    0.454    0.239   10.989
  287.750   87.612    0.447    0.240   11.002
  288.000   87.644    0.440    0.242   10.811
  288.250   87.094    0.438    0.246   10.619
  288.500   85.950    0.439    0.251   10.431
  288.750   84.817    0.446    0.253   10.441
  289.000   84.859    0.448    0.247   10.459
  289.250   84.901    0.437    0.234   10.469
  289.500   84.954    0.425    0.224   10.290
  289.750   84.404    0.415    0.230   10.101
  290.000   81.470    0.420    0.247    9.926
  290.250   79.141    0.420    0.258    9.747
  290.500   80.983    0.419    0.253    9.575
  290.750   82.190    0.417    0.246    9.408
  291.000   84.615    0.423    0.241    9.070
  291.250   84.647    0.441    0.250    9.075
  291.500   85.303    0.451    0.259    8.915
  291.750   85.335    0.451    0.262    8.762
  292.000   85.992    0.451    0.255    8.605
  292.250   86.606    0.451    0.252    8.296
  292.500   89.644    0.452    0.246    7.845
  292.750   92.048    0.456    0.243    7.558
  293.000   93.255    0.460    0.242    7.149
  293.250   96.877    0.464    0.239    6.760
  293.500   98.094    0.464    0.236    6.516
  293.750   99.937    0.464    0.234    6.399
  294.000  101.144    0.470    0.230    6.054
  294.250  102.976    0.479    0.225    5.831
  294.500  105.390    0.485    0.222    5.310
  294.750  107.804    0.493    0.220    5.021
  295.000  113.194    0.492    0.215    4.932
  295.250  112.643    0.484    0.209    5.032
  295.500  110.907    0.454    0.204    5.438
  295.750  108.566    0.451    0.202    6.103
  296.000  103.272    0.439    0.200    6.720
  296.250   97.384    0.424    0.193    7.542
  296.500   91.486    0.405    0.169    8.630
  296.750   86.785    0.395    0.198    9.874
  297.000   86.245    0.406    0.205   10.464
  297.250   92.217    0.431    0.212   11.092
  297.500   97.003    0.446    0.222   11.108
  297.750   97.056    0.446    0.217   11.118
  298.000   95.319    0.440    0.206   10.921
  298.250   92.979    0.436    0.200   10.728
  298.500   94.207    0.435    0.196   10.541
  298.750   96.039    0.434    0.191   10.355
  299.000   97.881    0.437    0.194   10.367
  299.250   97.903    0.444    0.199   10.383
  299.500   98.538    0.448    0.199   10.395
  299.750   98.580    0.450    0.193   10.407
  300.000   97.436    0.453    0.186   10.226
  300.250   95.107    0.453    0.177   10.232
  300.500   92.195    0.451    0.172   10.060
  300.750   92.851    0.449    0.166    9.879
  301.000   93.465    0.448    0.168    9.518
  301.250   94.704    0.449    0.181    9.003
  301.500   97.722    0.450    0.201    8.677
  301.750   99.533    0.446    0.206    8.361
  302.000  103.133    0.432    0.207    7.908
  302.250  104.944    0.433    0.208    7.476
  302.500  102.614    0.439    0.211    6.681
  302.750  100.284    0.447    0.212    6.314
  303.000   96.176    0.474    0.218    5.749
  303.250   90.288    0.481    0.239    5.135
  303.500   79.064    0.486    0.252    4.763
  303.750   68.433    0.475    0.250    4.254
  304.000   67.892    0.446    0.236    4.100
  304.250   70.307    0.431    0.234    4.871
  304.500   72.721    0.420    0.234    6.015
  304.750   73.949    0.430    0.234    6.497
  305.000   74.574    0.432    0.234    7.156
  305.250   75.813    0.431    0.233    7.585
  305.500   78.227    0.431    0.235    7.594
  305.750   81.234    0.437    0.235    7.186
  306.000   84.241    0.442    0.233    6.921
  306.250   86.656    0.449    0.231    6.183
  306.500   88.477    0.461    0.229    5.845
  306.750   90.309    0.466    0.228    5.324
  307.000   90.372    0.474    0.225    5.128
  307.250   90.997    0.478    0.221    4.758
  307.500   91.039    0.477    0.219    4.674
  307.750   91.664    0.473    0.219    4.864
  308.000   91.706    0.465    0.221    5.156
  308.250   92.945    0.458    0.224    5.465
  308.500   94.766    0.457    0.224    5.472
  308.750  100.145    0.462    0.225    5.373
