~VERSION INFORMATION
 VERS.                 2.0:   CWLS LOG ASCII STANDARD -VERSION 2.0
 WRAP.                  NO:   ONE LINE PER DEPTH STEP
~WELL INFORMATION BLOCK
#MNEM.UNIT           DATA                    DESCRIPTION OF MNEMONIC
#---------    -------------------            -------------------------------
# Generated from Intellog Unique Number	CS_73_76/WELL/813
WELL.         PEX PHILLIPS AEC WIAB          : Well_name    - WELL
LOC .         00/10-11-073-08W4/0            : Location     - LOCATION
UWI .         00/10-11-073-08W4/0            : Uwi          - UNIQUE WELL ID
ENTR.         SP                             : Entered      - ENTERED BY
SRVC.         SCHLUMBERGER                   : Scn          - SERVICE COMPANY
STRT.M        335                            : top_depth    - START DEPTH
STOP.M        560                            : bot_depth    - STOP DEPTH
STEP.M        0.25                           : increment    - STEP LENGTH
 NULL. -999.2500:NULL Value
~CURVE INFORMATION BLOCK
#MNEM UNIT       ERCB CURVE CODE    CURVE DESCRIPTION
#-----------   ------------------   ----------------------------------
DEPT.M        00 001 00 00         : DEPTH        - DEPTH
GR  .API      00 310 00 00         : GR           - GAMMA RAY
NPHI.V/V      00 330 00 00         : PHIN         - NEUTRON POROSITY (LIMESTONE)
DPHI.V/V      00 890 00 00         : PHID         - DENSITY POROSITY (LIMESTONE)
ILD .OHMM     00 120 00 00         : RESD         - DEEP RESISTIVITY (DIL)
~PARAMETER INFORMATION
#MNEM.UNIT           DATA             DESCRIPTION OF MNEMONIC
#---------         -----------     ------------------------------
GL  .M        702.8                : gl           - GROUND LEVEL ELEVATION
EREF.M        706.3                : kb           - ELEVATION OF DEPTH REFERENCE
DATM.M        702.3                : datum        - DATUM ELEVATION
TDD .M        570                  : tdd          - TOTAL DEPTH DRILLER
RUN .         ONE                  : Run          - RUN NUMBER
ENG .         BILL                 : Engineer     - RECORDING ENGINEER
WIT .         JIM                  : Witness      - WITNESSED BY
MUD .         GEL                  : Mud_type     - MUD TYPE
MATR.         LIMESTONE            : Logunit      - NEUTRON MATRIX
TMAX.C        24                   : BHT          - MAXIMUM RECORDED TEMPERATURE
BHTD.M        570                  : BHTDEP       - MAXIMUM RECORDED TEMPERATURE
MATR.         1                    : LOGUNIT      - NEUTRON MATRIX
RMT .C        25                   : MDTP         - TEMPERATURE OF MUD
NEUT.         1                    : NEUTRON      - NEUTRON TYPE
RESI.         0                    : RESIST       - RESISTIVITY TYPE
RMC .OHMM     0.25                 : RMC          - RESISTIVITY OF MUD CAKE
RMF .OHMM     0.25                 : RMF          - RESISTIVITY OF MUD FILTRATE
SUFT.C        15                   : SUFT         - SURFACE TEMPERATURE
~A  DEPTH       GR     PHIN     PHID     RESD
# ...
  422.000   88.153    0.514    0.263    3.607
  422.250   83.298    0.513    0.266    4.035
  422.500   79.656    0.529    0.279    5.145
  422.750   77.228    0.545    0.291    5.649
  423.000   75.408    0.476    0.291    6.560
  423.250   79.054    0.453    0.264    7.203
  423.500   82.701    0.433    0.252    7.476
  423.750   82.702    0.428    0.248    7.475
  424.000   79.668    0.455    0.250    7.474
  424.250   80.884    0.465    0.254    7.333
  424.500   85.137    0.459    0.256    7.196
  424.750   87.568    0.443    0.254    7.194
  425.000   85.749    0.423    0.248    7.193
  425.250   82.107    0.423    0.250    7.192
  425.500   76.036    0.425    0.252    7.191
  425.750   76.038    0.425    0.252    7.189
  426.000   79.076    0.434    0.245    7.188
  426.250   76.042    0.445    0.258    7.053
  426.500   73.615    0.439    0.259    7.052
  426.750   79.083    0.452    0.248    6.421
  427.000   84.550    0.474    0.240    5.225
  427.250   90.018    0.477    0.227    4.669
  427.500   84.555    0.481    0.225    4.496
  427.750   76.662    0.519    0.281    4.412
  428.000   70.591    0.437    0.287    4.412
  428.250   71.200    0.427    0.278    4.249
  428.500   80.919    0.510    0.262    4.016
  428.750   90.637    0.548    0.251    3.796
  429.000   99.749    0.549    0.240    3.588
  429.250  105.216    0.535    0.234    3.328
  429.500  105.218    0.538    0.241    3.088
  429.750  101.577    0.540    0.246    2.974
  430.000   98.542    0.525    0.254    2.864
  430.250   96.115    0.509    0.253    2.758
  430.500   93.688    0.535    0.235    2.706
  430.750   90.653    0.553    0.223    2.862
  431.000   83.368    0.569    0.256    3.387
  431.250   79.119    0.562    0.270    4.655
  431.500   80.336    0.520    0.258    6.279
  431.750   82.159    0.510    0.260    7.859
  432.000   81.554    0.507    0.268    8.629
  432.250   82.163    0.498    0.253    7.711
  432.500   84.594    0.483    0.249    7.426
  432.750   77.310    0.464    0.254    7.424
  433.000   74.882    0.448    0.262    7.422
  433.250   76.099    0.455    0.256    7.705
  433.500   79.745    0.453    0.238    7.704
  433.750   80.961    0.454    0.226    7.702
  434.000   81.570    0.473    0.229    7.700
  434.250   81.572    0.475    0.251    7.700
  434.500   82.182    0.464    0.243    7.698
  434.750   82.791    0.456    0.238    7.553
  435.000   80.364    0.458    0.236    7.553
  435.250   76.115    0.476    0.236    7.411
  435.500   76.725    0.496    0.252    7.272
  435.750   80.370    0.437    0.271    7.136
  436.000   82.801    0.412    0.211    7.003
  436.250   82.803    0.429    0.192    6.871
  436.500   81.591    0.486    0.255    6.742
  436.750   81.593    0.500    0.254    6.741
  437.000   84.024    0.462    0.203    6.740
  437.250   84.633    0.476    0.231    6.738
  437.500   84.028    0.500    0.249    6.370
  437.750   83.424    0.489    0.206    5.381
  438.000   83.425    0.475    0.203    4.546
  438.250   82.819    0.470    0.236    3.913
  438.500   86.465    0.461    0.232    3.912
  438.750   88.897    0.473    0.205    4.543
  439.000   88.898    0.482    0.200    4.896
  439.250   88.293    0.464    0.195    5.580
  439.500   87.688    0.453    0.189    5.901
  439.750   88.297    0.446    0.193    6.241
  440.000   92.551    0.457    0.216    5.372
  440.250   94.374    0.461    0.237    4.133
  440.500   93.769    0.465    0.254    3.300
  440.750   93.163    0.489    0.265    3.005
  441.000   93.166    0.519    0.260    2.736
  441.250   93.168    0.547    0.255    2.685
  441.500   91.956    0.539    0.253    2.684
  441.750   91.349    0.526    0.253    2.734
  442.000   88.922    0.513    0.270    2.734
  442.250   86.495    0.521    0.280    2.946
  442.500   91.356    0.509    0.241    3.058
  442.750   93.787    0.521    0.219    3.174
  443.000   91.360    0.548    0.241    3.294
  443.250   84.682    0.564    0.273    3.420
  443.500   82.862    0.517    0.286    3.754
  443.750   82.864    0.495    0.211    4.200
  444.000   82.259    0.494    0.232    4.698
  444.250   80.439    0.499    0.266    4.969
  444.500   79.226    0.482    0.287    5.157
  444.750   81.657    0.467    0.288    4.966
  445.000   79.230    0.460    0.282    4.966
  445.250   76.803    0.488    0.281    5.058
  445.500   75.590    0.528    0.286    5.153
  445.750   75.592    0.508    0.274    5.349
  446.000   77.416    0.482    0.233    5.552
  446.250   76.204    0.477    0.220    5.656
  446.500   76.813    0.471    0.216    5.655
  446.750   77.422    0.486    0.255    5.549
  447.000   77.425    0.510    0.271    5.547
  447.250   77.426    0.493    0.285    5.651
  447.500   77.428    0.493    0.307    5.757
  447.750   73.787    0.511    0.323    6.088
  448.000   70.752    0.515    0.330    6.202
  448.250   75.006    0.481    0.326    6.201
  448.500   81.688    0.472    0.312    6.317
  448.750   85.941    0.468    0.283    6.199
  449.000   88.979    0.456    0.259    6.082
  449.250   89.588    0.446    0.248    6.082
  449.500   81.088    0.457    0.243    6.195
  449.750   73.803    0.463    0.247    6.311
  450.000   70.161    0.468    0.269    6.429
  450.250   68.342    0.465    0.287    6.549
  450.500   68.343    0.452    0.294    6.549
  450.750   68.345    0.439    0.299    6.548
  451.000   68.347    0.428    0.290    6.546
  451.250   67.135    0.445    0.287    6.423
  451.500   65.315    0.446    0.290    6.422
  451.750   67.747    0.433    0.292    6.421
  452.000   71.392    0.452    0.291    6.184
  452.250   72.608    0.443    0.287    5.845
  452.500   74.433    0.424    0.266    5.736
  452.750   75.649    0.443    0.248    5.628
  453.000   78.081    0.457    0.260    5.627
  453.250   80.512    0.461    0.269    5.732
  453.500   82.335    0.457    0.249    5.732
  453.750   81.123    0.456    0.241    5.839
  454.000   75.052    0.436    0.249    5.948
  454.250   74.446    0.417    0.244    5.836
  454.500   78.092    0.423    0.252    5.727
  454.750   81.738    0.455    0.258    5.413
  455.000   81.740    0.476    0.254    5.312
  455.250   80.528    0.471    0.254    5.213
  455.500   80.530    0.468    0.249    5.309
  455.750   80.532    0.452    0.236    5.309
  456.000   80.534    0.434    0.223    5.308
  456.250   80.535    0.445    0.214    5.307
  456.500   80.538    0.463    0.222    5.208
  456.750   79.325    0.473    0.240    5.015
  457.000   75.076    0.499    0.304    4.921
  457.250   72.042    0.544    0.321    5.014
  457.500   70.829    0.468    0.307    5.302
  457.750   70.224    0.447    0.289    5.713
  458.000   69.619    0.442    0.278    6.042
  458.250   69.621    0.450    0.275    6.155
  458.500   69.624    0.463    0.272    6.271
  458.750   69.625    0.462    0.280    6.387
  459.000   70.841    0.439    0.286    6.386
  459.250   72.058    0.429    0.288    6.385
  459.500   72.667    0.435    0.282    6.384
  459.750   73.277    0.452    0.275    6.503
  460.000   72.672    0.455    0.267    6.502
  460.250   72.067    0.452    0.273    6.624
  460.500   72.068    0.460    0.267    6.622
  460.750   72.677    0.453    0.251    6.747
  461.000   74.501    0.429    0.244    6.620
  461.250   77.540    0.417    0.242    5.806
  461.500   81.793    0.412    0.244    4.905
  461.750   84.832    0.434    0.259    3.991
  462.000   86.655    0.463    0.275    3.188
  462.250   86.657    0.509    0.280    2.693
  462.500   86.659    0.533    0.267    2.498
  462.750   87.269    0.501    0.261    2.545
  463.000   88.485    0.484    0.253    2.901
  463.250   88.487    0.490    0.266    3.306
  463.500   84.845    0.504    0.291    3.986
  463.750   79.382    0.468    0.291    4.544
  464.000   77.562    0.451    0.277    5.179
  464.250   78.778    0.447    0.270    5.580
  464.500   74.529    0.437    0.253    5.792
  464.750   70.888    0.446    0.237    6.012
  465.000   70.890    0.426    0.213    6.124
  465.250   75.143    0.412    0.226    6.123
