~VERSION INFORMATION
 VERS.                 2.0:   CWLS LOG ASCII STANDARD -VERSION 2.0
 WRAP.                  NO:   ONE LINE PER DEPTH STEP
~WELL INFORMATION BLOCK
#MNEM.UNIT           DATA                    DESCRIPTION OF MNEMONIC
#---------    -------------------            -------------------------------
# Generated from Intellog Unique Number	CS_77_79/WELL/1024
WELL.         DOME COWPAR                    : Well_name    - WELL
LOC .         00/16-11-079-03W4/0            : Location     - LOCATION
UWI .         00/16-11-079-03W4/0            : Uwi          - UNIQUE WELL ID
ENTR.         JHS                            : Entered      - ENTERED BY
SRVC.         SCHLUMBERGER                   : Scn          - SERVICE COMPANY
STRT.M        120                            : top_depth    - START DEPTH
STOP.M        360                            : bot_depth    - STOP DEPTH
STEP.M        0.25                           : increment    - STEP LENGTH
 NULL. -999.2500:NULL Value
~CURVE INFORMATION BLOCK
#MNEM UNIT       ERCB CURVE CODE    CURVE DESCRIPTION
#-----------   ------------------   ----------------------------------
DEPT.M        00 001 00 00         : DEPTH        - DEPTH
DPHI.V/V      00 890 00 00         : PHID         - DENSITY POROSITY (LIMESTONE)
NPHI.V/V      00 330 00 00         : PHIN         - NEUTRON POROSITY (LIMESTONE)
GR  .API      00 310 00 00         : GR           - GAMMA RAY
ILD .OHMM     00 120 00 00         : RESD         - DEEP RESISTIVITY (DIL)
RHOB.KG/M3    00 350 00 00         : DENS         - BULK DENSITY
~PARAMETER INFORMATION
#MNEM.UNIT           DATA             DESCRIPTION OF MNEMONIC
#---------         -----------     ------------------------------
GL  .M        525.3                : gl           - GROUND LEVEL ELEVATION
EREF.M        528.7                : kb           - ELEVATION OF DEPTH REFERENCE
DATM.M        528.7                : datum        - DATUM ELEVATION
TDD .M        365                  : tdd          - TOTAL DEPTH DRILLER
RUN .         ONE                  : Run          - RUN NUMBER
ENG .         BILL                 : Engineer     - RECORDING ENGINEER
WIT .         JIM                  : Witness      - WITNESSED BY
MUD .         GEL                  : Mud_type     - MUD TYPE
MATR.         LIMESTONE            : Logunit      - NEUTRON MATRIX
TMAX.C        24                   : BHT          - MAXIMUM RECORDED TEMPERATURE
BHTD.M        365                  : BHTDEP       - MAXIMUM RECORDED TEMPERATURE
MATR.         1                    : LOGUNIT      - NEUTRON MATRIX
RMT .C        25                   : MDTP         - TEMPERATURE OF MUD
NEUT.         1                    : NEUTRON      - NEUTRON TYPE
RESI.         0                    : RESIST       - RESISTIVITY TYPE
RMC .OHMM     0.25                 : RMC          - RESISTIVITY OF MUD CAKE
RMF .OHMM     0.25                 : RMF          - RESISTIVITY OF MUD FILTRATE
SUFT.C        15                   : SUFT         - SURFACE TEMPERATURE
~A  DEPTH     PHID     PHIN       GR     RESD     DENS
# ...
  229.500    0.238    0.433   87.471    6.651    0.000
  229.750    0.237    0.410   91.154    6.652    0.000
  230.000    0.306    0.402   97.277    6.777    0.000
  230.250    0.410    0.405   90.596    6.905    0.000
  230.500    0.354    0.369   88.182    7.167    0.000
  230.750    0.295    0.379   91.868    7.721    0.000
  231.000    0.274    0.372   84.581    8.164    0.000
  231.250    0.263    0.375   85.218    8.165    0.000
  231.500    0.254    0.395   92.562    7.724    0.000
  231.750    0.243    0.392   93.811    7.040    0.000
  232.000    0.234    0.410   96.883    6.298    0.000
  232.250    0.238    0.436  101.176    5.430    0.000
  232.500    0.246    0.455   98.765    4.595    0.000
  232.750    0.263    0.450  103.672    4.188    0.000
  233.000    0.309    0.454  101.263    3.817    0.000
  233.250    0.298    0.481   95.801    3.479    0.000
  233.500    0.306    0.500   98.263    3.230    0.000
  233.750    0.254    0.494  101.341    3.056    0.000
  234.000    0.240    0.499  103.804    2.890    0.000
  234.250    0.230    0.483  106.885    2.684    0.000
  234.500    0.227    0.500  108.746    2.635    0.000
  234.750    0.230    0.469  107.551    2.735    0.000
  235.000    0.282    0.473  105.743    2.787    0.000
  235.250    0.224    0.486  106.383    2.892    0.000
  235.500    0.213    0.460  108.236    3.058    0.000
  235.750    0.234    0.470  109.482    3.116    0.000
  236.000    0.230    0.472  108.906    3.059    0.000
  236.250    0.220    0.463  108.319    3.060    0.000
  236.500    0.214    0.457  109.572    3.060    0.000
  236.750    0.238    0.461  109.593    3.004    0.000
  237.000    0.252    0.445  118.160    3.061    0.000
  237.250    0.274    0.428  116.354    3.177    0.000
  237.500    0.321    0.420  110.281    3.423    0.000
  237.750    0.262    0.411  103.609    3.687    0.000
  238.000    0.270    0.411  102.413    3.972    0.000
  238.250    0.270    0.407   95.120    4.278    0.000
  238.500    0.239    0.390   92.713    4.873    0.000
  238.750    0.242    0.395   97.001    5.058    0.000
  239.000    0.262    0.405   93.371    5.153    0.000
  239.250    0.306    0.420   86.693    5.154    0.000
  239.500    0.286    0.430   87.329    5.060    0.000
  239.750    0.247    0.400   84.915    4.876    0.000
  240.000    0.200    0.395   76.407    4.877    0.000
  240.250    0.184    0.383   75.827    5.157    0.000
  240.500    0.227    0.402   83.166    5.555    0.000
  240.750    0.215    0.387   85.024    6.211    0.000
  241.000    0.204    0.376   75.908    6.816    0.000
  241.250    0.213    0.368   70.443    7.075    0.000
  241.500    0.266    0.380   72.911    7.076    0.000
  241.750    0.290    0.380   79.036    6.946    0.000
  242.000    0.301    0.375   83.329    6.947    0.000
  242.250    0.294    0.381   78.491    6.948    0.000
  242.500    0.291    0.370   78.514    7.079    0.000
  242.750    0.271    0.347   82.808    7.626    0.000
  243.000    0.252    0.334   82.834    7.627    0.000
  243.250    0.244    0.357   88.350    7.488    0.000
  243.500    0.239    0.405   91.419    7.216    0.000
  243.750    0.228    0.384   89.009    6.953    0.000
  244.000    0.212    0.392   81.720    6.954    0.000
  244.250    0.236    0.402   81.743    6.955    0.000
  244.500    0.270    0.377   80.551    6.956    0.000
  244.750    0.263    0.368   77.535    6.829    0.000
  245.000    0.262    0.382   82.434    6.830    0.000
  245.250    0.270    0.390   86.730    6.705    0.000
  245.500    0.260    0.384   85.538    6.832    0.000
  245.750    0.248    0.373   86.784    6.960    0.000
  246.000    0.242    0.367   84.988    7.225    0.000
  246.250    0.254    0.361   82.576    7.093    0.000
  246.500    0.269    0.381   86.257    6.963    0.000
  246.750    0.283    0.381   86.286    6.465    0.000
  247.000    0.295    0.410   82.663    6.116    0.000
  247.250    0.136    0.382   81.459    5.894    0.000
  247.500    0.100    0.370   86.363    5.786    0.000
  247.750    0.010    0.366   86.391    6.006    0.000
  248.000    0.000    0.358   78.490    6.119    0.000
  248.250    0.152    0.366   99.251    6.235    0.000
  248.500    0.186    0.423  105.379    6.352    0.000
  248.750    0.178    0.397  107.842    6.353    0.000
  249.000    0.178    0.392  100.555    6.354    0.000
  249.250    0.217    0.375   98.142    6.355    0.000
  249.500    0.219    0.404  100.001    6.356    0.000
  249.750    0.207    0.387  102.463    6.356    0.000
  250.000    0.205    0.393   93.952    6.357    0.000
  250.250    0.217    0.378   95.204    5.903    0.000
  250.500    0.308    0.382   99.499    4.995    0.000
  250.750    0.259    0.399   99.523    4.996    0.000
  251.000    0.229    0.392   97.111    4.996    0.000
  251.250    0.215    0.395   98.355    4.815    0.000
  251.500    0.210    0.412  103.260    4.640    0.000
  251.750    0.281    0.442  103.287    4.471    0.000
  252.000    0.258    0.448   98.444    4.229    0.000
  252.250    0.235    0.431   96.028    3.855    0.000
  252.500    0.238    0.426   97.272    3.647    0.000
  252.750    0.273    0.416  102.179    3.514    0.000
  253.000    0.284    0.445  101.600    3.324    0.000
  253.250    0.295    0.455   95.524    3.144    0.000
  253.500    0.283    0.462   97.383    3.030    0.000
  253.750    0.262    0.467  104.115    2.762    0.000
  254.000    0.244    0.448  109.631    2.661    0.000
  254.250    0.241    0.437  100.515    2.613    0.000
  254.500    0.252    0.427  105.414    2.662    0.000
  254.750    0.312    0.416  103.002    2.868    0.000
  255.000    0.365    0.417   98.760    3.206 2086.020
  255.250    0.192    0.408  102.446    3.790 2382.530
  255.500    0.147    0.383  100.037    4.316 2459.320
  255.750    0.147    0.367   90.914    4.826 2459.430
  256.000    0.212    0.370  100.699    5.600 2347.570
  256.250    0.273    0.373  103.777    5.921 2244.020
  256.500    0.255    0.363  100.149    6.146 2273.140
  256.750    0.241    0.358  100.174    6.034 2298.110
  257.000    0.244    0.374  102.028    5.923 2291.980
  257.250    0.292    0.403  100.836    5.500 2211.220
  257.500    0.255    0.416   92.935    4.830 2273.490
  257.750    0.222    0.398   91.135    4.403 2329.550
  258.000    0.259    0.381   86.893    4.164 2267.480
  258.250    0.255    0.369   81.435    4.089 2273.840
  258.500    0.255    0.381   81.456    4.244 2273.890
  258.750    0.256    0.371   82.708    4.487 2271.880
  259.000    0.262    0.360   82.733    4.658 2261.620
  259.250    0.267    0.411   87.637    4.658 2253.410
  259.500    0.271    0.387   86.445    4.835 2247.290
  259.750    0.258    0.368   89.521    4.747 2268.100
  260.000    0.256    0.371   89.545    4.748 2272.350
  260.250    0.262    0.393   83.478    4.748 2262.080
  260.500    0.244    0.387   87.162    4.838 2293.250
  260.750    0.218    0.375   94.510    4.838 2336.870
  261.000    0.215    0.367   97.584    5.022 2343.180
  261.250    0.228    0.372   94.562    5.410 2320.470
  261.500    0.231    0.374   93.367    5.512 2314.350
  261.750    0.218    0.356   94.617    5.616 2337.250
  262.000    0.211    0.349   92.812    5.722 2349.790
  262.250    0.218    0.356   97.721    5.723 2337.430
  262.500    0.286    0.379   99.577    5.831 2221.450
  262.750    0.265    0.386   92.893    5.941 2256.790
  263.000    0.246    0.396   83.773    5.725 2290.030
  263.250    0.235    0.404   92.950    5.621 2308.790
  263.500    0.241    0.412   88.712    5.416 2298.500
  263.750    0.278    0.424   88.125    4.936 2234.330
  264.000    0.308    0.474   90.595    4.256 2182.610
  264.250    0.295    0.501   88.177    3.879 2205.500
  264.500    0.270    0.488   85.157    3.163 2249.130
  264.750    0.274    0.451   87.015    2.676 2240.950
  265.000    0.291    0.448   89.478    2.439 2212.000
  265.250    0.345    0.456   87.071    2.307 2120.890
  265.500    0.349    0.467   85.269    2.142 2112.680
  265.750    0.302    0.444   86.510    2.103 2193.610
