~VERSION INFORMATION
 VERS.                 2.0:   CWLS LOG ASCII STANDARD -VERSION 2.0
 WRAP.                  NO:   ONE LINE PER DEPTH STEP
~WELL INFORMATION BLOCK
#MNEM.UNIT           DATA                    DESCRIPTION OF MNEMONIC
#---------    -------------------            -------------------------------
# Generated from Intellog Unique Number	CW_76_78/WELL/995
WELL.         GULF POC DROWNED 11-17         : Well_name    - WELL
LOC .         00/11-17-076-20W4/0            : Location     - LOCATION
UWI .         00/11-17-076-20W4/0            : Uwi          - UNIQUE WELL ID
ENTR.         JAYE                           : Entered      - ENTERED BY
SRVC.         SCHLUMBERGER                   : Scn          - SERVICE COMPANY
DATE.         19 MAR 78                      : Date         - LOG DATE
STRT.M        277.368                        : top_depth    - START DEPTH
STOP.M        455.118                        : bot_depth    - STOP DEPTH
STEP.M        0.25                           : increment    - STEP LENGTH
 NULL. -999.2500:NULL Value
~CURVE INFORMATION BLOCK
#MNEM UNIT       ERCB CURVE CODE    CURVE DESCRIPTION
#-----------   ------------------   ----------------------------------
DEPT.M        00 001 00 00         : DEPTH        - DEPTH
ILD .OHMM     00 120 00 00         : RESD         - DEEP RESISTIVITY (DIL)
NPHI.V/V      00 330 00 00         : PHIN         - NEUTRON POROSITY (SANDSTONE)
DPHI.V/V      00 890 00 00         : PHID         - DENSITY POROSITY (SANDSTONE)
GR  .API      00 310 00 00         : GR           - GAMMA RAY
CALI.MM       00 280 01 00         : CAL          - CALIPER
~PARAMETER INFORMATION
#MNEM.UNIT           DATA             DESCRIPTION OF MNEMONIC
#---------         -----------     ------------------------------
GL  .M        604.114              : gl           - GROUND LEVEL ELEVATION
EREF.M        608.228              : kb           - ELEVATION OF DEPTH REFERENCE
DATM.M        604.114              : datum        - DATUM ELEVATION
TDD .M        461.772              : tdd          - TOTAL DEPTH DRILLER
RUN .         ONE                  : Run          - RUN NUMBER
ENG .         DEROCHIE             : Engineer     - RECORDING ENGINEER
WIT .         ROY/ROZENHART        : Witness      - WITNESSED BY
BASE.         EDM                  : Branch       - HOME BASE OF LOGGING UNIT
MUD .         GEL CHEM             : Mud_type     - MUD TYPE
MATR.         SANDSTONE            : Logunit      - NEUTRON MATRIX
TMAX.C        18.3333              : BHT          - MAXIMUM RECORDED TEMPERATURE
BHTD.M        461.162              : BHTDEP       - MAXIMUM RECORDED TEMPERATURE
RMT .C        16.6667              : MDTP         - TEMPERATURE OF MUD
MUDD.KG/M     1116                 : MWT          - MUD DENSITY
NEUT.         1                    : NEUTRON      - NEUTRON TYPE
RESI.         0                    : RESIST       - RESISTIVITY TYPE
RM  .OHMM     5.43                 : RM           - RESISTIVITY OF MUD
RMC .OHMM     0                    : RMC          - RESISTIVITY OF MUD CAKE
RMF .OHMM     5.39                 : RMF          - RESISTIVITY OF MUD FILTRATE
SUFT.C        -17.7778             : SUFT         - SURFACE TEMPERATURE
~A  DEPTH     RESD     PHIN     PHID       GR      CAL
# ...
  423.368    6.055    0.409    0.211   99.352  155.135
  423.618    6.221    0.405    0.190  100.868  154.922
  423.868    6.403    0.405    0.197   99.227  154.709
  424.118    6.553    0.406    0.209   98.722  154.603
  424.368    6.744    0.401    0.202   98.975  154.604
  424.618    6.929    0.394    0.190  100.555  154.818
  424.868    6.883    0.383    0.173  102.450  154.819
  425.118    6.299    0.378    0.157  103.524  154.927
  425.368    5.807    0.406    0.176  104.787  155.034
  425.618    5.599    0.411    0.194  107.314  154.928
  425.868    5.470    0.408    0.189  111.104  154.929
  426.118    5.363    0.406    0.153  111.989  154.502
  426.368    5.347    0.415    0.145  113.505  154.396
  426.618    5.392    0.420    0.159  115.526  153.969
  426.868    5.416    0.424    0.166  120.201  151.510
  427.118    5.421    0.429    0.154  116.159  148.409
  427.368    5.415    0.435    0.161  111.233  149.479
  427.618    5.390    0.436    0.172  110.918  145.630
  427.868    5.414    0.423    0.158  113.002  149.053
  428.118    5.479    0.412    0.158  114.392  152.369
  428.368    5.735    0.403    0.181  115.593  152.583
  428.618    5.902    0.390    0.186  115.719  151.836
  428.868    6.132    0.379    0.179  113.004  150.981
  429.118    6.311    0.376    0.178  112.120  150.019
  429.368    6.119    0.375    0.179  114.079  149.164
  429.618    5.889    0.369    0.178  116.416  149.700
  429.868    5.861    0.367    0.169  118.437  150.128
  430.118    6.158    0.388    0.162  123.364  150.664
  430.368    6.603    0.388    0.165  127.217  151.413
  430.618    7.067    0.380    0.164  118.944  151.842
  430.868    7.536    0.364    0.157  112.376  152.591
  431.118    7.557    0.349    0.148  110.608  152.592
  431.368    7.396    0.330    0.133  114.651  152.592
  431.618    7.184    0.340    0.160  121.156  152.914
  431.868    6.965    0.371    0.178  126.336  153.343
  432.118    6.817    0.367    0.162  124.568  153.878
  432.368    6.809    0.363    0.166  122.737  153.772
  432.618    6.983    0.359    0.168  120.148  153.559
  432.868    7.404    0.355    0.159  117.053  153.773
  433.118    8.044    0.349    0.144  114.148  153.774
  433.368    8.675    0.342    0.127  109.349  153.882
  433.618    9.200    0.327    0.114  105.560  153.776
  433.868    9.521    0.314    0.100  104.297  153.776
  434.118    9.655    0.296    0.092   97.477  152.601
  434.368    9.591    0.272    0.074   94.572  151.639
  434.618    9.456    0.325    0.063   97.477  149.608
  434.868    9.237    0.341    0.093  100.320  146.935
  435.118    8.759    0.351    0.113  102.910  144.583
  435.368    8.257    0.366    0.129  107.584  143.835
  435.618    7.741    0.380    0.121  105.437  148.113
  435.868    7.258    0.364    0.115  107.080  152.285
  436.118    6.933    0.350    0.115  109.227  153.355
  436.368    6.709    0.350    0.119  112.512  153.463
  436.618    6.566    0.378    0.142  109.544  153.357
  436.868    6.487    0.405    0.147  111.313  152.609
  437.118    6.444    0.423    0.148  116.240  152.289
  437.368    6.485    0.438    0.159  117.124  151.327
  437.618    6.589    0.440    0.136  113.209  152.290
  437.868    6.631    0.428    0.139  111.378  153.254
  438.118    6.636    0.408    0.132  112.705  153.789
  438.368    6.556    0.397    0.126  114.410  153.576
  438.618    6.477    0.404    0.144  114.727  153.577
  438.868    6.445    0.419    0.148  113.906  153.470
  439.118    6.403    0.421    0.149  113.717  153.257
  439.368    6.325    0.408    0.144  113.528  153.044
  439.618    6.271    0.399    0.144  113.528  152.938
  439.868    6.172    0.393    0.143  113.908  152.832
  440.118    6.063    0.385    0.140  114.540  152.619
  440.368    5.934    0.376    0.133  116.435  152.619
  440.618    5.883    0.364    0.159  117.572  152.299
  440.868    5.999    0.365    0.149  109.109  152.193
  441.118    6.186    0.382    0.156  102.920  152.301
  441.368    6.486    0.379    0.144   92.816  152.302
  441.618    6.904    0.359    0.107   85.932  152.088
  441.868    7.093    0.327    0.101   90.859  146.421
  442.118    6.775    0.319    0.114  102.291  142.358
  442.368    5.637    0.409    0.149  116.186  146.208
  442.618    4.155    0.445    0.182  116.881  151.022
  442.868    2.933    0.469    0.201  117.324  153.803
  443.118    2.126    0.506    0.213  117.703  154.553
  443.368    1.881    0.536    0.216  118.145  154.553
  443.618    1.834    0.519    0.219  118.335  154.019
  443.868    1.902    0.508    0.229  113.725  153.272
  444.118    2.277    0.497    0.219  115.557  152.417
  444.368    2.691    0.482    0.202  116.316  151.776
  444.618    3.393    0.450    0.180  114.927  151.456
  444.868    4.796    0.429    0.148  104.064  151.136
  445.118    5.904    0.366    0.122   98.822  150.815
  445.368    6.487    0.345    0.090  102.802  151.030
  445.618    6.492    0.336    0.071  109.181  151.245
  445.868    6.202    0.352    0.106  113.602  151.460
  446.118    5.892    0.359    0.135  107.540  151.460
  446.368    5.554    0.356    0.120  103.814  151.247
  446.618    5.093    0.343    0.107  108.425  151.141
  446.868    4.819    0.358    0.116  115.752  151.141
  447.118    4.552    0.386    0.135  116.699  151.142
  447.368    4.292    0.408    0.151  112.910  151.143
  447.618    4.108    0.408    0.160  113.353  151.144
  447.868    4.157    0.398    0.160  112.596  151.465
  448.118    4.246    0.394    0.148  111.333  151.573
  448.368    4.346    0.392    0.137  111.144  151.788
  448.618    4.532    0.390    0.127  110.323  151.575
  448.868    4.579    0.388    0.118  111.081  151.575
  449.118    4.557    0.385    0.148  112.408  151.469
  449.368    4.493    0.384    0.132  109.377  151.149
  449.618    4.530    0.389    0.114  110.641  151.043
  449.868    4.786    0.407    0.099  108.115  150.937
  450.118    5.209    0.362    0.075  102.178  148.264
  450.368    6.030    0.323    0.022  108.053  147.195
  450.618    6.576    0.365    0.097  113.106  147.516
  450.868    6.947    0.386    0.123  122.453  148.159
  451.118    7.084    0.386    0.140  130.412  149.229
  451.368    6.617    0.368    0.130  129.339  150.620
  451.618    6.216    0.378    0.146  129.718  151.797
  451.868    5.838    0.392    0.143  128.203  151.905
  452.118    5.757    0.413    0.140  129.277  149.553
  452.368    5.881    0.424    0.153  127.382  147.629
  452.618    6.306    0.378    0.146  117.720  147.309
  452.868    6.839    0.363    0.138  113.994  147.737
  453.118    7.211    0.359    0.117  111.152  148.486
  453.368    7.449    0.351    0.100  109.068  149.664
  453.618    7.359    0.353    0.140  106.164  151.055
  453.868    7.082    0.364    0.138  100.417  151.911
  454.118    6.868    0.365    0.128   82.606  152.660
  454.368    6.808    0.355    0.137   74.081  153.303
  454.618    6.840    0.350    0.140   35.239  153.304
  454.868    6.935    0.389    0.142   15.534  153.304
  455.118    7.046    0.377    0.151   13.513  153.305
