~VERSION INFORMATION
 VERS.                 2.0:   CWLS LOG ASCII STANDARD -VERSION 2.0
 WRAP.                  NO:   ONE LINE PER DEPTH STEP
~WELL INFORMATION BLOCK
#MNEM.UNIT           DATA                    DESCRIPTION OF MNEMONIC
#---------    -------------------            -------------------------------
# Generated from Intellog Unique Number	CW_79_81/WELL/702
WELL.         ATCOR ET AL PELICAN            : Well_name    - WELL
LOC .         00/10-06-079-24W4/0            : Location     - LOCATION
UWI .         00/10-06-079-24W4/0            : Uwi          - UNIQUE WELL ID
ENTR.         MAX                            : Entered      - ENTERED BY
SRVC.         COMPUTALOG                     : Scn          - SERVICE COMPANY
STRT.M        275                            : top_depth    - START DEPTH
STOP.M        515                            : bot_depth    - STOP DEPTH
STEP.M        0.25                           : increment    - STEP LENGTH
 NULL. -999.2500:NULL Value
~CURVE INFORMATION BLOCK
#MNEM UNIT       ERCB CURVE CODE    CURVE DESCRIPTION
#-----------   ------------------   ----------------------------------
DEPT.M        00 001 00 00         : DEPTH        - DEPTH
ILD .OHMM     00 120 00 00         : RESD         - DEEP RESISTIVITY (DIL)
NPHI.V/V      00 330 00 00         : PHIN         - NEUTRON POROSITY (SANDSTONE)
DPHI.V/V      00 890 00 00         : PHID         - DENSITY POROSITY (SANDSTONE)
CALI.MM       00 280 01 00         : CAL          - CALIPER
GR  .API      00 310 00 00         : GR           - GAMMA RAY
~PARAMETER INFORMATION
#MNEM.UNIT           DATA             DESCRIPTION OF MNEMONIC
#---------         -----------     ------------------------------
GL  .M        594.9                : gl           - GROUND LEVEL ELEVATION
EREF.M        598.6                : kb           - ELEVATION OF DEPTH REFERENCE
DATM.M        594.9                : datum        - DATUM ELEVATION
TDD .M        520                  : tdd          - TOTAL DEPTH DRILLER
RUN .         ONE                  : Run          - RUN NUMBER
ENG .         BILL                 : Engineer     - RECORDING ENGINEER
WIT .         JIM                  : Witness      - WITNESSED BY
MUD .         GEL                  : Mud_type     - MUD TYPE
MATR.         SANDSTONE            : Logunit      - NEUTRON MATRIX
TMAX.C        32                   : BHT          - MAXIMUM RECORDED TEMPERATURE
BHTD.M        520                  : BHTDEP       - MAXIMUM RECORDED TEMPERATURE
RMT .C        16.7                 : MDTP         - TEMPERATURE OF MUD
MUDD.KG/M     1150                 : MWT          - MUD DENSITY
NEUT.         1                    : NEUTRON      - NEUTRON TYPE
RESI.         0                    : RESIST       - RESISTIVITY TYPE
RM  .OHMM     5.1                  : RM           - RESISTIVITY OF MUD
RMC .OHMM     0                    : RMC          - RESISTIVITY OF MUD CAKE
RMF .OHMM     4.7                  : RMF          - RESISTIVITY OF MUD FILTRATE
SUFT.C        -20                  : SUFT         - SURFACE TEMPERATURE
~A  DEPTH     RESD     PHIN     PHID      CAL       GR
# ...
  348.000   11.643    0.410    0.332  196.439   62.637
  348.250   11.877    0.398    0.308  199.025   61.147
  348.500   12.005    0.392    0.295  199.077   59.657
  348.750   11.912    0.384    0.274  199.077   57.247
  349.000   11.820    0.365    0.256  199.157   55.149
  349.250   11.514    0.365    0.272  197.175   55.173
  349.500   11.215    0.386    0.290  191.643   54.592
  349.750   10.825    0.404    0.302  188.647   53.710
  350.000   10.743    0.400    0.312  189.211   53.430
  350.250   11.165    0.384    0.310  192.299   56.503
  350.500   11.711    0.384    0.309  195.381   55.929
  350.750   12.627    0.408    0.317  194.419   55.652
  351.000   13.491    0.415    0.324  191.929   55.676
  351.250   13.491    0.410    0.333  190.454   55.092
  351.500   13.905    0.417    0.335  192.027   55.423
  351.750   15.416    0.422    0.345  196.636   56.975
  352.000   15.726    0.426    0.350  198.715   57.003
  352.250   15.607    0.441    0.336  198.750   56.425
  352.500   15.344    0.459    0.330  198.795   55.844
  352.750   15.085    0.472    0.327  198.334   57.389
  353.000   15.104    0.455    0.326  198.386   58.025
  353.250   15.990    0.447    0.326  198.443   57.448
  353.500   17.400    0.444    0.322  198.483   56.867
  353.750   19.465    0.438    0.317  198.529   57.810
  354.000   20.798    0.432    0.307  198.580   59.968
  354.250   21.224    0.425    0.293  198.615   62.429
  354.500   20.667    0.422    0.293  199.179   65.498
  354.750   19.224    0.432    0.296  199.738   71.306
  355.000   15.145    0.440    0.288  199.772   79.852
  355.250   13.085    0.444    0.262  199.829   87.488
  355.500   11.408    0.405    0.220  199.864   81.735
  355.750   10.227    0.386    0.210  199.408   65.332
  356.000    9.782    0.416    0.245  199.460   64.446
  356.250    9.796    0.427    0.263  199.460   65.086
  356.500    9.901    0.428    0.278  199.574   63.896
  356.750   10.579    0.428    0.298  199.597   62.099
  357.000   11.303    0.411    0.298  199.643   59.996
  357.250   11.425    0.386    0.271  200.190   63.678
  357.500   11.028    0.314    0.217  200.241   63.094
  357.750   10.640    0.268    0.123  200.794   60.383
  358.000    9.991    0.332    0.207  200.846   54.022
  358.250    9.468    0.386    0.237  200.379   64.092
  358.500    9.305    0.401    0.249  199.411   67.466
  358.750    9.305    0.402    0.249  198.442   69.015
  359.000    9.172    0.422    0.249  196.978   71.780
  359.250    9.096    0.442    0.251  197.019   74.241
  359.500    8.942    0.441    0.248  197.059   76.706
  359.750    8.790    0.429    0.251  197.116   76.737
  360.000    8.643    0.405    0.255  197.156   76.460
  360.250    8.496    0.401    0.255  197.202   78.925
  360.500    8.432    0.396    0.254  197.248   81.382
  360.750    8.374    0.396    0.253  197.299   83.543
  361.000    8.378    0.408    0.248  198.866   82.049
  361.250    8.378    0.425    0.243  201.453   80.248
  361.500    8.567    0.426    0.238  202.507   83.321
  361.750    8.651    0.408    0.240  203.060   82.132
  362.000    8.664    0.398    0.235  203.612   79.725
  362.250    8.598    0.403    0.235  203.658   80.365
  362.500    8.598    0.415    0.235  203.710   84.040
  362.750    8.467    0.423    0.232  203.254   85.588
  363.000    8.021    0.429    0.227  203.300   85.923
  363.250    8.021    0.437    0.223  203.340   84.430
  363.500    7.829    0.445    0.223  202.879   82.635
  363.750    7.623    0.445    0.215  202.418   82.352
  364.000    7.623    0.440    0.213  202.475   84.816
  364.250    7.507    0.437    0.222  202.002   88.501
  364.500    7.379    0.437    0.232  201.045   90.651
  364.750    7.255    0.438    0.236  201.091   90.378
  365.000    7.200    0.444    0.228  200.630   84.318
  365.250    7.211    0.445    0.223  200.670   79.478
  365.500    7.354    0.437    0.226  200.716   79.816
  365.750    7.571    0.435    0.229  200.762   80.760
  366.000    8.015    0.436    0.223  200.819   82.609
  366.250    8.645    0.433    0.220  200.859   84.465
  366.500    9.233    0.422    0.225  200.916   83.269
  366.750    9.595    0.428    0.247  200.956   76.908
  367.000    9.882    0.431    0.260  200.489   69.939
  367.250    9.892    0.432    0.270  199.521   67.532
  367.500    9.892    0.429    0.270  198.046   66.958
  367.750    9.832    0.411    0.254  196.576   68.808
  368.000    9.316    0.422    0.247  196.616   74.007
  368.250    8.747    0.411    0.243  197.175   82.556
  368.500    8.609    0.396    0.238  198.246   86.230
  368.750    8.147    0.399    0.230  199.295   85.961
  369.000    7.650    0.416    0.224  199.346   84.163
  369.250    7.650    0.421    0.224  199.386   84.187
  369.500    7.533    0.424    0.225  199.951   86.040
  369.750    7.542    0.444    0.223  199.996   87.291
  370.000    7.622    0.459    0.212  200.042   87.920
  370.250    7.849    0.468    0.217  200.589   90.388
  370.500    8.231    0.447    0.237  200.635   89.803
  370.750    8.716    0.442    0.253  200.681   86.180
  371.000    9.397    0.432    0.265  200.220   77.389
  371.250    9.945    0.429    0.266  199.764   73.154
  371.500   10.924    0.431    0.263  199.303   68.314
  371.750   11.776    0.440    0.261  198.346   64.394
  372.000   12.352    0.438    0.267  196.352   63.806
  372.250   12.602    0.432    0.279  194.376   64.138
  372.500   12.623    0.438    0.281  192.906   65.382
  372.750   12.754    0.441    0.276  192.941   66.930
  373.000   12.657    0.427    0.262  194.513   67.871
  373.250   12.689    0.427    0.265  199.629   67.901
  373.500   12.812    0.423    0.277  200.188   67.320
  373.750   13.193    0.416    0.284  200.228   67.044
  374.000   13.709    0.411    0.281  200.279   68.897
  374.250   13.861    0.402    0.280  200.331   74.400
  374.500   13.250    0.419    0.276  199.858   75.347
  374.750   11.881    0.422    0.266  199.910   78.109
  375.000   11.359    0.413    0.265  199.956   82.091
  375.250   10.963    0.418    0.262  200.001   81.514
  375.500   10.883    0.442    0.253  199.540   83.059
  375.750   10.898    0.455    0.243  199.586   87.957
  376.000   11.216    0.453    0.242  199.125   93.156
  376.250   11.989    0.428    0.240  199.171   90.750
  376.500   11.989    0.402    0.235  199.222   78.913
  376.750   12.596    0.384    0.214  199.274   73.769
  377.000   13.954    0.374    0.198  198.812   68.320
  377.250   15.185    0.377    0.186  198.345   64.701
  377.500   18.809    0.376    0.177  198.403   64.117
  377.750   20.276    0.358    0.152  197.936   63.535
  378.000   23.105    0.305    0.131  197.976   62.654
  378.250   27.074    0.259    0.063  198.027   60.244
  378.500   28.923    0.209    0.016  198.073   56.016
  378.750   26.656    0.172    0.003  198.119   51.477
  379.000   20.239    0.189    0.047  198.170   50.899
  379.250   15.653    0.330    0.093  197.715   60.053
  379.500   13.037    0.404    0.226  197.761   66.773
  379.750   12.578    0.421    0.241  197.812   74.714
  380.000   11.810    0.438    0.237  197.345   76.266
  380.250   11.810    0.444    0.233  197.385   79.031
  380.500   11.214    0.440    0.231  197.437   83.314
  380.750   10.816    0.422    0.227  197.990   86.087
  381.000   10.250    0.428    0.220  198.036   85.198
  381.250    9.893    0.440    0.211  198.081   85.834
  381.500    9.724    0.442    0.209  197.113   86.470
  381.750    9.560    0.429    0.216  196.145   87.113
  382.000    9.560    0.417    0.226  194.675   87.441
  382.250    9.502    0.415    0.230  193.707   88.385
  382.500    9.502    0.412    0.229  192.739   89.626
  382.750    9.281    0.405    0.222  191.269   90.569
  383.000    9.029    0.414    0.219  191.309   88.159
  383.250    8.959    0.428    0.217  196.944   83.320
  383.500    8.891    0.425    0.214  198.516   85.172
  383.750    8.906    0.416    0.212  199.058   86.116
  384.000    8.919    0.409    0.210  199.611   83.405
  384.250    8.930    0.408    0.207  199.662   81.608
