~VERSION INFORMATION
 VERS.                 2.0:   CWLS LOG ASCII STANDARD -VERSION 2.0
 WRAP.                  NO:   ONE LINE PER DEPTH STEP
~WELL INFORMATION BLOCK
#MNEM.UNIT           DATA                    DESCRIPTION OF MNEMONIC
#---------    -------------------            -------------------------------
# Generated from Intellog Unique Number	CS_69_70/WELL/2886
NULL.         -999.25                        : NULL_VALUE
WELL.         AEC PRIMROSE                   : Well_name    - WELL              
LOC .         00/11-30-070-04W4/0            : Location     - LOCATION          
UWI .         00/11-30-070-04W4/0            : Uwi          - UNIQUE WELL ID    
ENTR.         TIM                            : Entered      - ENTERED BY        
SRVC.         SCHLUMBERGER                   : Scn          - SERVICE COMPANY   
DATE.         02/05/92                       : Date         - LOG DATE          
STRT.M        300                            : top_depth    - START DEPTH       
STOP.M        520                            : bot_depth    - STOP DEPTH        
STEP.M        0.25                           : increment    - STEP LENGTH       
~CURVE INFORMATION BLOCK
#MNEM UNIT       ERCB CURVE CODE    CURVE DESCRIPTION
#-----------   ------------------   ----------------------------------
DEPT.M        00 001 00 00         : DEPTH        - DEPTH                       
ILD .OHMM     00 120 00 00         : RESD         - DEEP RESISTIVITY (DIL)      
DPHI.V/V      00 890 00 00         : PHID         - DENSITY POROSITY (SANDSTONE)
NPHI.V/V      00 330 00 00         : PHIN         - NEUTRON POROSITY (SANDSTONE)
GR  .API      00 310 00 00         : GR           - GAMMA RAY                   
~PARAMETER INFORMATION       
#MNEM.UNIT           DATA             DESCRIPTION OF MNEMONIC
#---------         -----------     ------------------------------
GL  .M        673                  : gl           - GROUND LEVEL ELEVATION      
EREF.M        676.8                : kb           - ELEVATION OF DEPTH REFERENCE
DATM.M        676.8                : datum        - DATUM ELEVATION             
TDD .M        531                  : tdd          - TOTAL DEPTH DRILLER         
RUN .         ONE                  : Run          - RUN NUMBER                  
ENG .         BILL                 : Engineer     - RECORDING ENGINEER          
WIT .         JIM                  : Witness      - WITNESSED BY                
MUD .         GEL                  : Mud_type     - MUD TYPE                    
MATR.         SANDSTONE            : Logunit      - NEUTRON MATRIX              
TMAX.C        27                   : BHT          - MAXIMUM RECORDED TEMPERATURE
BHTD.M        531                  : BHTDEP       - MAXIMUM RECORDED TEMPERATURE
RMT .C        14                   : MDTP         - TEMPERATURE OF MUD          
MUDD.KG/M     1130                 : MWT          - MUD DENSITY                 
NEUT.         1                    : NEUTRON      - NEUTRON TYPE                
RESI.         0                    : RESIST       - RESISTIVITY TYPE            
RM  .OHMM     6.97                 : RM           - RESISTIVITY OF MUD          
RMC .OHMM     6.97                 : RMC          - RESISTIVITY OF MUD CAKE     
RMF .OHMM     6.97                 : RMF          - RESISTIVITY OF MUD FILTRATE 
SUFT.C        4                    : SUFT         - SURFACE TEMPERATURE         
~A  DEPTH     RESD     PHID     PHIN       GR
# ...
  474.000   11.059    0.246    0.362   61.901
  474.250   11.252    0.255    0.353   62.467
  474.500   11.242    0.264    0.345   62.442
  474.750   11.231    0.241    0.342   63.003
  475.000   11.221    0.235    0.350   63.569
  475.250   11.205    0.245    0.357   63.549
  475.500   11.197    0.263    0.353   62.367
  475.750   11.396    0.262    0.343   67.578
  476.000   11.382    0.235    0.337   73.366
  476.250   11.166    0.225    0.346   75.085
  476.500   10.951    0.225    0.355   75.656
  476.750   10.945    0.223    0.356   77.957
  477.000   10.935    0.218    0.355   78.523
  477.250   10.925    0.213    0.349   80.242
  477.500   10.910    0.212    0.342   80.803
  477.750   11.305    0.212    0.347   81.364
  478.000   11.503    0.216    0.361   80.762
  478.250   11.923    0.221    0.375   77.249
  478.500   12.349    0.226    0.366   76.077
  478.750   12.343    0.233    0.354   73.145
  479.000   12.559    0.235    0.357   69.627
  479.250   13.014    0.228    0.362   69.035
  479.500   14.505    0.178    0.364   66.104
  479.750   15.595    0.155    0.359   64.345
  480.000   18.033    0.177    0.351   60.250
  480.250   25.032    0.206    0.349   56.166
  480.500   38.767    0.230    0.379   54.983
  480.750   40.182    0.272    0.397   61.358
  481.000   22.782    0.306    0.374   67.727
  481.250   20.028    0.242    0.365   71.781
  481.500   18.942    0.221    0.361   76.411
  481.750   19.269    0.232    0.408   75.810
  482.000   25.327    0.279    0.431   60.089
  482.250   35.159    0.307    0.413   47.861
  482.500   42.947    0.326    0.374   40.865
  482.750   48.761    0.338    0.365   40.845
  483.000   48.715    0.329    0.357   49.545
  483.250   42.050    0.311    0.343   54.757
  483.500   22.981    0.265    0.333   61.126
  483.750   18.430    0.228    0.336   66.343
  484.000   17.438    0.217    0.342   74.461
  484.250   15.901    0.222    0.350   77.924
  484.500   15.031    0.225    0.400   75.002
  484.750   15.576    0.226    0.409   63.351
  485.000   16.745    0.236    0.410   59.266
  485.250   23.680    0.283    0.410   50.522
  485.500   32.872    0.290    0.411   45.846
  485.750   39.426    0.312    0.409   45.831
  486.000   42.376    0.325    0.405   46.973
  486.250   43.117    0.319    0.402   48.697
  486.500   40.041    0.300    0.396   55.653
  486.750   26.270    0.272    0.386   66.096
  487.000   21.077    0.244    0.374   67.239
  487.250   20.292    0.231    0.366   63.726
  487.500   20.657    0.230    0.382   61.967
  487.750   22.612    0.261    0.395   59.621
  488.000   23.007    0.287    0.395   58.438
  488.250   22.986    0.281    0.392   57.832
  488.500   22.543    0.275    0.387   58.393
  488.750   21.708    0.279    0.381   60.122
  489.000   20.531    0.281    0.388   63.003
  489.250   19.776    0.287    0.393   60.077
  489.500   19.399    0.304    0.394   60.057
  489.750   19.386    0.299    0.393   59.455
  490.000   20.449    0.285    0.392   51.873
  490.250   21.201    0.295    0.388   51.271
  490.500   22.782    0.305    0.384   54.739
  490.750   22.766    0.278    0.374   59.375
  491.000   21.928    0.248    0.369   68.074
  491.250   20.739    0.252    0.427   69.217
  491.500   19.966    0.301    0.426   56.403
  491.750   21.861    0.311    0.410   53.481
  492.000   28.208    0.324    0.400   49.973
  492.250   32.035    0.329    0.401   49.366
  492.500   39.131    0.317    0.441   53.992
  492.750   48.680    0.308    0.456   52.814
  493.000   54.270    0.333    0.454   47.562
  493.250   54.219    0.342    0.447   41.724
  493.500   48.520    0.346    0.437   38.802
  493.750   41.892    0.345    0.427   39.945
  494.000   33.611    0.342    0.413   45.738
  494.250   31.781    0.338    0.411   49.782
  494.500   30.057    0.331    0.435   51.501
  494.750   29.492    0.322    0.429   52.072
  495.000   28.924    0.313    0.418   52.052
  495.250   29.430    0.308    0.404   50.869
  495.500   29.945    0.310    0.393   43.873
  495.750   31.030    0.319    0.390   37.453
  496.000   32.148    0.331    0.392   40.330
  496.250   33.927    0.337    0.385   42.645
  496.500   32.095    0.327    0.372   46.694
  496.750   28.215    0.314    0.364   54.231
  497.000   24.798    0.294    0.355   61.187
  497.250   21.410    0.267    0.348   67.561
  497.500   16.859    0.254    0.355   73.349
  497.750   15.659    0.245    0.364   76.240
  498.000   15.645    0.234    0.370   80.284
  498.250   15.347    0.224    0.386   81.432
  498.500   15.333    0.226    0.400   82.575
  498.750   15.318    0.264    0.397   63.952
  499.000   15.874    0.300    0.387   54.631
  499.250   17.061    0.300    0.403   61.587
  499.500   19.021    0.268    0.411   61.557
  499.750   19.706    0.278    0.417   60.379
  500.000   18.985    0.299    0.422   57.447
  500.250   16.087    0.310    0.422   55.107
  500.500   13.886    0.308    0.417   53.338
  500.750   12.895    0.307    0.411   55.061
  501.000   12.647    0.302    0.403   57.372
  501.250   12.635    0.282    0.383   66.066
  501.500   12.626    0.241    0.370   67.790
  501.750   12.386    0.266    0.362   69.514
  502.000   11.502    0.271    0.361   70.656
  502.250   10.878    0.272    0.352   72.380
  502.500   10.863    0.245    0.341   74.685
  502.750   10.659    0.232    0.329   76.990
  503.000    9.898    0.208    0.323   79.301
  503.250    8.862    0.198    0.330   83.931
  503.500    7.934    0.209    0.347   88.561
  503.750    6.975    0.240    0.386   92.606
  504.000    6.019    0.262    0.421   85.615
  504.250    5.903    0.285    0.415   59.430
  504.500    6.346    0.291    0.418   51.853
  504.750    6.821    0.317    0.422   48.926
  505.000    7.605    0.331    0.425   45.989
  505.250    7.880    0.344    0.428   41.910
  505.500    7.873    0.358    0.425   38.402
  505.750    7.864    0.354    0.416   39.545
  506.000    8.149    0.335    0.400   42.431
  506.250    8.600    0.326    0.388   40.086
  506.500    8.912    0.338    0.373   34.242
  506.750    8.276    0.359    0.368   31.902
  507.000    7.277    0.363    0.359   34.202
  507.250    6.397    0.359    0.358   37.670
  507.500    5.039    0.348    0.354   35.901
  507.750    4.117    0.351    0.354   34.142
  508.000    4.265    0.354    0.353   31.801
  508.250    4.421    0.352    0.356   30.613
  508.500    4.752    0.347    0.354   31.180
  508.750    5.107    0.347    0.353   32.312
  509.000    5.490    0.347    0.357   32.302
  509.250    6.233    0.346    0.362   34.026
  509.500    6.823    0.340    0.368   37.494
  509.750    6.816    0.333    0.385   36.892
  510.000    5.469    0.328    0.391   33.950
  510.250    5.463    0.331    0.384   33.354
  510.500    5.166    0.334    0.372   32.758
  510.750    4.885    0.338    0.372   32.156
  511.000    5.062    0.343    0.385   32.136
  511.250    5.441    0.360    0.398   32.697
  511.500    6.179    0.365    0.403   31.509
  511.750    6.889    0.365    0.393   30.332
  512.000    6.882    0.361    0.385   27.981
  512.250    6.390    0.360    0.391   27.380
  512.500    6.621    0.358    0.396   27.936
  512.750    6.989    0.354    0.396   27.926
  513.000    6.983    0.351    0.395   28.487
  513.250    7.236    0.333    0.392   30.211
  513.500    7.635    0.257    0.354   30.186
  513.750    8.359    0.192    0.293   31.328
  514.000   15.832    0.002    0.198   34.215
  514.250   26.384   -0.007    0.184   37.682
  514.500   31.645   -0.005    0.178   39.988
  514.750   33.389   -0.000    0.174   41.125
  515.000   33.981    0.002    0.174   41.691
  515.250   35.213    0.005    0.173   42.242
  515.500   36.481    0.006    0.173   42.814
  515.750   37.119    0.006    0.175   42.783
  516.000   37.759    0.006    0.176   43.355
  516.250   37.741    0.004    0.177   43.916
  516.500   38.383    0.004    0.180   45.053
  516.750   39.064    0.004    0.182   45.033
  517.000   41.996    0.005    0.183   45.018
  517.250   46.819    0.005    0.186   43.835
