~VERSION INFORMATION
 VERS.                 2.0:   CWLS LOG ASCII STANDARD -VERSION 2.0
 WRAP.                  NO:   ONE LINE PER DEPTH STEP
~WELL INFORMATION BLOCK
#MNEM.UNIT           DATA                    DESCRIPTION OF MNEMONIC
#---------    -------------------            -------------------------------
# Generated from Intellog Unique Number	CS_73_76/WELL/2189
WELL.         AMOCO KIRBY                    : Well_name    - WELL
LOC .         00/10-15-074-06W4/0            : Location     - LOCATION
UWI .         00/10-15-074-06W4/0            : Uwi          - UNIQUE WELL ID
ENTR.         SP                             : Entered      - ENTERED BY
SRVC.         SCHLUMBERGER                   : Scn          - SERVICE COMPANY
STRT.M        235                            : top_depth    - START DEPTH
STOP.M        455                            : bot_depth    - STOP DEPTH
STEP.M        0.25                           : increment    - STEP LENGTH
 NULL. -999.2500:NULL Value
~CURVE INFORMATION BLOCK
#MNEM UNIT       ERCB CURVE CODE    CURVE DESCRIPTION
#-----------   ------------------   ----------------------------------
DEPT.M        00 001 00 00         : DEPTH        - DEPTH
DPHI.V/V      00 890 00 00         : PHID         - DENSITY POROSITY (LIMESTONE)
ILD .OHMM     00 120 00 00         : RESD         - DEEP RESISTIVITY (DIL)
NPHI.V/V      00 330 00 00         : PHIN         - NEUTRON POROSITY (LIMESTONE)
GR  .API      00 310 00 00         : GR           - GAMMA RAY
~PARAMETER INFORMATION
#MNEM.UNIT           DATA             DESCRIPTION OF MNEMONIC
#---------         -----------     ------------------------------
GL  .M        627.32               : gl           - GROUND LEVEL ELEVATION
EREF.M        631.57               : kb           - ELEVATION OF DEPTH REFERENCE
DATM.M        627.32               : datum        - DATUM ELEVATION
TDD .M        464                  : tdd          - TOTAL DEPTH DRILLER
RUN .         ONE                  : Run          - RUN NUMBER
ENG .         BILL                 : Engineer     - RECORDING ENGINEER
WIT .         JIM                  : Witness      - WITNESSED BY
MUD .         GEL                  : Mud_type     - MUD TYPE
MATR.         LIMESTONE            : Logunit      - NEUTRON MATRIX
TMAX.C        23                   : BHT          - MAXIMUM RECORDED TEMPERATURE
BHTD.M        464                  : BHTDEP       - MAXIMUM RECORDED TEMPERATURE
MATR.         1                    : LOGUNIT      - NEUTRON MATRIX
RMT .C        25                   : MDTP         - TEMPERATURE OF MUD
NEUT.         1                    : NEUTRON      - NEUTRON TYPE
RESI.         0                    : RESIST       - RESISTIVITY TYPE
RMC .OHMM     0.25                 : RMC          - RESISTIVITY OF MUD CAKE
RMF .OHMM     0.25                 : RMF          - RESISTIVITY OF MUD FILTRATE
SUFT.C        15                   : SUFT         - SURFACE TEMPERATURE
~A  DEPTH     PHID     RESD     PHIN       GR
# ...
  278.500    0.242    7.104    0.472  108.684
  278.750    0.238    6.720    0.470  109.304
  279.000    0.233    6.476    0.471  108.099
  279.250    0.218    6.126    0.472  107.505
  279.500    0.216    6.014    0.488  105.096
  279.750    0.225    6.015    0.502  103.284
  280.000    0.236    5.905    0.517   99.052
  280.250    0.245    6.130    0.506   97.236
  280.500    0.245    6.131    0.464   93.606
  280.750    0.255    6.133    0.437   91.192
  281.000    0.266    6.134    0.432   89.989
  281.250    0.260    6.135    0.446   93.647
  281.500    0.256    6.136    0.455   92.446
  281.750    0.258    6.251    0.459   89.425
  282.000    0.269    6.252    0.458   90.046
  282.250    0.261    6.490    0.453   91.273
  282.500    0.255    6.613    0.459   92.502
  282.750    0.255    6.864    0.478   93.122
  283.000    0.249    6.994    0.485   91.314
  283.250    0.247    6.995    0.465   90.721
  283.500    0.247    6.996    0.439   92.561
  283.750    0.250    6.869    0.433   87.713
  284.000    0.259    6.870    0.434   82.264
  284.250    0.264    6.745    0.440   81.059
  284.500    0.270    6.622    0.442   84.716
  284.750    0.270    6.501    0.426   83.517
  285.000    0.280    6.150    0.420   81.707
  285.250    0.286    5.818    0.419   80.509
  285.500    0.300    5.607    0.413   82.345
  285.750    0.308    5.504    0.419   84.178
  286.000    0.302    5.404    0.428   82.374
  286.250    0.291    5.405    0.431   82.992
  286.500    0.274    5.507    0.425   87.867
  286.750    0.271    5.611    0.422   90.916
  287.000    0.274    5.824    0.421   94.578
  287.250    0.264    5.935    0.414   95.799
  287.500    0.269    5.936    0.419   89.740
  287.750    0.278    5.720    0.439   83.684
  288.000    0.289    5.616    0.456   79.445
  288.250    0.305    5.513    0.458   77.028
  288.500    0.316    5.413    0.469   74.010
  288.750    0.306    5.216    0.461   71.591
  289.000    0.302    5.121    0.446   69.781
  289.250    0.305    5.028    0.439   67.366
  289.500    0.310    4.845    0.434   65.560
  289.750    0.305    4.670    0.426   64.970
  290.000    0.311    4.585    0.417   64.978
  290.250    0.304    4.418    0.412   63.779
  290.500    0.313    4.337    0.417   63.184
  290.750    0.316    4.259    0.433   61.983
  291.000    0.304    4.259    0.438   66.859
  291.250    0.296    4.182    0.445   71.125
  291.500    0.301    4.183    0.453   73.563
  291.750    0.302    4.183    0.459   72.972
  292.000    0.308    4.107    0.446   68.737
  292.250    0.318    4.108    0.437   66.925
  292.500    0.330    4.033    0.430   65.725
  292.750    0.340    4.033    0.440   66.955
  293.000    0.341    4.034    0.462   66.966
  293.250    0.330    3.961    0.475   66.377
  293.500    0.320    3.961    0.464   65.779
  293.750    0.318    3.889    0.463   65.186
  294.000    0.318    3.818    0.465   65.807
  294.250    0.323    3.748    0.457   65.825
  294.500    0.321    3.749    0.465   64.621
  294.750    0.315    3.680    0.459   67.065
  295.000    0.329    3.681    0.463   70.116
  295.250    0.335    3.614    0.467   68.913
  295.500    0.332    3.615    0.453   66.499
  295.750    0.327    3.615    0.448   66.509
  296.000    0.325    3.550    0.449   68.346
  296.250    0.324    3.550    0.463   67.144
  296.500    0.325    3.485    0.450   67.158
  296.750    0.325    3.486    0.447   67.779
  297.000    0.325    3.422    0.448   69.007
  297.250    0.334    3.423    0.453   70.846
  297.500    0.342    3.361    0.456   72.075
  297.750    0.334    3.299    0.458   70.874
  298.000    0.327    3.300    0.462   69.065
  298.250    0.328    3.240    0.450   69.079
  298.500    0.333    3.181    0.448   69.698
  298.750    0.333    3.181    0.448   70.926
  299.000    0.329    3.123    0.461   73.370
  299.250    0.327    3.123    0.477   73.384
  299.500    0.327    2.847    0.486   71.576
  299.750    0.326    2.795    0.489   69.766
  300.000    0.332    2.694    0.477   67.962
  300.250    0.337    2.596    0.474   66.758
  300.500    0.339    2.502    0.479   66.166
  300.750    0.340    2.456    0.465   66.178
  301.000    0.334    2.367    0.452   63.157
  301.250    0.335    2.367    0.449   61.346
  301.500    0.334    2.324    0.454   63.791
  301.750    0.322    2.324    0.466   65.018
  302.000    0.337    2.282    0.455   65.035
  302.250    0.341    2.283    0.452   66.870
  302.500    0.338    2.326    0.466   68.097
  302.750    0.332    2.326    0.475   63.865
  303.000    0.330    2.327    0.483   60.840
  303.250    0.322    2.201    0.493   62.676
  303.500    0.326    2.161    0.499   64.508
  303.750    0.332    2.161    0.499   65.739
  304.000    0.321    2.162    0.501   68.182
  304.250    0.328    2.162    0.484   70.015
  304.500    0.341    2.162    0.470   68.208
  304.750    0.346    2.163    0.473   69.436
  305.000    0.345    2.123    0.459   71.878
  305.250    0.340    2.123    0.452   73.108
  305.500    0.337    2.085    0.463   73.122
  305.750    0.318    2.047    0.474   70.707
  306.000    0.335    2.010    0.451   70.111
  306.250    0.322    2.010    0.461   68.919
  306.500    0.331    1.973    0.458   68.319
  306.750    0.336    1.973    0.446   68.335
  307.000    0.336    1.974    0.447   67.740
  307.250    0.335    1.938    0.462   69.574
  307.500    0.325    1.903    0.474   69.589
  307.750    0.322    1.903    0.471   67.779
  308.000    0.332    1.868    0.464   67.792
  308.250    0.324    1.868    0.478   69.628
  308.500    0.330    1.834    0.482   71.467
  308.750    0.325    1.835    0.472   73.301
  309.000    0.323    1.801    0.463   75.745
  309.250    0.323    1.801    0.498   75.756
  309.500    0.319    1.769    0.476   77.592
  309.750    0.317    1.736    0.476   78.820
  310.000    0.314    1.737    0.481   73.979
  310.250    0.325    1.705    0.487   70.348
  310.500    0.315    1.643    0.477   67.323
  310.750    0.326    1.643    0.469   64.304
  311.000    0.338    1.644    0.469   63.713
  311.250    0.345    1.675    0.465   64.327
  311.500    0.347    1.706    0.459   65.559
  311.750    0.344    1.771    0.467   66.180
  312.000    0.341    1.908    0.473   68.014
  312.250    0.332    2.214    0.471   70.457
  312.500    0.319    2.716    0.458   69.865
  312.750    0.290    3.211    0.452   67.446
  313.000    0.194    3.333    0.420   65.032
  313.250    0.103    3.038    0.366   60.188
  313.500    0.111    2.524    0.295   57.164
  313.750    0.198    2.176    0.351   58.394
  314.000    0.257    1.911    0.389   62.659
  314.250    0.296    1.774    0.424   65.707
  314.500    0.325    1.678    0.445   66.334
  314.750    0.323    1.648    0.460   67.557
  315.000    0.327    1.618    0.449   68.786
  315.250    0.327    1.679    0.445   70.623
  315.500    0.322    1.618    0.449   70.030
  315.750    0.328    1.589    0.454   67.613
  316.000    0.331    1.560    0.479   66.412
  316.250    0.335    1.531    0.491   66.429
  316.500    0.332    1.532    0.479   66.440
  316.750    0.329    1.532    0.469   65.238
  317.000    0.333    1.561    0.454   67.683
  317.250    0.340    1.590    0.474   69.516
  317.500    0.341    1.620    0.477   74.390
  317.750    0.318    1.651    0.478   82.301
  318.000    0.297    1.651    0.497   88.384
  318.250    0.276    1.652    0.521   90.831
  318.500    0.281    1.622    0.543   86.591
  318.750    0.295    1.592    0.503   76.279
  319.000    0.309    1.506    0.467   66.576
  319.250    0.321    1.451    0.449   67.198
  319.500    0.318    1.425    0.434   67.213
  319.750    0.321    1.452    0.438   67.833
  320.000    0.325    1.507    0.459   67.847
  320.250    0.322    1.536    0.469   67.859
  320.500    0.331    1.565    0.478   70.914
  320.750    0.334    1.594    0.464   72.140
  321.000    0.345    1.595    0.462   71.549
  321.250    0.356    1.625    0.463   72.166
  321.500    0.337    1.595    0.448   74.005
  321.750    0.327    1.625    0.462   75.840
