~VERSION INFORMATION
 VERS.                 2.0:   CWLS LOG ASCII STANDARD -VERSION 2.0
 WRAP.                  NO:   ONE LINE PER DEPTH STEP
~WELL INFORMATION BLOCK
#MNEM.UNIT           DATA                    DESCRIPTION OF MNEMONIC
#---------    -------------------            -------------------------------
# Generated from Intellog Unique Number	CW_73_75/WELL/1033
WELL.         SULPETRO ET AT FAWCETT 11-02   : Well_name    - WELL
LOC .         00/11-02-075-21W4/0            : Location     - LOCATION
UWI .         00/11-02-075-21W4/0            : Uwi          - UNIQUE WELL ID
ENTR.         JAYE                           : Entered      - ENTERED BY
SRVC.         SCHLUMBERGER                   : Scn          - SERVICE COMPANY
DATE.         5 MAR 82                       : Date         - LOG DATE
STRT.M        370                            : top_depth    - START DEPTH
STOP.M        575                            : bot_depth    - STOP DEPTH
STEP.M        0.25                           : increment    - STEP LENGTH
 NULL. -999.2500:NULL Value
~CURVE INFORMATION BLOCK
#MNEM UNIT       ERCB CURVE CODE    CURVE DESCRIPTION
#-----------   ------------------   ----------------------------------
DEPT.M        00 001 00 00         : DEPTH        - DEPTH
ILD .OHMM     00 120 00 00         : RESD         - DEEP RESISTIVITY (DIL)
NPHI.V/V      00 330 00 00         : PHIN         - NEUTRON POROSITY (SANDSTONE)
DPHI.V/V      00 890 00 00         : PHID         - DENSITY POROSITY (SANDSTONE)
CALI.MM       00 280 01 00         : CAL          - CALIPER
GR  .API      00 310 00 00         : GR           - GAMMA RAY
~PARAMETER INFORMATION
#MNEM.UNIT           DATA             DESCRIPTION OF MNEMONIC
#---------         -----------     ------------------------------
GL  .M        676.38               : gl           - GROUND LEVEL ELEVATION
EREF.M        679.28               : kb           - ELEVATION OF DEPTH REFERENCE
DATM.M        676.38               : datum        - DATUM ELEVATION
TDD .M        598.5                : tdd          - TOTAL DEPTH DRILLER
RUN .         ONE                  : Run          - RUN NUMBER
ENG .         SMYTHE               : Engineer     - RECORDING ENGINEER
WIT .         ROWE                 : Witness      - WITNESSED BY
BASE.         EDM                  : Branch       - HOME BASE OF LOGGING UNIT
MUD .         DAPP MUD             : Mud_type     - MUD TYPE
MATR.         SANDSTONE            : Logunit      - NEUTRON MATRIX
TMAX.C        23.3                 : BHT          - MAXIMUM RECORDED TEMPERATURE
BHTD.M        598.5                : BHTDEP       - MAXIMUM RECORDED TEMPERATURE
RMT .C        16.6                 : MDTP         - TEMPERATURE OF MUD
MUDD.KG/M     1190                 : MWT          - MUD DENSITY
NEUT.         1                    : NEUTRON      - NEUTRON TYPE
RESI.         0                    : RESIST       - RESISTIVITY TYPE
RM  .OHMM     1.874                : RM           - RESISTIVITY OF MUD
RMC .OHMM     0                    : RMC          - RESISTIVITY OF MUD CAKE
RMF .OHMM     1.85                 : RMF          - RESISTIVITY OF MUD FILTRATE
SUFT.C        0                    : SUFT         - SURFACE TEMPERATURE
~A  DEPTH     RESD     PHIN     PHID      CAL       GR
# ...
  479.500    4.126    0.465    0.339  159.629   67.216
  479.750    4.067    0.457    0.344  155.600   67.484
  480.000    4.011    0.436    0.351  153.860   69.063
  480.250    3.923    0.445    0.353  153.576   70.203
  480.500    3.891    0.455    0.351  154.646   67.537
  480.750    3.887    0.457    0.347  156.236   67.240
  481.000    3.883    0.461    0.342  158.344   70.004
  481.250    3.850    0.467    0.340  160.869   69.149
  481.500    3.861    0.461    0.339  161.835   68.228
  481.750    3.983    0.446    0.339  160.825   68.437
  482.000    4.046    0.436    0.337  159.714   68.951
  482.250    4.049    0.429    0.333  159.429   69.843
  482.500    4.045    0.435    0.331  159.353   71.859
  482.750    4.040    0.450    0.329  159.384   74.371
  483.000    4.051    0.460    0.324  159.621   74.888
  483.250    4.086    0.469    0.323  159.855   73.906
  483.500    4.114    0.462    0.327  159.987   75.983
  483.750    4.125    0.453    0.331  160.017   79.809
  484.000    4.159    0.461    0.330  159.111   76.644
  484.250    4.211    0.473    0.324  156.537   73.164
  484.500    4.302    0.470    0.309  154.382   69.625
  484.750    4.371    0.448    0.295  154.618   68.956
  485.000    4.359    0.464    0.292  157.357   72.280
  485.250    4.345    0.477    0.306  159.357   75.668
  485.500    4.334    0.486    0.320  162.298   78.934
  485.750    4.330    0.457    0.324  163.058   80.635
  486.000    4.374    0.448    0.312  162.252   80.277
  486.250    4.470    0.456    0.296  158.954   79.421
  486.500    4.601    0.471    0.290  155.964   81.248
  486.750    4.702    0.473    0.286  154.226   86.320
  487.000    4.751    0.483    0.281  153.214   86.714
  487.250    4.728    0.495    0.275  153.243   87.042
  487.500    4.583    0.508    0.270  155.145   90.493
  487.750    4.368    0.505    0.255  160.374   94.569
  488.000    3.956    0.490    0.236  167.373   99.017
  488.250    3.590    0.529    0.233  170.627  103.216
  488.500    3.282    0.559    0.257  171.281  104.231
  488.750    3.064    0.527    0.269  171.523  103.064
  489.000    2.954    0.501    0.265  171.338  103.144
  489.250    3.122    0.534    0.258  170.745  105.222
  489.500    3.505    0.534    0.251  170.045  108.297
  489.750    3.928    0.497    0.244  167.997  105.381
  490.000    4.562    0.464    0.239  165.943  104.087
  490.250    4.960    0.438    0.236  165.552  103.668
  490.500    5.303    0.446    0.232  165.480  103.934
  490.750    5.131    0.474    0.224  165.508  104.762
  491.000    4.854    0.461    0.219  165.640  105.592
  491.250    4.590    0.442    0.214  165.982  102.801
  491.500    4.350    0.459    0.212  166.014   99.509
  491.750    4.177    0.464    0.218  166.041  104.145
  492.000    3.996    0.441    0.220  165.758  109.468
  492.250    3.918    0.440    0.220  165.373  108.237
  492.500    3.847    0.442    0.221  164.988  107.257
  492.750    3.815    0.451    0.209  164.698  111.393
  493.000    3.876    0.438    0.199  164.622  114.531
  493.250    3.924    0.439    0.201  164.651  108.434
  493.500    4.085    0.449    0.211  164.995  103.893
  493.750    4.417    0.436    0.215  165.130  108.591
  494.000    4.969    0.434    0.216  165.364  110.107
  494.250    5.434    0.445    0.217  165.601  104.194
  494.500    5.733    0.437    0.220  165.732  109.954
  494.750    5.914    0.443    0.222  165.764  117.088
  495.000    6.031    0.456    0.219  165.584  124.595
  495.250    6.139    0.475    0.216  165.302  115.062
  495.500    6.122    0.499    0.214  164.500  105.092
  495.750    6.034    0.481    0.216  161.405  103.674
  496.000    5.972    0.459    0.226  159.772  100.820
  496.250    5.899    0.443    0.234  160.946  101.337
  496.500    5.838    0.456    0.243  162.638  109.032
  496.750    5.865    0.470    0.237  163.600  106.989
  497.000    5.893    0.460    0.229  164.151  100.078
  497.250    5.897    0.434    0.227  164.182   99.659
  497.500    5.869    0.422    0.230  164.107  103.736
  497.750    5.875    0.443    0.215  163.925  107.123
  498.000    5.891    0.455    0.211  164.265  109.013
  498.250    5.919    0.455    0.218  164.816  100.727
  498.500    5.946    0.452    0.218  165.052   99.996
  498.750    5.950    0.450    0.210  165.292  102.447
  499.000    6.012    0.454    0.202  165.323   98.096
  499.250    6.075    0.457    0.197  165.452   94.804
  499.500    6.125    0.436    0.198  165.694   95.510
  499.750    6.108    0.427    0.200  165.717   99.208
  500.000    6.090    0.434    0.205  165.854  104.094
  500.250    6.072    0.430    0.210  166.095   99.929
  500.500    6.078    0.424    0.209  166.324  101.570
  500.750    6.106    0.429    0.204  166.457  103.959
  501.000    6.078    0.430    0.204  166.173  107.099
  501.250    6.082    0.425    0.212  166.000  105.866
  501.500    6.076    0.436    0.223  166.025  102.328
  501.750    6.081    0.439    0.223  165.848  100.657
  502.000    6.040    0.439    0.219  165.669   98.616
  502.250    6.001    0.434    0.216  165.385  102.503
  502.500    5.906    0.431    0.225  165.100  105.953
  502.750    5.702    0.428    0.236  164.712  106.970
  503.000    5.538    0.440    0.229  164.532  106.988
  503.250    5.379    0.453    0.224  165.400  106.130
  503.500    5.302    0.429    0.219  165.942  105.213
  503.750    5.287    0.426    0.213  166.180  104.791
  504.000    5.433    0.445    0.203  166.003   98.816
  504.250    6.054    0.446    0.179  164.471   98.898
  504.500    7.756    0.405    0.127  163.145  102.534
  504.750    9.657    0.312    0.097  162.968   86.385
  505.000   10.843    0.236    0.063  162.165   73.356
  505.250   12.106    0.215    0.017  160.530   63.262
  505.500   12.845    0.288    0.101  158.892   69.274
  505.750   12.784    0.387    0.186  157.258   75.094
  506.000   12.484    0.348    0.194  157.391   78.419
  506.250   12.194    0.297    0.170  160.643   72.569
  506.500   12.044    0.259    0.129  163.380   69.841
  506.750   12.078    0.272    0.144  163.927   68.922
  507.000   11.359    0.285    0.151  163.021   67.630
  507.250    9.138    0.299    0.161  161.804   66.335
  507.500    7.434    0.318    0.185  160.791   66.539
  507.750    5.780    0.356    0.238  159.260   71.366
  508.000    4.793    0.428    0.283  157.522   74.690
  508.250    4.212    0.483    0.305  156.714   74.332
  508.500    4.427    0.480    0.296  156.432   67.919
  508.750    4.574    0.453    0.297  156.464   69.374
  509.000    4.667    0.446    0.306  156.281   71.200
  509.250    4.697    0.454    0.301  156.205   73.340
  509.500    4.648    0.464    0.290  156.238   75.728
  509.750    4.652    0.459    0.281  156.160   80.554
  510.000    4.735    0.442    0.282  156.397   80.510
  510.250    4.812    0.422    0.284  156.948   78.967
  510.500    4.889    0.439    0.277  158.017   79.858
  510.750    4.893    0.439    0.267  159.611   81.309
  511.000    4.841    0.444    0.279  160.676   83.323
  511.250    4.791    0.454    0.278  161.643   85.089
  511.500    4.760    0.442    0.260  161.982   87.103
  511.750    4.693    0.410    0.248  162.633   90.179
  512.000    4.575    0.420    0.248  163.287   93.380
  512.250    4.443    0.442    0.246  163.940   95.646
  512.500    4.348    0.461    0.238  164.805  101.467
  512.750    4.175    0.470    0.232  165.148   98.737
  513.000    4.085    0.466    0.232  165.693   93.824
  513.250    4.073    0.461    0.237  165.929   92.343
  513.500    4.138    0.468    0.236  166.381   94.482
  513.750    4.260    0.471    0.242  166.404   97.683
  514.000    4.386    0.464    0.246  166.437  101.385
  514.250    4.516    0.471    0.243  166.463  100.653
  514.500    4.640    0.487    0.239  166.803  102.917
  514.750    4.689    0.482    0.235  167.457  107.304
  515.000    4.755    0.472    0.231  167.794  105.512
  515.250    4.858    0.467    0.227  167.615   99.412
  515.500    4.955    0.448    0.224  167.331   98.057
  515.750    5.054    0.430    0.221  166.842  101.508
