~VERSION INFORMATION
 VERS.                 2.0:   CWLS LOG ASCII STANDARD -VERSION 2.0
 WRAP.                  NO:   ONE LINE PER DEPTH STEP
~WELL INFORMATION BLOCK
#MNEM.UNIT           DATA                    DESCRIPTION OF MNEMONIC
#---------    -------------------            -------------------------------
# Generated from Intellog Unique Number	CS_73_76/WELL/3265
WELL.         CHEVRON N CLYDE                : Well_name    - WELL
LOC .         00/11-21-075-11W4/0            : Location     - LOCATION
UWI .         00/11-21-075-11W4/0            : Uwi          - UNIQUE WELL ID
ENTR.         SP                             : Entered      - ENTERED BY
SRVC.         SCHLUMBERGER                   : Scn          - SERVICE COMPANY
STRT.M        274.32                         : top_depth    - START DEPTH
STOP.M        502.57                         : bot_depth    - STOP DEPTH
STEP.M        0.25                           : increment    - STEP LENGTH
 NULL. -999.2500:NULL Value
~CURVE INFORMATION BLOCK
#MNEM UNIT       ERCB CURVE CODE    CURVE DESCRIPTION
#-----------   ------------------   ----------------------------------
DEPT.M        00 001 00 00         : DEPTH        - DEPTH
GR  .API      00 310 00 00         : GR           - GAMMA RAY
DPHI.V/V      00 890 00 00         : PHID         - DENSITY POROSITY (SANDSTONE)
NPHI.V/V      00 330 00 00         : PHIN         - NEUTRON POROSITY (SANDSTONE)
ILD .OHMM     00 120 00 00         : RESD         - DEEP RESISTIVITY (DIL)
~PARAMETER INFORMATION
#MNEM.UNIT           DATA             DESCRIPTION OF MNEMONIC
#---------         -----------     ------------------------------
GL  .M        656.387              : gl           - GROUND LEVEL ELEVATION
EREF.M        660.502              : kb           - ELEVATION OF DEPTH REFERENCE
DATM.M        656.387              : datum        - DATUM ELEVATION
TDD .M        506.273              : tdd          - TOTAL DEPTH DRILLER
RUN .         ONE                  : Run          - RUN NUMBER
ENG .         BILL                 : Engineer     - RECORDING ENGINEER
WIT .         JIM                  : Witness      - WITNESSED BY
MUD .         GEL                  : Mud_type     - MUD TYPE
MATR.         SANDSTONE            : Logunit      - NEUTRON MATRIX
TMAX.C        20.7264              : BHT          - MAXIMUM RECORDED TEMPERATURE
BHTD.M        905                  : BHTDEP       - MAXIMUM RECORDED TEMPERATURE
MATR.         1                    : LOGUNIT      - NEUTRON MATRIX
RMT .C        25                   : MDTP         - TEMPERATURE OF MUD
NEUT.         1                    : NEUTRON      - NEUTRON TYPE
RESI.         0                    : RESIST       - RESISTIVITY TYPE
RMC .OHMM     0.25                 : RMC          - RESISTIVITY OF MUD CAKE
RMF .OHMM     0.25                 : RMF          - RESISTIVITY OF MUD FILTRATE
SUFT.C        15                   : SUFT         - SURFACE TEMPERATURE
~A  DEPTH       GR     PHID     PHIN     RESD
  274.320   94.200    0.269    0.578    2.600
  274.570   93.584    0.273    0.648    2.634
  274.820   93.630    0.273    0.638    2.656
  275.070   93.071    0.257    0.662    2.745
  275.320   92.435    0.249    0.697    2.771
  275.570   91.759    0.252    0.675    2.860
  275.820   91.821    0.234    0.669    2.947
  276.070   91.796    0.231    0.634    3.016
  276.320   91.733    0.238    0.620    3.011
  276.570   89.707    0.234    0.617    3.011
  276.820   87.903    0.233    0.620    3.006
  277.070   87.649    0.230    0.598    3.069
  277.320   88.635    0.219    0.626    3.061
  277.570   89.451    0.221    0.650    3.143
  277.820   90.019    0.235    0.626    3.239
  278.070   91.353    0.247    0.570    3.346
  278.320   92.399    0.238    0.582    3.384
  278.570   90.785    0.213    0.595    3.547
  278.820   88.730    0.201    0.622    3.654
  279.070   89.234    0.213    0.645    3.765
  279.320   91.016    0.195    0.617    3.879
  279.570   87.552    0.171    0.577    3.973
  279.820   83.390    0.172    0.544    3.968
  280.070   86.012    0.224    0.579    3.916
  280.320   88.966    0.253    0.615    3.792
  280.570   91.278    0.264    0.642    3.754
  280.820   91.611    0.251    0.668    3.687
  281.070   89.852    0.242    0.629    3.611
  281.320   88.915    0.231    0.587    3.619
  281.570   89.481    0.232    0.590    3.619
  281.820   91.438    0.228    0.589    3.620
  282.070   92.456    0.238    0.588    3.565
  282.320   91.362    0.241    0.574    3.489
  282.570   88.637    0.254    0.580    3.417
  282.820   88.953    0.242    0.588    3.261
  283.070   91.657    0.227    0.580    3.223
  283.320   91.874    0.239    0.589    3.186
  283.570   86.777    0.221    0.610    3.385
  283.820   80.142    0.230    0.626    3.725
  284.070   73.431    0.235    0.601    4.746
  284.320   64.029    0.269    0.473    5.975
  284.570   60.704    0.304    0.432    7.351
  284.820   62.400    0.319    0.465    7.979
  285.070   64.805    0.331    0.431    7.342
  285.320   70.323    0.316    0.425    6.291
  285.570   74.713    0.258    0.462    5.055
  285.820   78.985    0.239    0.508    4.511
  286.070   81.816    0.255    0.554    3.949
  286.320   81.898    0.267    0.621    3.681
  286.570   81.762    0.255    0.610    3.424
  286.820   81.743    0.255    0.624    3.622
  287.070   81.348    0.265    0.629    3.972
  287.320   80.029    0.261    0.602    4.237
  287.570   78.204    0.267    0.575    4.500
  287.820   75.306    0.282    0.534    4.692
  288.070   72.518    0.276    0.513    4.687
  288.320   72.103    0.272    0.523    4.538
  288.570   74.363    0.269    0.525    4.272
  288.820   75.960    0.248    0.502    4.027
  289.070   78.145    0.236    0.540    4.204
  289.320   76.704    0.236    0.570    4.918
  289.570   72.640    0.246    0.600    5.663
  289.820   69.713    0.251    0.615    6.896
  290.070   66.762    0.231    0.536    8.673
  290.320   63.816    0.198    0.491   11.475
  290.570   60.947    0.176    0.462   13.805
  290.820   57.462    0.232    0.412   14.384
  291.070   54.298    0.256    0.376   13.887
  291.320   56.009    0.251    0.416   12.866
  291.570   54.649    0.283    0.400   11.100
  291.820   56.164    0.305    0.403    9.854
  292.070   61.045    0.289    0.431    8.765
  292.320   64.376    0.278    0.470    7.609
  292.570   65.528    0.274    0.493    6.549
  292.820   69.302    0.261    0.510    5.661
  293.070   77.736    0.238    0.531    5.028
  293.320   82.475    0.230    0.562    4.641
  293.570   85.232    0.248    0.586    4.673
  293.820   83.734    0.266    0.591    5.392
  294.070   79.078    0.303    0.564    6.504
  294.320   73.554    0.379    0.788    8.202
  294.570   65.016    0.422    0.809    9.783
  294.820   58.623    0.498    0.751   12.013
  295.070   54.743    0.384    0.723   13.725
  295.320   58.975    0.346    0.683   15.537
  295.570   62.438    0.336    0.657   16.595
  295.820   65.067    0.319    0.630   17.271
  296.070   65.051    0.318    0.576   17.547
  296.320   65.246    0.329    0.525   17.904
  296.570   65.650    0.335    0.515   18.222
  296.820   65.326    0.327    0.543   18.216
  297.070   64.387    0.317    0.531   18.224
  297.320   64.992    0.308    0.519   18.223
  297.570   65.462    0.312    0.507   18.188
  297.820   63.604    0.313    0.512   18.591
  298.070   62.152    0.320    0.512   18.559
  298.320   61.195    0.327    0.518   18.561
  298.570   60.243    0.324    0.525   18.562
  298.820   60.312    0.325    0.513   18.559
  299.070   59.208    0.332    0.512   18.533
  299.320   57.867    0.339    0.547   18.914
  299.570   56.399    0.337    0.527   18.899
  299.820   56.092    0.344    0.515   18.906
  300.070   56.652    0.330    0.518   18.905
  300.320   58.677    0.318    0.519   18.868
  300.570   59.877    0.320    0.507   19.289
  300.820   59.775    0.313    0.485   19.254
  301.070   58.207    0.298    0.468   19.256
  301.320   55.883    0.234    0.455   19.256
  301.570   52.411    0.141    0.446   19.259
  301.820   48.855    0.102    0.420   19.291
  302.070   47.699    0.207    0.407   18.896
  302.320   50.001    0.268    0.436   18.642
  302.570   54.192    0.296    0.485   18.452
  302.820   58.521    0.305    0.519   18.224
  303.070   63.173    0.302    0.551   17.703
  303.320   66.303    0.304    0.566   16.756
  303.570   68.051    0.301    0.550   15.538
  303.820   70.704    0.298    0.563   13.433
  304.070   71.688    0.287    0.579   10.786
  304.320   70.633    0.280    0.558    8.624
  304.570   73.470    0.269    0.532    6.659
  304.820   81.200    0.251    0.512    5.397
  305.070   92.020    0.227    0.504    5.526
  305.320  102.345    0.218    0.527    6.356
  305.570  110.904    0.236    0.546    6.908
  305.820  112.372    0.227    0.504    7.823
  306.070  107.277    0.244    0.494    8.463
  306.320  102.998    0.262    0.502    9.222
  306.570  101.033    0.265    0.503    9.997
  306.820  101.285    0.269    0.476   10.614
  307.070   98.539    0.277    0.494   10.912
  307.320   94.757    0.283    0.532   10.616
  307.570   88.811    0.294    0.518    9.806
  307.820   83.277    0.284    0.491    9.090
  308.070   84.091    0.266    0.501    8.535
  308.320   87.098    0.252    0.492    7.795
  308.570   93.130    0.252    0.477    7.347
  308.820   99.324    0.263    0.500    6.913
  309.070  102.419    0.255    0.513    6.635
  309.320  104.205    0.243    0.494    7.138
  309.570  104.568    0.229    0.481    7.857
  309.820   99.675    0.233    0.468    8.557
  310.070   91.523    0.259    0.459    9.256
  310.320   82.599    0.280    0.475   10.031
  310.570   75.727    0.298    0.497   10.647
  310.820   72.953    0.306    0.508   10.907
  311.070   71.807    0.294    0.497   10.896
  311.320   73.853    0.284    0.469   10.885
  311.570   76.372    0.285    0.448   11.262
  311.820   79.067    0.287    0.460   11.977
  312.070   79.264    0.300    0.475   12.784
  312.320   78.218    0.318    0.488   13.442
  312.570   77.259    0.313    0.483   13.831
  312.820   76.060    0.304    0.474   13.824
  313.070   74.605    0.301    0.464   13.793
  313.320   73.703    0.303    0.462   13.343
  313.570   72.635    0.310    0.479   13.110
  313.820   73.243    0.312    0.500   12.286
  314.070   75.209    0.304    0.518   11.214
  314.320   78.439    0.301    0.515   10.358
  314.570   81.036    0.292    0.493    9.172
  314.820   84.609    0.256    0.465    8.686
  315.070   87.236    0.242    0.506    7.983
  315.320   87.461    0.241    0.536    7.683
  315.570   87.413    0.254    0.532    7.405
  315.820   88.246    0.268    0.547    7.956
  316.070   89.262    0.263    0.576    8.873
  316.320   88.013    0.266    0.557    9.634
  316.570   85.054    0.271    0.540   10.349
  316.820   80.641    0.240    0.516   10.841
  317.070   76.277    0.162    0.418   11.035
  317.320   73.480    0.165    0.331   10.432
  317.570   71.743    0.220    0.337    9.391
