~VERSION INFORMATION
 VERS.                 2.0:   CWLS LOG ASCII STANDARD -VERSION 2.0
 WRAP.                  NO:   ONE LINE PER DEPTH STEP
~WELL INFORMATION BLOCK
#MNEM.UNIT           DATA                    DESCRIPTION OF MNEMONIC
#---------    -------------------            -------------------------------
# Generated from Intellog Unique Number	CW_70_72/WELL/1051
NULL.         -999.25                        : NULL_VALUE
WELL.         DECALTA ET AL SMITH 11-03      : Well_name    - WELL              
LOC .         11-03-071-01W5                 : Location     - LOCATION          
UWI .         00/11-03-071-01W5/0            : Uwi          - UNIQUE WELL ID    
ENTR.         JAYE                           : Entered      - ENTERED BY        
SRVC.         SCHLUMBERGER                   : Scn          - SERVICE COMPANY   
DATE.         1 NOV 77                       : Date         - LOG DATE          
STRT.M        384.048                        : top_depth    - START DEPTH       
STOP.M        644.298                        : bot_depth    - STOP DEPTH        
STEP.M        0.25                           : increment    - STEP LENGTH       
~CURVE INFORMATION BLOCK
#MNEM UNIT       ERCB CURVE CODE    CURVE DESCRIPTION
#-----------   ------------------   ----------------------------------
DEPT.M        00 001 00 00         : DEPTH        - DEPTH                       
DPHI.V/V      00 890 00 00         : PHID         - DENSITY POROSITY (SANDSTONE)
NPHI.V/V      00 330 00 00         : PHIN         - NEUTRON POROSITY (SANDSTONE)
GR  .API      00 310 00 00         : GR           - GAMMA RAY                   
CALI.MM       00 280 01 00         : CAL          - CALIPER                     
ILD .OHMM     00 120 00 00         : RESD         - DEEP RESISTIVITY (DIL)      
~PARAMETER INFORMATION       
#MNEM.UNIT           DATA             DESCRIPTION OF MNEMONIC
#---------         -----------     ------------------------------
GL  .M        572.11               : gl           - GROUND LEVEL ELEVATION      
EREF.M        575.158              : kb           - ELEVATION OF DEPTH REFERENCE
DATM.M        572.11               : datum        - DATUM ELEVATION             
TDD .M        649.224              : tdd          - TOTAL DEPTH DRILLER         
RUN .         ONE                  : Run          - RUN NUMBER                  
ENG .         KUBICA               : Engineer     - RECORDING ENGINEER          
WIT .         RIES                 : Witness      - WITNESSED BY                
BASE.         EDM                  : Branch       - HOME BASE OF LOGGING UNIT   
MUD .         GEL                  : Mud_type     - MUD TYPE                    
MATR.         SANDSTONE            : Logunit      - NEUTRON MATRIX              
TMAX.C        26.6667              : BHT          - MAXIMUM RECORDED TEMPERATURE
BHTD.M        651.358              : BHTDEP       - MAXIMUM RECORDED TEMPERATURE
RMT .C        8.88889              : MDTP         - TEMPERATURE OF MUD          
MUDD.KG/M     1116                 : MWT          - MUD DENSITY                 
NEUT.         1                    : NEUTRON      - NEUTRON TYPE                
RESI.         0                    : RESIST       - RESISTIVITY TYPE            
RM  .OHMM     4.03                 : RM           - RESISTIVITY OF MUD          
RMC .OHMM     0                    : RMC          - RESISTIVITY OF MUD CAKE     
RMF .OHMM     4.38                 : RMF          - RESISTIVITY OF MUD FILTRATE 
SUFT.C        0                    : SUFT         - SURFACE TEMPERATURE         
~A  DEPTH     PHID     PHIN       GR      CAL     RESD
# ...
  603.048    0.132    0.258   69.448  170.267    7.744
  603.298    0.071    0.220   77.943  170.106    7.094
  603.548    0.066    0.209   85.315  170.042    7.234
  603.798    0.076    0.226   91.070  170.085    7.530
  604.048    0.070    0.231   96.452  169.810    8.201
  604.298    0.065    0.236  101.646  169.749    9.048
  604.548    0.124    0.260  109.018  169.475   10.252
  604.798    0.154    0.301  111.662  169.201   11.680
  605.048    0.167    0.326  105.895  169.143   12.912
  605.298    0.153    0.325  100.005  169.196   14.221
  605.548    0.134    0.305  100.279  169.233   13.150
  605.798    0.143    0.287  105.102  169.488   10.285
  606.048    0.191    0.315  110.795  169.427    8.640
  606.298    0.212    0.344  114.867  169.470    8.406
  606.548    0.199    0.327  118.877  169.193    8.799
  606.798    0.183    0.335  120.711  169.143    9.636
  607.048    0.211    0.344  122.543  169.495   10.416
  607.298    0.216    0.340  126.303  170.063   10.904
  607.548    0.199    0.328  130.314  170.634    9.932
  607.798    0.176    0.328  134.386  170.995    8.912
  608.048    0.166    0.332  130.863  171.043    8.132
  608.298    0.166    0.328  124.538  170.868    7.720
  608.548    0.172    0.316  122.884  170.808    7.454
  608.798    0.175    0.299  123.407  170.650    7.292
  609.048    0.155    0.313  125.614  170.165    7.215
  609.298    0.145    0.326  124.081  169.994    7.427
  609.548    0.127    0.307  112.152  169.828    7.629
  609.798    0.089    0.254  100.658  169.656    7.883
  610.048    0.054    0.238  103.299  169.601    8.161
  610.298    0.017    0.256  117.523  169.427    8.398
  610.548    0.034    0.290  129.815  169.160    8.825
  610.798    0.114    0.334  139.244  168.987    9.325
  611.048    0.124    0.353  145.247  168.821    9.635
  611.298    0.137    0.371  143.905  168.562    9.129
  611.548    0.145    0.358  131.911  168.385    8.634
  611.798    0.131    0.338  117.678  168.220    8.089
  612.048    0.106    0.316  105.376  168.260    7.368
  612.298    0.067    0.284  106.833  168.197    6.761
  612.548    0.002    0.249  128.465  168.140    6.920
  612.798    0.090    0.281  158.194  167.871    7.623
  613.048    0.131    0.323  163.760  167.804    8.571
  613.298    0.165    0.346  166.465  167.747    9.619
  613.548    0.179    0.372  165.244  167.687   10.397
  613.798    0.174    0.399  158.358  167.620   10.287
  614.048    0.157    0.410  146.491  167.350    8.030
  614.298    0.119    0.423  135.622  167.183    7.071
  614.548    0.066    0.357  128.050  167.117    6.332
  614.798    0.137    0.337  119.734  166.746    5.800
  615.048    0.167    0.308  110.854  166.468    5.393
  615.298    0.181    0.319  101.354  166.303    5.459
  615.548    0.194    0.320  100.445  166.132    5.693
  615.798    0.209    0.308  103.024  166.185    5.859
  616.048    0.214    0.302  106.973  166.117    5.963
  616.298    0.208    0.308  108.866  165.950    5.608
  616.548    0.202    0.310  112.196  165.680    5.051
  616.798    0.201    0.303  118.072  165.825    4.430
  617.048    0.187    0.292  126.380  166.292    3.923
  617.298    0.191    0.287  132.946  167.496    3.718
  617.548    0.175    0.287  137.704  167.643    3.644
  617.798    0.155    0.300  138.848  167.689    3.758
  618.048    0.154    0.329  111.164  166.995    3.956
  618.298    0.159    0.312   88.400  165.882    4.251
  618.548    0.082    0.292   85.749  164.974    4.718
  618.798    0.085    0.257   91.072  164.170    5.335
  619.048    0.155    0.272   99.126  163.163    5.821
  619.298    0.186    0.280  106.686  161.732    6.105
  619.548    0.186    0.287  110.762  160.297    6.064
  619.798    0.187    0.294  114.773  160.136    5.638
  620.048    0.211    0.309  119.156  161.124    5.126
  620.298    0.178    0.309  125.160  162.114    4.784
  620.548    0.144    0.297  130.851  163.318    4.585
  620.798    0.138    0.292  117.491  164.527    4.444
  621.048    0.146    0.289   99.333  165.202    4.599
  621.298    0.084    0.252   79.122  165.774    5.370
  621.548    0.032    0.244  100.506  166.139    6.329
  621.798    0.042    0.299  127.494  166.285    7.320
  622.048    0.123    0.356  131.504  166.116    8.200
  622.298    0.157    0.376  127.670  165.631    9.116
  622.548    0.191    0.316  131.434  164.838    8.196
  622.798    0.169    0.280  138.246  164.136    7.436
  623.048    0.159    0.294  151.969  163.128    6.622
  623.298    0.139    0.310  151.562  162.430    5.637
  623.548    0.123    0.325  145.732  161.528    5.361
  623.798    0.112    0.335  131.501  161.042    5.549
  624.048    0.097    0.304  122.187  161.193    5.920
  624.298    0.106    0.288  115.362  161.555    6.209
  624.548    0.142    0.268  116.571  162.445    6.452
  624.798    0.114    0.269  123.699  163.225    6.603
  625.048    0.081    0.280  123.796  163.899    6.582
  625.298    0.128    0.280  132.345  164.573    6.464
  625.548    0.161    0.285  137.977  165.145    6.419
  625.798    0.135    0.292  145.786  166.350    6.424
  626.048    0.127    0.298  151.362  168.290    6.525
  626.298    0.101    0.307  157.191  170.553    6.755
  626.548    0.112    0.315  162.768  171.966    6.991
  626.798    0.114    0.326  157.825  171.485    7.210
  627.048    0.126    0.324  148.251  170.684    7.352
  627.298    0.111    0.308  139.973  169.459    7.233
  627.548    0.077    0.280  132.805  167.816    6.918
  627.798    0.050    0.270  128.418  166.702    6.755
  628.048    0.051    0.280  131.337  166.115    6.647
  628.298    0.105    0.295  135.988  165.946    6.688
  628.548    0.124    0.292  141.502  165.884    6.680
  628.798    0.112    0.287  148.441  166.136    6.402
  629.048    0.098    0.312  158.906  166.602    5.930
  629.298    0.095    0.390  144.811  166.964    5.473
  629.548    0.105    0.402  133.688  167.533    5.487
  629.798   -0.006    0.356  136.297  168.211    5.542
  630.048    0.045    0.323  162.355  169.208    5.641
  630.298    0.094    0.351  170.343  169.459    5.995
  630.548    0.127    0.387  177.594  169.189    6.443
  630.798    0.130    0.374  181.000  169.233    6.770
  631.048    0.138    0.375  166.293  169.487    6.955
  631.298    0.074    0.404  158.257  169.634    6.830
  631.548    0.035    0.413  152.826  169.362    6.140
  631.798    0.001    0.406  160.567  168.773    4.793
  632.048    0.068    0.385  170.912  168.081    1.766
  632.298    0.094    0.374  178.034  167.385    1.000
  632.548    0.108    0.396  184.599  166.585    0.290
  632.798    0.116    0.422  191.850  165.262    0.280
  633.048    0.125    0.442  198.789  164.144    0.384
  633.298    0.134    0.461  185.186  163.242    0.951
  633.548    0.129    0.448  177.896  162.863    1.332
  633.798    0.076    0.387  180.879  162.486    6.888
  634.048    0.034    0.367  186.828  162.525    7.558
  634.298    0.017    0.381  190.857  162.572    7.620
  634.548    0.105    0.400  190.062  162.826    7.412
  634.798    0.109    0.416  185.254  163.185    6.906
  635.048    0.132    0.424  181.609  163.760    6.314
  635.298    0.146    0.426  181.316  164.538    5.487
  635.548    0.138    0.434  180.765  165.639    4.979
  635.798    0.055    0.415  179.230  166.522    4.270
  636.048    0.015    0.400  177.506  166.882    3.781
  636.298    0.053    0.401  174.862  166.616    3.516
  636.548    0.086    0.409  169.730  166.023    3.439
  636.798    0.086    0.423  158.356  165.016    3.422
  637.048    0.088    0.437  144.572  164.107    3.516
  637.298    0.099    0.456  126.519  162.573    3.626
  637.548    0.080    0.435   93.495  161.664    3.753
  637.798   -0.007    0.391   47.104  160.126    3.791
  638.048   -0.013    0.403   31.589  157.112    3.460
  638.298    0.107    0.351   30.305  155.258    3.023
  638.548    0.105    0.224   31.058  154.459    3.014
  638.798    0.079    0.204   31.562  154.081    3.326
  639.048    0.052    0.216   32.802  154.232    3.761
  639.298    0.071    0.262   34.797  154.907    4.516
