~VERSION INFORMATION
 VERS.                 2.0:   CWLS LOG ASCII STANDARD -VERSION 2.0
 WRAP.                  NO:   ONE LINE PER DEPTH STEP
~WELL INFORMATION BLOCK
#MNEM.UNIT           DATA                    DESCRIPTION OF MNEMONIC
#---------    -------------------            -------------------------------
# Generated from Intellog Unique Number	CS_73_76/WELL/4783
WELL.         LANDBANK MINERALS LTD.         : Well_name    - WELL
LOC .         00/11-09-076-02W4/0            : Location     - LOCATION
UWI .         00/11-09-076-02W4/0            : Uwi          - UNIQUE WELL ID
ENTR.         JO                             : Entered      - ENTERED BY
SRVC.         SCHLUMBERGER                   : Scn          - SERVICE COMPANY
DATE.         05/25/92                       : Date         - LOG DATE
STRT.M        285                            : top_depth    - START DEPTH
STOP.M        560                            : bot_depth    - STOP DEPTH
STEP.M        0.25                           : increment    - STEP LENGTH
 NULL. -999.2500:NULL Value
~CURVE INFORMATION BLOCK
#MNEM UNIT       ERCB CURVE CODE    CURVE DESCRIPTION
#-----------   ------------------   ----------------------------------
DEPT.M        00 001 00 00         : DEPTH        - DEPTH
GR  .API      00 310 00 00         : GR           - GAMMA RAY
DELT.US/F     00 520 00 00         : DELT         - SONIC TRAVEL TIME
ILD .OHMM     00 120 00 00         : RESD         - DEEP RESISTIVITY (DIL)
~PARAMETER INFORMATION
#MNEM.UNIT           DATA             DESCRIPTION OF MNEMONIC
#---------         -----------     ------------------------------
GL  .M        654.8                : gl           - GROUND LEVEL ELEVATION
EREF.M        658.5                : kb           - ELEVATION OF DEPTH REFERENCE
DATM.M        658.5                : datum        - DATUM ELEVATION
TDD .M        568                  : tdd          - TOTAL DEPTH DRILLER
RUN .         ONE                  : Run          - RUN NUMBER
ENG .         BILL                 : Engineer     - RECORDING ENGINEER
WIT .         JIM                  : Witness      - WITNESSED BY
MUD .         GEL                  : Mud_type     - MUD TYPE
MATR.         SANDSTONE            : Logunit      - NEUTRON MATRIX
TMAX.C        20                   : BHT          - MAXIMUM RECORDED TEMPERATURE
BHTD.M        568                  : BHTDEP       - MAXIMUM RECORDED TEMPERATURE
MATR.         1                    : LOGUNIT      - NEUTRON MATRIX
RMT .C        12                   : MDTP         - TEMPERATURE OF MUD
NEUT.         1                    : NEUTRON      - NEUTRON TYPE
RESI.         0                    : RESIST       - RESISTIVITY TYPE
RMC .OHMM     3.95                 : RMC          - RESISTIVITY OF MUD CAKE
RMF .OHMM     3.95                 : RMF          - RESISTIVITY OF MUD FILTRATE
SUFT.C        5                    : SUFT         - SURFACE TEMPERATURE
~A  DEPTH       GR     DELT     RESD
# ...
  393.500   64.749  401.505   10.869
  393.750   68.482  399.950   10.853
  394.000   68.429  401.627   10.832
  394.250   68.389  404.926   11.027
  394.500   66.437  409.848   11.010
  394.750   62.559  413.944   10.994
  395.000   61.899  421.313   11.187
  395.250   60.541  427.045   11.166
  395.500   60.501  429.533   11.145
  395.750   60.462  427.154   11.137
  396.000   59.776  424.775   11.120
  396.250   58.456  415.907   11.096
  396.500   60.303  393.235   11.083
  396.750   63.416  338.118   11.071
  397.000   65.263  413.637   11.054
  397.250   63.930  443.731   11.034
  397.500   61.978  427.535   11.013
  397.750   61.912  418.681   10.795
  398.000   61.886  418.721   10.181
  398.250   63.086  414.720    9.250
  398.500   64.946  401.810    8.897
  398.750   74.390  424.590    7.638
  399.000   86.367  433.554    5.324
  399.250   93.292  429.566    4.837
  399.500   93.859  432.851    4.395
  399.750   90.627  442.653    4.224
  400.000   88.042  441.085    4.140
  400.250   90.522  441.140    4.057
  400.500   93.635  449.306    3.975
  400.750   96.128  455.038    4.122
  401.000   96.695  459.149    4.523
  401.250   96.022  457.581    5.057
  401.500   97.236  460.082    5.346
  401.750   99.715  465.801    5.976
  402.000   93.331  459.366    6.199
  402.250   88.833  435.897    6.428
  402.500   91.946  431.085    6.419
  402.750   94.439  435.209    6.289
  403.000   95.652  437.697    6.047
  403.250   96.233  436.129    5.812
  403.500   93.634  431.303    5.695
  403.750   89.783  423.246    5.686
  404.000   92.882  423.300    5.786
  404.250   90.943  433.900    6.229
  404.500   87.092  436.388    6.343
  404.750   84.506  420.219    6.577
  405.000   81.288  409.729    6.820
  405.250   79.322  401.672    6.940
  405.500   81.815  402.551    7.059
  405.750   83.649  403.416    7.051
  406.000   84.242  403.471    6.901
  406.250   82.897  403.512    6.894
  406.500   83.477  405.216    6.626
  406.750   86.590  408.501    6.375
  407.000   90.349  414.234    6.125
  407.250   94.109  418.357    5.894
  407.500   98.461  413.531    5.452
  407.750   99.688  395.727    5.146
  408.000  100.268  410.396    4.857
  408.250  102.115  408.030    4.583
  408.500  103.962  412.938    4.241
  408.750  101.376  432.460    4.080
  409.000   98.778  443.884    3.634
  409.250  100.637  453.672    3.366
  409.500  101.851  461.852    3.057
  409.750   98.632  469.207    2.776
  410.000  101.112  473.317    2.671
  410.250  104.858  470.938    2.615
  410.500  110.504  471.804    2.612
  410.750  112.983  475.103    2.708
  411.000  111.651  475.157    2.864
  411.250  112.878  473.589    3.084
  411.500  108.393  473.644    3.513
  411.750  103.895  454.217    3.856
  412.000   89.913  425.881    4.231
  412.250   84.782  417.013    4.558
  412.500   83.463  417.081    5.195
  412.750   83.397  413.080    5.808
  413.000   83.371  413.134    6.257
  413.250   83.951  418.853    6.609
  413.500   85.165  427.830    6.982
  413.750   86.365  431.157    7.110
  414.000   85.046  417.394    7.513
  414.250   81.181  414.204    7.788
  414.500   79.229  405.336    8.073
  414.750   79.163  416.746    8.220
  415.000   79.769  428.171    8.365
  415.250   80.983  424.981    7.315
  415.500   83.449  419.357    7.033
  415.750   85.296  424.278    7.157
  416.000   85.890  419.466    7.563
  416.250   85.837  389.494    8.147
  416.500   76.920  340.866    9.285
  416.750   67.357  309.286   10.780
  417.000   67.304  293.915   14.033
  417.250   68.518  266.390   14.274
  417.500   60.867  309.463   13.211
  417.750   56.383  316.804   12.002
  418.000   60.129  324.970   10.904
  418.250   61.975  318.535    9.910
  418.500   65.088  286.143    8.670
  418.750   63.769  277.275    7.876
  419.000   59.904  354.403    6.633
  419.250   64.283  369.883    6.255
  419.500   69.309  386.971    6.015
  419.750   76.221  404.871    6.003
  420.000   80.600  422.784    5.887
  420.250   83.079  424.475    5.766
  420.500   81.127  424.529    5.338
  420.750   79.795  428.639    4.850
  421.000   79.122  431.127    4.576
  421.250   77.157  427.923    4.743
  421.500   77.724  418.244    4.738
  421.750   78.951  418.299    4.915
  422.000   81.430  421.598    4.999
  422.250   81.998  418.407    5.184
  422.500   81.298  415.231    5.275
  422.750   80.639  421.788    5.369
  423.000   79.953  430.752    5.566
  423.250   84.319  433.240    5.772
  423.500   86.165  420.316    6.215
  423.750   84.227  414.706    6.447
  424.000   80.362  410.691    6.813
  424.250   81.562  398.578    7.062
  424.500   82.169  390.507    7.052
  424.750   84.648  391.387    6.529
  425.000   89.661  398.741    6.160
  425.250   93.394  398.796    5.703
  425.500   93.354  398.864    5.280
  425.750   86.957  398.905    5.270
  426.000   84.978  400.595    5.361
  426.250   84.938  402.272    5.457
  426.500   85.519  404.773    5.347
  426.750   86.719  406.423    5.141
  427.000   87.326  418.672    4.672
  427.250   89.172  417.929    3.861
  427.500   91.019  417.956    3.252
  427.750   92.866  447.212    2.740
  428.000   92.180  495.949    2.351
  428.250   93.380  489.514    2.175
  428.500   92.707  482.282    2.134
  428.750   88.842  475.022    2.090
  429.000   88.156  474.266    2.087
  429.250   88.104  474.334    2.084
  429.500   89.330  474.388    2.080
  429.750   90.544  473.631    2.116
  430.000   92.377  473.672    2.195
  430.250   95.490  475.376    2.364
  430.500   99.236  468.117    2.644
  430.750   99.817  434.089    2.902
  431.000   96.611  412.243    3.307
  431.250   92.100  406.619    3.770
  431.500   93.314  403.415    4.216
  431.750   93.881  396.170    4.627
  432.000   93.221  410.838    4.889
  432.250   91.889  411.704    4.791
  432.500   93.735  408.514    4.694
  432.750   95.582  402.890    4.426
  433.000   93.643  393.211    4.339
  433.250   87.892  391.643    4.416
  433.500   87.826  392.509    4.577
  433.750   89.659  390.941    4.748
  434.000   90.899  391.806    4.831
  434.250   95.898  397.539    4.913
  434.500   99.658  402.460    4.907
  434.750  100.225  402.528    4.810
  435.000  100.818  405.003    4.368
  435.250  104.551  420.482    3.894
  435.500  102.599  412.425    3.743
  435.750  100.014  413.291    3.736
  436.000   98.061  415.779    3.733
  436.250   98.009  414.225    3.799
  436.500   99.222  415.090    3.864
  436.750  101.702  420.809    3.715
  437.000  106.081  445.212    3.441
  437.250  105.395  457.447    3.068
  437.500  102.163  453.432    3.006
  437.750  100.857  438.075    3.490
  438.000   96.993  327.772    3.978
  438.250   94.421  176.912    4.621
  438.500   88.643  212.671    5.367
  438.750   84.805  233.828    6.116
  439.000   82.206  283.377    6.582
  439.250   79.634  327.247    6.577
  439.500   78.315  382.473    6.692
  439.750   78.249  375.227    6.804
  440.000   77.563  352.556    6.929
  440.250   79.423  364.805    7.051
  440.500   81.903  369.726    7.309
  440.750   84.382  353.544    7.871
  441.000   83.063  313.027    8.476
  441.250   79.198  326.871    8.624
  441.500   80.399  356.952    7.268
  441.750   81.625  377.299    6.120
  442.000   83.459  383.031    5.774
  442.250   83.419  384.708    5.552
  442.500   81.454  388.007    5.336
  442.750   76.982  391.306    5.132
  443.000   73.764  396.227    4.935
  443.250   69.266  401.162    4.567
  443.500   71.099  401.217    4.311
  443.750   73.605  403.691    3.990
  444.000   77.971  411.060    3.694
  444.250   77.918  403.814    3.829
  444.500   75.333  394.134    4.047
  444.750   69.569  390.133    4.199
  445.000   67.630  391.012    4.518
  445.250   68.843  391.878    4.515
  445.500   69.410  391.108    4.594
  445.750   66.192  389.553    4.673
  446.000   66.126  387.986    4.666
  446.250   67.366  389.662    4.659
  446.500   72.365  392.150    4.652
  446.750   75.491  392.205    4.643
  447.000   78.604  384.945    4.638
  447.250   81.084  367.168    4.631
  447.500   85.463  384.243    4.707
