~VERSION INFORMATION
 VERS.                 2.0:   CWLS LOG ASCII STANDARD -VERSION 2.0
 WRAP.                  NO:   ONE LINE PER DEPTH STEP
~WELL INFORMATION BLOCK
#MNEM.UNIT           DATA                    DESCRIPTION OF MNEMONIC
#---------    -------------------            -------------------------------
# Generated from Intellog Unique Number	CS_77_79/WELL/999
WELL.         HUSKEY OIL OPERATIONS LTD      : Well_name    - WELL
LOC .         00/11-26-077-16W4/0            : Location     - LOCATION
UWI .         00/11-26-077-16W4/0            : Uwi          - UNIQUE WELL ID
ENTR.         SP                             : Entered      - ENTERED BY
SRVC.         SCHLUMBERGER                   : Scn          - SERVICE COMPANY
STRT.M        280                            : top_depth    - START DEPTH
STOP.M        480                            : bot_depth    - STOP DEPTH
STEP.M        0.25                           : increment    - STEP LENGTH
 NULL. -999.2500:NULL Value
~CURVE INFORMATION BLOCK
#MNEM UNIT       ERCB CURVE CODE    CURVE DESCRIPTION
#-----------   ------------------   ----------------------------------
DEPT.M        00 001 00 00         : DEPTH        - DEPTH
ILD .OHMM     00 120 00 00         : RESD         - DEEP RESISTIVITY (DIL)
DPHI.V/V      00 890 00 00         : PHID         - DENSITY POROSITY (LIMESTONE)
NPHI.V/V      00 330 00 00         : PHIN         - NEUTRON POROSITY (LIMESTONE)
GR  .API      00 310 00 00         : GR           - GAMMA RAY
~PARAMETER INFORMATION
#MNEM.UNIT           DATA             DESCRIPTION OF MNEMONIC
#---------         -----------     ------------------------------
GL  .M        672.11               : gl           - GROUND LEVEL ELEVATION
EREF.M        675.69               : kb           - ELEVATION OF DEPTH REFERENCE
DATM.M        672.11               : datum        - DATUM ELEVATION
TDD .M        487                  : tdd          - TOTAL DEPTH DRILLER
RUN .         ONE                  : Run          - RUN NUMBER
ENG .         BILL                 : Engineer     - RECORDING ENGINEER
WIT .         JIM                  : Witness      - WITNESSED BY
MUD .         GEL                  : Mud_type     - MUD TYPE
MATR.         LIMESTONE            : Logunit      - NEUTRON MATRIX
TMAX.C        22                   : BHT          - MAXIMUM RECORDED TEMPERATURE
BHTD.M        487                  : BHTDEP       - MAXIMUM RECORDED TEMPERATURE
MATR.         1                    : LOGUNIT      - NEUTRON MATRIX
RMT .C        25                   : MDTP         - TEMPERATURE OF MUD
NEUT.         1                    : NEUTRON      - NEUTRON TYPE
RESI.         0                    : RESIST       - RESISTIVITY TYPE
RMC .OHMM     0.25                 : RMC          - RESISTIVITY OF MUD CAKE
RMF .OHMM     0.25                 : RMF          - RESISTIVITY OF MUD FILTRATE
SUFT.C        15                   : SUFT         - SURFACE TEMPERATURE
~A  DEPTH     RESD     PHID     PHIN       GR
# ...
  410.500    5.739    0.235    0.489   96.129
  410.750    5.850    0.238    0.499   96.130
  411.000    5.963    0.245    0.499   96.741
  411.250    5.857    0.236    0.484   96.741
  411.500    5.751    0.228    0.468   96.742
  411.750    5.543    0.225    0.461   94.913
  412.000    5.342    0.226    0.465   93.085
  412.250    5.148    0.241    0.479   91.867
  412.500    5.055    0.239    0.484   91.867
  412.750    5.058    0.232    0.489   91.868
  413.000    5.060    0.232    0.494   90.649
  413.250    5.256    0.241    0.502   89.430
  413.500    5.460    0.261    0.497   86.992
  413.750    5.565    0.286    0.478   83.944
  414.000    5.890    0.287    0.485   82.725
  414.250    6.117    0.283    0.489   80.897
  414.500    6.474    0.283    0.469   78.458
  414.750    6.981    0.287    0.460   75.410
  415.000    7.814    0.294    0.445   72.362
  415.250    8.913    0.307    0.434   69.314
  415.500   10.167    0.322    0.461   66.876
  415.750   11.596    0.326    0.469   65.047
  416.000   12.504    0.323    0.473   63.829
  416.250   11.832    0.316    0.463   63.830
  416.500   11.618    0.311    0.467   63.830
  416.750   11.408    0.303    0.471   63.831
  417.000   10.993    0.310    0.472   64.442
  417.250   10.594    0.318    0.478   65.052
  417.500   10.209    0.317    0.471   65.663
  417.750    9.658    0.310    0.457   66.273
  418.000    9.481    0.306    0.461   67.493
  418.250    8.969    0.301    0.453   65.665
  418.500    8.328    0.307    0.440   64.446
  418.750    8.026    0.315    0.450   63.228
  419.000    7.881    0.307    0.458   63.838
  419.250    7.596    0.309    0.451   65.668
  419.500    7.321    0.311    0.439   66.278
  419.750    7.052    0.311    0.433   64.450
  420.000    6.927    0.309    0.445   63.231
  420.250    6.801    0.307    0.451   62.622
  420.500    6.805    0.309    0.445   62.013
  420.750    6.810    0.311    0.443   62.624
  421.000    6.813    0.310    0.453   62.624
  421.250    6.815    0.306    0.464   62.625
  421.500    6.818    0.307    0.470   62.626
  421.750    6.823    0.309    0.477   63.846
  422.000    6.955    0.320    0.473   65.067
  422.250    6.958    0.313    0.452   65.677
  422.500    7.095    0.307    0.447   67.507
  422.750    7.232    0.306    0.438   66.288
  423.000    7.371    0.304    0.435   65.069
  423.250    7.656    0.304    0.430   65.070
  423.500    7.952    0.313    0.417   64.461
  423.750    8.417    0.309    0.400   63.242
  424.000    8.742    0.292    0.399   60.804
  424.250    9.079    0.233    0.397   58.976
  424.500   10.357    0.198    0.299   58.367
  424.750   12.972    0.013    0.203   57.758
  425.000   15.946    0.007    0.155   57.148
  425.250   18.881    0.004    0.153   54.710
  425.500   19.249    0.000    0.153   52.882
  425.750   19.622    0.000    0.161   51.053
  426.000   18.220    0.000    0.164   49.835
  426.250   17.232    0.000    0.169   50.445
  426.500   16.300    0.008    0.160   52.275
  426.750   15.707    0.015    0.145   54.715
  427.000   14.858    0.061    0.144   54.716
  427.250   14.056    0.108    0.164   54.717
  427.500   13.544    0.117    0.186   56.547
  427.750   13.052    0.133    0.209   58.987
  428.000   11.894    0.149    0.225   60.207
  428.250   11.248    0.172    0.243   61.427
  428.500   10.441    0.211    0.268   64.477
  428.750    9.338    0.290    0.291   66.307
  429.000    8.508    0.312    0.322   67.527
  429.250    7.752    0.316    0.418   67.527
  429.500    7.470    0.318    0.447   65.699
  429.750    6.936    0.319    0.462   65.090
  430.000    6.938    0.319    0.452   64.481
  430.250    6.688    0.321    0.436   63.872
  430.500    6.566    0.322    0.448   62.654
  430.750    6.448    0.323    0.453   62.654
  431.000    6.331    0.328    0.453   63.264
  431.250    6.457    0.330    0.463   65.095
  431.500    6.581    0.333    0.478   65.096
  431.750    6.584    0.332    0.480   64.486
  432.000    6.711    0.328    0.474   65.097
  432.250    6.715    0.321    0.458   65.707
  432.500    6.719    0.315    0.448   65.708
  432.750    6.722    0.322    0.458   65.709
  433.000    6.600    0.316    0.458   65.710
  433.250    6.481    0.313    0.470   65.101
  433.500    6.364    0.311    0.479   65.102
  433.750    6.368    0.311    0.486   65.102
  434.000    6.370    0.317    0.496   66.323
  434.250    6.373    0.321    0.487   66.323
  434.500    6.497    0.317    0.481   66.934
  434.750    6.500    0.315    0.487   66.934
  435.000    6.504    0.318    0.492   65.716
  435.250    6.508    0.313    0.486   66.326
  435.500    6.512    0.319    0.474   67.546
  435.750    6.514    0.328    0.456   67.547
  436.000    6.517    0.328    0.446   67.548
  436.250    6.399    0.317    0.440   67.549
  436.500    6.403    0.312    0.437   67.550
  436.750    6.528    0.308    0.434   68.160
  437.000    6.656    0.312    0.429   68.771
  437.250    6.783    0.304    0.437   67.552
  437.500    7.046    0.294    0.423   65.723
  437.750    7.742    0.277    0.416   65.114
  438.000    8.347    0.255    0.400   63.895
  438.250    9.345    0.215    0.367   63.286
  438.500    9.890    0.123    0.306   62.677
  438.750   10.272    0.103    0.261   62.069
  439.000   10.669    0.111    0.265   62.069
  439.250   10.094    0.136    0.299   62.680
  439.500    9.026    0.157    0.333   62.681
  439.750    8.070    0.178    0.362   63.291
  440.000    7.352    0.201    0.386   63.292
  440.250    6.825    0.238    0.422   63.902
  440.500    6.457    0.301    0.453   64.513
  440.750    6.340    0.316    0.469   65.733
  441.000    6.226    0.318    0.476   66.953
  441.250    6.229    0.318    0.476   65.125
  441.500    6.233    0.318    0.476   64.516
  441.750    6.121    0.316    0.476   65.736
  442.000    6.124    0.314    0.476   67.566
  442.250    6.127    0.310    0.476   68.787
  442.500    6.129    0.306    0.481   68.787
  442.750    6.131    0.301    0.498   67.569
  443.000    6.135    0.306    0.506   66.960
  443.250    6.139    0.306    0.502   68.180
  443.500    6.027    0.305    0.481   69.400
  443.750    5.919    0.302    0.478   70.010
  444.000    5.922    0.303    0.474   71.231
  444.250    5.815    0.310    0.473   71.841
  444.500    5.818    0.312    0.471   68.184
  444.750    5.715    0.314    0.460   66.965
  445.000    5.717    0.317    0.453   66.356
  445.250    5.720    0.319    0.467   66.966
  445.500    5.616    0.321    0.469   68.796
  445.750    5.619    0.314    0.467   70.626
  446.000    5.518    0.308    0.471   72.457
  446.250    5.521    0.302    0.473   74.287
  446.500    5.523    0.296    0.475   75.507
  446.750    5.423    0.284    0.485   76.118
  447.000    5.528    0.286    0.501   76.118
  447.250    5.742    0.296    0.502   76.119
  447.500    5.745    0.297    0.475   77.339
  447.750    5.642    0.292    0.465   78.559
  448.000    5.540    0.288    0.475   80.999
  448.250    5.439    0.282    0.487   82.219
  448.500    5.243    0.275    0.501   83.440
  448.750    5.052    0.263    0.513   82.831
  449.000    4.869    0.256    0.519   83.441
  449.250    4.782    0.257    0.512   84.662
  449.500    4.784    0.257    0.513   86.492
  449.750    4.877    0.251    0.509   87.102
  450.000    5.162    0.241    0.487   87.713
  450.250    5.463    0.213    0.464   90.153
  450.500    5.780    0.221    0.460   93.202
  450.750    6.352    0.222    0.466   95.032
  451.000    6.597    0.217    0.464   95.033
  451.250    6.854    0.202    0.459   94.424
  451.500    6.985    0.205    0.448   94.425
  451.750    7.122    0.218    0.451   93.816
  452.000    7.125    0.230    0.460   91.987
  452.250    7.128    0.223    0.470   89.549
  452.500    7.133    0.197    0.466   87.111
  452.750    7.136    0.176    0.462   85.892
  453.000    7.007    0.187    0.466   88.332
  453.250    7.010    0.201    0.471   91.991
  453.500    6.884    0.221    0.463   93.821
  453.750    6.759    0.228    0.448   95.041
