~VERSION INFORMATION
 VERS.                 2.0:   CWLS LOG ASCII STANDARD -VERSION 2.0
 WRAP.                  NO:   ONE LINE PER DEPTH STEP
~WELL INFORMATION BLOCK
#MNEM.UNIT           DATA                    DESCRIPTION OF MNEMONIC
#---------    -------------------            -------------------------------
# Generated from Intellog Unique Number	CS_67_68/WELL/2198
WELL.         10-29-067-08W4                 : Well_name    - WELL
LOC .         00/10-29-067-08W4/0            : Location     - LOCATION
UWI .         00/10-29-067-08W4/0            : Uwi          - UNIQUE WELL ID
ENTR.         SP                             : Entered      - ENTERED BY
SRVC.         SCHLUMBERGER                   : Scn          - SERVICE COMPANY
STRT.M        330                            : top_depth    - START DEPTH
STOP.M        555                            : bot_depth    - STOP DEPTH
STEP.M        0.25                           : increment    - STEP LENGTH
 NULL. -999.2500:NULL Value
~CURVE INFORMATION BLOCK
#MNEM UNIT       ERCB CURVE CODE    CURVE DESCRIPTION
#-----------   ------------------   ----------------------------------
DEPT.M        00 001 00 00         : DEPTH        - DEPTH
ILD .OHMM     00 120 00 00         : RESD         - DEEP RESISTIVITY (DIL)
DPHI.V/V      00 890 00 00         : PHID         - DENSITY POROSITY (LIMESTONE)
NPHI.V/V      00 330 00 00         : PHIN         - NEUTRON POROSITY (LIMESTONE)
GR  .API      00 310 00 00         : GR           - GAMMA RAY
CALI.MM       00 280 01 00         : CAL          - CALIPER
~PARAMETER INFORMATION
#MNEM.UNIT           DATA             DESCRIPTION OF MNEMONIC
#---------         -----------     ------------------------------
GL  .M        639.4                : gl           - GROUND LEVEL ELEVATION
EREF.M        643.6                : kb           - ELEVATION OF DEPTH REFERENCE
DATM.M        643.6                : datum        - DATUM ELEVATION
TDD .M        560                  : tdd          - TOTAL DEPTH DRILLER
RUN .         ONE                  : Run          - RUN NUMBER
ENG .         BILL                 : Engineer     - RECORDING ENGINEER
WIT .         JIM                  : Witness      - WITNESSED BY
MUD .         GEL                  : Mud_type     - MUD TYPE
MATR.         LIMESTONE            : Logunit      - NEUTRON MATRIX
TMAX.C        23                   : BHT          - MAXIMUM RECORDED TEMPERATURE
BHTD.M        560.2                : BHTDEP       - MAXIMUM RECORDED TEMPERATURE
MATR.         1                    : LOGUNIT      - NEUTRON MATRIX
RMT .C        25                   : MDTP         - TEMPERATURE OF MUD
NEUT.         1                    : NEUTRON      - NEUTRON TYPE
RESI.         0                    : RESIST       - RESISTIVITY TYPE
RMC .OHMM     0.25                 : RMC          - RESISTIVITY OF MUD CAKE
RMF .OHMM     0.25                 : RMF          - RESISTIVITY OF MUD FILTRATE
SUFT.C        15                   : SUFT         - SURFACE TEMPERATURE
~A  DEPTH     RESD     PHID     PHIN       GR      CAL
# ...
  403.000    3.178    0.310    0.422   81.423  165.868
  403.250    3.137    0.314    0.374   77.291  165.941
  403.500    3.107    0.319    0.350   67.020  165.701
  403.750    3.072    0.312    0.338   61.171  165.878
  404.000    3.015    0.304    0.351   64.894  165.639
  404.250    2.952    0.296    0.358   66.289  165.601
  404.500    2.914    0.307    0.351   65.041  165.577
  404.750    2.870    0.324    0.348   63.423  165.540
  405.000    2.816    0.317    0.330   62.303  165.002
  405.250    2.779    0.312    0.344   65.720  165.070
  405.500    2.758    0.309    0.395   66.743  164.730
  405.750    2.753    0.307    0.483   68.812  164.695
  406.000    2.743    0.310    0.514   74.129  164.768
  406.250    2.732    0.313    0.401   77.363  164.738
  406.500    2.702    0.315    0.352   76.302  165.318
  406.750    2.671    0.313    0.356   74.197  165.282
  407.000    2.626    0.307    0.372   78.289  165.346
  407.250    2.398    0.298    0.395   82.198  165.528
  407.500    2.223    0.291    0.350   86.412  166.411
  407.750    2.080    0.286    0.313   88.237  167.408
  408.000    1.925    0.285    0.283   91.162  169.523
  408.250    1.853    0.286    0.286   97.283  173.888
  408.500    1.832    0.275    0.404  103.584  177.946
  408.750    1.914    0.266    0.432  108.108  180.270
  409.000    2.133    0.275    0.382  111.526  181.565
  409.250    2.345    0.284    0.400  101.868  182.047
  409.500    2.622    0.290    0.440   95.712  175.877
  409.750    2.921    0.278    0.364   90.290  168.477
  410.000    3.163    0.270    0.346   81.433  165.580
  410.250    3.311    0.264    0.365   82.577  164.321
  410.500    3.452    0.260    0.388   91.091  163.981
  410.750    3.640    0.260    0.410   93.835  163.945
  411.000    3.592    0.269    0.428   84.914  163.712
  411.250    3.485    0.302    0.381   79.986  163.781
  411.500    3.381    0.301    0.354   82.175  164.054
  411.750    3.324    0.299    0.417   90.443  164.025
  412.000    3.243    0.299    0.431   83.606  164.605
  412.250    3.201    0.297    0.423   81.627  164.667
  412.500    3.262    0.300    0.435   79.519  164.845
  412.750    3.356    0.304    0.420   85.268  164.709
  413.000    3.453    0.306    0.392   87.829  164.472
  413.250    3.539    0.302    0.371   84.125  164.435
  413.500    3.614    0.292    0.347   83.308  164.615
  413.750    3.669    0.280    0.343   86.849  164.891
  414.000    3.718    0.274    0.393   90.082  165.165
  414.250    3.768    0.279    0.399   89.449  165.746
  414.500    3.826    0.282    0.366   86.729  166.124
  414.750    3.862    0.294    0.349   84.315  166.705
  415.000    3.929    0.302    0.336   82.947  167.176
  415.250    4.128    0.294    0.317   84.641  167.354
  415.500    4.263    0.284    0.291   85.545  167.629
  415.750    4.378    0.271    0.307   86.631  167.803
  416.000    4.436    0.262    0.349   87.717  167.873
  416.250    4.504    0.255    0.354   88.986  167.731
  416.500    4.538    0.253    0.356   90.869  167.703
  416.750    4.479    0.257    0.368   92.632  167.777
  417.000    4.329    0.261    0.370   88.315  168.253
  417.250    4.200    0.245    0.337   83.202  169.445
  417.500    4.082    0.237    0.322   91.099  170.135
  417.750    3.983    0.230    0.373   99.671  171.218
  418.000    3.945    0.225    0.409  104.197  171.702
  418.250    3.908    0.224    0.402  103.564  171.979
  418.500    3.931    0.227    0.369   93.846  172.051
  418.750    3.991    0.231    0.344   99.717  171.607
  419.000    4.075    0.231    0.336  102.339  170.861
  419.250    4.145    0.227    0.333   95.993  170.214
  419.500    4.201    0.227    0.327   93.708  169.356
  419.750    4.298    0.232    0.338   91.846  169.432
  420.000    4.405    0.236    0.357   88.264  169.395
  420.250    4.506    0.239    0.370   83.643  169.471
  420.500    4.558    0.241    0.382   80.371  168.716
  420.750    4.414    0.211    0.374   78.631  167.872
  421.000    4.266    0.184    0.298   76.281  167.120
  421.250    4.115    0.140    0.340   79.760  166.579
  421.500    3.985    0.215    0.373   94.657  166.343
  421.750    3.837    0.241    0.383   96.907  166.106
  422.000    3.822    0.249    0.399   90.504  165.869
  422.250    3.933    0.252    0.406   85.451  165.423
  422.500    4.116    0.251    0.380   88.929  165.088
  422.750    4.259    0.252    0.371   93.084  164.435
  423.000    4.407    0.253    0.389   96.996  164.304
  423.250    4.483    0.250    0.370   97.159  163.858
  423.500    4.526    0.244    0.352   93.148  164.139
  423.750    4.552    0.239    0.368   90.061  166.461
  424.000    4.492    0.230    0.339   87.217  167.553
  424.250    4.408    0.224    0.347   88.365  167.931
  424.500    4.292    0.228    0.385   91.966  167.485
  424.750    4.188    0.234    0.410   93.667  167.147
  425.000    4.125    0.237    0.442   95.243  166.086
  425.250    4.094    0.237    0.436   98.291  165.852
  425.500    4.094    0.232    0.403  100.662  165.824
  425.750    4.079    0.230    0.373  101.998  165.791
  426.000    4.033    0.232    0.382  103.698  166.474
  426.250    3.972    0.232    0.366   99.749  167.260
  426.500    3.950    0.228    0.340   93.223  168.969
  426.750    3.861    0.220    0.320   93.572  170.364
  427.000    3.825    0.219    0.359   98.158  171.151
  427.250    3.782    0.219    0.331  104.026  171.832
  427.500    3.753    0.216    0.310  106.589  172.521
  427.750    3.690    0.211    0.330  109.943  173.206
  428.000    3.607    0.209    0.352  107.593  174.299
  428.250    3.533    0.207    0.369  106.284  175.183
  428.500    3.421    0.207    0.368  106.573  175.666
  428.750    3.363    0.212    0.374  107.289  175.223
  429.000    3.257    0.215    0.377  107.086  175.291
  429.250    3.172    0.217    0.367  105.469  176.590
  429.500    3.100    0.221    0.347  101.521  178.293
  429.750    3.025    0.224    0.325  100.397  179.591
  430.000    2.985    0.226    0.317  104.061  179.869
  430.250    2.924    0.226    0.343  105.945  178.609
  430.500    2.869    0.222    0.349  105.310  177.755
  430.750    2.842    0.224    0.367  104.187  178.748
  431.000    2.891    0.234    0.371  104.475  179.844
  431.250    3.037    0.249    0.333  103.718  181.544
  431.500    3.149    0.262    0.350  101.183  181.927
  431.750    3.246    0.270    0.372   97.910  180.361
  432.000    3.295    0.268    0.344   96.726  172.960
  432.250    3.258    0.268    0.325   96.950  169.653
  432.500    3.161    0.271    0.350   94.414  167.366
  432.750    3.026    0.279    0.385   91.573  166.624
  433.000    2.958    0.295    0.396   86.826  166.286
  433.250    2.964    0.303    0.374   83.796  166.862
  433.500    3.038    0.273    0.345   84.025  167.755
  433.750    3.198    0.245    0.336   87.996  168.743
  434.000    3.391    0.234    0.358   86.565  169.633
  434.250    3.556    0.263    0.346   78.626  169.701
  434.500    3.771    0.283    0.302   73.083  168.649
  434.750    3.865    0.297    0.273   66.554  165.439
  435.000    3.888    0.130    0.241   62.057  163.766
  435.250    3.888    0.106    0.216   57.496  163.741
  435.500    3.772    0.099    0.226   57.903  163.813
  435.750    3.322    0.173    0.270   60.525  163.567
  436.000    3.127    0.301    0.314   62.594  163.438
  436.250    2.982    0.321    0.398   64.600  163.505
  436.500    2.904    0.318    0.391   69.981  163.479
  436.750    2.921    0.319    0.370   71.926  163.748
  437.000    2.966    0.322    0.401   69.081  164.125
  437.250    2.983    0.334    0.420   66.485  164.505
  437.500    3.011    0.343    0.437   66.835  164.873
  437.750    3.034    0.341    0.386   66.631  165.155
  438.000    3.242    0.341    0.345   65.504  165.327
  438.250    3.585    0.345    0.356   64.381  165.292
  438.500    4.196    0.355    0.364   62.582  165.573
  438.750    4.837    0.286    0.347   62.074  166.356
  439.000    5.378    0.116    0.151   62.911  167.349
  439.250    5.813    0.049    0.131   62.217  168.440
