~VERSION INFORMATION
 VERS.                 2.0:   CWLS LOG ASCII STANDARD -VERSION 2.0
 WRAP.                  NO:   ONE LINE PER DEPTH STEP
~WELL INFORMATION BLOCK
#MNEM.UNIT           DATA                    DESCRIPTION OF MNEMONIC
#---------    -------------------            -------------------------------
# Generated from Intellog Unique Number	CW_70_72/WELL/1053
NULL.         -999.25                        : NULL_VALUE
WELL.         LAND BANK ET AL MITSUE 11-03-0 : Well_name    - WELL              
LOC .         11-03-072-03W5                 : Location     - LOCATION          
UWI .         00/11-03-072-03W5/0            : Uwi          - UNIQUE WELL ID    
ENTR.         JAYE                           : Entered      - ENTERED BY        
SRVC.         SCHLUMBERGER                   : Scn          - SERVICE COMPANY   
DATE.         13 FEB 79                      : Date         - LOG DATE          
STRT.M        395                            : top_depth    - START DEPTH       
STOP.M        602                            : bot_depth    - STOP DEPTH        
STEP.M        0.25                           : increment    - STEP LENGTH       
~CURVE INFORMATION BLOCK
#MNEM UNIT       ERCB CURVE CODE    CURVE DESCRIPTION
#-----------   ------------------   ----------------------------------
DEPT.M        00 001 00 00         : DEPTH        - DEPTH                       
DPHI.V/V      00 890 00 00         : PHID         - DENSITY POROSITY (SANDSTONE)
NPHI.V/V      00 330 00 00         : PHIN         - NEUTRON POROSITY (SANDSTONE)
GR  .API      00 310 00 00         : GR           - GAMMA RAY                   
CALI.MM       00 280 01 00         : CAL          - CALIPER                     
ILD .OHMM     00 120 00 00         : RESD         - DEEP RESISTIVITY (DIL)      
~PARAMETER INFORMATION       
#MNEM.UNIT           DATA             DESCRIPTION OF MNEMONIC
#---------         -----------     ------------------------------
GL  .M        594.1                : gl           - GROUND LEVEL ELEVATION      
EREF.M        596.8                : kb           - ELEVATION OF DEPTH REFERENCE
DATM.M        594.1                : datum        - DATUM ELEVATION             
TDD .M        616                  : tdd          - TOTAL DEPTH DRILLER         
RUN .         ONE                  : Run          - RUN NUMBER                  
ENG .         JONES                : Engineer     - RECORDING ENGINEER          
WIT .         LOWTHER              : Witness      - WITNESSED BY                
BASE.         EDM                  : Branch       - HOME BASE OF LOGGING UNIT   
MUD .         FRESH GEL            : Mud_type     - MUD TYPE                    
MATR.         SANDSTONE            : Logunit      - NEUTRON MATRIX              
TMAX.C        30                   : BHT          - MAXIMUM RECORDED TEMPERATURE
BHTD.M        617.3                : BHTDEP       - MAXIMUM RECORDED TEMPERATURE
RMT .C        12                   : MDTP         - TEMPERATURE OF MUD          
MUDD.KG/M     1190                 : MWT          - MUD DENSITY                 
NEUT.         1                    : NEUTRON      - NEUTRON TYPE                
RESI.         0                    : RESIST       - RESISTIVITY TYPE            
RM  .OHMM     2.42                 : RM           - RESISTIVITY OF MUD          
RMC .OHMM     0                    : RMC          - RESISTIVITY OF MUD CAKE     
RMF .OHMM     4.21                 : RMF          - RESISTIVITY OF MUD FILTRATE 
SUFT.C        0                    : SUFT         - SURFACE TEMPERATURE         
~A  DEPTH     PHID     PHIN       GR      CAL     RESD
# ...
  504.500    0.240    0.425   86.801  163.483    2.098
  504.750    0.263    0.434   85.166  162.717    2.030
  505.000    0.276    0.432   83.966  161.646    1.975
  505.250    0.296    0.422   83.940  161.189    1.926
  505.500    0.319    0.416   84.347  161.553    1.888
  505.750    0.329    0.417   82.710  162.227    1.883
  506.000    0.324    0.418   81.451  162.593    1.898
  506.250    0.321    0.416   80.433  162.864    1.964
  506.500    0.320    0.418   80.285  163.117    2.060
  506.750    0.332    0.432   83.964  163.289    2.176
  507.000    0.315    0.442   93.640  163.657    2.324
  507.250    0.284    0.435   98.307  163.815    2.392
  507.500    0.286    0.421   96.983  163.670    2.358
  507.750    0.269    0.399   94.113  163.314    2.312
  508.000    0.231    0.377   92.788  163.473    2.238
  508.250    0.261    0.374   91.586  163.423    2.149
  508.500    0.265    0.384   90.075  163.386    2.084
  508.750    0.279    0.397   89.126  162.925    2.032
  509.000    0.302    0.410   87.114  161.127    1.988
  509.250    0.306    0.419   85.547  159.024    1.964
  509.500    0.293    0.434   83.111  158.262    1.951
  509.750    0.302    0.427   80.490  158.219    1.916
  510.000    0.314    0.414   78.115  158.484    1.879
  510.250    0.306    0.410   76.109  158.643    1.845
  510.500    0.301    0.396   74.538  159.099    1.847
  510.750    0.297    0.396   73.708  159.670    1.908
  511.000    0.296    0.403   73.184  160.045    2.008
  511.250    0.304    0.415   71.737  160.508    2.157
  511.500    0.306    0.424   68.683  160.583    2.296
  511.750    0.270    0.417   64.698  161.141    2.340
  512.000    0.251    0.397   62.512  161.211    2.269
  512.250    0.232    0.373   62.669  161.366    2.147
  512.500    0.219    0.343   65.544  161.732    1.939
  512.750    0.261    0.382   68.671  162.103    1.825
  513.000    0.315    0.400   72.042  162.680    1.810
  513.250    0.317    0.397   76.156  163.255    1.852
  513.500    0.324    0.399   73.718  163.915    1.917
  513.750    0.307    0.408   70.788  164.391    1.940
  514.000    0.312    0.413   68.970  164.453    1.916
  514.250    0.312    0.413   68.263  164.817    1.882
  514.500    0.298    0.409   68.174  164.767    1.845
  514.750    0.294    0.398   68.580  164.939    1.816
  515.000    0.297    0.400   69.541  164.993    1.793
  515.250    0.308    0.404   71.673  164.848    1.775
  515.500    0.323    0.398   71.957  164.910    1.763
  515.750    0.316    0.391   70.261  164.953    1.755
  516.000    0.322    0.394   69.617  164.803    1.766
  516.250    0.324    0.400   71.134  164.752    1.780
  516.500    0.322    0.405   73.394  164.722    1.798
  516.750    0.313    0.405   74.789  164.880    1.803
  517.000    0.302    0.399   74.514  165.243    1.808
  517.250    0.306    0.416   73.313  165.302    1.816
  517.500    0.313    0.418   72.112  165.566    1.824
  517.750    0.315    0.413   71.589  165.622    1.808
  518.000    0.312    0.411   70.882  165.575    1.796
  518.250    0.313    0.419   69.499  165.531    1.794
  518.500    0.319    0.415   68.852  165.488    1.796
  518.750    0.326    0.412   70.310  165.548    1.817
  519.000    0.324    0.415   73.122  165.200    1.849
  519.250    0.313    0.412   75.138  164.844    1.910
  519.500    0.313    0.409   76.838  164.393    2.041
  519.750    0.322    0.411   77.310  163.720    2.152
  520.000    0.331    0.409   76.228  163.061    2.029
  520.250    0.326    0.427   74.660  162.815    1.927
  520.500    0.333    0.434   72.965  162.660    1.865
  520.750    0.328    0.427   71.325  162.720    1.846
  521.000    0.325    0.411   70.563  162.779    1.843
  521.250    0.324    0.423   68.988  162.734    1.838
  521.500    0.317    0.408   68.096  162.691    1.853
  521.750    0.303    0.398   68.997  162.847    1.882
  522.000    0.308    0.406   72.247  162.807    1.923
  522.250    0.318    0.413   72.713  163.075    1.986
  522.500    0.318    0.413   71.265  163.439    2.063
  522.750    0.305    0.410   69.941  163.596    2.115
  523.000    0.287    0.419   69.913  163.759    2.198
  523.250    0.289    0.418   70.382  164.121    2.295
  523.500    0.305    0.405   71.094  164.397    2.398
  523.750    0.310    0.410   71.810  164.554    2.454
  524.000    0.312    0.426   72.460  164.719    2.442
  524.250    0.305    0.428   72.930  164.760    2.403
  524.500    0.304    0.419   74.016  165.029    2.326
  524.750    0.309    0.414   75.348  165.088    2.176
  525.000    0.312    0.412   77.422  165.041    2.075
  525.250    0.317    0.409   76.961  164.993    2.027
  525.500    0.317    0.401   73.350  165.254    1.998
  525.750    0.307    0.416   72.025  165.223    2.011
  526.000    0.301    0.422   71.381  165.382    2.050
  526.250    0.302    0.418   71.599  165.541    1.988
  526.500    0.303    0.410   72.127  165.698    2.034
  526.750    0.310    0.401   73.272  165.959    2.032
  527.000    0.299    0.394   74.914  166.427    2.015
  527.250    0.298    0.394   78.660  166.603    1.994
  527.500    0.300    0.400   82.343  166.649    1.988
  527.750    0.301    0.394   81.511  166.808    1.997
  528.000    0.301    0.394   78.829  166.969    2.067
  528.250    0.293    0.399   79.231  167.035    2.208
  528.500    0.285    0.395   80.996  167.298    2.385
  528.750    0.272    0.394   83.751  167.460    2.529
  529.000    0.248    0.397   87.495  167.619    2.661
  529.250    0.222    0.389   94.513  167.890    2.854
  529.500    0.225    0.389   95.042  167.850    3.015
  529.750    0.232    0.405   94.644  167.492    3.120
  530.000    0.239    0.420   95.420  168.272    3.157
  530.250    0.237    0.433   96.934  165.758    3.125
  530.500    0.226    0.435   98.454  160.664    3.058
  530.750    0.212    0.421   99.972  160.312    3.020
  531.000    0.208    0.428  101.861  162.840    3.006
  531.250    0.206    0.426  103.934  166.812    3.008
  531.500    0.217    0.416  104.404  166.048    3.022
  531.750    0.238    0.400  100.915  163.013    2.996
  532.000    0.223    0.399  100.519  161.526    2.976
  532.250    0.227    0.396   98.144  160.969    3.012
  532.500    0.234    0.385   97.499  160.710    3.054
  532.750    0.225    0.374   97.532  160.569    3.067
  533.000    0.245    0.390   94.294  161.140    3.087
  533.250    0.245    0.388   90.929  161.201    3.083
  533.500    0.231    0.381   93.929  161.772    3.091
  533.750    0.254    0.386  101.010  161.726    3.105
  534.000    0.252    0.405  105.370  160.856    3.108
  534.250    0.232    0.413  108.431  161.013    3.110
  534.500    0.227    0.412  106.857  161.691    3.101
  534.750    0.218    0.405   99.296  162.372    3.069
  535.000    0.198    0.397  104.336  162.739    3.066
  535.250    0.182    0.401  109.808  163.201    3.090
  535.500    0.213    0.405  108.237  163.472    3.193
  535.750    0.219    0.398  104.316  164.150    3.310
  536.000    0.211    0.394  107.378  164.924    3.394
  536.250    0.210    0.397  106.178  165.908    3.384
  536.500    0.220    0.403  103.554  166.272    3.367
  536.750    0.209    0.405  104.639  166.544    3.370
  537.000    0.201    0.412  107.330  166.698    3.398
  537.250    0.198    0.420  111.260  166.970    3.432
  537.500    0.188    0.425  114.262  166.924    3.473
  537.750    0.178    0.428  112.814  166.565    3.502
  538.000    0.192    0.424  109.511  166.318    3.512
  538.250    0.199    0.410  108.802  165.554    3.514
  538.500    0.200    0.412  108.158  164.686    3.536
  538.750    0.177    0.415  106.031  163.913    3.586
  539.000    0.187    0.417  104.707  163.561    3.629
  539.250    0.209    0.427  105.174  163.515    3.646
  539.500    0.221    0.418  109.905  163.887    3.669
  539.750    0.214    0.404  113.772  164.552    3.671
  540.000    0.207    0.415  112.753  165.239    3.641
  540.250    0.203    0.418  108.713  166.322    4.173
  540.500    0.198    0.411  103.556  166.893    4.645
  540.750    0.188    0.403   98.894  167.059    4.771
