~VERSION INFORMATION
 VERS.                 2.0:   CWLS LOG ASCII STANDARD -VERSION 2.0
 WRAP.                  NO:   ONE LINE PER DEPTH STEP
~WELL INFORMATION BLOCK
#MNEM.UNIT           DATA                    DESCRIPTION OF MNEMONIC
#---------    -------------------            -------------------------------
# Generated from Intellog Unique Number	CC_80_83/WELL/2369
NULL.         -999.25                        : NULL_VALUE
WELL.         BVX ET AL WATCHUSK             : Well_name    - WELL
LOC .         10-25-081-03W4                 : Location     - LOCATION          
UWI .         00/10-25-081-03W400            : Uwi          - UNIQUE WELL ID    
ENTR.         DW                             : Entered      - ENTERED BY        
SRVC.         SCHLUMBERGER                   : Scn          - SERVICE COMPANY   
DATE.         26 FEB 78                      : Date         - LOG DATE
STRT.M        106.68                         : top_depth    - START DEPTH       
STOP.M        265.174                        : bot_depth    - STOP DEPTH        
STEP.M        0.305                          : increment    - STEP LENGTH       
~CURVE INFORMATION BLOCK
#MNEM UNIT       ERCB CURVE CODE    CURVE DESCRIPTION
#-----------   ------------------   ----------------------------------
DEPT.M        00 001 00 00         : DEPTH        - DEPTH                       
DPHI.V/V      00 890 00 00         : PHID         - DENSITY POROSITY (LIMESTONE)
NPHI.V/V      00 330 00 00         : PHIN         - NEUTRON POROSITY (LIMESTONE)
GR  .API      00 310 00 00         : GR           - GAMMA RAY                   
ILD .OHMM     00 120 00 00         : RESD         - DEEP RESISTIVITY (DIL)      
~PARAMETER INFORMATION       
#MNEM.UNIT           DATA             DESCRIPTION OF MNEMONIC
#---------         -----------     ------------------------------
GL  .M        473.659              : gl           - GROUND LEVEL ELEVATION      
EREF.M        476.707              : kb           - ELEVATION OF DEPTH REFERENCE
DATM.M        476.707              : datum        - DATUM ELEVATION             
TDD .M        364.54               : tdd          - TOTAL DEPTH DRILLER         
RUN .         ONE                  : Run          - RUN NUMBER                  
ENG .         BILL                 : Engineer     - RECORDING ENGINEER          
WIT .         JIM                  : Witness      - WITNESSED BY                
MUD .         GEL                  : Mud_type     - MUD TYPE                    
MATR.         LIMESTONE            : Logunit      - NEUTRON MATRIX              
TMAX.C        21.1111              : BHT          - MAXIMUM RECORDED TEMPERATURE
BHTD.M        364.541              : BHTDEP       - MAXIMUM RECORDED TEMPERATURE
MATR.         1                    : LOGUNIT      - NEUTRON MATRIX              
RMT .C        25                   : MDTP         - TEMPERATURE OF MUD          
NEUT.         1                    : NEUTRON      - NEUTRON TYPE                
RESI.         0                    : RESIST       - RESISTIVITY TYPE            
RMC .OHMM     0.25                 : RMC          - RESISTIVITY OF MUD CAKE     
RMF .OHMM     0.25                 : RMF          - RESISTIVITY OF MUD FILTRATE 
SUFT.C        15                   : SUFT         - SURFACE TEMPERATURE         
~A  DEPTH     PHID     PHIN       GR     RESD
# ...
  159.715    0.257    0.401   59.512    8.868
  160.020    0.258    0.417   58.288    8.868
  160.324    0.258    0.422   56.444    8.868
  160.629    0.258    0.427   55.833    8.868
  160.934    0.255    0.420   57.712    8.868
  161.239    0.259    0.414   59.585    9.037
  161.544    0.254    0.414   61.456    8.537
  161.848    0.237    0.420   63.331    7.062
  162.153    0.211    0.436   70.165    6.183
  162.458    0.211    0.482   77.616    5.518
  162.763    0.225    0.504   86.312    4.924
  163.067    0.204    0.520   88.185    4.478
  163.372    0.198    0.525   90.056    4.394
  163.677    0.204    0.472   88.213    4.564
  163.982    0.222    0.488   83.270    4.740
  164.287    0.210    0.526   78.944    5.018
  164.591    0.214    0.534   77.718    5.518
  164.896    0.223    0.455   78.351    6.067
  165.201    0.219    0.469   82.704    6.302
  165.506    0.193    0.483   85.197    6.302
  165.811    0.189    0.474   85.833    5.953
  166.115    0.195    0.470   83.988    5.312
  166.420    0.199    0.489   81.520    5.114
  166.725    0.203    0.516   76.575    5.312
  167.030    0.211    0.527   71.014    5.841
  167.335    0.174    0.499   64.828    6.929
  167.639    0.057    0.331   56.783    8.065
  167.944    0.152    0.312   60.516    8.537
  168.249    0.208    0.367   74.171    8.377
  168.554    0.220    0.407   82.861    7.764
  168.859    0.216    0.438   84.733    7.062
  169.163    0.216    0.432   79.173    6.545
  169.468    0.220    0.431   74.846    6.302
  169.773    0.221    0.434   74.245    6.302
  170.078    0.221    0.450   74.874    6.302
  170.383    0.217    0.451   77.988    6.545
  170.687    0.221    0.454   79.241    6.545
  170.992    0.229    0.461   80.495    6.422
  171.297    0.219    0.478   83.608    6.302
  171.602    0.206    0.512   91.063    6.067
  171.907    0.182    0.496   97.897    5.841
  172.211    0.182    0.481   93.570    5.731
  172.516    0.192    0.515   86.145    5.623
  172.821    0.197    0.545   91.740    5.212
  173.126    0.191    0.567   96.712    4.831
  173.430    0.186    0.549   96.730    4.478
  173.735    0.186    0.500   97.361    4.394
  174.040    0.188    0.525  101.095    4.073
  174.345    0.192    0.539  104.208    4.073
  174.650    0.198    0.548   95.542    4.073
  174.954    0.207    0.551   88.119    4.073
  175.259    0.213    0.548   93.712    3.996
  175.564    0.208    0.526   99.305    3.921
  175.869    0.198    0.529  106.137    3.634
  176.174    0.196    0.568  113.590    3.305
  176.478    0.194    0.575  108.647    3.369
  176.783    0.186    0.559  100.603    4.073
  177.088    0.178    0.491   95.039    4.924
  177.393    0.160    0.468   90.711    5.841
  177.698    0.125    0.449   86.386    6.799
  178.002    0.169    0.451   95.080    7.062
  178.307    0.183    0.455   99.434    7.197
  178.612    0.187    0.458   96.352    7.197
  178.917    0.194    0.457   91.405    7.197
  179.222    0.187    0.442   85.839    6.799
  179.526    0.167    0.426   88.335    5.841
  179.831    0.169    0.445   92.689    4.564
  180.136    0.210    0.500   93.941    4.230
  180.441    0.200    0.506   90.856    4.073
  180.746    0.173    0.485   85.294    4.230
  181.050    0.204    0.470   86.548    4.478
  181.355    0.207    0.477   87.803    4.924
  181.660    0.171    0.471   88.432    5.414
  181.965    0.158    0.459   90.930    6.183
  182.270    0.152    0.461   90.941    6.545
  182.574    0.176    0.448   89.714    6.929
  182.879    0.180    0.459   92.832    6.929
  183.184    0.176    0.455   93.464    6.929
  183.489    0.197    0.443   87.898    6.929
  183.793    0.227    0.425   84.817    6.671
  184.098    0.229    0.423   84.207    6.422
  184.403    0.181    0.434   87.948    5.953
  184.708    0.169    0.447   89.196    5.312
  185.013    0.219    0.505   92.313    4.831
  185.317    0.233    0.521   91.084    3.566
  185.622    0.246    0.555   85.520    2.950
  185.927    0.243    0.571   80.573    2.487
  186.232    0.233    0.584   73.775    2.394
  186.537    0.238    0.590   73.163    2.305
  186.841    0.229    0.593   82.479    2.394
  187.146    0.224    0.574   87.450    2.583
  187.451    0.208    0.528   86.846    2.840
  187.756    0.178    0.494   82.518    3.243
  188.061    0.139    0.445   78.819    3.996
  188.365    0.131    0.468   81.931    4.651
  188.670    0.156    0.488   85.046    5.414
  188.975    0.179    0.491   85.054    5.841
  189.280    0.183    0.473   85.072    6.067
  189.585    0.206    0.438   85.084    6.067
  189.889    0.196    0.433   89.438    5.623
  190.194    0.162    0.434   94.409    5.312
  190.499    0.185    0.452   96.284    4.651
  190.804    0.195    0.474  100.640    3.921
  191.109    0.190    0.497  104.992    3.704
  191.413    0.207    0.539  106.247    3.369
  191.718    0.169    0.528  100.059    3.305
  192.023    0.169    0.513   92.018    3.433
  192.328    0.180    0.517   87.071    3.704
  192.633    0.180    0.535   87.087    3.847
  192.937    0.178    0.512   92.679    3.847
  193.242    0.199    0.478   96.418    3.847
  193.547    0.180    0.513   95.810    3.775
  193.852    0.177    0.523   98.925    3.566
  194.156    0.186    0.515  102.659    3.499
  194.461    0.187    0.513  105.148    3.433
  194.766    0.186    0.554  107.022    3.775
  195.071    0.159    0.529  103.318    3.996
  195.376    0.133    0.498   96.513    4.651
  195.680    0.159    0.466   91.568    5.018
  195.985    0.182    0.446   88.485    5.114
  196.290    0.139    0.434   89.737    5.312
  196.595    0.141    0.483   92.237    5.114
  196.900    0.119    0.479   92.867    5.312
  197.204    0.092    0.460   90.400    5.518
  197.509    0.125    0.416   83.594    5.623
  197.814    0.152    0.421   78.650    5.312
  198.119    0.166    0.425   71.847    4.831
  198.424    0.182    0.421   61.940    3.996
  198.728    0.219    0.433   48.937    3.243
  199.033    0.239    0.428   44.612    3.064
  199.338    0.250    0.428   40.908    2.894
  199.643    0.258    0.415   37.827    2.786
  199.948    0.254    0.412   38.463    2.683
  200.252    0.253    0.420   40.336    2.683
  200.557    0.256    0.422   42.827    2.683
  200.862    0.253    0.426   44.697    2.683
  201.167    0.251    0.422   47.815    2.840
  201.472    0.238    0.416   51.545    2.950
  201.776    0.226    0.410   62.097    3.123
  202.081    0.215    0.411   82.569    3.305
  202.386    0.195    0.440   88.783    3.704
  202.691    0.175    0.434   91.897    4.151
  202.996    0.142    0.421   96.868    4.651
  203.300    0.116    0.411  103.082    5.114
  203.605    0.126    0.412  101.236    5.414
  203.910    0.132    0.421   95.670    5.518
  204.215    0.127    0.423   97.545    5.312
  204.520    0.115    0.427  106.238    5.312
  204.824    0.112    0.432  110.594    5.312
  205.129    0.113    0.441  110.608    5.312
  205.434    0.117    0.449  109.385    5.212
  205.739    0.118    0.449  101.336    5.114
  206.043    0.126    0.436   91.431    4.394
  206.348    0.151    0.418   80.288    3.847
  206.653    0.182    0.370   66.665    3.634
  206.958    0.195    0.383   61.722    3.064
  207.263    0.217    0.371   59.254    2.840
  207.567    0.206    0.347   53.072    2.583
  207.872    0.204    0.346   49.367    2.534
  208.177    0.205    0.373   49.379    2.534
  208.482    0.209    0.392   49.393    2.534
  208.787    0.207    0.352   51.888    2.786
  209.091    0.183    0.327   64.919    2.894
  209.396    0.129    0.319   77.333    3.369
  209.701    0.134    0.362   76.112    3.433
  210.006    0.161    0.374   71.162    3.369
  210.311    0.185    0.341   48.859    3.123
  210.615    0.203    0.354   40.816    2.786
  210.920    0.222    0.369   37.730    2.487
  211.225    0.237    0.353   39.603    2.440
  211.530    0.201    0.347   48.915    2.349
  211.835    0.182    0.356   47.693    2.349
  212.139    0.196    0.357   39.028    2.394
  212.444    0.203    0.342   35.324    2.394
