~VERSION INFORMATION
 VERS.                 2.0:   CWLS LOG ASCII STANDARD -VERSION 2.0
 WRAP.                  NO:   ONE LINE PER DEPTH STEP
~WELL INFORMATION BLOCK
#MNEM.UNIT           DATA                    DESCRIPTION OF MNEMONIC
#---------    -------------------            -------------------------------
# Generated from Intellog Unique Number	CW_70_72/WELL/1069
NULL.         -999.25                        : NULL_VALUE
WELL.         NORCEN ET AL BLANCHE 14-35     : Well_name    - WELL              
LOC .         14-35-072-02W5                 : Location     - LOCATION          
UWI .         00/14-35-072-02W5/0            : Uwi          - UNIQUE WELL ID    
ENTR.         JAYE                           : Entered      - ENTERED BY        
SRVC.         COMPUTALOG                     : Scn          - SERVICE COMPANY   
DATE.         6 JAN 86                       : Date         - LOG DATE          
STRT.M        375                            : top_depth    - START DEPTH       
STOP.M        615                            : bot_depth    - STOP DEPTH        
STEP.M        0.25                           : increment    - STEP LENGTH       
~CURVE INFORMATION BLOCK
#MNEM UNIT       ERCB CURVE CODE    CURVE DESCRIPTION
#-----------   ------------------   ----------------------------------
DEPT.M        00 001 00 00         : DEPTH        - DEPTH                       
DPHI.V/V      00 890 00 00         : PHID         - DENSITY POROSITY (SANDSTONE)
NPHI.V/V      00 330 00 00         : PHIN         - NEUTRON POROSITY (SANDSTONE)
CALI.MM       00 280 01 00         : CAL          - CALIPER                     
GR  .API      00 310 00 00         : GR           - GAMMA RAY                   
ILD .OHMM     00 120 00 00         : RESD         - DEEP RESISTIVITY (DIL)      
~PARAMETER INFORMATION       
#MNEM.UNIT           DATA             DESCRIPTION OF MNEMONIC
#---------         -----------     ------------------------------
GL  .M        587.75               : gl           - GROUND LEVEL ELEVATION      
EREF.M        591.25               : kb           - ELEVATION OF DEPTH REFERENCE
DATM.M        587.75               : datum        - DATUM ELEVATION             
TDD .M        628                  : tdd          - TOTAL DEPTH DRILLER         
RUN .         ONE                  : Run          - RUN NUMBER                  
ENG .         CALDERWOOD           : Engineer     - RECORDING ENGINEER          
WIT .         HUGHES               : Witness      - WITNESSED BY                
BASE.         EDM                  : Branch       - HOME BASE OF LOGGING UNIT   
MUD .         GEL CHEM             : Mud_type     - MUD TYPE                    
MATR.         SANDSTONE            : Logunit      - NEUTRON MATRIX              
TMAX.C        50                   : BHT          - MAXIMUM RECORDED TEMPERATURE
BHTD.M        633.1                : BHTDEP       - MAXIMUM RECORDED TEMPERATURE
RMT .C        15.6                 : MDTP         - TEMPERATURE OF MUD          
MUDD.KG/M     1170                 : MWT          - MUD DENSITY                 
NEUT.         1                    : NEUTRON      - NEUTRON TYPE                
RESI.         0                    : RESIST       - RESISTIVITY TYPE            
RM  .OHMM     4                    : RM           - RESISTIVITY OF MUD          
RMC .OHMM     5                    : RMC          - RESISTIVITY OF MUD CAKE     
RMF .OHMM     4.8                  : RMF          - RESISTIVITY OF MUD FILTRATE 
SUFT.C        0                    : SUFT         - SURFACE TEMPERATURE         
~A  DEPTH     PHID     PHIN      CAL       GR     RESD
  375.000    0.186    0.479  203.285  115.568    2.712
  375.250    0.173    0.481  208.552  111.008    2.665
  375.500    0.164    0.472  212.108  104.962    2.648
  375.750    0.176    0.459  215.668  107.366    2.651
  376.000    0.178    0.466  216.343  112.028    2.669
  376.250    0.176    0.478  216.270  113.657    2.692
  376.500    0.175    0.481  217.153  116.253    2.706
  376.750    0.177    0.475  218.254  119.432    2.720
  377.000    0.181    0.466  218.606  117.836    2.723
  377.250    0.188    0.465  218.318  108.439    2.731
  377.500    0.192    0.464  217.923  102.458    2.755
  377.750    0.195    0.465  217.849  106.410    2.785
  378.000    0.190    0.470  218.414  113.199    2.814
  378.250    0.182    0.459  218.556  111.927    2.855
  378.500    0.179    0.447  218.372  109.302    2.903
  378.750    0.186    0.450  217.867  109.318    2.932
  379.000    0.186    0.465  215.660  106.628    3.003
  379.250    0.184    0.431  211.955  106.000    3.128
  379.500    0.177    0.392  207.926  103.049    3.327
  379.750    0.195    0.380  201.875   89.073    3.518
  380.000    0.206    0.386  195.494   78.191    3.841
  380.250    0.220    0.378  189.971   67.440    4.210
  380.500    0.229    0.367  188.941   64.553    4.478
  380.750    0.224    0.367  189.829   65.539    4.603
  381.000    0.216    0.388  191.792   70.136    4.429
  381.250    0.205    0.407  193.309   70.670    4.112
  381.500    0.194    0.418  196.330   73.008    3.825
  381.750    0.185    0.424  199.563   76.895    3.459
  382.000    0.180    0.433  204.725   84.137    3.212
  382.250    0.200    0.442  207.956   86.216    2.949
  382.500    0.218    0.458  211.301   85.525    2.737
  382.750    0.232    0.480  213.147   86.190    2.498
  383.000    0.247    0.497  209.443   87.881    2.320
  383.250    0.250    0.496  202.747   92.542    2.472
  383.500    0.255    0.444  194.665   85.659    2.867
  383.750    0.256    0.423  190.314   78.262    3.214
  384.000    0.253    0.406  188.959   72.216    3.631
  384.250    0.252    0.398  188.777   64.946    3.905
  384.500    0.253    0.391  189.026   61.932    4.256
  384.750    0.248    0.386  189.488   63.500    4.408
  385.000    0.241    0.371  190.475   65.772    4.472
  385.250    0.252    0.386  190.828   69.466    4.452
  385.500    0.269    0.399  191.073   70.385    4.474
  385.750    0.258    0.409  191.964   64.277    4.644
  386.000    0.236    0.417  193.167   60.037    4.809
  386.250    0.214    0.419  194.694   54.960    4.924
  386.500    0.199    0.421  195.260   53.108    4.931
  386.750    0.207    0.426  195.618   54.352    4.845
  387.000    0.215    0.432  195.967   59.142    4.671
  387.250    0.222    0.424  196.534   65.157    4.428
  387.500    0.218    0.420  194.536   69.236    4.220
  387.750    0.205    0.433  194.142   73.251    4.061
  388.000    0.190    0.443  197.591   79.204    3.864
  388.250    0.200    0.447  201.680   85.282    3.739
  388.500    0.196    0.436  203.637   91.814    3.674
  388.750    0.189    0.424  204.948   96.151    3.749
  389.000    0.179    0.415  208.504   99.135    3.927
  389.250    0.167    0.402  208.322   97.799    4.137
  389.500    0.169    0.383  205.689  101.363    4.325
  389.750    0.177    0.400  203.371  102.348    4.505
  390.000    0.184    0.425  200.838  101.269    4.640
  390.250    0.184    0.429  197.455  102.125    4.593
  390.500    0.191    0.420  194.067  102.337    4.462
  390.750    0.220    0.408  192.075  101.063    4.278
  391.000    0.236    0.391  193.064   95.406    4.078
  391.250    0.225    0.382  195.230   80.913    3.873
  391.500    0.212    0.409  198.679   72.417    3.664
  391.750    0.205    0.448  203.410   74.243    3.371
  392.000    0.211    0.467  206.862   80.772    3.219
  392.250    0.208    0.474  207.752   86.787    3.192
  392.500    0.200    0.441  205.537   93.769    3.396
  392.750    0.187    0.419  202.367  100.818    3.550
  393.000    0.163    0.417  199.417  105.671    3.811
  393.250    0.167    0.429  198.160  106.077    4.083
  393.500    0.197    0.417  196.802   97.129    4.408
  393.750    0.212    0.402  194.911   91.084    4.688
  394.000    0.235    0.401  193.023   85.299    4.820
  394.250    0.240    0.399  192.732   81.381    4.825
  394.500    0.228    0.396  194.907   76.110    4.687
  394.750    0.212    0.388  197.398   72.001    4.311
  395.000    0.196    0.377  200.092   71.372    3.876
  395.250    0.181    0.393  206.212   76.551    3.479
  395.500    0.164    0.416  211.691   87.725    3.134
  395.750    0.143    0.448  213.112   95.996    2.931
  396.000    0.123    0.469  207.058  104.721    3.037
  396.250    0.148    0.473  201.854  109.897    3.297
  396.500    0.166    0.458  199.115  109.787    3.600
  396.750    0.172    0.408  198.394  105.417    3.945
  397.000    0.182    0.381  198.225   99.181    4.188
  397.250    0.208    0.348  197.829   92.297    4.209
  397.500    0.227    0.322  197.318   81.286    3.908
  397.750    0.256    0.321  195.426   69.566    3.580
  398.000    0.278    0.329  193.001   55.074    3.256
  398.250    0.292    0.342  191.437   47.867    3.092
  398.500    0.297    0.349  191.680   43.371    3.004
  398.750    0.294    0.349  192.676   40.939    3.019
  399.000    0.285    0.339  193.670   41.087    3.098
  399.250    0.270    0.332  194.234   44.457    3.227
  399.500    0.256    0.337  194.485   51.954    3.392
  399.750    0.255    0.335  194.728   58.871    3.601
  400.000    0.253    0.329  195.080   62.695    3.815
  400.250    0.243    0.329  195.432   68.193    4.035
  400.500    0.227    0.338  195.994   70.016    4.226
  400.750    0.202    0.353  196.780   66.293    4.445
  401.000    0.177    0.357  197.558   68.763    4.577
  401.250    0.197    0.356  198.441   76.906    4.643
  401.500    0.213    0.353  198.899   83.695    4.614
  401.750    0.222    0.352  200.543   87.000    4.576
  402.000    0.215    0.357  201.747   84.310    4.504
  402.250    0.195    0.371  202.846   82.779    4.425
  402.500    0.190    0.386  204.158   88.021    4.266
  402.750    0.187    0.377  205.369   95.648    4.029
  403.000    0.180    0.372  206.141  102.694    3.748
  403.250    0.173    0.374  206.815  100.973    3.319
  403.500    0.171    0.405  207.274   99.892    2.832
  403.750    0.173    0.440  207.415  108.294    2.489
  404.000    0.174    0.485  207.669  111.213    2.233
  404.250    0.182    0.507  207.592  114.455    2.097
  404.500    0.199    0.516  207.405  119.311    2.343
  404.750    0.210    0.500  207.328  123.906    2.553
  405.000    0.203    0.466  207.361  120.828    2.793
  405.250    0.198    0.446  207.180  116.525    3.027
  405.500    0.197    0.440  208.277  112.286    3.207
  405.750    0.198    0.431  209.911  108.692    3.278
  406.000    0.228    0.422  201.827  101.873    3.345
  406.250    0.255    0.414  197.059   82.607    3.412
  406.500    0.237    0.416  197.626   70.114    3.481
  406.750    0.225    0.406  198.084   67.166    3.579
  407.000    0.241    0.405  198.328   73.439    3.714
  407.250    0.249    0.410  198.677   75.648    3.861
  407.500    0.250    0.410  198.926   67.926    4.045
  407.750    0.248    0.406  199.168   64.915    4.173
  408.000    0.239    0.402  199.414   63.899    4.170
  408.250    0.226    0.400  199.453   64.046    4.074
  408.500    0.219    0.398  199.589   66.320    3.944
  408.750    0.239    0.394  199.732   72.208    3.844
  409.000    0.247    0.389  199.983   81.768    3.693
  409.250    0.249    0.396  199.682   80.498    3.528
  409.500    0.260    0.393  199.620   78.193    3.420
  409.750    0.275    0.395  199.324   76.791    3.322
  410.000    0.273    0.402  198.606   73.648    3.276
  410.250    0.255    0.405  198.639   66.315    3.250
  410.500    0.217    0.407  199.741   66.979    3.253
  410.750    0.193    0.414  200.518   70.863    3.325
  411.000    0.182    0.422  200.868   80.102    3.464
  411.250    0.193    0.427  198.770   88.956    3.609
