~VERSION INFORMATION
 VERS.                 2.0:   CWLS LOG ASCII STANDARD -VERSION 2.0
 WRAP.                  NO:   ONE LINE PER DEPTH STEP
~WELL INFORMATION BLOCK
#MNEM.UNIT           DATA                    DESCRIPTION OF MNEMONIC
#---------    -------------------            -------------------------------
# Generated from Intellog Unique Number	CS_71_72/WELL/857
WELL.         AEC IPIATIK GRIST              : Well_name    - WELL
LOC .         00/10-17-071-06W4/0            : Location     - LOCATION
UWI .         00/10-17-071-06W4/0            : Uwi          - UNIQUE WELL ID
ENTR.         SP                             : Entered      - ENTERED BY
SRVC.         SCHLUMBERGER                   : Scn          - SERVICE COMPANY
STRT.M        300                            : top_depth    - START DEPTH
STOP.M        515                            : bot_depth    - STOP DEPTH
STEP.M        0.25                           : increment    - STEP LENGTH
 NULL. -999.2500:NULL Value
~CURVE INFORMATION BLOCK
#MNEM UNIT       ERCB CURVE CODE    CURVE DESCRIPTION
#-----------   ------------------   ----------------------------------
DEPT.M        00 001 00 00         : DEPTH        - DEPTH
ILD .OHMM     00 120 00 00         : RESD         - DEEP RESISTIVITY (DIL)
DPHI.V/V      00 890 00 00         : PHID         - DENSITY POROSITY (LIMESTONE)
NPHI.V/V      00 330 00 00         : PHIN         - NEUTRON POROSITY (LIMESTONE)
GR  .API      00 310 00 00         : GR           - GAMMA RAY
~PARAMETER INFORMATION
#MNEM.UNIT           DATA             DESCRIPTION OF MNEMONIC
#---------         -----------     ------------------------------
GL  .M        653                  : gl           - GROUND LEVEL ELEVATION
EREF.M        657.2                : kb           - ELEVATION OF DEPTH REFERENCE
DATM.M        653                  : datum        - DATUM ELEVATION
TDD .M        615                  : tdd          - TOTAL DEPTH DRILLER
RUN .         ONE                  : Run          - RUN NUMBER
ENG .         BILL                 : Engineer     - RECORDING ENGINEER
WIT .         JIM                  : Witness      - WITNESSED BY
MUD .         GEL                  : Mud_type     - MUD TYPE
MATR.         LIMESTONE            : Logunit      - NEUTRON MATRIX
TMAX.C        16                   : BHT          - MAXIMUM RECORDED TEMPERATURE
BHTD.M        615                  : BHTDEP       - MAXIMUM RECORDED TEMPERATURE
MATR.         1                    : LOGUNIT      - NEUTRON MATRIX
RMT .C        25                   : MDTP         - TEMPERATURE OF MUD
NEUT.         1                    : NEUTRON      - NEUTRON TYPE
RESI.         0                    : RESIST       - RESISTIVITY TYPE
RMC .OHMM     0.25                 : RMC          - RESISTIVITY OF MUD CAKE
RMF .OHMM     0.25                 : RMF          - RESISTIVITY OF MUD FILTRATE
SUFT.C        15                   : SUFT         - SURFACE TEMPERATURE
~A  DEPTH     RESD     PHID     PHIN       GR
# ...
  387.000    2.422    0.213    0.556  109.574
  387.250    2.470    0.224    0.552  108.372
  387.500    2.590    0.236    0.551  106.255
  387.750    2.819    0.240    0.564  103.653
  388.000    3.401    0.232    0.595   99.470
  388.250    3.799    0.234    0.586   96.681
  388.500    4.590    0.244    0.499   94.258
  388.750    5.186    0.237    0.481   92.327
  389.000    5.699    0.227    0.472   91.792
  389.250    5.942    0.227    0.473   90.835
  389.500    6.059    0.235    0.476   88.784
  389.750    6.075    0.247    0.472   86.606
  390.000    6.081    0.263    0.472   84.244
  390.250    6.098    0.260    0.481   81.459
  390.500    6.091    0.256    0.495   79.282
  390.750    6.062    0.254    0.501   78.324
  391.000    6.023    0.263    0.490   78.523
  391.250    5.972    0.275    0.473   80.062
  391.500    5.856    0.270    0.475   81.541
  391.750    5.785    0.258    0.469   82.837
  392.000    5.725    0.257    0.456   83.954
  392.250    5.687    0.252    0.455   84.945
  392.500    5.671    0.227    0.460   87.276
  392.750    5.656    0.212    0.459   88.936
  393.000    5.670    0.198    0.465   89.808
  393.250    5.708    0.190    0.479   89.273
  393.500    5.712    0.196    0.505   89.838
  393.750    5.717    0.211    0.510   91.683
  394.000    5.722    0.209    0.494   92.857
  394.250    5.716    0.202    0.493   91.719
  394.500    5.678    0.206    0.498   91.490
  394.750    5.610    0.207    0.499   93.030
  395.000    5.481    0.182    0.491   94.571
  395.250    5.304    0.183    0.482   95.501
  395.500    5.067    0.192    0.487   96.248
  395.750    4.840    0.181    0.482   96.144
  396.000    4.554    0.172    0.472   95.857
  396.250    4.270    0.185    0.468   95.205
  396.500    3.952    0.187    0.476   94.858
  396.750    3.671    0.205    0.495   95.119
  397.000    3.423    0.229    0.509   95.373
  397.250    3.227    0.231    0.518   95.826
  397.500    3.083    0.237    0.536   95.529
  397.750    3.001    0.221    0.534   94.941
  398.000    2.937    0.258    0.514   93.917
  398.250    2.906    0.255    0.499   88.451
  398.500    2.882    0.227    0.489   89.197
  398.750    2.869    0.227    0.521   91.773
  399.000    2.865    0.235    0.548   94.775
  399.250    2.863    0.236    0.557   95.465
  399.500    2.919    0.250    0.547   94.870
  399.750    3.038    0.264    0.528   96.412
  400.000    3.210    0.272    0.527   99.107
  400.250    3.436    0.264    0.540  101.865
  400.500    3.719    0.258    0.521  102.126
  400.750    3.988    0.260    0.518   99.583
  401.000    4.229    0.264    0.502   94.971
  401.250    4.418    0.240    0.491   90.966
  401.500    4.530    0.234    0.489   88.915
  401.750    4.534    0.257    0.494   88.746
  402.000    4.397    0.242    0.480   88.520
  402.250    4.263    0.221    0.491   88.353
  402.500    4.141    0.210    0.502   88.429
  402.750    4.061    0.222    0.500   88.631
  403.000    4.087    0.243    0.486   88.470
  403.250    4.498    0.253    0.476   88.236
  403.500    5.121    0.242    0.475   87.526
  403.750    5.830    0.241    0.478   86.258
  404.000    6.056    0.236    0.469   80.182
  404.250    5.774    0.206    0.451   75.872
  404.500    5.256    0.187    0.436   75.644
  404.750    4.973    0.200    0.468   78.955
  405.000    4.698    0.240    0.500   80.553
  405.250    4.496    0.270    0.505   80.570
  405.500    4.360    0.280    0.498   79.309
  405.750    4.290    0.291    0.496   78.046
  406.000    4.246    0.300    0.490   77.147
  406.250    4.218    0.302    0.479   76.980
  406.500    4.223    0.289    0.468   73.341
  406.750    4.202    0.284    0.465   71.530
  407.000    4.253    0.273    0.473   73.314
  407.250    4.321    0.268    0.481   74.793
  407.500    4.422    0.280    0.503   75.426
  407.750    4.535    0.285    0.500   74.585
  408.000    4.616    0.279    0.478   74.785
  408.250    4.671    0.286    0.485   76.203
  408.500    4.737    0.291    0.498   78.720
  408.750    4.812    0.279    0.489   81.299
  409.000    4.910    0.267    0.477   82.713
  409.250    4.921    0.255    0.485   84.376
  409.500    4.953    0.251    0.474   84.082
  409.750    4.965    0.253    0.451   78.920
  410.000    4.989    0.259    0.433   82.046
  410.250    5.002    0.242    0.421   85.052
  410.500    5.007    0.223    0.418   86.648
  410.750    5.058    0.212    0.440   89.171
  411.000    5.072    0.235    0.463   90.221
  411.250    5.104    0.243    0.476   90.232
  411.500    5.147    0.222    0.474   87.445
  411.750    5.151    0.212    0.458   86.731
  412.000    5.117    0.219    0.440   87.295
  412.250    4.990    0.228    0.438   87.801
  412.500    4.705    0.224    0.451   88.308
  412.750    4.452    0.220    0.463   88.627
  413.000    4.175    0.242    0.460   88.216
  413.250    3.966    0.250    0.464   85.795
  413.500    3.845    0.241    0.491   87.091
  413.750    3.722    0.255    0.509   89.119
  414.000    3.509    0.270    0.523   89.989
  414.250    3.199    0.277    0.520   87.873
  414.500    2.842    0.269    0.489   85.025
  414.750    2.543    0.227    0.498   86.142
  415.000    2.340    0.236    0.512   87.862
  415.250    2.227    0.254    0.522   90.316
  415.500    2.172    0.266    0.532   93.562
  415.750    2.125    0.248    0.545   95.528
  416.000    2.088    0.237    0.557   95.424
  416.250    2.074    0.230    0.572   95.135
  416.500    2.096    0.232    0.561   95.280
  416.750    2.109    0.240    0.556   95.841
  417.000    2.135    0.237    0.543   96.769
  417.250    2.181    0.221    0.546   98.006
  417.500    2.270    0.206    0.513   99.423
  417.750    2.380    0.199    0.501   98.709
  418.000    2.548    0.208    0.517   97.567
  418.250    2.847    0.212    0.538   97.950
  418.500    3.133    0.216    0.559   95.833
  418.750    3.695    0.227    0.534   90.488
  419.000    4.441    0.224    0.490   87.765
  419.250    4.998    0.227    0.493   85.710
  419.500    5.440    0.255    0.494   84.567
  419.750    5.769    0.254    0.460   83.369
  420.000    5.861    0.222    0.442   82.718
  420.250    5.811    0.204    0.438   82.370
  420.500    5.678    0.185    0.440   82.751
  420.750    5.567    0.176    0.442   83.005
  421.000    5.398    0.169    0.445   83.328
  421.250    5.175    0.185    0.448   84.504
  421.500    4.935    0.180    0.456   85.677
  421.750    4.758    0.191    0.470   85.875
  422.000    4.657    0.186    0.485   85.832
  422.250    4.678    0.195    0.498   86.093
  422.500    5.189    0.212    0.507   86.718
  422.750    5.884    0.213    0.491   87.589
  423.000    6.599    0.203    0.473   88.033
  423.250    7.223    0.201    0.464   88.414
  423.500    7.573    0.193    0.456   87.820
  423.750    7.665    0.181    0.456   86.496
  424.000    7.391    0.157    0.440   83.953
  424.250    6.815    0.098    0.416   81.533
  424.500    6.272    0.139    0.406   81.123
  424.750    5.750    0.174    0.426   81.689
  425.000    5.311    0.226    0.444   83.899
  425.250    5.102    0.214    0.446   86.293
  425.500    4.957    0.192    0.454   87.953
  425.750    4.842    0.221    0.472   89.920
  426.000    4.748    0.236    0.468   91.217
  426.250    4.699    0.230    0.453   91.904
  426.500    4.633    0.229    0.442   90.824
  426.750    4.578    0.238    0.434   89.013
  427.000    4.547    0.228    0.425   89.761
  427.250    4.483    0.217    0.427   90.815
  427.500    4.357    0.233    0.420   91.377
  427.750    4.280    0.222    0.413   88.530
  428.000    4.181    0.221    0.425   85.259
  428.250    4.092    0.233    0.439   82.714
  428.500    3.967    0.246    0.460   80.172
  428.750    3.712    0.262    0.490   78.546
  429.000    3.359    0.233    0.483   79.842
  429.250    2.907    0.199    0.444   81.442
  429.500    2.601    0.181    0.422   84.139
  429.750    2.398    0.216    0.469   85.983
  430.000    2.266    0.242    0.538   86.305
  430.250    2.226    0.244    0.563   87.420
