~VERSION INFORMATION
 VERS.                 2.0:   CWLS LOG ASCII STANDARD -VERSION 2.0
 WRAP.                  NO:   ONE LINE PER DEPTH STEP
~WELL INFORMATION BLOCK
#MNEM.UNIT           DATA                    DESCRIPTION OF MNEMONIC
#---------    -------------------            -------------------------------
# Generated from Intellog Unique Number	CS_71_72/WELL/891
WELL.         CAVALIER ENERGY INC            : Well_name    - WELL
LOC .         00/11-08-072-14W4/0            : Location     - LOCATION
UWI .         00/11-08-072-14W4/0            : Uwi          - UNIQUE WELL ID
ENTR.         SP                             : Entered      - ENTERED BY
SRVC.         SCHLUMBERGER                   : Scn          - SERVICE COMPANY
STRT.M        277.368                        : top_depth    - START DEPTH
STOP.M        481.368                        : bot_depth    - STOP DEPTH
STEP.M        0.25                           : increment    - STEP LENGTH
 NULL. -999.2500:NULL Value
~CURVE INFORMATION BLOCK
#MNEM UNIT       ERCB CURVE CODE    CURVE DESCRIPTION
#-----------   ------------------   ----------------------------------
DEPT.M        00 001 00 00         : DEPTH        - DEPTH
GR  .API      00 310 00 00         : GR           - GAMMA RAY
DPHI.V/V      00 890 00 00         : PHID         - DENSITY POROSITY (SANDSTONE)
NPHI.V/V      00 330 00 00         : PHIN         - NEUTRON POROSITY (SANDSTONE)
ILD .OHMM     00 120 00 00         : RESD         - DEEP RESISTIVITY (DIL)
~PARAMETER INFORMATION
#MNEM.UNIT           DATA             DESCRIPTION OF MNEMONIC
#---------         -----------     ------------------------------
GL  .M        606.552              : gl           - GROUND LEVEL ELEVATION
EREF.M        609.6                : kb           - ELEVATION OF DEPTH REFERENCE
DATM.M        606.552              : datum        - DATUM ELEVATION
TDD .M        482.194              : tdd          - TOTAL DEPTH DRILLER
RUN .         ONE                  : Run          - RUN NUMBER
ENG .         BILL                 : Engineer     - RECORDING ENGINEER
WIT .         JIM                  : Witness      - WITNESSED BY
MUD .         GEL                  : Mud_type     - MUD TYPE
MATR.         SANDSTONE            : Logunit      - NEUTRON MATRIX
TMAX.C        23.3333              : BHT          - MAXIMUM RECORDED TEMPERATURE
BHTD.M        482.194              : BHTDEP       - MAXIMUM RECORDED TEMPERATURE
MATR.         1                    : LOGUNIT      - NEUTRON MATRIX
RMT .C        25                   : MDTP         - TEMPERATURE OF MUD
NEUT.         1                    : NEUTRON      - NEUTRON TYPE
RESI.         0                    : RESIST       - RESISTIVITY TYPE
RMC .OHMM     0.25                 : RMC          - RESISTIVITY OF MUD CAKE
RMF .OHMM     0.25                 : RMF          - RESISTIVITY OF MUD FILTRATE
SUFT.C        15                   : SUFT         - SURFACE TEMPERATURE
~A  DEPTH       GR     PHID     PHIN     RESD
# ...
  320.868  112.315    0.232    0.510    5.415
  321.118  108.210    0.238    0.511    5.322
  321.368  101.518    0.223    0.493    5.113
  321.618   98.966    0.259    0.485    5.012
  321.868  100.692    0.248    0.508    4.933
  322.118  104.337    0.220    0.514    5.110
  322.368  103.385    0.210    0.485    5.371
  322.618   99.809    0.246    0.463    5.714
  322.868   95.885    0.238    0.454    5.997
  323.118   98.574    0.220    0.446    6.076
  323.368  102.506    0.229    0.440    6.216
  323.618  103.126    0.212    0.459    6.138
  323.868  100.590    0.232    0.478    6.046
  324.118   95.112    0.239    0.467    5.822
  324.368   92.412    0.241    0.465    5.802
  324.618   92.530    0.242    0.472    6.066
  324.868   91.236    0.241    0.485    6.835
  325.118   87.163    0.227    0.514    7.526
  325.368   77.422    0.228    0.474   10.576
  325.618   67.934    0.249    0.364   12.915
  325.868   56.008    0.216    0.243   14.201
  326.118   47.644    0.067    0.189   13.565
  326.368   51.937    0.038    0.150   12.128
  326.618   64.774    0.007    0.141   10.574
  326.868   74.219    0.010    0.251    8.549
  327.118   83.320    0.102    0.439    7.488
  327.368   88.677    0.155    0.485    6.997
  327.618   89.555    0.176    0.508    6.664
  327.868   89.549    0.201    0.504    6.425
  328.118   89.167    0.233    0.480    6.300
  328.368   91.933    0.220    0.489    6.255
  328.618   95.397    0.201    0.508    6.115
  328.868   98.643    0.168    0.505    6.059
  329.118  101.732    0.178    0.486    6.060
  329.368  100.765    0.211    0.505    6.059
  329.618  101.416    0.229    0.518    6.125
  329.868  100.995    0.231    0.499    6.222
  330.118   97.893    0.214    0.462    6.315
  330.368   90.646    0.238    0.452    6.379
  330.618   86.431    0.252    0.465    6.495
  330.868   80.303    0.256    0.464    6.624
  331.118   79.178    0.270    0.491    6.622
  331.368   80.845    0.279    0.502    6.622
  331.618   85.106    0.269    0.495    6.625
  331.868   90.136    0.252    0.494    6.491
  332.118   91.290    0.231    0.505    6.340
  332.368   90.205    0.215    0.503    5.924
  332.618   88.699    0.235    0.517    5.755
  332.868   90.423    0.225    0.550    5.500
  333.118   93.508    0.228    0.588    5.426
  333.368   94.382    0.223    0.534    5.615
  333.618   92.930    0.220    0.484    6.014
  333.868   91.287    0.228    0.480    6.337
  334.118   90.590    0.214    0.487    6.700
  334.368   88.352    0.214    0.479    6.868
  334.618   89.451    0.234    0.470    7.094
  334.868   92.388    0.250    0.466    7.127
  335.118   93.253    0.240    0.446    7.189
  335.368   90.454    0.208    0.432    7.180
  335.618   92.682    0.240    0.418    7.276
  335.868   95.574    0.235    0.437    7.267
  336.118   94.249    0.213    0.458    7.234
  336.368   91.231    0.210    0.479    7.092
  336.618   88.265    0.215    0.495    6.890
  336.868   82.499    0.224    0.511    6.639
  337.118   73.996    0.269    0.466    6.469
  337.368   69.434    0.312    0.456    6.422
  337.618   68.296    0.322    0.466    6.304
  337.868   70.607    0.314    0.478    6.312
  338.118   71.552    0.307    0.494    6.364
  338.368   73.415    0.313    0.502    6.404
  338.618   77.582    0.320    0.488    6.543
  338.868   81.004    0.303    0.492    6.638
  339.118   82.705    0.277    0.500    6.632
  339.368   78.576    0.255    0.528    6.638
  339.618   66.570    0.243    0.549    6.508
  339.868   55.356    0.283    0.517    6.470
  340.118   54.582    0.337    0.471    6.336
  340.368   58.376    0.324    0.447    6.232
  340.618   61.282    0.310    0.427    6.153
  340.868   64.190    0.307    0.423    6.077
  341.118   66.791    0.298    0.453    5.971
  341.368   66.244    0.293    0.483    5.837
  341.618   60.420    0.289    0.476    5.788
  341.868   56.044    0.312    0.452    5.742
  342.118   53.708    0.326    0.453    5.679
  342.368   52.428    0.335    0.460    5.585
  342.618   51.188    0.320    0.468    5.588
  342.868   51.910    0.313    0.459    5.513
  343.118   56.847    0.327    0.452    5.509
  343.368   57.908    0.337    0.446    5.600
  343.618   59.048    0.328    0.444    5.648
  343.868   59.655    0.339    0.444    5.783
  344.118   60.854    0.319    0.444    5.918
  344.368   62.123    0.304    0.444    6.024
  344.618   64.994    0.294    0.447    6.112
  344.868   66.903    0.287    0.456    6.239
  345.118   66.012    0.293    0.465    6.329
  345.368   65.226    0.308    0.475    6.322
  345.618   67.368    0.289    0.496    6.265
  345.868   68.183    0.258    0.483    6.074
  346.118   68.148    0.337    0.477    5.996
  346.368   69.067    0.325    0.471    6.006
  346.618   70.216    0.329    0.475    6.057
  346.868   70.590    0.319    0.530    6.244
  347.118   68.248    0.334    0.594    6.660
  347.368   65.292    0.311    0.500    6.840
  347.618   62.929    0.285    0.465    7.115
  347.868   61.895    0.214    0.416    7.245
  348.118   62.739    0.167    0.344    7.355
  348.368   67.193    0.150    0.397    7.221
  348.618   73.005    0.233    0.469    7.043
  348.868   76.556    0.279    0.478    6.863
  349.118   80.499    0.275    0.499    6.810
  349.368   85.644    0.288    0.481    6.716
  349.618   91.862    0.290    0.469    6.725
  349.868   94.001    0.280    0.481    6.725
  350.118   94.054    0.241    0.493    6.725
  350.368   90.593    0.246    0.503    6.726
  350.618   85.232    0.253    0.499    6.728
  350.868   81.156    0.245    0.481    6.745
  351.118   81.578    0.265    0.466    6.808
  351.368   83.236    0.238    0.452    6.808
  351.618   84.772    0.224    0.447    6.808
  351.868   84.745    0.213    0.440    6.801
  352.118   84.396    0.202    0.436    6.888
  352.368   84.856    0.199    0.428    6.971
  352.618   87.458    0.206    0.423    7.030
  352.868   88.320    0.218    0.441    7.045
  353.118   88.293    0.222    0.436    7.047
  353.368   86.699    0.215    0.424    6.922
  353.618   85.910    0.206    0.420    6.692
  353.868   85.963    0.200    0.431    6.650
  354.118   86.991    0.199    0.444    6.651
  354.368   87.100    0.212    0.450    6.655
  354.618   85.658    0.197    0.447    6.576
  354.868   82.419    0.175    0.457    6.497
  355.118   79.090    0.201    0.461    6.321
  355.368   74.760    0.219    0.457    6.187
  355.618   70.107    0.229    0.465    6.049
  355.868   65.547    0.221    0.481    6.008
  356.118   62.961    0.246    0.489    5.936
  356.368   67.703    0.279    0.485    5.850
  356.618   69.408    0.273    0.477    5.773
  356.868   70.734    0.257    0.493    5.784
  357.118   68.588    0.261    0.484    5.685
  357.368   63.134    0.270    0.464    5.698
  357.618   60.882    0.281    0.449    5.605
  357.868   63.911    0.285    0.442    5.600
  358.118   62.706    0.288    0.451    5.539
  358.368   61.473    0.294    0.457    5.454
  358.618   61.175    0.295    0.464    5.371
  358.868   61.554    0.294    0.470    5.327
  359.118   63.305    0.319    0.474    5.097
  359.368   64.239    0.307    0.484    4.974
  359.618   66.139    0.296    0.488    4.783
  359.868   71.199    0.301    0.486    4.609
  360.118   76.689    0.305    0.483    4.421
  360.368   84.100    0.298    0.508    4.456
  360.618   93.505    0.264    0.541    4.999
  360.868   96.720    0.226    0.563    5.445
  361.118   88.673    0.208    0.548    5.742
  361.368   79.159    0.221    0.488    6.024
  361.618   74.716    0.263    0.458    6.089
  361.868   75.245    0.291    0.448    5.948
  362.118   77.635    0.274    0.455    5.679
  362.368   78.843    0.285    0.450    5.410
  362.618   84.422    0.263    0.438    5.097
  362.868   91.339    0.235    0.450    4.899
  363.118   96.970    0.224    0.494    4.688
  363.368   94.992    0.236    0.494    4.579
  363.618   98.419    0.247    0.481    4.506
  363.868  101.738    0.246    0.504    4.543
  364.118  105.134    0.230    0.547    4.676
