~VERSION INFORMATION
 VERS.                 2.0:   CWLS LOG ASCII STANDARD -VERSION 2.0
 WRAP.                  NO:   ONE LINE PER DEPTH STEP
~WELL INFORMATION BLOCK
#MNEM.UNIT           DATA                    DESCRIPTION OF MNEMONIC
#---------    -------------------            -------------------------------
# Generated from Intellog Unique Number	CW_70_72/WELL/3035
NULL.         -999.25                        : NULL_VALUE
WELL.         PALOMA MITSUE 11-33            : Well_name    - WELL              
LOC .         11-33-070-03W5                 : Location     - LOCATION          
UWI .         00/11-33-070-03W5/0            : Uwi          - UNIQUE WELL ID    
ENTR.         JAYE                           : Entered      - ENTERED BY        
SRVC.         SCHLUMBERGER                   : Scn          - SERVICE COMPANY   
DATE.         7 AUG 84                       : Date         - LOG DATE          
STRT.M        495                            : top_depth    - START DEPTH       
STOP.M        700                            : bot_depth    - STOP DEPTH        
STEP.M        0.25                           : increment    - STEP LENGTH       
~CURVE INFORMATION BLOCK
#MNEM UNIT       ERCB CURVE CODE    CURVE DESCRIPTION
#-----------   ------------------   ----------------------------------
DEPT.M        00 001 00 00         : DEPTH        - DEPTH                       
ILD .OHMM     00 120 00 00         : RESD         - DEEP RESISTIVITY (DIL)      
CALI.MM       00 280 01 00         : CAL          - CALIPER                     
GR  .API      00 310 00 00         : GR           - GAMMA RAY                   
NPHI.V/V      00 330 00 00         : PHIN         - NEUTRON POROSITY (SANDSTONE)
DPHI.V/V      00 890 00 00         : PHID         - DENSITY POROSITY (SANDSTONE)
~PARAMETER INFORMATION       
#MNEM.UNIT           DATA             DESCRIPTION OF MNEMONIC
#---------         -----------     ------------------------------
GL  .M        654.6                : gl           - GROUND LEVEL ELEVATION      
EREF.M        660.3                : kb           - ELEVATION OF DEPTH REFERENCE
DATM.M        654.6                : datum        - DATUM ELEVATION             
TDD .M        1723                 : tdd          - TOTAL DEPTH DRILLER         
RUN .         ONE                  : Run          - RUN NUMBER                  
ENG .         CSIKOS/CORNISH       : Engineer     - RECORDING ENGINEER          
WIT .         KELLY                : Witness      - WITNESSED BY                
BASE.         EDM                  : Branch       - HOME BASE OF LOGGING UNIT   
MUD .         GEL                  : Mud_type     - MUD TYPE                    
MATR.         SANDSTONE            : Logunit      - NEUTRON MATRIX              
TMAX.C        50                   : BHT          - MAXIMUM RECORDED TEMPERATURE
BHTD.M        1725.7               : BHTDEP       - MAXIMUM RECORDED TEMPERATURE
RMT .C        22.7                 : MDTP         - TEMPERATURE OF MUD          
MUDD.KG/M     1100                 : MWT          - MUD DENSITY                 
NEUT.         1                    : NEUTRON      - NEUTRON TYPE                
RESI.         0                    : RESIST       - RESISTIVITY TYPE            
RM  .OHMM     1.17                 : RM           - RESISTIVITY OF MUD          
RMC .OHMM     0.25                 : RMC          - RESISTIVITY OF MUD CAKE     
RMF .OHMM     0.89                 : RMF          - RESISTIVITY OF MUD FILTRATE 
SUFT.C        0                    : SUFT         - SURFACE TEMPERATURE         
~A  DEPTH     RESD      CAL       GR     PHIN     PHID
# ...
  641.000    3.140  195.698   51.933    0.310    0.134
  641.250    3.062  195.097   53.072    0.397    0.183
  641.500    3.002  194.210   54.209    0.407    0.256
  641.750    3.003  194.128   57.094    0.419    0.277
  642.000    3.045  194.367   59.228    0.424    0.289
  642.250    3.133  195.642   62.236    0.406    0.296
  642.500    3.277  198.063   63.625    0.389    0.288
  642.750    3.347  199.961   63.648    0.401    0.275
  643.000    3.325  201.348   63.540    0.420    0.263
  643.250    3.199  202.006   62.191    0.442    0.255
  643.500    3.079  202.354   60.345    0.429    0.266
  643.750    2.947  201.961   60.677    0.413    0.275
  644.000    2.862  201.579   60.634    0.395    0.271
  644.250    2.801  201.306   59.473    0.396    0.260
  644.500    2.761  201.553   57.440    0.400    0.256
  644.750    2.717  202.106   57.650    0.392    0.266
  645.000    2.689  202.131   58.036    0.393    0.281
  645.250    2.636  202.178   57.809    0.400    0.291
  645.500    2.608  202.000   56.773    0.399    0.295
  645.750    2.654  201.824   55.610    0.388    0.296
  646.000    2.686  201.435   53.951    0.358    0.290
  646.250    2.702  199.704   51.605    0.322    0.254
  646.500    2.714  199.743   51.068    0.324    0.186
  646.750    2.731  199.565   53.200    0.357    0.227
  647.000    2.727  199.907   55.836    0.376    0.257
  647.250    2.669  200.568   56.600    0.386    0.263
  647.500    2.641  201.536   59.300    0.374    0.267
  647.750    2.613  202.916   62.241    0.370    0.273
  648.000    2.620  204.293   66.739    0.381    0.272
  648.250    2.651  205.998   64.333    0.397    0.226
  648.500    2.678  206.963   56.949    0.388    0.198
  648.750    2.709  207.612   58.712    0.341    0.173
  649.000    2.726  208.167   67.442    0.349    0.207
  649.250    2.728  208.406   63.483    0.378    0.240
  649.500    2.744  208.229   60.265    0.424    0.256
  649.750    2.751  207.227   58.047    0.402    0.269
  650.000    2.703  206.853   56.885    0.386    0.284
  650.250    2.630  206.257   61.631    0.377    0.283
  650.500    2.573  205.986   62.403    0.395    0.274
  650.750    2.566  205.810   61.426    0.411    0.260
  651.000    2.601  205.528   64.990    0.417    0.261
  651.250    2.656  205.047   70.547    0.415    0.270
  651.500    2.738  204.865   67.458    0.405    0.260
  651.750    2.838  204.797   61.690    0.385    0.260
  652.000    2.942  204.846   58.104    0.384    0.248
  652.250    3.176  204.967   55.570    0.341    0.174
  652.500    3.462  205.113   53.102    0.300    0.159
  652.750    3.822  205.459   49.451    0.278    0.152
  653.000    4.013  205.895   46.672    0.289    0.145
  653.250    3.884  206.451   51.109    0.359    0.184
  653.500    3.542  206.596   57.600    0.423    0.213
  653.750    3.334  206.618   59.675    0.416    0.243
  654.000    3.196  206.553   58.576    0.399    0.267
  654.250    3.082  206.276   58.656    0.387    0.268
  654.500    3.021  206.304   61.413    0.377    0.260
  654.750    3.001  206.342   63.051    0.390    0.257
  655.000    2.987  206.788   62.388    0.406    0.259
  655.250    2.977  208.272   63.279    0.383    0.250
  655.500    2.956  210.172   64.418    0.360    0.248
  655.750    2.970  212.282   61.453    0.373    0.258
  656.000    3.010  214.390   63.775    0.390    0.247
  656.250    3.052  216.608   67.589    0.398    0.236
  656.500    3.076  217.671   69.600    0.371    0.230
  656.750    3.153  218.432   70.184    0.374    0.228
  657.000    3.250  218.471   69.081    0.392    0.225
  657.250    3.439  218.394   68.105    0.400    0.223
  657.500    3.665  217.698   67.254    0.406    0.220
  657.750    3.913  217.118   64.040    0.384    0.191
  658.000    4.186  217.044   60.452    0.252    0.060
  658.250    4.503  217.798   65.202    0.232    0.136
  658.500    4.523  221.462   69.326    0.284    0.164
  658.750    4.194  224.817   71.961    0.339    0.183
  659.000    3.904  226.612   69.181    0.365    0.177
  659.250    3.778  227.167   66.524    0.350    0.176
  659.500    3.816  226.679   64.802    0.339    0.182
  659.750    3.947  226.922   68.744    0.331    0.179
  660.000    4.114  227.272   72.682    0.339    0.164
  660.250    4.321  227.820   73.076    0.346    0.151
  660.500    4.529  227.855   75.897    0.339    0.145
  660.750    4.747  227.889   82.262    0.326    0.137
  661.000    4.812  228.954   84.398    0.309    0.127
  661.250    4.597  231.376   81.120    0.333    0.133
  661.500    4.391  234.203   85.808    0.390    0.187
  661.750    4.242  235.483   92.860    0.369    0.207
  662.000    4.580  231.056   96.736    0.340    0.188
  662.250    4.827  225.808   96.946    0.346    0.159
  662.500    5.349  222.210   93.417    0.340    0.125
  662.750    5.863  219.549   85.722    0.310    0.103
  663.000    6.497  218.026   77.716    0.301    0.090
  663.250    6.886  218.263   73.505    0.294    0.078
  663.500    7.339  218.710   76.447    0.273    0.070
  663.750    7.236  219.677   80.637    0.273    0.069
  664.000    6.648  221.685   84.265    0.296    0.078
  664.250    6.291  223.894   87.334    0.309    0.106
  664.500    5.759  226.935   83.747    0.321    0.110
  664.750    5.291  230.701   81.151    0.325    0.100
  665.000    4.998  234.469   79.804    0.343    0.087
  665.250    4.964  236.780   81.441    0.357    0.129
  665.500    5.069  238.685   83.016    0.345    0.142
  665.750    5.344  239.341   81.296    0.331    0.135
  666.000    5.497  239.690   80.819    0.331    0.129
  666.250    5.677  239.725   84.139    0.331    0.125
  666.500    5.724  239.748   85.898    0.323    0.120
  666.750    5.695  239.573   83.430    0.315    0.115
  667.000    5.647  239.505   80.150    0.322    0.112
  667.250    5.608  239.336   79.613    0.329    0.115
  667.500    5.591  238.853   78.698    0.339    0.114
  667.750    5.594  238.878   80.523    0.346    0.114
  668.000    5.608  238.707   83.342    0.349    0.116
  668.250    5.653  238.841   84.110    0.350    0.122
  668.500    5.689  238.886   83.196    0.340    0.140
  668.750    5.734  239.019   82.157    0.325    0.128
  669.000    5.781  239.671   80.312    0.318    0.116
  669.250    5.795  241.365   83.629    0.320    0.099
  669.500    5.766  243.991   85.331    0.329    0.106
  669.750    5.738  246.098   86.037    0.339    0.108
  670.000    5.699  246.853   86.676    0.347    0.107
  670.250    5.692  243.986   88.256    0.350    0.103
  670.500    5.791  241.013   88.770    0.347    0.102
  670.750    5.948  237.730   86.239    0.314    0.096
  671.000    6.494  234.031   75.122    0.270    0.075
  671.250    7.469  229.707   66.865    0.242    0.032
  671.500    7.586  226.424   71.055    0.238    0.053
  671.750    7.166  226.354   78.976    0.261    0.070
  672.000    6.819  227.322   90.323    0.274    0.097
  672.250    6.430  228.286   96.938    0.291    0.111
  672.500    6.188  228.634   95.836    0.313    0.115
  672.750    6.238  228.453   88.888    0.311    0.106
  673.000    6.515  228.175   90.340    0.294    0.096
  673.250    6.765  228.316   90.049    0.299    0.098
  673.500    6.986  228.655   89.014    0.290    0.073
  673.750    7.095  229.521   89.283    0.274    0.051
  674.000    6.690  230.280   91.419    0.280    0.068
  674.250    6.101  231.868   95.296    0.296    0.087
  674.500    5.543  236.569  100.541    0.316    0.086
  674.750    4.826  240.645  105.104    0.341    0.099
  675.000    4.224  244.515  107.672    0.360    0.120
  675.250    3.504  251.914  107.132    0.356    0.144
  675.500    2.591  264.702   94.211    0.378    0.203
  675.750    1.973  320.526   81.788    0.420    0.407
  676.000    1.557  319.627   79.567    0.446    0.381
  676.250    1.386  302.242   78.094    0.531    0.370
  676.500    1.374  291.900   78.363    0.527    0.364
  676.750    1.429  278.246   80.624    0.513    0.344
  677.000    1.529  273.611   83.692    0.504    0.318
  677.250    1.618  271.992   87.757    0.513    0.317
