~VERSION INFORMATION
 VERS.                 2.0:   CWLS LOG ASCII STANDARD -VERSION 2.0
 WRAP.                  NO:   ONE LINE PER DEPTH STEP
~WELL INFORMATION BLOCK
#MNEM.UNIT           DATA                    DESCRIPTION OF MNEMONIC
#---------    -------------------            -------------------------------
# Generated from Intellog Unique Number	CS_73_76/WELL/3244
WELL.         10-27-076-05W4                 : Well_name    - WELL
LOC .         00/10-27-076-05W4/0            : Location     - LOCATION
UWI .         00/10-27-076-05W4/0            : Uwi          - UNIQUE WELL ID
ENTR.         SP                             : Entered      - ENTERED BY
SRVC.         SCHLUMBERGER                   : Scn          - SERVICE COMPANY
STRT.M        160                            : top_depth    - START DEPTH
STOP.M        410                            : bot_depth    - STOP DEPTH
STEP.M        0.25                           : increment    - STEP LENGTH
 NULL. -999.2500:NULL Value
~CURVE INFORMATION BLOCK
#MNEM UNIT       ERCB CURVE CODE    CURVE DESCRIPTION
#-----------   ------------------   ----------------------------------
DEPT.M        00 001 00 00         : DEPTH        - DEPTH
DPHI.V/V      00 890 00 00         : PHID         - DENSITY POROSITY (LIMESTONE)
NPHI.V/V      00 330 00 00         : PHIN         - NEUTRON POROSITY (LIMESTONE)
GR  .API      00 310 00 00         : GR           - GAMMA RAY
ILD .OHMM     00 120 00 00         : RESD         - DEEP RESISTIVITY (DIL)
~PARAMETER INFORMATION
#MNEM.UNIT           DATA             DESCRIPTION OF MNEMONIC
#---------         -----------     ------------------------------
GL  .M        569.67               : gl           - GROUND LEVEL ELEVATION
EREF.M        573.87               : kb           - ELEVATION OF DEPTH REFERENCE
DATM.M        569.67               : datum        - DATUM ELEVATION
TDD .M        416.7                : tdd          - TOTAL DEPTH DRILLER
RUN .         ONE                  : Run          - RUN NUMBER
ENG .         BILL                 : Engineer     - RECORDING ENGINEER
WIT .         JIM                  : Witness      - WITNESSED BY
MUD .         GEL                  : Mud_type     - MUD TYPE
MATR.         LIMESTONE            : Logunit      - NEUTRON MATRIX
TMAX.C        36.7                 : BHT          - MAXIMUM RECORDED TEMPERATURE
BHTD.M        416.7                : BHTDEP       - MAXIMUM RECORDED TEMPERATURE
MATR.         1                    : LOGUNIT      - NEUTRON MATRIX
RMT .C        25                   : MDTP         - TEMPERATURE OF MUD
NEUT.         1                    : NEUTRON      - NEUTRON TYPE
RESI.         0                    : RESIST       - RESISTIVITY TYPE
RMC .OHMM     0.25                 : RMC          - RESISTIVITY OF MUD CAKE
RMF .OHMM     0.25                 : RMF          - RESISTIVITY OF MUD FILTRATE
SUFT.C        15                   : SUFT         - SURFACE TEMPERATURE
~A  DEPTH     PHID     PHIN       GR     RESD
# ...
  377.500    0.200    0.391   79.613   10.227
  377.750    0.198    0.403   61.346   11.218
  378.000    0.251    0.422   49.787   12.770
  378.250    0.308    0.443   44.933   14.536
  378.500    0.327    0.434   41.304   15.945
  378.750    0.320    0.430   40.109   16.242
  379.000    0.322    0.423   40.741   16.241
  379.250    0.324    0.416   41.986   15.649
  379.500    0.309    0.410   45.669   14.264
  379.750    0.288    0.393   51.185   13.002
  380.000    0.272    0.378   61.573   10.604
  380.250    0.259    0.391   76.233    9.143
  380.500    0.252    0.406   71.992    8.031
  380.750    0.259    0.414   62.870    7.054
  381.000    0.289    0.394   56.190    6.312
  381.250    0.299    0.390   52.557    5.442
  381.500    0.291    0.390   50.749    4.961
  381.750    0.318    0.376   50.778    4.522
  382.000    0.319    0.376   52.019    4.198
  382.250    0.313    0.384   54.492    3.971
  382.500    0.297    0.386   55.731    3.971
  382.750    0.296    0.380   56.977    3.898
  383.000    0.285    0.379   58.829    3.897
  383.250    0.293    0.387   57.636    3.970
  383.500    0.293    0.394   55.225    3.970
  383.750    0.293    0.391   54.639    3.969
  384.000    0.303    0.378   53.450    4.043
  384.250    0.316    0.372   52.862    3.969
  384.500    0.302    0.384   51.663    3.968
  384.750    0.301    0.387   51.078    3.968
  385.000    0.307    0.382   48.055    3.968
  385.250    0.305    0.388   44.423    3.967
  385.500    0.312    0.383   43.842    3.967
  385.750    0.318    0.395   43.252    3.967
  386.000    0.318    0.402   39.011    3.967
  386.250    0.296    0.382   34.157    3.966
  386.500    0.291    0.369   31.135    3.966
  386.750    0.284    0.372   29.334    3.966
  387.000    0.288    0.378   28.745    3.965
  387.250    0.280    0.373   28.774    4.039
  387.500    0.294    0.376   30.017    4.114
  387.750    0.300    0.379   31.872    4.191
  388.000    0.306    0.377   34.954    4.269
  388.250    0.314    0.381   36.191    4.348
  388.500    0.321    0.392   38.043    4.348
  388.750    0.322    0.400   37.458    4.429
  389.000    0.316    0.360   36.880    4.429
  389.250    0.321    0.368   37.511    4.347
  389.500    0.328    0.389   36.318    4.347
  389.750    0.307    0.401   35.121    4.267
  390.000    0.291    0.370   36.366    4.188
  390.250    0.282    0.359   39.447    4.111
  390.500    0.271    0.355   41.904    4.111
  390.750    0.256    0.353   44.977    4.110
  391.000    0.274    0.377   41.349    4.110
  391.250    0.300    0.389   39.542    4.187
  391.500    0.290    0.373   37.740    4.186
  391.750    0.273    0.360   37.156    4.109
  392.000    0.267    0.352   37.177    4.186
  392.250    0.273    0.379   39.647    4.185
  392.500    0.279    0.396   43.326    4.263
  392.750    0.283    0.382   52.500    4.263
  393.000    0.266    0.365   58.620    4.342
  393.250    0.247    0.347   64.133    4.423
  393.500    0.226    0.346   58.064    4.505
  393.750    0.268    0.376   48.941    4.505
  394.000    0.298    0.387   45.918    4.589
  394.250    0.286    0.382   44.112    4.504
  394.500    0.280    0.374   42.309    4.504
  394.750    0.296    0.370   39.286    4.421
  395.000    0.295    0.380   40.536    4.421
  395.250    0.303    0.403   42.384    4.339
  395.500    0.304    0.413   41.195    4.339
  395.750    0.292    0.394   38.166    4.259
  396.000    0.297    0.378   36.362    4.259
  396.250    0.303    0.388   36.392    4.180
  396.500    0.299    0.380   38.858    4.180
  396.750    0.297    0.376   40.707    4.258
  397.000    0.303    0.374   41.955    4.257
  397.250    0.292    0.360   41.978    4.337
  397.500    0.274    0.346   42.613    4.417
  397.750    0.261    0.339   46.301    4.669
  398.000    0.248    0.339   49.979    4.936
  398.250    0.236    0.360   58.541    5.315
  398.500    0.224    0.372   59.183    5.414
  398.750    0.227    0.388   55.547    5.515
  399.000    0.244    0.403   47.642    5.413
  399.250    0.266    0.390   34.254    5.120
  399.500    0.282    0.383   26.352    4.843
  399.750    0.302    0.397   22.720    4.666
  400.000    0.343    0.408   22.134    4.414
  400.250    0.341    0.394   22.767    4.175
  400.500    0.292    0.390   24.012    4.098
  400.750    0.284    0.387   25.870    4.098
  401.000    0.281    0.366   25.285    4.174
  401.250    0.270    0.352   24.090    4.331
  401.500    0.267    0.343   25.334    4.751
  401.750    0.264    0.345   27.803    4.751
  402.000    0.261    0.362   30.875    5.022
  402.250    0.239    0.351   36.387    5.612
  402.500    0.195    0.297   44.952    6.629
  402.750    0.017    0.276   52.902    8.433
  403.000    0.001    0.276   58.416   12.440
  403.250    0.000    0.258   62.710   18.015
  403.500    0.000    0.241   64.561   21.281
  403.750    0.000    0.229   62.154   23.780
  404.000    0.000    0.218   60.346   26.085
  404.250    0.005    0.211   59.759   27.573
  404.500    0.000    0.206   57.346   28.612
  404.750    0.008    0.207   58.590   29.689
  405.000    0.012    0.213   61.059   30.242
  405.250    0.016    0.218   61.693   30.805
  405.500    0.012    0.213   62.324   30.802
  405.750    0.006    0.210   63.576   31.375
  406.000    0.018    0.210   65.425   30.797
  406.250    0.017    0.216   66.058   30.795
  406.500    0.019    0.222   65.482   30.227
  406.750    0.031    0.226   67.939   30.226
  407.000    0.020    0.229   68.580   29.668
  407.250    0.027    0.234   65.552   29.667
  407.500    0.022    0.238   61.916   29.664
  407.750    0.014    0.239   59.505   29.117
  408.000    0.010    0.240   60.749   29.115
  408.250    0.002    0.242   61.995   30.211
  408.500    0.000    0.241   62.636   30.774
  408.750    0.000    0.241   62.652   31.933
  409.000    0.000    0.183   62.694   33.755
  409.250    0.000    0.139   62.711   39.874
  409.500    0.000    0.139   62.737   48.880
  409.750    0.019    0.146   62.758   58.819
  410.000    0.044    0.154   62.780   62.175
