~VERSION INFORMATION
 VERS.                 2.0:   CWLS LOG ASCII STANDARD -VERSION 2.0
 WRAP.                  NO:   ONE LINE PER DEPTH STEP
~WELL INFORMATION BLOCK
#MNEM.UNIT           DATA                    DESCRIPTION OF MNEMONIC
#---------    -------------------            -------------------------------
# Generated from Intellog Unique Number	CS_73_76/WELL/850
WELL.         ESSO CLYDE LAKE                : Well_name    - WELL
LOC .         00/11-23-073-09W4/0            : Location     - LOCATION
UWI .         00/11-23-073-09W4/0            : Uwi          - UNIQUE WELL ID
ENTR.         SP                             : Entered      - ENTERED BY
SRVC.         SCHLUMBERGER                   : Scn          - SERVICE COMPANY
STRT.M        285                            : top_depth    - START DEPTH
STOP.M        495                            : bot_depth    - STOP DEPTH
STEP.M        0.25                           : increment    - STEP LENGTH
 NULL. -999.2500:NULL Value
~CURVE INFORMATION BLOCK
#MNEM UNIT       ERCB CURVE CODE    CURVE DESCRIPTION
#-----------   ------------------   ----------------------------------
DEPT.M        00 001 00 00         : DEPTH        - DEPTH
ILD .OHMM     00 120 00 00         : RESD         - DEEP RESISTIVITY (DIL)
DPHI.V/V      00 890 00 00         : PHID         - DENSITY POROSITY (LIMESTONE)
NPHI.V/V      00 330 00 00         : PHIN         - NEUTRON POROSITY (LIMESTONE)
GR  .API      00 310 00 00         : GR           - GAMMA RAY
~PARAMETER INFORMATION
#MNEM.UNIT           DATA             DESCRIPTION OF MNEMONIC
#---------         -----------     ------------------------------
GL  .M        650.3                : gl           - GROUND LEVEL ELEVATION
EREF.M        654.5                : kb           - ELEVATION OF DEPTH REFERENCE
DATM.M        650.3                : datum        - DATUM ELEVATION
TDD .M        503.5                : tdd          - TOTAL DEPTH DRILLER
RUN .         ONE                  : Run          - RUN NUMBER
ENG .         BILL                 : Engineer     - RECORDING ENGINEER
WIT .         JIM                  : Witness      - WITNESSED BY
MUD .         GEL                  : Mud_type     - MUD TYPE
MATR.         LIMESTONE            : Logunit      - NEUTRON MATRIX
TMAX.C        23                   : BHT          - MAXIMUM RECORDED TEMPERATURE
BHTD.M        503.5                : BHTDEP       - MAXIMUM RECORDED TEMPERATURE
MATR.         1                    : LOGUNIT      - NEUTRON MATRIX
RMT .C        25                   : MDTP         - TEMPERATURE OF MUD
NEUT.         1                    : NEUTRON      - NEUTRON TYPE
RESI.         0                    : RESIST       - RESISTIVITY TYPE
RMC .OHMM     0.25                 : RMC          - RESISTIVITY OF MUD CAKE
RMF .OHMM     0.25                 : RMF          - RESISTIVITY OF MUD FILTRATE
SUFT.C        15                   : SUFT         - SURFACE TEMPERATURE
~A  DEPTH     RESD     PHID     PHIN       GR
# ...
  372.000    3.251    0.254    0.525   92.028
  372.250    3.362    0.258    0.564   93.870
  372.500    3.597    0.265    0.575   92.040
  372.750    3.784    0.276    0.536   87.148
  373.000    4.048    0.282    0.501   82.870
  373.250    4.632    0.287    0.506   81.037
  373.500    4.954    0.292    0.516   79.205
  373.750    5.211    0.297    0.526   78.599
  374.000    5.669    0.280    0.508   80.443
  374.250    5.964    0.282    0.475   80.447
  374.500    6.169    0.271    0.457   83.518
  374.750    6.170    0.259    0.435   84.748
  375.000    6.276    0.252    0.400   85.364
  375.250    6.277    0.228    0.386   85.369
  375.500    6.385    0.206    0.412   80.477
  375.750    6.495    0.226    0.416   76.198
  376.000    6.495    0.248    0.405   73.142
  376.250    6.497    0.265    0.418   73.759
  376.500    5.586    0.277    0.395   76.214
  376.750    4.567    0.262    0.446   78.669
  377.000    4.129    0.240    0.508   81.126
  377.250    3.550    0.226    0.537   85.416
  377.500    2.903    0.224    0.564   95.217
  377.750    2.538    0.246    0.589  105.632
  378.000    2.373    0.237    0.602  108.088
  378.250    2.295    0.220    0.574  109.930
  378.500    2.296    0.213    0.496  112.996
  378.750    2.296    0.215    0.514  112.390
  379.000    2.297    0.219    0.547  109.947
  379.250    2.297    0.231    0.581  110.566
  379.500    2.337    0.248    0.600  107.510
  379.750    2.337    0.248    0.614  105.678
  380.000    2.629    0.238    0.598  103.848
  380.250    3.008    0.230    0.546  100.793
  380.500    3.500    0.225    0.457   94.064
  380.750    4.356    0.229    0.416   91.007
  381.000    4.984    0.227    0.451   86.727
  381.250    5.607    0.234    0.451   87.957
  381.500    6.100    0.246    0.417   87.351
  381.750    6.310    0.246    0.428   81.848
  382.000    6.418    0.254    0.414   78.792
  382.250    6.528    0.266    0.407   78.797
  382.500    6.529    0.260    0.450   79.415
  382.750    6.532    0.254    0.469   78.810
  383.000    6.533    0.248    0.473   77.591
  383.250    6.534    0.257    0.476   76.985
  383.500    6.535    0.253    0.482   76.990
  383.750    6.536    0.241    0.474   78.834
  384.000    6.537    0.236    0.485   80.062
  384.250    6.539    0.237    0.474   81.293
  384.500    6.540    0.255    0.427   78.850
  384.750    6.541    0.261    0.394   79.468
  385.000    6.766    0.246    0.418   82.536
  385.250    6.999    0.229    0.429   85.603
  385.500    7.119    0.202    0.419   88.670
  385.750    7.002    0.177    0.397   90.512
  386.000    6.548    0.187    0.425   91.129
  386.250    6.124    0.205    0.443   89.911
  386.500    6.023    0.207    0.419   88.693
  386.750    5.923    0.213    0.402   89.310
  387.000    5.826    0.216    0.429   91.765
  387.250    5.827    0.213    0.447   91.770
  387.500    5.927    0.205    0.441   89.941
  387.750    5.928    0.196    0.397   90.560
  388.000    5.929    0.187    0.380   89.952
  388.250    5.832    0.176    0.396   88.733
  388.500    5.833    0.182    0.407   91.800
  388.750    5.737    0.190    0.413   93.030
  389.000    5.642    0.194    0.419   90.588
  389.250    5.644    0.192    0.440   88.144
  389.500    5.550    0.187    0.418   91.825
  389.750    5.459    0.183    0.397   93.054
  390.000    5.369    0.183    0.409   94.898
  390.250    5.281    0.177    0.421   94.289
  390.500    5.282    0.172    0.418   96.133
  390.750    5.195    0.170    0.420   97.977
  391.000    5.109    0.180    0.442   97.983
  391.250    5.110    0.185    0.451   96.762
  391.500    4.942    0.187    0.464   94.320
  391.750    4.860    0.188    0.475   95.549
  392.000    4.250    0.202    0.446   98.005
  392.250    3.654    0.242    0.475   99.848
  392.500    3.038    0.248    0.532  104.140
  392.750    2.656    0.245    0.551  106.594
  393.000    2.322    0.244    0.579  105.987
  393.250    2.362    0.239    0.602  102.931
  393.500    2.444    0.236    0.591  101.102
  393.750    2.658    0.228    0.550   98.658
  394.000    2.844    0.216    0.566   99.888
  394.250    3.094    0.209    0.522   98.669
  394.500    3.366    0.208    0.448   95.613
  394.750    3.662    0.210    0.440   97.457
  395.000    3.851    0.203    0.433   98.076
  395.250    4.120    0.200    0.421   97.467
  395.500    4.408    0.198    0.408   95.637
  395.750    4.559    0.195    0.412   92.583
  396.000    4.796    0.204    0.429   90.752
  396.250    4.878    0.222    0.442   88.307
  396.500    5.046    0.226    0.433   85.864
  396.750    5.132    0.214    0.413   84.033
  397.000    5.133    0.204    0.399   85.879
  397.250    5.222    0.204    0.416   87.107
  397.500    5.223    0.214    0.424   88.950
  397.750    5.313    0.240    0.438   88.342
  398.000    5.313    0.250    0.469   85.899
  398.250    5.315    0.257    0.504   84.068
  398.500    5.315    0.268    0.475   82.851
  398.750    5.317    0.254    0.444   82.855
  399.000    5.318    0.235    0.435   83.474
  399.250    5.318    0.226    0.428   83.479
  399.500    5.320    0.229    0.410   85.323
  399.750    5.232    0.237    0.403   87.776
  400.000    5.233    0.232    0.394   92.068
  400.250    5.235    0.234    0.387   91.463
  400.500    5.235    0.262    0.399   89.631
  400.750    5.236    0.275    0.416   86.575
  401.000    5.238    0.241    0.433   79.847
  401.250    5.238    0.227    0.398   78.627
  401.500    5.240    0.230    0.403   84.143
  401.750    5.240    0.239    0.411   89.661
  402.000    5.241    0.236    0.415   90.889
  402.250    5.242    0.208    0.408   87.835
  402.500    5.244    0.200    0.415   88.454
  402.750    5.245    0.206    0.405   88.460
  403.000    5.245    0.212    0.388   87.851
  403.250    5.247    0.212    0.376   87.857
  403.500    5.160    0.222    0.391   91.537
  403.750    5.161    0.216    0.419   93.993
  404.000    4.992    0.251    0.450   92.161
  404.250    4.909    0.263    0.459   88.493
  404.500    4.829    0.241    0.410   86.050
  404.750    4.830    0.208    0.415   86.056
  405.000    4.830    0.194    0.429   88.510
  405.250    4.831    0.190    0.445   90.966
  405.500    4.914    0.212    0.450   90.360
  405.750    4.998    0.236    0.409   88.530
  406.000    5.085    0.262    0.437   86.086
  406.250    5.085    0.278    0.456   80.582
  406.500    5.261    0.273    0.468   76.300
  406.750    5.261    0.271    0.459   73.245
  407.000    5.442    0.279    0.457   78.152
  407.250    5.630    0.282    0.461   79.993
  407.500    5.823    0.287    0.424   80.611
  407.750    6.024    0.295    0.415   78.167
  408.000    6.127    0.275    0.452   75.112
  408.250    6.128    0.264    0.473   75.729
  408.500    6.233    0.262    0.482   80.022
  408.750    6.234    0.257    0.473   81.863
  409.000    6.132    0.246    0.437   84.319
  409.250    5.930    0.248    0.426   82.487
  409.500    5.833    0.254    0.420   80.657
  409.750    5.736    0.240    0.416   80.052
  410.000    5.737    0.241    0.405   79.443
  410.250    5.739    0.242    0.406   80.062
  410.500    5.740    0.234    0.410   80.679
  410.750    5.741    0.230    0.422   81.298
  411.000    5.647    0.228    0.407   80.691
  411.250    5.647    0.225    0.376   77.636
  411.500    5.554    0.229    0.390   80.704
  411.750    5.194    0.225    0.383   83.772
  412.000    4.619    0.218    0.375   83.776
  412.250    3.971    0.220    0.401   83.169
  412.500    3.247    0.231    0.432   85.624
  412.750    2.985    0.246    0.477   89.916
  413.000    2.887    0.246    0.519   93.597
  413.250    3.089    0.236    0.504   96.053
  413.500    3.360    0.245    0.475   97.894
  413.750    3.535    0.255    0.462   94.838
  414.000    3.911    0.265    0.451   87.496
  414.250    3.977    0.215    0.434   83.828
  414.500    4.184    0.210    0.423   86.896
  414.750    4.256    0.217    0.447   89.962
  415.000    4.256    0.219    0.464   93.641
  415.250    4.330    0.214    0.449   94.873
