~VERSION INFORMATION
 VERS.                 2.0:   CWLS LOG ASCII STANDARD -VERSION 2.0
 WRAP.                  NO:   ONE LINE PER DEPTH STEP
~WELL INFORMATION BLOCK
#MNEM.UNIT           DATA                    DESCRIPTION OF MNEMONIC
#---------    -------------------            -------------------------------
# Generated from Intellog Unique Number	CS_77_79/WELL/951
WELL.         B0W VALLEY EXPLORATION         : Well_name    - WELL
LOC .         00/10-13-077-15W4/0            : Location     - LOCATION
UWI .         00/10-13-077-15W4/0            : Uwi          - UNIQUE WELL ID
ENTR.         SP                             : Entered      - ENTERED BY
SRVC.         SCHLUMBERGER                   : Scn          - SERVICE COMPANY
STRT.M        280                            : top_depth    - START DEPTH
STOP.M        530                            : bot_depth    - STOP DEPTH
STEP.M        0.25                           : increment    - STEP LENGTH
 NULL. -999.2500:NULL Value
~CURVE INFORMATION BLOCK
#MNEM UNIT       ERCB CURVE CODE    CURVE DESCRIPTION
#-----------   ------------------   ----------------------------------
DEPT.M        00 001 00 00         : DEPTH        - DEPTH
GR  .API      00 310 00 00         : GR           - GAMMA RAY
DPHI.V/V      00 890 00 00         : PHID         - DENSITY POROSITY (LIMESTONE)
NPHI.V/V      00 330 00 00         : PHIN         - NEUTRON POROSITY (LIMESTONE)
ILD .OHMM     00 120 00 00         : RESD         - DEEP RESISTIVITY (DIL)
~PARAMETER INFORMATION
#MNEM.UNIT           DATA             DESCRIPTION OF MNEMONIC
#---------         -----------     ------------------------------
GL  .M        675.4                : gl           - GROUND LEVEL ELEVATION
EREF.M        678.9                : kb           - ELEVATION OF DEPTH REFERENCE
DATM.M        675.4                : datum        - DATUM ELEVATION
TDD .M        537                  : tdd          - TOTAL DEPTH DRILLER
RUN .         ONE                  : Run          - RUN NUMBER
ENG .         BILL                 : Engineer     - RECORDING ENGINEER
WIT .         JIM                  : Witness      - WITNESSED BY
MUD .         GEL                  : Mud_type     - MUD TYPE
MATR.         LIMESTONE            : Logunit      - NEUTRON MATRIX
TMAX.C        21                   : BHT          - MAXIMUM RECORDED TEMPERATURE
BHTD.M        537                  : BHTDEP       - MAXIMUM RECORDED TEMPERATURE
MATR.         1                    : LOGUNIT      - NEUTRON MATRIX
RMT .C        25                   : MDTP         - TEMPERATURE OF MUD
NEUT.         1                    : NEUTRON      - NEUTRON TYPE
RESI.         0                    : RESIST       - RESISTIVITY TYPE
RMC .OHMM     0.25                 : RMC          - RESISTIVITY OF MUD CAKE
RMF .OHMM     0.25                 : RMF          - RESISTIVITY OF MUD FILTRATE
SUFT.C        15                   : SUFT         - SURFACE TEMPERATURE
~A  DEPTH       GR     PHID     PHIN     RESD
# ...
  454.000   87.543    0.206    0.417    7.448
  454.250   88.754    0.188    0.416    7.447
  454.500   90.566    0.187    0.408    7.586
  454.750   92.981    0.194    0.396    7.042
  455.000   93.587    0.204    0.392    7.873
  455.250   92.991    0.204    0.414    8.020
  455.500   91.190    0.208    0.417    8.020
  455.750   89.990    0.208    0.410    8.170
  456.000   88.187    0.209    0.417    8.323
  456.250   88.796    0.198    0.411    8.479
  456.500   88.800    0.189    0.401    8.637
  456.750   89.408    0.186    0.411    8.799
  457.000   91.221    0.179    0.420    8.963
  457.250   90.624    0.175    0.424    8.962
  457.500   91.233    0.171    0.412    8.634
  457.750   93.647    0.181    0.396    7.866
  458.000   96.666    0.208    0.391    7.578
  458.250   99.684    0.212    0.400    7.300
  458.500  101.495    0.221    0.406    7.299
  458.750   99.694    0.229    0.419    7.299
  459.000   96.688    0.234    0.419    7.164
  459.250   96.692    0.213    0.413    6.901
  459.500   93.688    0.194    0.395    6.526
  459.750   91.885    0.190    0.390    6.057
  460.000   90.082    0.199    0.395    5.727
  460.250   89.487    0.200    0.418    5.621
  460.500   88.287    0.187    0.424    5.415
  460.750   88.894    0.175    0.415    4.753
  461.000   89.502    0.170    0.431    4.172
  461.250   91.315    0.171    0.446    3.336
  461.500   87.103    0.234    0.453    2.983
  461.750   84.096    0.253    0.505    2.718
  462.000   82.897    0.258    0.547    2.476
  462.250   84.107    0.261    0.563    2.342
  462.500   86.523    0.276    0.553    2.256
  462.750   85.925    0.287    0.535    2.255
  463.000   87.135    0.269    0.511    2.255
  463.250   90.757    0.271    0.524    2.385
  463.500   92.569    0.247    0.529    2.475
  463.750   93.177    0.230    0.530    2.767
  464.000   91.374    0.216    0.524    3.272
  464.250   88.971    0.200    0.504    3.797
  464.500   91.388    0.184    0.472    4.574
  464.750   90.788    0.171    0.394    5.613
  465.000   86.577    0.173    0.393    6.514
  465.250   82.968    0.165    0.401    7.149
  465.500   82.371    0.143    0.401    7.282
  465.750   84.787    0.137    0.377    7.282
  466.000   86.598    0.172    0.372    7.147
  466.250   89.616    0.188    0.387    7.146
  466.500   92.031    0.202    0.392    7.417
  466.750   85.412    0.173    0.403    7.698
  467.000   80.597    0.187    0.381    8.606
  467.250   76.384    0.193    0.401   10.175
  467.500   72.173    0.156    0.386   10.759
  467.750   69.768    0.122    0.360   11.808
  468.000   67.364    0.063    0.292   12.255
  468.250   76.408    0.068    0.258   11.588
  468.500   83.039    0.087    0.310    9.267
  468.750   90.274    0.131    0.350    8.443
  469.000   92.688    0.176    0.379    7.550
  469.250   92.091    0.180    0.392    7.007
  469.500   89.085    0.184    0.397    6.504
  469.750   88.490    0.186    0.401    6.383
  470.000   90.301    0.183    0.399    5.925
  470.250   93.920    0.182    0.402    5.397
  470.500   97.540    0.178    0.410    5.104
  470.750   99.353    0.177    0.415    4.917
  471.000   99.961    0.213    0.415    4.649
  471.250   96.353    0.207    0.421    4.396
  471.500   94.552    0.209    0.434    4.080
  471.750   93.957    0.202    0.442    4.080
  472.000   93.357    0.172    0.448    4.080
  472.250   93.965    0.171    0.420    4.234
  472.500   99.994    0.178    0.429    4.734
  472.750  100.000    0.179    0.435    5.196
  473.000   93.378    0.173    0.435    6.030
  473.250   84.347    0.157    0.420    7.539
  473.500   77.123    0.112    0.409    8.749
  473.750   71.105    0.098    0.383   10.153
  474.000   66.291    0.126    0.373   10.938
  474.250   62.683    0.161    0.348   11.782
  474.500   63.893    0.200    0.333   12.002
  474.750   69.923    0.209    0.327   11.780
  475.000   75.350    0.202    0.353   11.779
  475.250   80.776    0.202    0.371   11.778
  475.500   81.384    0.206    0.383   11.777
  475.750   78.980    0.210    0.389   11.998
  476.000   77.781    0.233    0.400   12.451
  476.250   77.786    0.207    0.404   12.923
  476.500   79.599    0.213    0.378   12.922
  476.750   87.436    0.220    0.371   12.921
  477.000   94.068    0.230    0.380   12.447
  477.250  105.520    0.173    0.386   11.553
  477.500  113.960    0.157    0.389   10.723
  477.750  116.375    0.166    0.391    9.953
  478.000  115.175    0.180    0.391    9.588
  478.250  106.144    0.196    0.382   10.720
  478.500   99.524    0.182    0.389   11.335
  478.750   94.709    0.196    0.390   12.211
  479.000   86.281    0.238    0.382   13.909
  479.250   82.672    0.213    0.366   15.265
  479.500   79.062    0.192    0.357   16.753
  479.750   82.682    0.204    0.365   17.714
  480.000   82.086    0.217    0.372   18.385
  480.250   83.899    0.263    0.381   18.729
  480.500   86.314    0.267    0.390   18.727
  480.750   87.523    0.245    0.383   18.380
  481.000   88.132    0.234    0.369   17.707
  481.250   86.931    0.211    0.360   17.378
  481.500   80.913    0.187    0.347   17.376
  481.750   75.497    0.190    0.340   17.702
  482.000   75.503    0.204    0.331   18.033
  482.250   77.919    0.160    0.319   18.031
  482.500   82.745    0.112    0.310   17.697
  482.750   85.157    0.093    0.321   17.049
  483.000   88.777    0.078    0.352   15.824
  483.250   91.193    0.162    0.369   14.687
  483.500   92.403    0.159    0.381   14.149
  483.750   91.805    0.162    0.384   13.132
  484.000   90.007    0.182    0.371   12.889
  484.250   88.806    0.192    0.366   12.888
  484.500   85.799    0.206    0.366   14.144
  484.750   77.369    0.200    0.367   16.415
  485.000   65.326    0.223    0.367   22.948
  485.250   59.910    0.279    0.313   28.162
  485.500   55.096    0.268    0.278   32.079
  485.750   49.077    0.256    0.264   34.557
  486.000   43.057    0.268    0.328   37.925
  486.250   44.870    0.267    0.342   40.101
  486.500   46.684    0.276    0.361   42.401
  486.750   48.496    0.275    0.379   44.832
  487.000   56.335    0.267    0.363   47.403
  487.250   59.955    0.274    0.368   49.198
  487.500   61.164    0.282    0.355   50.118
  487.750   59.362    0.278    0.359   51.056
  488.000   52.139    0.272    0.363   48.278
  488.250   55.156    0.286    0.349   43.172
  488.500   61.185    0.275    0.338   35.834
  488.750   73.842    0.262    0.332   30.872
  489.000   76.859    0.240    0.348   26.598
  489.250   74.456    0.217    0.373   24.232
  489.500   74.462    0.228    0.378   23.344
  489.750   76.879    0.257    0.388   22.489
  490.000   78.692    0.265    0.394   21.665
  490.250   80.504    0.263    0.379   20.871
  490.500   82.315    0.256    0.371   19.736
  490.750   84.128    0.239    0.374   17.980
  491.000   84.737    0.229    0.379   16.380
  491.250   85.946    0.208    0.379   15.780
  491.500   91.375    0.185    0.369   14.646
  491.750   93.788    0.170    0.367   13.343
  492.000   99.218    0.160    0.367   12.156
  492.250  102.234    0.147    0.374   11.495
  492.500  105.252    0.155    0.367   10.669
  492.750  107.064    0.155    0.372   10.471
  493.000  108.877    0.136    0.377   10.277
  493.250  108.883    0.133    0.377   10.276
  493.500  108.286    0.145    0.385   10.665
  493.750  107.086    0.150    0.390   10.664
  494.000   98.054    0.150    0.389   11.068
  494.250   92.637    0.160    0.380   11.275
  494.500   93.247    0.189    0.366   11.702
  494.750   95.058    0.202    0.366   12.373
  495.000   93.860    0.191    0.376   12.842
  495.250   95.672    0.199    0.382   13.578
  495.500   99.894    0.224    0.370   13.832
  495.750  101.105    0.232    0.363   14.091
  496.000   99.302    0.224    0.358   14.089
  496.250  102.322    0.205    0.367   14.088
  496.500  102.929    0.211    0.364   14.087
  496.750  100.524    0.212    0.351   14.350
  497.000   99.325    0.195    0.346   14.349
  497.250   97.523    0.195    0.353   14.618
