~VERSION INFORMATION
 VERS.                 2.0:   CWLS LOG ASCII STANDARD -VERSION 2.0
 WRAP.                  NO:   ONE LINE PER DEPTH STEP
~WELL INFORMATION BLOCK
#MNEM.UNIT           DATA                    DESCRIPTION OF MNEMONIC
#---------    -------------------            -------------------------------
# Generated from Intellog Unique Number	CS_73_76/WELL/3258
WELL.         11-08-075-05W4                 : Well_name    - WELL
LOC .         00/11-08-075-05W4/0            : Location     - LOCATION
UWI .         00/11-08-075-05W4/0            : Uwi          - UNIQUE WELL ID
ENTR.         SP                             : Entered      - ENTERED BY
SRVC.         SCHLUMBERGER                   : Scn          - SERVICE COMPANY
STRT.M        240                            : top_depth    - START DEPTH
STOP.M        480                            : bot_depth    - STOP DEPTH
STEP.M        0.25                           : increment    - STEP LENGTH
 NULL. -999.2500:NULL Value
~CURVE INFORMATION BLOCK
#MNEM UNIT       ERCB CURVE CODE    CURVE DESCRIPTION
#-----------   ------------------   ----------------------------------
DEPT.M        00 001 00 00         : DEPTH        - DEPTH
ILD .OHMM     00 120 00 00         : RESD         - DEEP RESISTIVITY (DIL)
DPHI.V/V      00 890 00 00         : PHID         - DENSITY POROSITY (LIMESTONE)
NPHI.V/V      00 330 00 00         : PHIN         - NEUTRON POROSITY (LIMESTONE)
GR  .API      00 310 00 00         : GR           - GAMMA RAY
~PARAMETER INFORMATION
#MNEM.UNIT           DATA             DESCRIPTION OF MNEMONIC
#---------         -----------     ------------------------------
GL  .M        636.15               : gl           - GROUND LEVEL ELEVATION
EREF.M        639.43               : kb           - ELEVATION OF DEPTH REFERENCE
DATM.M        636.15               : datum        - DATUM ELEVATION
TDD .M        483.5                : tdd          - TOTAL DEPTH DRILLER
RUN .         ONE                  : Run          - RUN NUMBER
ENG .         BILL                 : Engineer     - RECORDING ENGINEER
WIT .         JIM                  : Witness      - WITNESSED BY
MUD .         GEL                  : Mud_type     - MUD TYPE
MATR.         LIMESTONE            : Logunit      - NEUTRON MATRIX
TMAX.C        25                   : BHT          - MAXIMUM RECORDED TEMPERATURE
BHTD.M        483.5                : BHTDEP       - MAXIMUM RECORDED TEMPERATURE
MATR.         1                    : LOGUNIT      - NEUTRON MATRIX
RMT .C        25                   : MDTP         - TEMPERATURE OF MUD
NEUT.         1                    : NEUTRON      - NEUTRON TYPE
RESI.         0                    : RESIST       - RESISTIVITY TYPE
RMC .OHMM     0.25                 : RMC          - RESISTIVITY OF MUD CAKE
RMF .OHMM     0.25                 : RMF          - RESISTIVITY OF MUD FILTRATE
SUFT.C        15                   : SUFT         - SURFACE TEMPERATURE
~A  DEPTH     RESD     PHID     PHIN       GR
# ...
  370.500    1.295    0.305    0.355   67.163
  370.750    1.370    0.304    0.349   68.391
  371.000    1.819    0.321    0.351   70.840
  371.250    4.500    0.338    0.345   70.239
  371.500    8.548    0.347    0.342   67.201
  371.750   14.776    0.314    0.312   64.162
  372.000   29.703    0.250    0.285   59.294
  372.250   35.207    0.209    0.225   55.646
  372.500   21.564    0.023    0.229   53.216
  372.750    5.980    0.009    0.232   50.786
  373.000    3.210    0.000    0.231   48.355
  373.250    2.560    0.000    0.229   47.144
  373.500    2.081    0.013    0.249   53.863
  373.750    1.790    0.229    0.297   59.359
  374.000    1.692    0.309    0.372   65.466
  374.250    1.629    0.310    0.382   69.134
  374.500    1.661    0.307    0.375   70.365
  374.750    1.725    0.310    0.371   69.762
  375.000    1.758    0.320    0.367   69.773
  375.250    1.792    0.323    0.386   69.171
  375.500    1.793    0.315    0.376   67.355
  375.750    1.793    0.302    0.373   66.753
  376.000    1.760    0.302    0.387   67.371
  376.250    1.728    0.312    0.383   72.870
  376.500    1.696    0.296    0.395   74.706
  376.750    1.728    0.301    0.404   75.936
  377.000    1.762    0.310    0.404   75.946
  377.250    1.830    0.301    0.396   75.345
  377.500    1.974    0.294    0.395   78.405
  377.750    2.211    0.279    0.378   79.633
  378.000    2.340    0.271    0.366   79.642
  378.250    2.572    0.249    0.355   80.871
  378.500    2.827    0.214    0.358   83.319
  378.750    3.050    0.184    0.369   84.550
  379.000    3.168    0.201    0.373   84.563
  379.250    3.290    0.211    0.374   84.568
  379.500    3.354    0.235    0.390   85.798
  379.750    3.484    0.212    0.399   87.635
  380.000    3.551    0.196    0.398   90.084
  380.250    3.619    0.182    0.405   90.094
  380.500    3.689    0.174    0.412   88.274
  380.750    3.690    0.185    0.396   86.455
  381.000    3.690    0.189    0.389   85.243
  381.250    3.692    0.183    0.383   88.304
  381.500    3.763    0.179    0.395   90.141
  381.750    3.763    0.175    0.402   92.593
  382.000    3.765    0.173    0.402   91.989
  382.250    3.838    0.174    0.404   92.610
  382.500    3.839    0.182    0.415   92.009
  382.750    3.913    0.186    0.424   91.410
  383.000    3.913    0.201    0.429   90.200
  383.250    3.989    0.206    0.422   88.988
  383.500    3.989    0.206    0.402   86.560
  383.750    4.066    0.207    0.395   85.348
  384.000    4.067    0.208    0.387   87.188
  384.250    4.145    0.189    0.381   89.638
  384.500    4.226    0.169    0.380   90.257
  384.750    4.227    0.154    0.378   90.265
  385.000    4.228    0.165    0.378   90.276
  385.250    4.150    0.184    0.394   91.505
  385.500    3.997    0.183    0.403   93.343
  385.750    3.850    0.187    0.416   93.962
  386.000    3.571    0.194    0.424   90.924
  386.250    3.312    0.175    0.425   90.933
  386.500    2.544    0.154    0.434   92.771
  386.750    2.188    0.160    0.444   89.123
  387.000    2.030    0.268    0.471   87.301
  387.250    1.883    0.297    0.479   85.481
  387.500    1.848    0.298    0.478   83.663
  387.750    1.883    0.287    0.469   81.843
  388.000    1.956    0.257    0.462   80.635
  388.250    2.032    0.240    0.468   81.862
  388.500    2.111    0.270    0.478   83.090
  388.750    2.151    0.272    0.450   80.052
  389.000    2.193    0.265    0.449   81.890
  389.250    2.235    0.244    0.455   83.120
  389.500    2.366    0.225    0.466   87.398
  389.750    2.600    0.230    0.451   91.674
  390.000    3.025    0.241    0.444   90.464
  390.250    3.201    0.249    0.435   84.987
  390.500    3.724    0.230    0.407   82.557
  390.750    4.414    0.168    0.383   82.566
  391.000    4.852    0.147    0.388   86.235
  391.250    5.233    0.198    0.402   88.073
  391.500    5.436    0.247    0.393   88.085
  391.750    5.437    0.239    0.408   88.703
  392.000    5.439    0.214    0.427   89.322
  392.250    5.338    0.180    0.418   83.845
  392.500    4.951    0.174    0.418   82.023
  392.750    4.340    0.176    0.410   90.570
  393.000    4.102    0.178    0.408   95.458
  393.250    3.804    0.183    0.424   93.028
  393.500    3.529    0.198    0.441   94.866
  393.750    3.597    0.218    0.458   96.704
  394.000    3.667    0.226    0.441   96.104
  394.250    3.737    0.196    0.430   94.895
  394.500    3.956    0.241    0.429   89.416
  394.750    3.957    0.283    0.443   90.647
  395.000    3.957    0.295    0.456   94.313
  395.250    3.671    0.238    0.440   97.985
  395.500    3.535    0.252    0.442   98.601
  395.750    3.342    0.259    0.459  101.051
  396.000    3.280    0.259    0.454  100.448
  396.250    3.343    0.244    0.469   96.190
  396.500    3.889    0.236    0.458   94.980
  396.750    4.523    0.233    0.444   90.722
  397.000    5.674    0.251    0.422   87.681
  397.250    8.758    0.275    0.403   84.644
  397.500   11.847    0.246    0.393   81.604
  397.750   14.043    0.210    0.390   77.954
  398.000   15.730    0.189    0.401   75.526
  398.250   16.649    0.230    0.411   76.146
  398.500   17.293    0.253    0.404   76.153
  398.750   17.627    0.244    0.385   74.945
  399.000   17.302    0.259    0.384   71.907
  399.250   16.352    0.189    0.391   67.648
  399.500   14.885    0.102    0.366   65.216
  399.750   13.806    0.150    0.374   67.666
  400.000   12.100    0.268    0.394   77.459
  400.250   11.884    0.269    0.393   78.072
  400.500   12.123    0.282    0.386   73.766
  400.750   11.905    0.273    0.366   69.461
  401.000   11.916    0.084    0.343   65.771
  401.250   12.621    0.095    0.339   62.695
  401.500   14.415    0.152    0.344   62.693
  401.750   17.756    0.233    0.356   63.921
  402.000   22.290    0.274    0.368   60.845
  402.250   24.975    0.302    0.375   54.695
  402.500   28.525    0.312    0.372   48.546
  402.750   25.984    0.316    0.380   44.856
  403.000   21.534    0.326    0.369   43.624
  403.250   17.195    0.321    0.365   46.696
  403.500   14.797    0.301    0.366   50.383
  403.750   12.976    0.290    0.355   54.069
  404.000   10.755    0.276    0.372   56.526
  404.250    8.747    0.276    0.383   58.369
  404.500    7.250    0.279    0.391   65.129
  404.750    5.572    0.285    0.386   70.045
  405.000    4.364    0.265    0.406   75.576
  405.250    3.975    0.257    0.415   81.722
  405.500    4.054    0.266    0.403   85.408
  405.750    5.487    0.246    0.386   83.562
  406.000    8.475    0.237    0.365   76.183
  406.250   14.384    0.253    0.353   71.263
  406.500   24.414    0.273    0.347   67.573
  406.750   33.676    0.282    0.350   66.341
  407.000   39.200    0.265    0.344   64.495
  407.250   38.501    0.258    0.343   63.264
  407.500   33.764    0.252    0.350   65.106
  407.750   25.475    0.255    0.356   70.637
  408.000   23.194    0.246    0.388   79.241
  408.250   19.962    0.237    0.395   82.314
  408.500   17.510    0.226    0.377   82.312
  408.750   15.358    0.209    0.361   79.236
  409.000   13.474    0.199    0.352   83.537
  409.250   12.983    0.196    0.361   82.921
  409.500   12.281    0.196    0.344   85.377
  409.750   12.525    0.214    0.345   85.376
  410.000   13.024    0.231    0.347   90.292
  410.250   13.278    0.244    0.349   92.135
  410.500   14.606    0.246    0.350   95.821
  410.750   15.466    0.236    0.349   94.590
  411.000   16.076    0.232    0.342   89.055
  411.250   16.399    0.225    0.331   80.446
  411.500   16.724    0.209    0.343   74.912
  411.750   16.738    0.189    0.344   77.983
  412.000   16.754    0.189    0.338   76.138
  412.250   16.766    0.209    0.339   71.832
  412.500   16.474    0.215    0.331   67.527
  412.750   16.175    0.226    0.348   62.607
  413.000   15.298    0.220    0.353   73.056
  413.250   14.204    0.203    0.336   79.201
  413.500   13.435    0.203    0.336   83.503
  413.750   13.191    0.215    0.336   80.427
