~VERSION INFORMATION
 VERS.                 2.0:   CWLS LOG ASCII STANDARD -VERSION 2.0
 WRAP.                  NO:   ONE LINE PER DEPTH STEP
~WELL INFORMATION BLOCK
#MNEM.UNIT           DATA                    DESCRIPTION OF MNEMONIC
#---------    -------------------            -------------------------------
# Generated from Intellog Unique Number	CW_73_75/WELL/198
WELL.         IOE CDN SUP CALLING LK 10-16   : Well_name    - WELL
LOC .         00/10-16-073-22W4/0M           : Location     - LOCATION
UWI .         00/10-16-073-22W4/0            : Uwi          - UNIQUE WELL ID
ENTR.         JJ                             : Entered      - ENTERED BY
SRVC.         SCHLUMBERGER                   : Scn          - SERVICE COMPANY
DATE.         18 FEB 66                      : Date         - LOG DATE
STRT.M        463.296                        : top_depth    - START DEPTH
STOP.M        591.296                        : bot_depth    - STOP DEPTH
STEP.M        0.25                           : increment    - STEP LENGTH
 NULL. -999.2500:NULL Value
~CURVE INFORMATION BLOCK
#MNEM UNIT       ERCB CURVE CODE    CURVE DESCRIPTION
#-----------   ------------------   ----------------------------------
DEPT.M        00 001 00 00         : DEPTH        - DEPTH
DELT.US/F     00 520 00 00         : DELT         - SONIC TRAVEL TIME
GR  .API      00 310 00 00         : GR           - GAMMA RAY
ILD .OHMM     00 120 00 00         : RESD         - DEEP RESISTIVITY (DIL)
~PARAMETER INFORMATION
#MNEM.UNIT           DATA             DESCRIPTION OF MNEMONIC
#---------         -----------     ------------------------------
GL  .M        626.852              : gl           - GROUND LEVEL ELEVATION
EREF.M        630.022              : kb           - ELEVATION OF DEPTH REFERENCE
DATM.M        626.852              : datum        - DATUM ELEVATION
TDD .M        594.36               : tdd          - TOTAL DEPTH DRILLER
RUN .         ONE                  : Run          - RUN NUMBER
ENG .         SWINARTON            : Engineer     - RECORDING ENGINEER
WIT .         BURNE                : Witness      - WITNESSED BY
BASE.         EDM                  : Branch       - HOME BASE OF LOGGING UNIT
MUD .         GEL-CHEM             : Mud_type     - MUD TYPE
MATR.         SANDSTONE            : Logunit      - NEUTRON MATRIX
TMAX.C        18.8889              : BHT          - MAXIMUM RECORDED TEMPERATURE
BHTD.M        594.665              : BHTDEP       - MAXIMUM RECORDED TEMPERATURE
RMT .C        18.8889              : MDTP         - TEMPERATURE OF MUD
MUDD.KG/M     1140                 : MWT          - MUD DENSITY
NEUT.         1                    : NEUTRON      - NEUTRON TYPE
RESI.         0                    : RESIST       - RESISTIVITY TYPE
RM  .OHMM     3.24                 : RM           - RESISTIVITY OF MUD
RMC .OHMM     2.16                 : RMC          - RESISTIVITY OF MUD CAKE
RMF .OHMM     2.88                 : RMF          - RESISTIVITY OF MUD FILTRATE
SUFT.C        5                    : SUFT         - SURFACE TEMPERATURE
~A  DEPTH     DELT       GR     RESD
  463.296  376.895   58.670    4.766
  463.546  397.337   55.719    4.380
  463.796  400.333   56.829    4.398
  464.046  397.580   60.150    4.398
  464.296  394.694   62.114    4.424
  464.546  392.409   63.728    4.438
  464.796  393.801   61.026    4.454
  465.046  396.464   57.319    4.268
  465.296  399.794   54.918    4.184
  465.546  403.928   53.924    4.200
  465.796  407.457   52.376    4.210
  466.046  407.113   50.776    4.028
  466.296  403.290   52.942    3.845
  466.546  400.402   55.360    3.659
  466.796  400.058   57.575    3.574
  467.046  407.533   57.583    3.588
  467.296  407.851   56.185    3.600
  467.546  406.975   55.491    3.515
  467.796  400.275   54.594    3.529
  468.046  397.057   52.796    3.545
  468.296  400.989   51.046    3.557
  468.546  404.119   48.194    3.573
  468.796  399.360   48.201    3.688
  469.046  391.528   51.722    3.799
  469.296  383.561   55.092    3.815
  469.546  384.953   58.663    3.732
  469.796  386.211   61.180    3.645
  470.046  382.791   62.995    3.659
  470.296  382.043   63.806    3.673
  470.546  384.572   64.267    3.687
  470.796  384.159   65.127    3.800
  471.046  383.342   66.440    3.915
  471.296  382.864   66.999    4.025
  471.546  383.655   67.210    4.140
  471.796  384.444   67.117    4.056
  472.046  383.764   67.222    3.967
  472.296  382.082   69.139    3.884
  472.546  381.134   71.604    3.700
  472.796  382.794   74.775    3.319
  473.046  388.731   76.689    3.035
  473.296  401.287   77.901    2.750
  473.546  418.989   77.256    2.466
  473.796  431.076   75.809    2.579
  474.046  425.984   76.820    3.091
  474.296  412.201   79.237    3.401
  474.546  394.007   79.195    4.012
  474.796  378.020   75.389    5.514
  475.046  366.174   70.780    6.024
  475.296  371.177   71.038    6.337
  475.546  372.302   73.052    6.450
  475.796  367.809   76.272    6.463
  476.046  366.996   79.392    5.982
  476.296  369.124   82.561    5.798
  476.546  372.719   79.005    5.612
  476.796  375.116   77.660    5.626
  477.046  376.910   78.721    5.840
  477.296  378.636   81.086    6.051
  477.546  380.496   81.447    6.164
  477.796  382.487   83.061    6.180
  478.046  379.669   84.823    6.096
  478.296  374.443   81.268    6.107
  478.546  373.094   80.824    6.126
  478.796  374.754   83.894    6.037
  479.046  380.624   85.609    6.053
  479.296  381.616   83.909    6.067
  479.546  380.600   81.257    6.180
  479.796  378.248   83.874    6.292
  480.046  376.499   85.940    6.306
  480.296  379.363   88.056    6.322
  480.546  375.874   88.064    6.036
  480.796  378.335   85.662    5.356
  481.046  380.862   83.411    4.477
  481.296  382.788   84.673    3.995
  481.546  385.519   86.689    4.011
  481.796  389.185   85.343    4.323
  482.046  393.584   81.234    4.732
  482.296  389.562   78.883    5.346
  482.546  383.601   79.995    5.557
  482.796  377.436   82.462    5.672
  483.046  375.820   84.125    5.781
  483.296  379.152   81.775    5.896
  483.546  379.676   78.821    5.910
  483.796  379.128   75.417    5.924
  484.046  381.054   73.566    6.041
  484.296  381.177   71.717    6.041
  484.546  381.835   70.973    6.071
  484.796  376.876   74.142    6.080
  485.046  375.392   78.767    6.094
  485.296  379.459   80.632    6.118
  485.546  382.255   79.736    6.122
  485.796  382.308   79.344    6.038
  486.046  379.022   79.301    6.049
  486.296  376.470   79.910    5.967
  486.546  375.790   80.119    5.981
  486.796  375.109   77.918    5.993
  487.046  373.824   76.821    6.009
  487.296  373.147   77.632    6.021
  487.546  369.392   80.652    6.135
  487.796  371.586   83.269    6.149
  488.046  374.582   83.528    6.063
  488.296  376.174   79.871    5.980
  488.546  376.094   82.189    5.994
  488.796  374.613   78.885    6.008
  489.046  374.334   76.886    6.022
  489.296  372.048   76.690    6.036
  489.546  372.036   77.201    6.148
  489.796  371.957   78.412    6.163
  490.046  372.279   80.578    6.177
  490.296  371.801   83.095    6.094
  490.546  369.850   86.015    5.910
  490.796  368.634   87.127    5.725
  491.046  370.227   84.674    5.543
  491.296  372.422   82.023    5.456
  491.546  377.157   81.328    5.370
  491.796  382.491   82.239    5.285
  492.046  386.758   80.842    5.099
  492.296  386.012   79.343    4.917
  492.546  381.253   75.186    4.929
  492.796  376.962   72.182    4.845
  493.046  374.345   69.329    4.859
  493.296  372.259   66.827    4.873
  493.546  371.245   64.727    4.886
  493.796  380.191   62.928    5.098
  494.046  385.862   61.230    5.410
  494.296  387.653   59.932    6.022
  494.546  383.765   58.485    6.830
  494.796  363.700   57.389    7.538
  495.046  350.585   59.956    7.552
  495.296  336.938   66.187    7.570
  495.546  336.724   68.201    7.481
  495.796  351.820   68.209    7.396
  496.046  361.702   64.603    7.309
  496.296  347.318   59.743    7.125
  496.546  340.688   58.696    6.742
  496.796  343.082   61.064    6.162
  497.046  349.354   64.635    5.879
  497.296  363.247   68.558    5.693
  497.546  369.516   73.433    5.709
  497.796  370.509   77.356    5.822
  498.046  377.583   78.367    6.034
  498.296  379.843   78.927    6.247
  498.546  377.693   80.240    6.459
  498.796  377.682   78.541    6.572
  499.046  375.731   73.480    6.786
  499.296  371.842   72.685    6.900
  499.546  378.379   74.299    7.011
  499.796  372.286   77.318    7.223
  500.046  364.719   79.433    7.436
  500.296  359.628   80.595    7.551
  500.546  354.670   81.406    7.565
  500.796  351.113   81.614    7.579
  501.046  348.696   81.823    7.295
  501.296  349.219   82.232    6.914
  501.546  357.496   82.841    6.932
  501.796  363.166   85.410    6.942
  502.046  367.700   86.923    7.055
  502.296  369.157   86.227    7.369
  502.546  367.876   80.463    7.780
  502.796  366.662   74.499    8.288
  503.046  341.516   71.596    8.498
  503.296  328.135   67.387    8.316
  503.546  319.697   67.748    8.032
  503.796  320.490   73.526    7.848
  504.046  340.132   80.360    7.564
  504.296  352.218   83.880    7.477
  504.546  355.683   83.185    7.293
  504.796  352.463   82.591    7.211
  505.046  358.467   83.301    7.126
  505.296  366.608   84.062    6.944
  505.546  369.873   83.970    6.855
  505.796  373.136   83.625    6.869
  506.046  372.255   82.981    7.083
  506.296  363.888   82.336    7.195
  506.546  353.848   81.792    7.113
  506.796  348.890   81.600    6.927
  507.046  349.949   81.106    6.840
  507.296  357.154   79.707    6.755
  507.546  360.485   80.066    6.572
  507.796  362.944   82.634    6.584
  508.046  364.139   83.997    6.499
  508.296  366.665   83.904    6.317
  508.546  371.201   82.207    6.231
  508.796  374.532   83.368    6.144
  509.046  375.789   82.925    6.061
  509.296  375.645   81.778    5.974
  509.546  373.959   81.335    5.992
  509.796  372.277   81.893    6.004
  510.046  371.596   84.862    6.020
  510.296  370.515   86.927    6.032
  510.546  367.764   86.033    5.947
  510.796  363.004   84.384    5.863
  511.046  359.585   84.091    5.876
  511.296  356.163   85.102    5.891
  511.546  356.219   86.515    5.707
  511.796  358.813   86.823    5.524
  512.046  362.011   85.174    5.436
  512.296  368.548   82.423    5.253
  512.546  370.544   82.532    5.467
  512.796  369.595   83.392    5.577
  513.046  360.293   84.402    5.789
  513.296  359.477   84.863    6.002
  513.546  355.187   85.773    6.216
  513.796  352.302   87.687    6.529
  514.046  351.754   83.630    6.839
  514.296  346.329   79.273    7.151
  514.546  339.365   75.164    7.664
  514.796  341.960   68.647    7.974
  515.046  305.650   62.281    8.186
  515.296  290.595   64.547    8.004
  515.546  287.511   71.380    7.720
  515.796  322.594   78.867    7.238
  516.046  337.755   78.372    6.852
  516.296  350.444   77.929    6.471
  516.546  359.256   77.886    6.285
  516.796  364.259   79.098    6.301
  517.046  365.515   84.426    6.316
  517.296  365.169   87.496    6.329
