~VERSION INFORMATION
 VERS.                 2.0:   CWLS LOG ASCII STANDARD -VERSION 2.0
 WRAP.                  NO:   ONE LINE PER DEPTH STEP
~WELL INFORMATION BLOCK
#MNEM.UNIT           DATA                    DESCRIPTION OF MNEMONIC
#---------    -------------------            -------------------------------
# Generated from Intellog Unique Number	CS_73_76/WELL/4786
WELL.         AMOCO                          : Well_name    - WELL
LOC .         00/11-05-074-04W4/0            : Location     - LOCATION
UWI .         00/11-05-074-04W4/0            : Uwi          - UNIQUE WELL ID
ENTR.         T                              : Entered      - ENTERED BY
SRVC.         SCHLUMBERGER                   : Scn          - SERVICE COMPANY
STRT.M        225                            : top_depth    - START DEPTH
STOP.M        440                            : bot_depth    - STOP DEPTH
STEP.M        0.25                           : increment    - STEP LENGTH
 NULL. -999.2500:NULL Value
~CURVE INFORMATION BLOCK
#MNEM UNIT       ERCB CURVE CODE    CURVE DESCRIPTION
#-----------   ------------------   ----------------------------------
DEPT.M        00 001 00 00         : DEPTH        - DEPTH
GR  .API      00 310 00 00         : GR           - GAMMA RAY
NPHI.V/V      00 330 00 00         : PHIN         - NEUTRON POROSITY (SANDSTONE)
DPHI.V/V      00 890 00 00         : PHID         - DENSITY POROSITY (SANDSTONE)
ILD .OHMM     00 120 00 00         : RESD         - DEEP RESISTIVITY (DIL)
~PARAMETER INFORMATION
#MNEM.UNIT           DATA             DESCRIPTION OF MNEMONIC
#---------         -----------     ------------------------------
GL  .M        630.2                : gl           - GROUND LEVEL ELEVATION
EREF.M        634.4                : kb           - ELEVATION OF DEPTH REFERENCE
DATM.M        634.4                : datum        - DATUM ELEVATION
TDD .M        445                  : tdd          - TOTAL DEPTH DRILLER
RUN .         ONE                  : Run          - RUN NUMBER
ENG .         BILL                 : Engineer     - RECORDING ENGINEER
WIT .         JIM                  : Witness      - WITNESSED BY
MUD .         GEL                  : Mud_type     - MUD TYPE
MATR.         SANDSTONE            : Logunit      - NEUTRON MATRIX
TMAX.C        21                   : BHT          - MAXIMUM RECORDED TEMPERATURE
BHTD.M        445                  : BHTDEP       - MAXIMUM RECORDED TEMPERATURE
MATR.         1                    : LOGUNIT      - NEUTRON MATRIX
RMT .C        25                   : MDTP         - TEMPERATURE OF MUD
NEUT.         1                    : NEUTRON      - NEUTRON TYPE
RESI.         0                    : RESIST       - RESISTIVITY TYPE
RMC .OHMM     5.6                  : RMC          - RESISTIVITY OF MUD CAKE
RMF .OHMM     5.4                  : RMF          - RESISTIVITY OF MUD FILTRATE
SUFT.C        15                   : SUFT         - SURFACE TEMPERATURE
~A  DEPTH       GR     PHIN     PHID     RESD
# ...
  355.500   70.797    0.316    0.368    3.387
  355.750   70.824    0.327    0.391    3.223
  356.000   70.220    0.336    0.397    3.118
  356.250   69.013    0.344    0.391    2.919
  356.500   69.024    0.351    0.377    2.873
  356.750   69.046    0.343    0.371    2.874
  357.000   69.067    0.333    0.375    2.878
  357.250   69.094    0.322    0.379    2.882
  357.500   69.735    0.323    0.380    2.836
  357.750   71.616    0.331    0.376    2.792
  358.000   74.121    0.358    0.382    2.703
  358.250   75.997    0.442    0.453    2.614
  358.500   77.872    0.482    0.503    2.445
  358.750   81.612    0.506    0.273    1.933
  359.000   85.352    0.503    0.278    1.691
  359.250   85.373    0.492    0.278    1.530
  359.500   84.780    0.481    0.279    1.505
  359.750   84.177    0.474    0.293    1.481
  360.000   84.198    0.471    0.301    1.363
  360.250   83.600    0.465    0.293    1.319
  360.500   84.247    0.455    0.279    1.255
  360.750   84.893    0.443    0.268    1.278
  361.000   84.909    0.448    0.256    1.515
  361.250   85.550    0.451    0.243    1.706
  361.500   86.192    0.460    0.238    1.827
  361.750   86.838    0.462    0.236    1.991
  362.000   86.865    0.470    0.235    1.993
  362.250   86.256    0.494    0.238    1.928
  362.500   85.663    0.498    0.265    1.866
  362.750   85.690    0.509    0.280    1.776
  363.000   85.701    0.525    0.303    1.748
  363.250   85.722    0.531    0.299    1.664
  363.500   85.124    0.521    0.288    1.610
  363.750   83.912    0.501    0.280    1.558
  364.000   82.074    0.494    0.281    1.559
  364.250   83.335    0.495    0.285    1.642
  364.500   84.591    0.499    0.283    1.672
  364.750   85.237    0.506    0.283    1.732
  365.000   84.014    0.510    0.285    1.793
  365.250   80.948    0.518    0.280    1.888
  365.500   79.724    0.500    0.270    2.022
  365.750   78.501    0.466    0.264    2.357
  366.000   74.810    0.447    0.255    2.654
  366.250   71.113    0.442    0.254    3.254
  366.500   67.411    0.434    0.260    3.922
  366.750   60.615    0.226    0.267    5.322
  367.000   51.341    0.211    0.287   10.644
  367.250   45.791    0.214    0.314   15.193
  367.500   45.817    0.243    0.328   18.312
  367.750   45.828    0.251    0.337   20.285
  368.000   45.860    0.266    0.338   22.101
  368.250   45.877    0.293    0.333   21.753
  368.500   45.893    0.312    0.333   21.406
  368.750   45.300    0.335    0.335   20.722
  369.000   44.696    0.352    0.333   19.389
  369.250   44.103    0.349    0.327   18.137
  369.500   44.120    0.323    0.311   16.686
  369.750   44.141    0.316    0.299   16.153
  370.000   44.782    0.316    0.284   15.637
  370.250   44.804    0.302    0.324   15.387
  370.500   45.445    0.273    0.347   14.160
  370.750   45.466    0.247    0.361   13.467
  371.000   45.493    0.231    0.364   12.390
  371.250   45.515    0.216    0.367   10.658
  371.500   45.542    0.205    0.369    9.321
  371.750   45.552    0.202    0.379    8.290
  372.000   45.579    0.199    0.388    7.887
  372.250   45.601    0.199    0.394    7.505
  372.500   45.622    0.199    0.397    7.266
  372.750   46.269    0.200    0.401    7.149
  373.000   46.285    0.203    0.407    7.039
  373.250   46.932    0.205    0.412    7.044
  373.500   46.942    0.206    0.409    6.934
  373.750   46.975    0.207    0.400    6.939
  374.000   46.371    0.207    0.392    6.948
  374.250   45.773    0.205    0.389    6.953
  374.500   45.180    0.202    0.381    6.961
  374.750   45.810    0.202    0.381    6.972
  375.000   45.843    0.202    0.381    6.977
  375.250   45.853    0.202    0.387    6.752
  375.500   45.875    0.197    0.397    6.648
  375.750   44.037    0.194    0.396    6.436
  376.000   43.444    0.192    0.391    6.439
  376.250   44.711    0.192    0.388    6.339
  376.500   45.966    0.187    0.388    6.346
  376.750   46.613    0.184    0.389    6.244
  377.000   47.249    0.185    0.391    6.253
  377.250   47.281    0.189    0.393    6.257
  377.500   47.297    0.187    0.394    6.481
  377.750   47.319    0.180    0.394    6.826
  378.000   47.335    0.153    0.404    7.064
  378.250   47.362    0.147    0.432    7.828
  378.500   47.383    0.143    0.441    8.381
  378.750   47.399    0.149    0.445    9.933
  379.000   47.432    0.153    0.434   11.381
  379.250   46.828    0.152    0.400   12.607
  379.500   46.844    0.150    0.351   12.838
  379.750   46.866    0.142    0.335   12.633
  380.000   46.892    0.137    0.368   11.827
  380.250   47.528    0.180    0.405   11.440
  380.500   47.561    0.206    0.410   10.349
  380.750   47.577    0.255    0.396    8.899
  381.000   47.598    0.303    0.375    6.915
  381.250   47.625    0.326    0.358    5.023
  381.500   47.641    0.354    0.353    3.409
  381.750   47.668    0.348    0.343    2.834
  382.000   48.298    0.352    0.327    2.094
  382.250   50.799    0.379    0.316    1.285
  382.500   56.403    0.398    0.313    1.123
  382.750   56.430    0.422    0.320    1.203
  383.000   55.821    0.429    0.327    1.267
  383.250   55.223    0.436    0.328    1.206
  383.500   53.396    0.441    0.330    1.186
  383.750   52.787    0.444    0.330    1.129
  384.000   50.960    0.440    0.327    1.057
  384.250   50.971    0.432    0.321    0.972
  384.500   49.753    0.427    0.310    0.941
  384.750   49.160    0.424    0.298    0.881
  385.000   49.176    0.426    0.289    0.866
  385.250   49.209    0.429    0.282    0.853
  385.500   49.230    0.436    0.285    0.929
  385.750   49.866    0.440    0.309    1.082
  386.000   49.887    0.442    0.320    1.768
  386.250   49.909    0.447    0.322    4.557
  386.500   49.316    0.449    0.322    5.492
  386.750   48.712    0.447    0.319    6.733
  387.000   48.745    0.450    0.317    7.585
  387.250   48.136    0.461    0.318    7.854
  387.500   48.168    0.464    0.319    7.862
  387.750   48.179    0.453    0.318    7.740
  388.000   48.200    0.438    0.314    7.619
  388.250   49.461    0.431    0.311    7.499
  388.500   50.722    0.435    0.311    7.255
  388.750   53.222    0.442    0.306    6.906
  389.000   55.723    0.440    0.302    6.460
  389.250   58.223    0.437    0.291    6.046
  389.500   60.104    0.444    0.288    5.953
  389.750   63.844    0.457    0.285    5.856
  390.000   65.105    0.466    0.268    5.479
  390.250   63.272    0.472    0.266    4.874
  390.500   62.060    0.462    0.268    3.199
  390.750   61.456    0.456    0.270    2.659
  391.000   60.244    0.447    0.271    1.998
  391.250   59.645    0.445    0.267    1.689
  391.500   60.281    0.442    0.260    1.477
  391.750   63.401    0.435    0.256    1.382
  392.000   67.141    0.429    0.254    1.384
  392.250   69.022    0.424    0.246    1.457
  392.500   70.283    0.421    0.239    1.641
  392.750   67.825    0.425    0.237    2.153
  393.000   64.748    0.426    0.264    3.288
  393.250   61.051    0.424    0.274    3.641
  393.500   57.349    0.425    0.284    5.561
  393.750   51.793    0.432    0.296    8.208
  394.000   48.097    0.430    0.311    9.565
  394.250   45.025    0.409    0.322   10.776
  394.500   48.145    0.403    0.317   12.774
  394.750   52.505    0.398    0.310   14.154
  395.000   57.489    0.391    0.289   13.465
  395.250   61.849    0.388    0.285   12.385
  395.500   63.109    0.381    0.274   10.653
  395.750   64.990    0.379    0.263    8.142
  396.000   68.105    0.388    0.259    7.489
  396.250   74.323    0.408    0.248    6.888
  396.500   72.486    0.414    0.240    6.024
  396.750   65.691    0.394    0.235    4.842
  397.000   60.754    0.390    0.291    3.892
  397.250   61.395    0.376    0.294    3.290
  397.500   66.994    0.364    0.286    3.293
  397.750   71.354    0.362    0.264    4.177
  398.000   76.953    0.372    0.257    5.479
  398.250   78.214    0.394    0.243    5.126
  398.500   76.382    0.397    0.214    4.715
  398.750   72.690    0.417    0.244    4.265
