~VERSION INFORMATION
 VERS.                 2.0:   CWLS LOG ASCII STANDARD -VERSION 2.0
 WRAP.                  NO:   ONE LINE PER DEPTH STEP
~WELL INFORMATION BLOCK
#MNEM.UNIT           DATA                    DESCRIPTION OF MNEMONIC
#---------    -------------------            -------------------------------
# Generated from Intellog Unique Number	CW_82_90/WELL/3452
WELL.         COSEKA RES.                    : Well_name    - WELL
LOC .         00/11-22-090-20W4/0            : Location     - LOCATION
UWI .         00/11-22-090-20W4/0            : Uwi          - UNIQUE WELL ID
ENTR.         MAX                            : Entered      - ENTERED BY
SRVC.         SCHLUMBERGER                   : Scn          - SERVICE COMPANY
STRT.M        100                            : top_depth    - START DEPTH
STOP.M        240                            : bot_depth    - STOP DEPTH
STEP.M        0.25                           : increment    - STEP LENGTH
 NULL. -999.2500:NULL Value
~CURVE INFORMATION BLOCK
#MNEM UNIT       ERCB CURVE CODE    CURVE DESCRIPTION
#-----------   ------------------   ----------------------------------
DEPT.M        00 001 00 00         : DEPTH        - DEPTH
ILD .OHMM     00 120 00 00         : RESD         - DEEP RESISTIVITY (DIL)
NPHI.V/V      00 330 00 00         : PHIN         - NEUTRON POROSITY (SANDSTONE)
DPHI.V/V      00 890 00 00         : PHID         - DENSITY POROSITY (SANDSTONE)
CALI.MM       00 280 01 00         : CAL          - CALIPER
GR  .API      00 310 00 00         : GR           - GAMMA RAY
~PARAMETER INFORMATION
#MNEM.UNIT           DATA             DESCRIPTION OF MNEMONIC
#---------         -----------     ------------------------------
GL  .M        517.8                : gl           - GROUND LEVEL ELEVATION
EREF.M        520.7                : kb           - ELEVATION OF DEPTH REFERENCE
DATM.M        517.8                : datum        - DATUM ELEVATION
TDD .M        243                  : tdd          - TOTAL DEPTH DRILLER
RUN .         ONE                  : Run          - RUN NUMBER
ENG .         BILL                 : Engineer     - RECORDING ENGINEER
WIT .         JIM                  : Witness      - WITNESSED BY
MUD .         GEL                  : Mud_type     - MUD TYPE
MATR.         SANDSTONE            : Logunit      - NEUTRON MATRIX
TMAX.C        23.1                 : BHT          - MAXIMUM RECORDED TEMPERATURE
BHTD.M        243                  : BHTDEP       - MAXIMUM RECORDED TEMPERATURE
MATR.         1                    : LOGUNIT      - NEUTRON MATRIX
RMT .C        20                   : MDTP         - TEMPERATURE OF MUD
NEUT.         1                    : NEUTRON      - NEUTRON TYPE
RESI.         0                    : RESIST       - RESISTIVITY TYPE
RMC .OHMM     3.22                 : RMC          - RESISTIVITY OF MUD CAKE
RMF .OHMM     3.22                 : RMF          - RESISTIVITY OF MUD FILTRATE
SUFT.C        -10                  : SUFT         - SURFACE TEMPERATURE
~A  DEPTH     RESD     PHIN     PHID      CAL       GR
# ...
  173.000   14.602    0.417    0.209  163.400   69.743
  173.250   14.756    0.407    0.226  163.323   75.636
  173.500   15.044    0.398    0.213  163.224   81.536
  173.750   15.198    0.385    0.204  162.134   85.348
  174.000   15.354    0.380    0.206  162.045   84.701
  174.250   15.658    0.388    0.211  162.442   85.533
  174.500   16.267    0.396    0.214  163.367   86.075
  174.750   17.378    0.393    0.211  161.781   80.069
  175.000   19.271    0.407    0.201  161.197   76.158
  175.250   20.021    0.405    0.175  160.602   71.051
  175.500   20.041    0.381    0.091  160.525   65.045
  175.750   19.326    0.285    0.019  160.943   60.526
  176.000   18.117    0.281    0.027  161.835   62.858
  176.250   16.063    0.337    0.134  162.738   72.616
  176.500   14.511    0.371    0.207  163.156   77.624
  176.750   14.524    0.393    0.190  164.532   90.956
  177.000   14.535    0.407    0.177  165.424   89.708
  177.250   15.102    0.395    0.161  166.349   85.492
  177.500   14.696    0.387    0.126  166.261   86.034
  177.750   13.781    0.421    0.145  166.657   88.941
  178.000   13.166    0.415    0.167  166.569   91.577
  178.250   13.175    0.406    0.157  167.483   91.815
  178.500   13.562    0.400    0.141  167.890   92.363
  178.750   13.831    0.425    0.163  168.275   91.709
  179.000   13.844    0.422    0.161  167.702   89.879
  179.250   13.983    0.408    0.139  166.062   86.542
  179.500   14.127    0.397    0.105  166.535   88.280
  179.750   14.009    0.399    0.134  166.458   92.990
  180.000   14.021    0.417    0.200  166.359   97.397
  180.250   14.703    0.421    0.204  166.270   96.743
  180.500   15.707    0.415    0.202  166.160   92.230
  180.750   17.097    0.395    0.204  166.094   86.528
  181.000   18.270    0.378    0.210  166.006   79.624
  181.250   18.288    0.364    0.188  165.906   79.281
  181.500   18.302    0.352    0.156  165.829   78.924
  181.750   18.317    0.328    0.084  165.730   78.276
  182.000   17.993    0.333    0.167  165.642   79.710
  182.250   17.349    0.366    0.207  166.060   82.035
  182.500   16.730    0.381    0.225  165.961   83.766
  182.750   16.283    0.387    0.229  164.882   85.200
  183.000   15.848    0.386    0.216  165.289   85.147
  183.250   15.568    0.376    0.182  165.685   85.695
  183.500   15.437    0.367    0.172  165.608   89.805
  183.750   15.449    0.372    0.175  165.520   92.421
  184.000   15.607    0.382    0.190  165.927   92.963
  184.250   15.915    0.393    0.188  165.828   92.315
  184.500   15.347    0.394    0.182  165.751   91.377
  184.750   15.077    0.391    0.174  165.662   88.945
  185.000   14.813    0.384    0.169  165.574   86.514
  185.250   14.550    0.381    0.182  165.486   87.650
  185.500   14.294    0.387    0.208  165.398   89.381
  185.750   14.175    0.395    0.201  165.794   91.403
  186.000   14.454    0.401    0.193  165.717   93.431
  186.250   15.441    0.408    0.188  164.626   95.459
  186.500   16.497    0.416    0.172  165.518   96.001
  186.750   16.059    0.398    0.158  166.432   87.914
  187.000   15.483    0.373    0.120  165.342   87.557
  187.250   15.353    0.366    0.138  165.265   89.295
  187.500   14.530    0.401    0.187  166.156   87.161
  187.750   12.410    0.356    0.143  165.573   83.540
  188.000    9.567    0.328    0.128  165.484   83.784
  188.250    8.171    0.371    0.122  165.396   87.008
  188.500    6.600    0.434    0.172  166.288   93.793
  188.750    5.962    0.486    0.194  166.706  104.741
  189.000    6.252    0.508    0.205  166.607  104.992
  189.250    7.332    0.498    0.208  166.530   99.283
  189.500    9.179    0.468    0.209  166.441   92.392
  189.750   11.175    0.423    0.208  166.331   87.563
  190.000   12.984    0.405    0.204  167.245   86.037
  190.250   14.002    0.417    0.199  167.146   83.896
  190.500   14.278    0.422    0.186  167.575   83.248
  190.750   14.026    0.414    0.160  167.982   81.412
  191.000   13.399    0.398    0.117  168.379   82.548
  191.250   12.921    0.398    0.138  168.786   86.063
  191.500   12.575    0.421    0.173  168.698   88.685
  191.750   12.470    0.408    0.184  168.609   90.714
  192.000   13.199    0.419    0.166  168.015   91.850
  192.250   14.235    0.431    0.176  167.949   93.587
  192.500   16.081    0.440    0.178  168.345   91.744
  192.750   17.668    0.429    0.164  168.763   88.421
  193.000   18.527    0.388    0.143  167.177   83.908
  193.250   18.544    0.347    0.078  166.098   77.004
  193.500   18.387    0.330    0.077  164.501   80.823
  193.750   18.065    0.371    0.205  163.433   84.338
  194.000   19.122    0.362    0.200  162.838   83.393
  194.250   20.433    0.354    0.204  162.277   82.150
  194.500   21.224    0.354    0.215  162.177   81.199
  194.750   22.467    0.352    0.207  162.585   80.552
  195.000   24.003    0.353    0.173  162.992   79.303
  195.250   27.627    0.344    0.153  163.862   72.716
  195.500   33.636    0.333    0.136  164.302   71.764
  195.750   38.003    0.324    0.143  164.214   69.637
  196.000   39.856    0.332    0.160  163.124   64.219
  196.250   41.018    0.314    0.169  163.035   60.308
  196.500   41.438    0.297    0.137  162.958   51.620
  196.750   40.708    0.258    0.122  162.352   49.195
  197.000   40.365    0.257    0.133  161.769   50.926
  197.250   38.925    0.266    0.134  161.207   50.272
  197.500   38.964    0.268    0.103  161.097   49.631
  197.750   39.727    0.278    0.095  161.019   48.977
  198.000   40.894    0.278    0.087  161.405   48.924
  198.250   39.065    0.272    0.076  162.329   51.256
  198.500   35.288    0.260    0.041  162.241   52.683
  198.750   29.035    0.254    0.059  161.647   55.907
  199.000   26.476    0.263    0.083  162.065   60.611
  199.250   25.295    0.332    0.138  162.461   65.315
  199.500   24.846    0.372    0.204  162.373   64.958
  199.750   25.098    0.365    0.195  162.769   63.419
  200.000   25.123    0.309    0.130  162.703   65.149
  200.250   25.142    0.297    0.109  162.108   68.968
  200.500   22.291    0.335    0.142  161.029   73.077
  200.750   19.949    0.369    0.227  160.941   76.295
  201.000   19.057    0.395    0.199  160.357   78.032
  201.250   18.549    0.402    0.169  160.269   78.277
  201.500   18.220    0.405    0.128  160.170   75.832
  201.750   17.733    0.365    0.068  160.092   75.191
  202.000   17.101    0.340    0.074  160.973   79.003
  202.250   16.644    0.357    0.111  160.885   83.714
  202.500   16.198    0.399    0.157  161.314   88.715
  202.750   15.619    0.417    0.176  161.710   90.736
  203.000   15.342    0.416    0.168  162.602   87.717
  203.250   14.934    0.389    0.147  163.032   84.982
  203.500   14.671    0.384    0.117  162.943   84.037
  203.750   14.410    0.398    0.108  162.833   85.464
  204.000   14.158    0.396    0.149  163.251   87.492
  204.250   14.172    0.394    0.172  163.648   88.338
  204.500   14.181    0.401    0.161  163.570   88.873
  204.750   14.462    0.406    0.148  163.460   88.232
  205.000   14.475    0.406    0.136  163.394   87.584
  205.250   14.489    0.391    0.157  163.306   88.423
  205.500   14.500    0.388    0.170  162.722   90.742
  205.750   13.725    0.390    0.200  162.127   90.689
  206.000   12.748    0.408    0.188  162.028   90.636
  206.250   12.878    0.405    0.164  161.962   89.989
  206.500   13.505    0.402    0.161  161.874   89.632
  206.750   13.771    0.408    0.164  162.270   89.586
  207.000   13.916    0.412    0.115  163.173   87.154
  207.250   13.924    0.396    0.096  163.580   86.507
  207.500   13.938    0.397    0.121  164.483   87.339
  207.750   13.820    0.403    0.164  164.383   88.178
  208.000   13.834    0.406    0.189  164.791   89.017
  208.250   13.974    0.413    0.179  164.691   89.255
  208.500   14.117    0.411    0.152  165.110   89.208
  208.750   14.264    0.390    0.116  166.024   89.156
  209.000   14.274    0.387    0.077  165.935   93.265
  209.250   14.154    0.414    0.077  166.343   97.678
