~VERSION INFORMATION
 VERS.                 2.0:   CWLS LOG ASCII STANDARD -VERSION 2.0
 WRAP.                  NO:   ONE LINE PER DEPTH STEP
~WELL INFORMATION BLOCK
#MNEM.UNIT           DATA                    DESCRIPTION OF MNEMONIC
#---------    -------------------            -------------------------------
# Generated from Intellog Unique Number	CW_79_81/WELL/773
WELL.         PACIFIC STONY RAPIDS           : Well_name    - WELL
LOC .         00/10-13-080-19W4/0            : Location     - LOCATION
UWI .         00/10-13-080-19W4/0            : Uwi          - UNIQUE WELL ID
ENTR.         MAX                            : Entered      - ENTERED BY
SRVC.         SCHLUMBERGER                   : Scn          - SERVICE COMPANY
STRT.M        182.88                         : top_depth    - START DEPTH
STOP.M        365.88                         : bot_depth    - STOP DEPTH
STEP.M        0.25                           : increment    - STEP LENGTH
 NULL. -999.2500:NULL Value
~CURVE INFORMATION BLOCK
#MNEM UNIT       ERCB CURVE CODE    CURVE DESCRIPTION
#-----------   ------------------   ----------------------------------
DEPT.M        00 001 00 00         : DEPTH        - DEPTH
ILD .OHMM     00 120 00 00         : RESD         - DEEP RESISTIVITY (DIL)
NPHI.V/V      00 330 00 00         : PHIN         - NEUTRON POROSITY (SANDSTONE)
DPHI.V/V      00 890 00 00         : PHID         - DENSITY POROSITY (SANDSTONE)
CALI.MM       00 280 01 00         : CAL          - CALIPER
GR  .API      00 310 00 00         : GR           - GAMMA RAY
~PARAMETER INFORMATION
#MNEM.UNIT           DATA             DESCRIPTION OF MNEMONIC
#---------         -----------     ------------------------------
GL  .M        565.526              : gl           - GROUND LEVEL ELEVATION
EREF.M        568.879              : kb           - ELEVATION OF DEPTH REFERENCE
DATM.M        565.526              : datum        - DATUM ELEVATION
TDD .M        407.213              : tdd          - TOTAL DEPTH DRILLER
RUN .         ONE                  : Run          - RUN NUMBER
ENG .         BILL                 : Engineer     - RECORDING ENGINEER
WIT .         JIM                  : Witness      - WITNESSED BY
MUD .         GEL                  : Mud_type     - MUD TYPE
MATR.         SANDSTONE            : Logunit      - NEUTRON MATRIX
TMAX.C        25.5556              : BHT          - MAXIMUM RECORDED TEMPERATURE
BHTD.M        407.213              : BHTDEP       - MAXIMUM RECORDED TEMPERATURE
RMT .C        23.3333              : MDTP         - TEMPERATURE OF MUD
MUDD.KG/M     1100                 : MWT          - MUD DENSITY
NEUT.         1                    : NEUTRON      - NEUTRON TYPE
RESI.         0                    : RESIST       - RESISTIVITY TYPE
RM  .OHMM     2.45                 : RM           - RESISTIVITY OF MUD
RMC .OHMM     0                    : RMC          - RESISTIVITY OF MUD CAKE
RMF .OHMM     2.45                 : RMF          - RESISTIVITY OF MUD FILTRATE
SUFT.C        -20.5556             : SUFT         - SURFACE TEMPERATURE
~A  DEPTH     RESD     PHIN     PHID      CAL       GR
  182.880    7.576    0.541    0.351  173.734   56.998
  183.130    7.785    0.519    0.370  173.184   59.073
  183.380    7.785    0.519    0.375  173.142   59.356
  183.630    7.854    0.538    0.373  172.601   58.134
  183.880    7.925    0.554    0.356  172.056   55.710
  184.130    7.640    0.568    0.353  171.515   52.985
  184.380    7.501    0.555    0.349  172.997   54.457
  184.630    7.500    0.542    0.321  176.012   57.740
  184.880    7.567    0.538    0.169  189.182   64.024
  185.130    7.776    0.495    0.286  202.860   71.501
  185.380    7.991    0.489    0.261  224.158   79.276
  185.630    8.287    0.513    0.299  237.328   79.854
  185.880    8.515    0.518    0.336  233.735   79.235
  186.130    8.592    0.504    0.347  216.426   78.304
  186.380    8.513    0.498    0.351  234.676   79.788
  186.630    9.324    0.506    0.381  243.782   83.665
  186.880   11.087    0.498    0.354  193.450   87.841
  187.130   10.688    0.474    0.294  178.169   90.518
  187.380    9.845    0.449    0.232  178.126   91.996
  187.630    8.823    0.432    0.242  178.089   93.474
  187.880    8.662    0.459    0.228  178.056   95.552
  188.130    8.582    0.474    0.229  177.506   96.730
  188.380    8.426    0.458    0.231  177.977   95.810
  188.630    8.197    0.450    0.219  178.447   95.483
  188.880    8.047    0.466    0.227  179.431   97.266
  189.130    7.829    0.461    0.221  179.896   97.838
  189.380    7.548    0.463    0.233  178.834   98.119
  189.630    7.343    0.470    0.244  177.790   98.094
  189.880    7.209    0.474    0.249  177.244   96.272
  190.130    7.143    0.459    0.263  178.223   94.153
  190.380    7.077    0.452    0.247  178.689   95.331
  190.630    7.140    0.463    0.249  179.164   96.506
  190.880    7.337    0.472    0.233  181.657   96.184
  191.130    7.540    0.466    0.228  181.629   95.559
  191.380    7.678    0.454    0.236  181.587   95.542
  191.630    7.607    0.433    0.215  182.057   95.215
  191.880    7.201    0.434    0.217  182.020   93.690
  192.130    6.754    0.464    0.235  179.443   93.971
  192.380    6.278    0.458    0.234  177.881   94.251
  192.630    5.889    0.461    0.227  178.352   93.629
  192.880    5.626    0.478    0.232  180.346   93.304
  193.130    5.423    0.488    0.239  180.812   93.282
  193.380    5.276    0.485    0.242  182.294   93.263
  193.630    5.275    0.496    0.246  185.314   92.038
  193.880    5.421    0.510    0.256  188.832   91.116
  194.130    6.158    0.518    0.248  192.341   88.391
  194.380    6.684    0.534    0.274  195.352   82.372
  194.630    7.059    0.541    0.280  192.775   73.347
  194.880    7.123    0.534    0.279  190.710   63.423
  195.130    6.621    0.514    0.316  190.672   64.598
  195.380    5.933    0.473    0.302  190.118   72.379
  195.630    5.515    0.488    0.275  190.085   79.856
  195.880    5.514    0.510    0.270  188.020   87.334
  196.130    5.514    0.535    0.259  185.443   88.514
  196.380    5.563    0.498    0.248  185.401   86.392
  196.630    7.115    0.496    0.246  187.899   86.067
  196.880    8.696    0.499    0.251  186.342   89.045
  197.130    9.969    0.459    0.276  179.701   89.923
  197.380   11.430    0.428    0.284  176.615   87.498
  197.630   14.095    0.426    0.269  176.065   85.074
  197.880   14.485    0.430    0.271  175.012   82.054
  198.130   14.749    0.431    0.278  173.954   78.135
  198.380   15.295    0.428    0.287  172.900   73.613
  198.630   16.153    0.427    0.295  172.868   71.191
  198.880   16.751    0.427    0.309  173.338   69.366
  199.130   17.530    0.426    0.310  173.804   66.344
  199.380   18.014    0.424    0.304  174.275   61.220
  199.630   18.510    0.421    0.307  174.233   51.595
  199.880   18.508    0.408    0.310  174.200   47.076
  200.130   17.203    0.390    0.315  174.661   44.354
  200.380   15.559    0.373    0.304  176.148   51.529
  200.630   13.081    0.390    0.303  178.151   61.706
  200.880   10.799    0.423    0.278  182.178   72.189
  201.130    9.503    0.440    0.283  186.195   84.167
  201.380    8.673    0.451    0.222  189.718   91.645
  201.630    8.672    0.448    0.231  192.733   94.617
  201.880    8.830    0.443    0.227  193.707   96.100
  202.130    9.074    0.447    0.236  193.674   96.975
  202.380    8.828    0.443    0.244  193.124   96.956
  202.630    8.356    0.425    0.255  191.568   96.031
  202.880    7.767    0.438    0.241  192.541   95.109
  203.130    7.025    0.461    0.238  193.515   95.984
  203.380    6.238    0.486    0.236  192.975   97.457
  203.630    5.489    0.513    0.254  196.996   97.743
  203.880    5.010    0.536    0.231  195.948   99.818
  204.130    4.657    0.521    0.221  197.429  100.696
  204.380    4.614    0.525    0.232  196.376  103.676
  204.630    4.530    0.555    0.288  197.867  108.154
  204.880    4.407    0.555    0.220  201.381  111.129
  205.130    4.249    0.538    0.217  204.904  108.707
  205.380    4.022    0.535    0.246  204.354  107.188
  205.630    4.021    0.551    0.255  192.120  110.160
  205.880    4.021    0.558    0.275  193.099  110.441
  206.130    4.094    0.564    0.295  193.569  108.613
  206.380    4.780    0.548    0.310  196.072  106.794
  206.630    5.895    0.535    0.351  199.082  104.974
  206.880    7.138    0.486    0.330  194.981  101.352
  207.130    8.259    0.432    0.298  190.880   96.828
  207.380    9.383    0.434    0.283  192.366   96.206
  207.630    8.963    0.481    0.317  197.409   96.784
  207.880    8.484    0.491    0.307  198.383  100.661
  208.130    8.330    0.460    0.267  192.249  102.736
  208.380    8.638    0.461    0.248  194.747  102.412
  208.630    9.123    0.475    0.262  198.778  100.595
  208.880    9.635    0.483    0.301  196.714   96.073
  209.130   10.362    0.489    0.298  195.656   90.948
  209.380   11.248    0.465    0.271  179.871   88.521
  209.630   12.320    0.411    0.256  172.214   89.104
  209.880   13.250    0.403    0.259  172.176   91.782
  210.130   13.370    0.425    0.277  172.647   93.260
  210.380   13.247    0.427    0.288  173.117   92.338
  210.630   12.539    0.438    0.302  173.588   89.013
  210.880   11.341    0.450    0.296  174.058   86.291
  211.130   10.163    0.463    0.264  175.032   83.569
  211.380    9.978    0.477    0.248  176.519   79.344
  211.630   10.253    0.475    0.247  178.005   74.822
  211.880   11.028    0.454    0.259  178.974   68.201
  212.130   11.970    0.432    0.261  178.434   61.879
  212.380   13.475    0.424    0.254  176.360   57.357
  212.630   15.448    0.441    0.273  175.814   54.935
  212.880   16.615    0.455    0.316  175.278   54.010
  213.130   17.231    0.456    0.351  174.733   54.288
  213.380   17.385    0.451    0.351  173.157   55.463
  213.630   17.543    0.444    0.339  172.113   55.441
  213.880   17.543    0.440    0.324  170.552   52.721
  214.130   17.538    0.441    0.327  169.499   52.094
  214.380   17.376    0.444    0.341  170.477   53.577
  214.630   17.373    0.443    0.341  171.964   55.052
  214.880   17.371    0.440    0.337  174.461   53.230
  215.130   17.369    0.437    0.333  175.943   51.403
  215.380   17.525    0.435    0.328  176.419   52.886
  215.630   17.683    0.435    0.317  176.376   54.961
  215.880   18.005    0.441    0.305  176.344   54.639
  216.130   18.168    0.452    0.296  176.805   53.720
  216.380   18.500    0.463    0.300  177.280   52.195
  216.630   18.667    0.466    0.290  178.259   51.276
  216.880   18.327    0.452    0.295  178.217   51.251
  217.130   17.668    0.443    0.298  176.660   55.431
  217.380   16.572    0.435    0.303  176.627   59.606
  217.630   15.545    0.441    0.288  177.088   60.787
  217.880   14.986    0.450    0.294  176.548   60.459
  218.130   14.713    0.461    0.322  176.505   59.834
  218.380   14.577    0.459    0.340  176.981   58.915
  218.630   14.843    0.458    0.323  177.451   58.296
  218.880   15.252    0.461    0.353  177.409   58.574
  219.130   15.673    0.449    0.360  178.388   58.549
