~VERSION INFORMATION
 VERS.                 2.0:   CWLS LOG ASCII STANDARD -VERSION 2.0
 WRAP.                  NO:   ONE LINE PER DEPTH STEP
~WELL INFORMATION BLOCK
#MNEM.UNIT           DATA                    DESCRIPTION OF MNEMONIC
#---------    -------------------            -------------------------------
# Generated from Intellog Unique Number	CW_82_90/WELL/3442
WELL.         SHERRITT LIEGE 10-25           : Well_name    - WELL
LOC .         00/10-25-089-20W4/0            : Location     - LOCATION
UWI .         00/10-25-089-20W4/0            : Uwi          - UNIQUE WELL ID
ENTR.         JJ                             : Entered      - ENTERED BY
SRVC.         WESTERN ATLAS                  : Scn          - SERVICE COMPANY
DATE.         10 FEB 89                      : Date         - LOG DATE
STRT.M        100                            : top_depth    - START DEPTH
STOP.M        260                            : bot_depth    - STOP DEPTH
STEP.M        0.25                           : increment    - STEP LENGTH
 NULL. -999.2500:NULL Value
~CURVE INFORMATION BLOCK
#MNEM UNIT       ERCB CURVE CODE    CURVE DESCRIPTION
#-----------   ------------------   ----------------------------------
DEPT.M        00 001 00 00         : DEPTH        - DEPTH
DPHI.V/V      00 890 00 00         : PHID         - DENSITY POROSITY (SANDSTONE)
NPHI.V/V      00 330 00 00         : PHIN         - NEUTRON POROSITY (SANDSTONE)
GR  .API      00 310 00 00         : GR           - GAMMA RAY
CALI.MM       00 280 01 00         : CAL          - CALIPER
ILD .OHMM     00 120 00 00         : RESD         - DEEP RESISTIVITY (DIL)
~PARAMETER INFORMATION
#MNEM.UNIT           DATA             DESCRIPTION OF MNEMONIC
#---------         -----------     ------------------------------
GL  .M        514.3                : gl           - GROUND LEVEL ELEVATION
EREF.M        518.4                : kb           - ELEVATION OF DEPTH REFERENCE
DATM.M        518.4                : datum        - DATUM ELEVATION
TDD .M        262.6                : tdd          - TOTAL DEPTH DRILLER
RUN .         ONE                  : Run          - RUN NUMBER
ENG .         SMYTHE/CHAPMAN       : Engineer     - RECORDING ENGINEER
WIT .         WILLIAMS             : Witness      - WITNESSED BY
BASE.         MED. HAT             : Branch       - HOME BASE OF LOGGING UNIT
MUD .         GEL CAUSTIC          : Mud_type     - MUD TYPE
MATR.         SANDSTONE            : Logunit      - NEUTRON MATRIX
TMAX.C        20                   : BHT          - MAXIMUM RECORDED TEMPERATURE
BHTD.M        262.5                : BHTDEP       - MAXIMUM RECORDED TEMPERATURE
RMT .C        18                   : MDTP         - TEMPERATURE OF MUD
MUDD.KG/M     1150                 : MWT          - MUD DENSITY
NEUT.         1                    : NEUTRON      - NEUTRON TYPE
RESI.         0                    : RESIST       - RESISTIVITY TYPE
RM  .OHMM     5.3                  : RM           - RESISTIVITY OF MUD
RMC .OHMM     4.7                  : RMC          - RESISTIVITY OF MUD CAKE
RMF .OHMM     5                    : RMF          - RESISTIVITY OF MUD FILTRATE
SUFT.C        5                    : SUFT         - SURFACE TEMPERATURE
~A  DEPTH     PHID     PHIN       GR      CAL     RESD
# ...
  209.500    0.129    0.363   90.308  161.050   20.422
  209.750    0.154    0.366   77.052  160.991   20.132
  210.000    0.174    0.354   81.527  162.147   19.844
  210.250    0.213    0.337   84.354  163.711   19.407
  210.500    0.235    0.359   86.270  164.667   18.564
  210.750    0.247    0.374   87.450  165.521   16.891
  211.000    0.253    0.389   87.653  164.859   15.523
  211.250    0.248    0.411   90.239  163.371   15.394
  211.500    0.170    0.413   85.754  161.682   15.795
  211.750    0.157    0.401   83.158  161.730   16.078
  212.000    0.224    0.358   87.326  162.882   16.300
  212.250    0.247    0.381   89.360  164.053   16.393
  212.500    0.254    0.375   89.143  164.091   16.388
  212.750    0.259    0.363   87.402  163.421   16.449
  213.000    0.198    0.368   89.374  162.843   16.444
  213.250    0.145    0.355   85.925  162.175   16.341
  213.500    0.133    0.365   80.710  161.212   16.368
  213.750    0.138    0.389   80.555  160.934   16.528
  214.000    0.191    0.410   83.806  160.270   16.723
  214.250    0.191    0.394   89.925  159.799   16.852
  214.500    0.149    0.370   92.691  160.047   16.846
  214.750    0.163    0.392   89.302  163.342   16.842
  215.000    0.205    0.392   85.246  165.209   16.870
  215.250    0.209    0.384   87.584  165.960   16.464
  215.500    0.170    0.347   91.874  166.808   15.940
  215.750    0.161    0.353   87.025  167.357   15.248
  216.000    0.187    0.358   91.133  173.390   14.792
  216.250    0.168    0.377   91.281  167.137   14.582
  216.500    0.174    0.356   83.263  163.324   14.548
  216.750    0.207    0.349   85.180  162.755   14.514
  217.000    0.226    0.347   85.629  161.776   14.568
  217.250    0.223    0.336   87.419  161.012   14.681
  217.500    0.228    0.338   90.305  161.150   14.974
  217.750    0.237    0.354   93.320  161.288   16.024
  218.000    0.187    0.346   95.776  161.439   17.321
  218.250    0.105    0.303   84.774  161.181   18.463
  218.500    0.116    0.291   74.013  160.809   19.797
  218.750    0.194    0.320   81.959  160.647   20.807
  219.000    0.240    0.342   87.170  162.307   21.436
  219.250    0.244    0.349   88.895  166.915   21.995
  219.500    0.243    0.336   90.625  164.425   21.040
  219.750    0.158    0.328   89.981  161.619   18.991
  220.000    0.122    0.307   88.971  161.051   21.324
  220.250    0.101    0.292   90.758  161.403   23.611
  220.500    0.084    0.270   89.688  161.749   25.471
  220.750    0.160    0.275   85.874  162.086   26.451
  221.000    0.200    0.313   91.444  164.769   22.663
  221.250    0.232    0.338   98.899  170.293   17.637
  221.500    0.243    0.362  103.921  169.218   15.324
  221.750    0.202    0.369   94.993  160.731   14.895
  222.000    0.207    0.358   93.736  157.020   15.132
  222.250    0.213    0.344  102.775  156.139   16.064
  222.500    0.191    0.330  106.640  155.975   17.539
  222.750    0.039    0.324   97.281  157.041   18.546
  223.000    0.110    0.304   77.808  158.100   18.136
  223.250    0.161    0.268   88.069  160.373   15.383
  223.500    0.195    0.387   93.703  162.641   12.688
  223.750    0.238    0.380   98.299  166.243   11.068
  224.000    0.232    0.358  102.281  167.499   10.357
  224.250    0.231    0.347  108.153  168.249    9.461
  224.500    0.238    0.340  114.454  167.683   10.105
  224.750    0.156    0.330  100.161  165.286   11.905
  225.000    0.023    0.307   80.504  162.381   14.956
  225.250    0.100    0.286   68.465  160.693   18.713
  225.500    0.186    0.306   67.091  160.739   20.146
  225.750    0.214    0.326   75.277  160.678   19.544
  226.000    0.229    0.362   91.447  160.820   18.509
  226.250    0.250    0.393   99.271  162.075   16.706
  226.500    0.246    0.384   99.970  167.602   15.018
  226.750    0.213    0.370   96.641  166.424   13.802
  227.000    0.179    0.345   91.671  166.772   12.786
  227.250    0.174    0.348   89.499  167.932   12.061
  227.500    0.218    0.370   94.947  168.282   11.747
  227.750    0.241    0.383  104.110  168.318   11.557
  228.000    0.227    0.380  109.314  168.156   11.346
  228.250    0.207    0.373  105.684  168.092   11.163
  228.500    0.188    0.343   96.507  166.919   10.960
  228.750    0.182    0.353   98.300  167.062   10.826
  229.000    0.214    0.386  101.738  168.431   10.608
  229.250    0.212    0.382  102.066  169.372   10.311
  229.500    0.204    0.380  104.958  172.055   10.308
  229.750    0.219    0.384  106.077  175.047   10.834
  230.000    0.226    0.364  100.253  171.527   11.876
  230.250    0.097    0.343   92.292  161.314   13.124
  230.500   -0.029    0.288   77.696  160.438   15.839
  230.750   -0.006    0.273   94.172  160.488   19.307
  231.000    0.051    0.278  103.763  161.243   21.767
  231.250    0.187    0.301  105.980  162.085   21.329
  231.500    0.217    0.327  106.247  164.166   18.607
  231.750    0.208    0.349  107.858  165.624   16.494
  232.000    0.197    0.349  108.553  167.189   15.158
  232.250    0.178    0.344   94.319  167.030   14.558
  232.500    0.188    0.351   94.161  164.830   14.380
  232.750    0.213    0.345  103.327  161.427   14.550
  233.000    0.225    0.333  106.822  159.735   15.664
  233.250    0.227    0.320  105.931  158.352   17.137
  233.500    0.204    0.298  101.450  156.684   19.397
  233.750    0.133    0.282   97.330  156.606   20.634
  234.000    0.074    0.301   95.713  156.849   21.045
  234.250    0.141    0.330   98.292  157.098   20.172
  234.500    0.211    0.350  102.162  157.338   18.952
  234.750    0.199    0.359  103.094  157.892   16.599
  235.000    0.197    0.379  103.122  159.462   14.023
  235.250    0.218    0.411  106.068  160.209   11.895
  235.500    0.228    0.441  106.521  161.162    9.655
  235.750    0.238    0.438  111.725  161.707    9.034
  236.000    0.237    0.378  116.682  161.950    9.591
  236.250    0.219    0.344   97.030  161.892   10.944
  236.500    0.129    0.291   82.795  161.832   15.473
  236.750   -0.012    0.271   67.648  161.469   21.101
  237.000   -0.020    0.252   74.315  159.881   25.774
  237.250    0.141    0.288   82.265  156.777   27.916
  237.500    0.184    0.322   89.415  155.498   23.303
  237.750    0.199    0.338   93.702  155.134   17.954
  238.000    0.198    0.350   83.003  154.865   15.569
  238.250    0.198    0.355   75.353  154.811   13.074
  238.500    0.199    0.347   77.327  157.899   11.179
  238.750    0.194    0.352   83.872  161.590    9.313
  239.000    0.211    0.370   87.185  168.946    7.743
  239.250    0.255    0.397   91.178  174.671    6.647
  239.500    0.249    0.426   94.120  166.490    6.449
  239.750    0.236    0.422   99.629  161.652    8.331
  240.000    0.226    0.404  104.221  160.478   10.937
  240.250    0.213    0.363   94.926  160.722   17.685
  240.500    0.202    0.343   84.713  161.785   23.217
  240.750    0.211    0.334   71.515  162.433   28.302
  241.000    0.243    0.366   63.436  162.273   32.553
  241.250    0.279    0.385   66.513  162.918   35.900
  241.500    0.271    0.376   71.104  163.062   38.420
  241.750    0.246    0.368   75.026  162.793   40.461
  242.000    0.246    0.369   73.286  162.238   42.783
  242.250    0.239    0.364   69.111  162.064   45.968
  242.500    0.176    0.357   66.937  161.301   48.219
  242.750    0.141    0.350   63.915  160.522   51.087
  243.000    0.208    0.325   64.551  160.260   58.057
  243.250    0.263    0.336   66.949  160.210   66.912
  243.500    0.304    0.355   63.685  160.144   78.363
  243.750    0.293    0.368   59.203  160.380   86.941
  244.000    0.251    0.365   56.118  160.837   91.015
  244.250    0.221    0.362   52.973  161.174   90.443
  244.500    0.247    0.359   53.791  162.537   85.139
  244.750    0.303    0.364   58.567  163.398   71.356
  245.000    0.309    0.364   67.489  163.229   29.189
  245.250    0.219    0.358   73.180  163.680   19.862
  245.500    0.190    0.346   80.269  162.405   15.644
  245.750    0.179    0.365   82.609  161.527   15.733
