~VERSION INFORMATION
 VERS.                 2.0:   CWLS LOG ASCII STANDARD -VERSION 2.0
 WRAP.                  NO:   ONE LINE PER DEPTH STEP
~WELL INFORMATION BLOCK
#MNEM.UNIT           DATA                    DESCRIPTION OF MNEMONIC
#---------    -------------------            -------------------------------
# Generated from Intellog Unique Number	CW_76_78/WELL/2585
NULL.         -999.25                        : NULL_VALUE
WELL.         SOBC ET AL SANDY LAKE          : Well_name    - WELL              
LOC .         11-36-078-22W4                 : Location     - LOCATION          
UWI .         00/11-36-078-22W4/0            : Uwi          - UNIQUE WELL ID    
ENTR.         MAX                            : Entered      - ENTERED BY        
SRVC.         SCHLUMBERGER                   : Scn          - SERVICE COMPANY   
DATE.         02 MAR 74                      : Date         - LOG DATE
STRT.M        213.36                         : top_depth    - START DEPTH       
STOP.M        429.86                         : bot_depth    - STOP DEPTH        
STEP.M        0.25                           : increment    - STEP LENGTH       
~CURVE INFORMATION BLOCK
#MNEM UNIT       ERCB CURVE CODE    CURVE DESCRIPTION
#-----------   ------------------   ----------------------------------
DEPT.M        00 001 00 00         : DEPTH        - DEPTH                       
ILD .OHMM     00 120 00 00         : RESD         - DEEP RESISTIVITY (DIL)      
NPHI.V/V      00 330 00 00         : PHIN         - NEUTRON POROSITY (SANDSTONE)
DPHI.V/V      00 890 00 00         : PHID         - DENSITY POROSITY (SANDSTONE)
CALI.MM       00 280 01 00         : CAL          - CALIPER                     
GR  .API      00 310 00 00         : GR           - GAMMA RAY                   
~PARAMETER INFORMATION       
#MNEM.UNIT           DATA             DESCRIPTION OF MNEMONIC
#---------         -----------     ------------------------------
GL  .M        562.966              : gl           - GROUND LEVEL ELEVATION      
EREF.M        565.404              : kb           - ELEVATION OF DEPTH REFERENCE
DATM.M        562.966              : datum        - DATUM ELEVATION             
TDD .M        434.34               : tdd          - TOTAL DEPTH DRILLER         
RUN .         ONE                  : Run          - RUN NUMBER                  
ENG .         BILL                 : Engineer     - RECORDING ENGINEER          
WIT .         JIM                  : Witness      - WITNESSED BY                
MUD .         GEL                  : Mud_type     - MUD TYPE                    
MATR.         SANDSTONE            : Logunit      - NEUTRON MATRIX              
TMAX.C        75                   : BHT          - MAXIMUM RECORDED TEMPERATURE
BHTD.M        434.34               : BHTDEP       - MAXIMUM RECORDED TEMPERATURE
RMT .C        14.4444              : MDTP         - TEMPERATURE OF MUD          
MUDD.KG/M     9200                 : MWT          - MUD DENSITY                 
NEUT.         1                    : NEUTRON      - NEUTRON TYPE                
RESI.         0                    : RESIST       - RESISTIVITY TYPE            
RM  .OHMM     7                    : RM           - RESISTIVITY OF MUD          
RMC .OHMM     0                    : RMC          - RESISTIVITY OF MUD CAKE     
RMF .OHMM     8.51                 : RMF          - RESISTIVITY OF MUD FILTRATE 
SUFT.C        -20.5556             : SUFT         - SURFACE TEMPERATURE         
~A  DEPTH     RESD     PHIN     PHID      CAL       GR
# ...
  286.360   15.755    0.515    0.357  231.685   45.890
  286.610   16.470    0.514    0.362  236.596   46.715
  286.860   16.751    0.503    0.345  233.526   46.977
  287.110   16.751    0.511    0.344  227.459   47.229
  287.360   16.719    0.512    0.334  210.396   47.185
  287.610   16.704    0.482    0.339  195.812   46.546
  287.860   16.689    0.475    0.347  194.258   45.618
  288.110   16.827    0.499    0.355  193.667   44.974
  288.360   17.116    0.486    0.356  194.102   44.941
  288.610   17.116    0.470    0.358  195.526   44.887
  288.860   17.240    0.448    0.358  199.448   45.439
  289.110   17.696    0.451    0.358  203.370   46.275
  289.360   18.000    0.455    0.354  206.284   47.411
  289.610   18.145    0.495    0.352  210.205   48.831
  289.860   18.128    0.549    0.346  211.630   49.978
  290.110   17.629    0.571    0.353  212.037   51.704
  290.360   16.838    0.521    0.347  211.982   54.905
  290.610   15.373    0.480    0.320  210.900   59.581
  290.860   12.826    0.512    0.295  208.330   65.430
  291.110    9.519    0.546    0.271  204.242   69.521
  291.360    8.848    0.512    0.265  201.172   71.542
  291.610    8.604    0.488    0.251  198.610   71.488
  291.860    8.674    0.514    0.254  196.539   71.750
  292.110    9.147    0.510    0.261  194.958   71.996
  292.360    9.912    0.530    0.272  193.867   71.068
  292.610   11.966    0.520    0.283  193.812   69.845
  292.860   12.281    0.519    0.292  194.201   68.316
  293.110   12.606    0.537    0.300  194.146   66.202
  293.360   12.606    0.538    0.302  194.063   65.285
  293.610   13.040    0.548    0.301  194.007   64.941
  293.860   13.510    0.549    0.305  194.007   64.597
  294.110   14.246    0.564    0.304  193.851   63.958
  294.360   14.624    0.553    0.305  193.759   63.920
  294.610   15.009    0.529    0.305  194.185   63.877
  294.860   15.133    0.520    0.299  194.620   63.833
  295.110   15.391    0.513    0.294  195.036   63.784
  295.360   15.660    0.499    0.297  195.471   64.331
  295.610   15.931    0.470    0.302  195.897   64.582
  295.860   16.059    0.496    0.300  196.295   63.353
  296.110   16.059    0.483    0.310  196.231   61.240
  296.360   16.166    0.467    0.306  196.656   60.612
  296.610   16.602    0.463    0.306  196.592   60.864
  296.860   17.195    0.490    0.302  196.001   61.994
  297.110   18.464    0.486    0.297  195.927   62.836
  297.360   23.107    0.484    0.301  195.844   62.792
  297.610   25.263    0.484    0.309  195.789   63.333
  297.860   32.191    0.468    0.304  195.789   63.290
  298.110   46.953    0.445    0.261  195.605   61.772
  298.360   72.297    0.366    0.234  195.549   55.829
  298.610  124.016    0.308    0.108  195.467   49.587
  298.860  122.794    0.198    0.033  195.402   45.414
  299.110   80.326    0.178    0.009  196.318   48.315
  299.360   39.028    0.228    0.057  197.253   59.484
  299.610   14.215    0.297    0.101  196.171   67.109
  299.860    8.123    0.387    0.189  195.098   72.369
  300.110    5.314    0.480    0.247  196.014   78.819
  300.360    4.596    0.485    0.218  197.938   83.489
  300.610    4.760    0.468    0.232  199.372   82.561
  300.860    5.644    0.455    0.239  200.778   81.343
  301.110    6.692    0.476    0.234  200.705   80.710
  301.360    8.224    0.465    0.220  200.631   80.661
  301.610   10.202    0.481    0.205  200.567   80.912
  301.860   11.562    0.505    0.192  201.483   79.978
  302.110   12.193    0.503    0.168  202.389   77.865
  302.360   11.963    0.471    0.143  202.334   76.341
  302.610   11.633    0.439    0.169  202.742   77.489
  302.860   10.912    0.533    0.228  202.677   80.389
  303.110   10.053    0.508    0.250  202.594   79.461
  303.360    9.516    0.500    0.273  202.521   78.227
  303.610    9.421    0.526    0.257  201.948   76.419
  303.860    9.670    0.540    0.250  201.365   75.196
  304.110    9.403    0.555    0.251  200.302   77.506
  304.360    9.403    0.560    0.247  199.720   77.463
  304.610    9.134    0.533    0.242  199.655   76.245
  304.860    8.966    0.536    0.240  199.572   76.196
  305.110    8.958    0.541    0.252  199.480   75.268
  305.360    8.958    0.528    0.274  199.407   73.149
  305.610    8.858    0.489    0.271  199.324   73.406
  305.860    8.616    0.493    0.268  199.269   76.306
  306.110    8.607    0.515    0.266  199.186   75.083
  306.360    8.677    0.532    0.270  199.112   73.270
  306.610    9.234    0.517    0.268  199.529   71.457
  306.860   10.187    0.506    0.263  199.446   69.043
  307.110   10.455    0.499    0.258  199.872   68.710
  307.360   10.352    0.514    0.265  200.316   69.551
  307.610    9.976    0.516    0.280  200.723   72.162
  307.860    9.616    0.509    0.274  200.659   78.307
  308.110    8.699    0.508    0.255  201.575   81.218
  308.360    8.014    0.536    0.253  202.999   83.239
  308.610    7.725    0.530    0.241  203.915   83.485
  308.860    7.716    0.547    0.240  204.341   81.372
  309.110    7.993    0.566    0.244  204.277   79.859
  309.360    8.817    0.553    0.252  203.204   77.746
  309.610    9.905    0.528    0.287  201.114   72.688
  309.860   11.429    0.506    0.290  199.043   71.754
  310.110   11.417    0.526    0.281  197.980   74.070
  310.360   11.203    0.544    0.273  197.879   74.617
  310.610   10.796    0.549    0.272  198.314   71.329
  310.860   10.682    0.533    0.275  198.730   65.665
  311.110   10.583    0.514    0.292  198.675   65.327
  311.360   10.671    0.493    0.293  198.574   67.053
  311.610   10.855    0.491    0.294  198.010   68.495
  311.860   10.943    0.517    0.294  197.945   68.741
  312.110   11.025    0.541    0.292  197.872   68.403
  312.360   11.122    0.560    0.290  197.289   65.989
  312.610   11.417    0.556    0.294  197.289   64.181
  312.860   11.613    0.543    0.301  197.133   64.132
  313.110   11.919    0.523    0.302  197.059   65.269
  313.360   12.016    0.508    0.290  197.476   68.169
  313.610   11.686    0.492    0.276  197.402   70.490
  313.860   11.260    0.472    0.270  197.319   71.916
  314.110   11.149    0.470    0.261  197.264   71.873
  314.360   11.342    0.486    0.257  197.181   72.714
  314.610   11.539    0.483    0.253  197.598   72.081
  314.860   11.320    0.481    0.239  198.033   72.332
  315.110    9.362    0.477    0.271  197.950   74.938
  315.360    8.623    0.488    0.262  198.376   76.079
  315.610    7.527    0.497    0.248  199.301   77.210
  315.860    5.585    0.505    0.212  200.707   78.641
  316.110    5.631    0.536    0.225  201.641   80.072
  316.360    5.992    0.521    0.229  202.067   81.214
  316.610    6.493    0.517    0.251  202.484   82.055
  316.860    6.664    0.496    0.249  202.910   83.770
  317.110    6.538    0.509    0.232  204.334   84.612
  317.360    6.538    0.515    0.231  205.269   81.324
  317.610    6.469    0.513    0.244  206.175   81.565
  317.860    6.346    0.522    0.246  206.601   80.341
  318.110    6.397    0.539    0.246  206.537   78.528
  318.360    6.568    0.558    0.259  204.946   76.125
  318.610    6.924    0.571    0.254  203.384   74.023
  318.860    7.238    0.536    0.257  202.311   71.609
  319.110    7.429    0.489    0.260  200.221   71.571
  319.360    7.627    0.484    0.257  199.658   72.997
  319.610    7.759    0.470    0.256  199.566   75.318
  319.860    7.962    0.484    0.240  199.501   81.173
  320.110    8.101    0.518    0.219  200.408   82.604
  320.360    8.167    0.516    0.215  201.851   80.196
  320.610    8.226    0.500    0.230  202.258   78.672
  320.860    8.298    0.498    0.228  201.694   81.289
  321.110    8.292    0.510    0.211  201.612   85.374
  321.360    8.292    0.505    0.223  201.529   84.441
  321.610    8.348    0.492    0.226  201.473   84.692
  321.860    8.343    0.495    0.226  201.391   87.003
  322.110    8.412    0.503    0.227  201.308   87.254
  322.360    8.412    0.512    0.228  201.243   86.621
  322.610    8.395    0.510    0.228  201.669   86.577
