~VERSION INFORMATION
 VERS.                 2.0:   CWLS LOG ASCII STANDARD -VERSION 2.0
 WRAP.                  NO:   ONE LINE PER DEPTH STEP
~WELL INFORMATION BLOCK
#MNEM.UNIT           DATA                    DESCRIPTION OF MNEMONIC
#---------    -------------------            -------------------------------
# Generated from Intellog Unique Number	CS_71_72/WELL/872
WELL.         PACIFIC PHILLIPS AEC WIAU      : Well_name    - WELL
LOC .         00/10-29-072-08W4/0            : Location     - LOCATION
UWI .         00/10-29-072-08W4/0            : Uwi          - UNIQUE WELL ID
ENTR.         SP                             : Entered      - ENTERED BY
SRVC.         SCHLUMBERGER                   : Scn          - SERVICE COMPANY
STRT.M        315                            : top_depth    - START DEPTH
STOP.M        540                            : bot_depth    - STOP DEPTH
STEP.M        0.25                           : increment    - STEP LENGTH
 NULL. -999.2500:NULL Value
~CURVE INFORMATION BLOCK
#MNEM UNIT       ERCB CURVE CODE    CURVE DESCRIPTION
#-----------   ------------------   ----------------------------------
DEPT.M        00 001 00 00         : DEPTH        - DEPTH
GR  .API      00 310 00 00         : GR           - GAMMA RAY
NPHI.V/V      00 330 00 00         : PHIN         - NEUTRON POROSITY (LIMESTONE)
DPHI.V/V      00 890 00 00         : PHID         - DENSITY POROSITY (LIMESTONE)
ILD .OHMM     00 120 00 00         : RESD         - DEEP RESISTIVITY (DIL)
~PARAMETER INFORMATION
#MNEM.UNIT           DATA             DESCRIPTION OF MNEMONIC
#---------         -----------     ------------------------------
GL  .M        686.5                : gl           - GROUND LEVEL ELEVATION
EREF.M        689.5                : kb           - ELEVATION OF DEPTH REFERENCE
DATM.M        686.5                : datum        - DATUM ELEVATION
TDD .M        555                  : tdd          - TOTAL DEPTH DRILLER
RUN .         ONE                  : Run          - RUN NUMBER
ENG .         BILL                 : Engineer     - RECORDING ENGINEER
WIT .         JIM                  : Witness      - WITNESSED BY
MUD .         GEL                  : Mud_type     - MUD TYPE
MATR.         LIMESTONE            : Logunit      - NEUTRON MATRIX
TMAX.C        32.2                 : BHT          - MAXIMUM RECORDED TEMPERATURE
BHTD.M        555                  : BHTDEP       - MAXIMUM RECORDED TEMPERATURE
MATR.         1                    : LOGUNIT      - NEUTRON MATRIX
RMT .C        25                   : MDTP         - TEMPERATURE OF MUD
NEUT.         1                    : NEUTRON      - NEUTRON TYPE
RESI.         0                    : RESIST       - RESISTIVITY TYPE
RMC .OHMM     0.25                 : RMC          - RESISTIVITY OF MUD CAKE
RMF .OHMM     0.25                 : RMF          - RESISTIVITY OF MUD FILTRATE
SUFT.C        15                   : SUFT         - SURFACE TEMPERATURE
~A  DEPTH       GR     PHIN     PHID     RESD
# ...
  402.000   59.591    0.465    0.344   14.491
  402.250   60.792    0.473    0.343   14.220
  402.500   60.787    0.482    0.350   13.953
  402.750   60.176    0.485    0.345   13.440
  403.000   58.355    0.477    0.339   12.472
  403.250   57.746    0.482    0.344   10.743
  403.500   57.740    0.488    0.347    8.914
  403.750   63.176    0.481    0.348    7.823
  404.000   67.405    0.481    0.342    6.865
  404.250   73.447    0.466    0.330    6.138
  404.500   78.279    0.465    0.323    5.591
  404.750   79.481    0.478    0.319    5.188
  405.000   80.082    0.504    0.314    4.638
  405.250   81.282    0.514    0.311    4.304
  405.500   83.093    0.529    0.316    3.994
  405.750   87.320    0.533    0.301    3.440
  406.000   90.340    0.518    0.293    3.076
  406.250   94.567    0.502    0.286    2.802
  406.500   97.585    0.502    0.275    2.600
  406.750   99.998    0.526    0.270    2.551
  407.000  100.598    0.544    0.270    2.697
  407.250   98.776    0.557    0.272    2.851
  407.500   96.956    0.566    0.274    3.187
  407.750   93.925    0.579    0.271    3.432
  408.000   90.291    0.590    0.267    3.628
  408.250   88.471    0.596    0.267    4.055
  408.500   88.463    0.582    0.274    4.287
  408.750   87.851    0.560    0.287    4.533
  409.000   87.243    0.547    0.273    4.882
  409.250   84.817    0.521    0.286    5.258
  409.500   83.600    0.514    0.297    5.663
  409.750   82.991    0.519    0.292    5.986
  410.000   84.194    0.499    0.277    6.097
  410.250   85.397    0.481    0.263    6.095
  410.500   87.809    0.466    0.253    6.093
  410.750   89.619    0.458    0.254    6.091
  411.000   90.216    0.453    0.259    6.090
  411.250   90.817    0.449    0.254    5.975
  411.500   90.812    0.446    0.244    5.974
  411.750   87.779    0.445    0.250    5.972
  412.000   86.566    0.445    0.264    5.971
  412.250   84.745    0.456    0.278    5.968
  412.500   81.713    0.463    0.269    5.967
  412.750   81.104    0.463    0.265    5.748
  413.000   82.308    0.465    0.269    5.139
  413.250   84.722    0.480    0.271    4.426
  413.500   87.135    0.485    0.274    3.742
  413.750   91.362    0.490    0.278    3.223
  414.000   94.986    0.498    0.268    2.936
  414.250  101.630    0.516    0.259    2.724
  414.500  102.836    0.531    0.252    2.775
  414.750  102.223    0.567    0.256    3.102
  415.000   97.984    0.595    0.259    3.279
  415.250   91.325    0.590    0.258    3.804
  415.500   84.063    0.588    0.274    4.098
  415.750   78.008    0.561    0.280    4.755
  416.000   77.396    0.550    0.288    5.517
  416.250   76.182    0.524    0.296    6.167
  416.500   74.361    0.480    0.292    6.399
  416.750   73.144    0.500    0.291    6.397
  417.000   73.139    0.503    0.289    6.396
  417.250   74.948    0.508    0.304    6.275
  417.500   78.568    0.511    0.320    6.158
  417.750   79.773    0.496    0.310    6.042
  418.000   82.185    0.492    0.300    6.040
  418.250   83.995    0.493    0.292    6.039
  418.500   86.408    0.484    0.288    6.037
  418.750   87.007    0.486    0.279    6.035
  419.000   85.791    0.483    0.274    6.034
  419.250   83.972    0.480    0.283    6.032
  419.500   80.940    0.474    0.290    6.143
  419.750   80.329    0.471    0.301    6.142
  420.000   79.719    0.469    0.304    6.255
  420.250   80.317    0.468    0.295    6.371
  420.500   80.916    0.467    0.292    6.489
  420.750   80.305    0.470    0.295    6.733
  421.000   79.088    0.456    0.297    6.987
  421.250   78.480    0.452    0.286    7.250
  421.500   77.261    0.466    0.282    7.523
  421.750   76.653    0.489    0.277    7.382
  422.000   75.436    0.490    0.285    6.850
  422.250   74.824    0.470    0.283    6.475
  422.500   74.215    0.465    0.281    6.355
  422.750   74.815    0.489    0.303    6.120
  423.000   79.040    0.504    0.315    6.006
  423.250   81.454    0.515    0.285    5.893
  423.500   83.263    0.505    0.272    5.892
  423.750   86.883    0.496    0.255    5.782
  424.000   88.088    0.500    0.248    5.779
  424.250   88.689    0.482    0.255    5.887
  424.500   89.890    0.479    0.262    5.995
  424.750   90.490    0.476    0.266    5.994
  425.000   90.483    0.482    0.249    5.992
  425.250   89.875    0.487    0.242    5.991
  425.500   88.055    0.489    0.239    5.878
  425.750   86.234    0.488    0.227    5.876
  426.000   90.461    0.487    0.222    5.875
  426.250   93.479    0.478    0.221    5.873
  426.500   91.657    0.500    0.241    5.872
  426.750   92.257    0.520    0.226    5.870
  427.000   93.461    0.521    0.208    5.868
  427.250   91.641    0.502    0.221    5.867
  427.500   88.006    0.491    0.229    5.864
  427.750   84.976    0.486    0.231    5.649
  428.000   86.783    0.488    0.217    5.440
  428.250   89.196    0.490    0.208    5.240
  428.500   89.191    0.488    0.208    4.773
  428.750   93.415    0.485    0.218    4.189
  429.000   95.828    0.504    0.215    3.541
  429.250   97.636    0.515    0.217    3.050
  429.500   98.841    0.525    0.218    2.938
  429.750   99.443    0.535    0.234    2.726
  430.000   97.622    0.543    0.246    2.675
  430.250   93.987    0.555    0.262    2.675
  430.500   93.377    0.571    0.250    2.775
  430.750   95.789    0.560    0.250    2.879
  431.000   97.599    0.547    0.256    2.988
  431.250   99.405    0.543    0.243    3.158
  431.500   99.401    0.546    0.234    3.401
  431.750   96.975    0.564    0.221    3.530
  432.000   92.734    0.561    0.231    3.732
  432.250   89.705    0.551    0.248    3.801
  432.500   86.674    0.543    0.263    3.944
  432.750   84.855    0.517    0.268    4.093
  433.000   81.219    0.484    0.257    4.246
  433.250   79.399    0.495    0.256    4.325
  433.500   77.578    0.506    0.278    4.405
  433.750   76.362    0.513    0.295    4.486
  434.000   75.145    0.501    0.295    4.485
  434.250   73.930    0.492    0.285    4.567
  434.500   72.717    0.486    0.296    4.566
  434.750   73.313    0.473    0.307    4.565
  435.000   74.518    0.483    0.304    4.650
  435.250   78.140    0.490    0.317    4.649
  435.500   81.762    0.484    0.304    4.647
  435.750   82.969    0.481    0.297    4.646
  436.000   84.777    0.495    0.283    4.559
  436.250   81.141    0.511    0.276    4.558
  436.500   76.900    0.504    0.299    4.642
  436.750   75.082    0.495    0.311    4.907
  437.000   71.445    0.493    0.305    5.092
  437.250   68.413    0.481    0.314    5.586
  437.500   67.199    0.480    0.305    5.906
  437.750   65.377    0.472    0.288    6.361
  438.000   64.769    0.433    0.266    6.479
  438.250   72.019    0.386    0.237    6.357
  438.500   76.249    0.362    0.127    5.899
  438.750   80.476    0.383    0.194    5.682
  439.000   79.260    0.408    0.217    5.472
  439.250   75.019    0.427    0.244    5.370
  439.500   70.173    0.458    0.271    5.172
  439.750   68.960    0.460    0.290    5.171
  440.000   67.138    0.460    0.306    5.170
  440.250   66.528    0.451    0.291    5.168
  440.500   65.309    0.448    0.283    5.167
  440.750   65.306    0.476    0.290    5.261
  441.000   66.509    0.489    0.301    5.260
  441.250   68.318    0.498    0.309    5.258
  441.500   69.523    0.504    0.307    5.160
  441.750   73.748    0.497    0.311    5.158
  442.000   74.954    0.481    0.305    5.157
  442.250   76.158    0.494    0.313    5.061
  442.500   78.571    0.498    0.294    4.965
  442.750   80.984    0.504    0.301    4.965
  443.000   83.396    0.496    0.297    4.781
  443.250   83.392    0.486    0.275    4.780
  443.500   80.965    0.480    0.253    4.691
  443.750   82.775    0.473    0.246    4.603
  444.000   85.187    0.479    0.252    4.602
  444.250   85.181    0.490    0.246    4.687
  444.500   83.965    0.500    0.236    4.685
  444.750   80.934    0.497    0.236    4.772
  445.000   79.721    0.486    0.246    4.771
  445.250   79.715    0.472    0.267    4.769
