~VERSION INFORMATION
 VERS.                 2.0:   CWLS LOG ASCII STANDARD -VERSION 2.0
 WRAP.                  NO:   ONE LINE PER DEPTH STEP
~WELL INFORMATION BLOCK
#MNEM.UNIT           DATA                    DESCRIPTION OF MNEMONIC
#---------    -------------------            -------------------------------
# Generated from Intellog Unique Number	CS_71_72/WELL/899
WELL.         PEX PHILLIPS AEC GRIST         : Well_name    - WELL
LOC .         00/11-17-071-07W4/0            : Location     - LOCATION
UWI .         00/11-17-071-07W4/0            : Uwi          - UNIQUE WELL ID
ENTR.         SP                             : Entered      - ENTERED BY
SRVC.         SCHLUMBERGER                   : Scn          - SERVICE COMPANY
STRT.M        300                            : top_depth    - START DEPTH
STOP.M        520                            : bot_depth    - STOP DEPTH
STEP.M        0.25                           : increment    - STEP LENGTH
 NULL. -999.2500:NULL Value
~CURVE INFORMATION BLOCK
#MNEM UNIT       ERCB CURVE CODE    CURVE DESCRIPTION
#-----------   ------------------   ----------------------------------
DEPT.M        00 001 00 00         : DEPTH        - DEPTH
ILD .OHMM     00 120 00 00         : RESD         - DEEP RESISTIVITY (DIL)
DPHI.V/V      00 890 00 00         : PHID         - DENSITY POROSITY (LIMESTONE)
NPHI.V/V      00 330 00 00         : PHIN         - NEUTRON POROSITY (LIMESTONE)
GR  .API      00 310 00 00         : GR           - GAMMA RAY
~PARAMETER INFORMATION
#MNEM.UNIT           DATA             DESCRIPTION OF MNEMONIC
#---------         -----------     ------------------------------
GL  .M        659.5                : gl           - GROUND LEVEL ELEVATION
EREF.M        663.5                : kb           - ELEVATION OF DEPTH REFERENCE
DATM.M        659.5                : datum        - DATUM ELEVATION
TDD .M        526                  : tdd          - TOTAL DEPTH DRILLER
RUN .         ONE                  : Run          - RUN NUMBER
ENG .         BILL                 : Engineer     - RECORDING ENGINEER
WIT .         JIM                  : Witness      - WITNESSED BY
MUD .         GEL                  : Mud_type     - MUD TYPE
MATR.         LIMESTONE            : Logunit      - NEUTRON MATRIX
TMAX.C        23                   : BHT          - MAXIMUM RECORDED TEMPERATURE
BHTD.M        526                  : BHTDEP       - MAXIMUM RECORDED TEMPERATURE
MATR.         1                    : LOGUNIT      - NEUTRON MATRIX
RMT .C        25                   : MDTP         - TEMPERATURE OF MUD
NEUT.         1                    : NEUTRON      - NEUTRON TYPE
RESI.         0                    : RESIST       - RESISTIVITY TYPE
RMC .OHMM     0.25                 : RMC          - RESISTIVITY OF MUD CAKE
RMF .OHMM     0.25                 : RMF          - RESISTIVITY OF MUD FILTRATE
SUFT.C        15                   : SUFT         - SURFACE TEMPERATURE
~A  DEPTH     RESD     PHID     PHIN       GR
# ...
  430.500    2.433    0.284    0.558   96.446
  430.750    2.263    0.270    0.560   88.090
  431.000    2.185    0.261    0.554   85.956
  431.250    2.145    0.264    0.550   88.825
  431.500    2.111    0.273    0.559   90.717
  431.750    2.097    0.285    0.574   89.681
  432.000    2.098    0.294    0.566   89.011
  432.250    2.112    0.283    0.545   90.842
  432.500    2.182    0.275    0.531   90.294
  432.750    2.417    0.275    0.520   87.307
  433.000    2.755    0.288    0.499   83.160
  433.250    3.175    0.298    0.475   80.843
  433.500    3.633    0.278    0.465   79.258
  433.750    4.071    0.252    0.458   79.015
  434.000    4.510    0.238    0.455   80.785
  434.250    4.803    0.231    0.456   82.312
  434.500    4.963    0.231    0.458   83.960
  434.750    4.902    0.235    0.453   84.327
  435.000    5.008    0.233    0.451   80.729
  435.250    5.323    0.210    0.489   76.216
  435.500    5.920    0.078    0.443   68.287
  435.750    6.584   -0.009    0.215   59.139
  436.000    7.131    0.013    0.206   57.981
  436.250    7.467    0.098    0.305   75.306
  436.500    7.048    0.184    0.429   83.237
  436.750    6.492    0.221    0.466   87.020
  437.000    5.545    0.243    0.479   83.911
  437.250    4.956    0.249    0.467   84.400
  437.500    4.714    0.235    0.452   87.207
  437.750    4.726    0.225    0.435   88.916
  438.000    4.819    0.216    0.422   89.893
  438.250    4.887    0.208    0.416   90.261
  438.500    4.909    0.205    0.425   89.469
  438.750    4.922    0.209    0.445   85.810
  439.000    4.906    0.215    0.456   84.896
  439.250    4.901    0.220    0.445   85.080
  439.500    4.952    0.216    0.438   88.315
  439.750    4.965    0.219    0.454   91.488
  440.000    4.939    0.260    0.476   90.940
  440.250    4.834    0.296    0.495   85.146
  440.500    4.773    0.261    0.484   79.840
  440.750    4.678    0.264    0.468   76.486
  441.000    4.629    0.274    0.458   73.559
  441.250    4.597    0.274    0.445   73.133
  441.500    4.575    0.260    0.447   75.148
  441.750    4.553    0.231    0.438   78.626
  442.000    4.521    0.222    0.431   74.662
  442.250    4.492    0.267    0.440   72.040
  442.500    4.452    0.286    0.421   73.200
  442.750    4.340    0.293    0.410   74.483
  443.000    4.261    0.287    0.413   74.911
  443.250    4.022    0.280    0.431   74.729
  443.500    3.636    0.291    0.450   71.680
  443.750    3.159    0.329    0.486   68.143
  444.000    2.729    0.371    0.544   67.107
  444.250    2.353    0.397    0.596   69.243
  444.500    2.200    0.323    0.568   72.661
  444.750    2.140    0.295    0.551   75.346
  445.000    2.150    0.283    0.560   76.872
  445.250    2.255    0.295    0.542   74.189
  445.500    2.561    0.350    0.539   73.885
  445.750    3.141    0.404    0.561   77.120
  446.000    3.753    0.377    0.549   78.219
  446.250    4.213    0.280    0.477   74.194
  446.500    4.564    0.233    0.412   69.803
  446.750    4.627    0.224    0.386   73.342
  447.000    4.294    0.225    0.417   76.638
  447.250    4.076    0.261    0.462   77.615
  447.500    3.856    0.311    0.492   76.457
  447.750    3.772    0.317    0.499   73.530
  448.000    3.698    0.262    0.491   78.960
  448.250    3.686    0.321    0.492   75.790
  448.500    3.718    0.366    0.501   75.364
  448.750    3.754    0.400    0.510   68.045
  449.000    3.909    0.445    0.524   68.412
  449.250    4.147    0.300    0.521   68.779
  449.500    4.595    0.198    0.328   64.815
  449.750    5.120    0.130    0.302   63.352
  450.000    5.662    0.180    0.430   65.977
  450.250    6.109    0.307    0.455   64.026
  450.500    6.409    0.309    0.450   57.683
  450.750    6.437    0.298    0.442   55.915
  451.000    6.322    0.297    0.452   57.319
  451.250    6.128    0.302    0.447   58.052
  451.500    5.928    0.310    0.416   57.932
  451.750    5.658    0.317    0.405   57.445
  452.000    5.331    0.315    0.407   56.714
  452.250    4.948    0.299    0.411   56.532
  452.500    4.628    0.282    0.403   58.058
  452.750    4.543    0.243    0.394   60.744
  453.000    4.478    0.214    0.393   63.124
  453.250    4.481    0.221    0.397   66.724
  453.500    4.468    0.239    0.405   72.154
  453.750    4.404    0.259    0.420   76.913
  454.000    3.958    0.285    0.473   80.209
  454.250    3.485    0.281    0.512   83.443
  454.500    3.228    0.254    0.508   84.176
  454.750    3.041    0.236    0.507   84.360
  455.000    2.998    0.242    0.517   85.215
  455.250    2.978    0.264    0.521   83.570
  455.500    2.963    0.272    0.489   80.643
  455.750    2.987    0.245    0.465   81.925
  456.000    3.052    0.239    0.479   85.159
  456.250    3.124    0.254    0.496   86.563
  456.500    3.259    0.270    0.512   84.246
  456.750    4.270    0.292    0.524   77.721
  457.000    6.301    0.285    0.439   72.964
  457.250    7.373    0.248    0.407   70.037
  457.500    8.278    0.230    0.410   67.110
  457.750    8.915    0.178    0.368   64.793
  458.000    9.494    0.172    0.366   64.550
  458.250    9.031    0.209    0.380   66.382
  458.500    7.831    0.237    0.391   68.579
  458.750    6.933    0.239    0.397   70.715
  459.000    5.565    0.258    0.420   69.313
  459.250    4.726    0.315    0.448   69.985
  459.500    4.216    0.304    0.468   72.610
  459.750    3.965    0.300    0.476   74.014
  460.000    3.945    0.304    0.472   73.954
  460.250    4.363    0.298    0.458   72.186
  460.500    4.973    0.286    0.439   69.991
  460.750    5.625    0.269    0.403   68.406
  461.000    6.644    0.257    0.379   68.163
  461.250    7.745    0.247    0.364   67.737
  461.500    8.664    0.255    0.364   66.824
  461.750    9.582    0.254    0.369   66.703
  462.000   10.031    0.229    0.369   66.765
  462.250   10.287    0.219    0.360   65.851
  462.500    9.729    0.230    0.353   61.155
  462.750    9.167    0.215    0.358   63.597
  463.000    8.968    0.007    0.396   66.282
  463.250    9.076   -0.013    0.416   61.830
  463.500    9.703   -0.014    0.312   58.659
  463.750   10.275    0.002    0.288   62.625
  464.000   10.819    0.053    0.320   68.849
  464.250   10.908    0.178    0.352   73.791
  464.500   10.593    0.232    0.377   77.086
  464.750   10.383    0.260    0.401   79.222
  465.000   10.350    0.274    0.421   80.687
  465.250   10.594    0.274    0.406   82.213
  465.500   10.783    0.259    0.398   86.058
  465.750    9.638    0.239    0.405   90.573
  466.000    8.995    0.228    0.420   94.905
  466.250    8.783    0.241    0.418   97.529
  466.500    9.879    0.250    0.392   99.422
  466.750   11.914    0.277    0.386   99.057
  467.000   14.479    0.305    0.417   86.553
  467.250   15.951    0.338    0.445   73.195
  467.500   16.204    0.278    0.465   71.305
  467.750   14.510    0.242    0.430   75.454
  468.000   12.702    0.226    0.379   78.993
  468.250   11.633    0.236    0.386   81.618
  468.500   11.022    0.267    0.398   83.144
  468.750   11.113    0.281    0.404   78.753
  469.000   12.130    0.279    0.393   77.412
  469.250   13.163    0.271    0.389   78.511
  469.500   15.172    0.264    0.388   79.245
  469.750   18.965    0.266    0.388   75.952
  470.000   20.311    0.284    0.393   75.709
  470.250   16.304    0.290    0.381   82.176
  470.500   13.486    0.241    0.368   86.325
  470.750   11.157    0.143    0.385   89.376
  471.000   10.028    0.117    0.399   86.084
  471.250    9.519    0.154    0.403   86.268
  471.500    9.727    0.195    0.377   75.472
  471.750   10.379    0.213    0.347   68.092
  472.000   11.284    0.231    0.334   67.483
  472.250   12.478    0.244    0.360   69.985
  472.500   13.542    0.243    0.347   64.924
  472.750   14.150    0.233    0.321   65.962
  473.000   14.215    0.250    0.327   67.244
  473.250   13.985    0.269    0.356   67.611
  473.500   12.784    0.282    0.369   72.675
  473.750   10.941    0.265    0.372   77.678
