~VERSION INFORMATION
 VERS.                 2.0:   CWLS LOG ASCII STANDARD -VERSION 2.0
 WRAP.                  NO:   ONE LINE PER DEPTH STEP
~WELL INFORMATION BLOCK
#MNEM.UNIT           DATA                    DESCRIPTION OF MNEMONIC
#---------    -------------------            -------------------------------
# Generated from Intellog Unique Number	CX_WELLS/WELL/4063
WELL.         10-01-079-01W5                 : Well_name    - WELL
LOC .         00/10-01-079-01W5/0            : Location     - LOCATION
UWI .         00/10-01-079-01W5/0            : Uwi          - UNIQUE WELL ID
ENTR.         MAX                            : Entered      - ENTERED BY
SRVC.         COMPUTALOG                     : Scn          - SERVICE COMPANY
STRT.F        950                            : top_depth    - START DEPTH
STOP.F        1789.9                         : bot_depth    - STOP DEPTH
STEP.F        0.82                           : increment    - STEP LENGTH
 NULL. -999.2500:NULL Value
~CURVE INFORMATION BLOCK
#MNEM UNIT       ERCB CURVE CODE    CURVE DESCRIPTION
#-----------   ------------------   ----------------------------------
DEPT.F        00 001 00 00         : DEPTH        - DEPTH
ILD .OHMM     00 120 00 00         : RESD         - DEEP RESISTIVITY (DIL)
GR  .API      00 310 00 00         : GR           - GAMMA RAY
NPHI.V/V      00 330 00 00         : PHIN         - NEUTRON POROSITY (SANDSTONE)
DPHI.V/V      00 890 00 00         : PHID         - DENSITY POROSITY (SANDSTONE)
~PARAMETER INFORMATION
#MNEM.UNIT           DATA             DESCRIPTION OF MNEMONIC
#---------         -----------     ------------------------------
GL  .F        1935.5               : gl           - GROUND LEVEL ELEVATION
EREF.F        1947.5               : kb           - ELEVATION OF DEPTH REFERENCE
DATM.F        1935.5               : datum        - DATUM ELEVATION
TDD .F        1802                 : tdd          - TOTAL DEPTH DRILLER
RUN .         ONE                  : Run          - RUN NUMBER
ENG .         BILL                 : Engineer     - RECORDING ENGINEER
WIT .         JIM                  : Witness      - WITNESSED BY
MUD .         GEL                  : Mud_type     - MUD TYPE
MATR.         SANDSTONE            : Logunit      - NEUTRON MATRIX
TMAX.F        65                   : BHT          - MAXIMUM RECORDED TEMPERATURE
BHTD.F        1800                 : BHTDEP       - MAXIMUM RECORDED TEMPERATURE
RMT .F        62.06                : MDTP         - TEMPERATURE OF MUD
MUDD.LB/G     1.15                 : MWT          - MUD DENSITY
NEUT.         1                    : NEUTRON      - NEUTRON TYPE
RESI.         0                    : RESIST       - RESISTIVITY TYPE
RM  .OHMM     5.1                  : RM           - RESISTIVITY OF MUD
RMC .OHMM     0                    : RMC          - RESISTIVITY OF MUD CAKE
RMF .OHMM     4.7                  : RMF          - RESISTIVITY OF MUD FILTRATE
SUFT.F        -4                   : SUFT         - SURFACE TEMPERATURE
~A  DEPTH     RESD       GR     PHIN     PHID
# ...
 1663.580    8.362  102.034    0.476    0.112
 1664.400    8.219  101.467    0.479    0.104
 1665.220    7.941  100.862    0.509    0.097
 1666.040    7.672   97.796    0.516    0.114
 1666.860    7.279   96.560    0.505    0.165
 1667.680    7.039   94.718    0.499    0.195
 1668.500    6.918   94.138    0.509    0.222
 1669.320    6.810   95.451    0.519    0.245
 1670.140    6.950   95.501    0.531    0.267
 1670.960    7.088   93.685    0.559    0.277
 1671.780    7.231   91.856    0.581    0.286
 1672.600    7.512   90.620    0.585    0.291
 1673.430    7.671   90.039    0.561    0.296
 1674.250    7.547   90.115    0.556    0.326
 1675.070    7.425   89.523    0.550    0.329
 1675.890    7.170   86.419    0.544    0.286
 1676.710    6.931   82.685    0.558    0.244
 1677.530    6.815   77.689    0.557    0.195
 1678.350    6.708   74.586    0.541    0.182
 1679.170    6.484   74.019    0.522    0.132
 1679.990    6.493   77.842    0.494    0.053
 1680.810    6.505   84.844    0.463    0.042
 1681.630    6.520   89.941    0.471    0.129
 1682.450    6.652   96.325    0.522    0.124
 1683.270    6.793  101.409    0.556    0.121
 1684.090    6.802  103.365    0.558    0.116
 1684.910    6.811  100.262    0.460    0.112
 1685.730    6.952   97.789    0.432    0.126
 1686.550    6.965   99.102    0.499    0.141
 1687.370    6.853  102.306    0.552    0.150
 1688.190    6.390  107.416    0.576    0.155
 1689.010    6.281  109.372    0.550    0.148
 1689.830    6.182  108.779    0.500    0.153
 1690.650    6.310  106.332    0.470    0.164
 1691.470    6.435  104.465    0.445    0.170
 1692.290    6.688  100.743    0.416    0.175
 1693.110    6.945   98.914    0.401    0.176
 1693.930    7.354   99.596    0.434    0.177
 1694.750    7.365  100.277    0.496    0.182
 1695.570    7.378  100.946    0.520    0.186
 1696.390    7.399  101.035    0.516    0.191
 1697.210    7.406  101.060    0.518    0.196
 1698.030    7.293   99.219    0.521    0.199
 1698.850    7.303   97.377    0.524    0.200
 1699.670    7.313   92.381    0.513    0.172
 1700.490    8.173   87.385    0.475    0.109
 1701.310    9.131   84.926    0.283    0.078
 1702.130   10.387   88.130    0.273    0.138
 1702.950   11.406   92.597    0.279    0.163
 1703.770   11.020   97.706    0.305    0.169
 1704.590   10.642  102.198    0.334    0.179
 1705.410    9.736  103.485    0.407    0.189
 1706.230    8.912  102.905    0.482    0.202
 1707.050    8.606   99.802    0.439    0.204
 1707.870    8.315   96.698    0.409    0.190
 1708.690    8.040   92.964    0.404    0.192
 1709.510    7.914   89.243    0.409    0.197
 1710.330    7.782   89.293    0.414    0.204
 1711.150    7.387   88.713    0.423    0.216
 1711.980    7.261   86.871    0.447    0.225
 1712.800    7.143   85.673    0.476    0.237
 1713.620    6.905   85.093    0.483    0.238
 1714.440    6.793   85.157    0.412    0.230
 1715.260    6.686   86.469    0.400    0.226
 1716.080    6.575   87.150    0.388    0.227
 1716.900    6.590   88.450    0.379    0.225
 1717.720    6.481   89.775    0.378    0.220
 1718.540    6.499   92.374    0.374    0.210
 1719.360    6.391   93.030    0.368    0.198
 1720.180    6.290   94.986    0.363    0.193
 1721.000    6.302   96.929    0.364    0.187
 1721.820    6.197   98.242    0.368    0.178
 1722.640    6.215  100.841    0.387    0.169
 1723.460    6.108  102.771    0.412    0.167
 1724.280    6.122  107.263    0.432    0.214
 1725.100    6.024  109.193    0.460    0.228
 1725.920    6.037  112.411    0.485    0.238
 1726.740    6.272  115.603    0.494    0.249
 1727.560    6.760  120.069    0.504    0.258
 1728.380    7.027  125.191    0.468    0.248
 1729.200    7.169  120.814    0.432    0.203
 1730.020    6.929  115.831    0.408    0.170
 1730.840    6.811  112.727    0.398    0.150
 1731.660    6.580  110.268    0.392    0.123
 1732.480    6.246  109.031    0.381    0.117
 1733.300    6.142  107.190    0.372    0.109
 1734.120    5.936  105.991    0.377    0.104
 1734.940    5.738  104.781    0.388    0.107
 1735.760    5.640  103.570    0.397    0.110
 1736.580    5.549  102.371    0.403    0.109
 1737.400    5.562  101.779    0.407    0.109
 1738.220    5.572  101.224    0.409    0.113
 1739.040    5.588  101.262    0.410    0.114
 1739.860    5.595  100.707    0.412    0.119
 1740.680    5.309  100.114    0.415    0.123
 1741.500    4.946  100.178    0.416    0.126
 1742.320    4.864  100.216    0.422    0.132
 1743.140    4.875  100.279    0.432    0.136
 1743.960    5.252  100.330    0.438    0.145
 1744.780    6.198  100.393    0.445    0.147
 1745.600    6.445  101.062    0.472    0.154
 1746.420    6.115  102.374    0.484    0.159
 1747.240    5.902  104.948    0.505    0.165
 1748.060    5.403  110.045    0.528    0.167
 1748.880    5.222  113.906    0.542    0.170
 1749.700    5.133  115.206    0.577    0.174
 1750.520    4.874  117.149    0.596    0.173
 1751.350    4.791  120.984    0.609    0.166
 1752.170    4.631  124.202    0.616    0.152
 1752.990    4.398  128.681    0.612    0.133
 1753.810    4.247  132.516    0.605    0.130
 1754.630    3.959  136.352    0.601    0.129
 1755.450    3.823  138.307    0.599    0.126
 1756.270    3.759  137.715    0.595    0.124
 1757.090    3.632  135.873    0.595    0.121
 1757.910    3.575  130.890    0.591    0.113
 1758.730    3.517  123.384    0.588    0.106
 1759.550    3.460  119.006    0.583    0.116
 1760.370    3.404  115.272    0.577    0.123
 1761.190    3.410  110.920    0.576    0.093
 1762.010    3.418  108.435    0.573    0.079
 1762.830    3.425  104.700    0.568    0.072
 1763.650    3.431  100.966    0.555    0.059
 1764.470    3.377   97.232    0.547    0.052
 1765.290    3.382   79.002    0.544    0.122
 1766.110    3.452   72.102    0.514    0.154
 1766.930    3.719   61.429    0.476    0.217
 1767.750    4.230   56.433    0.364    0.228
 1768.570    4.728   57.745    0.357    0.228
 1769.390    4.910   59.057    0.356    0.209
 1770.210    5.389   59.121    0.346    0.204
 1771.030    5.598   59.172    0.343    0.182
 1771.850    6.034   66.792    0.351    0.175
 1772.670    6.500   83.256    0.363    0.165
 1773.490    7.003   83.950    0.372    0.153
 1774.310    7.275   82.096    0.381    0.150
 1775.130    7.558   79.005    0.379    0.150
 1775.950    7.718   79.005    0.379    0.150
 1776.770    7.733   68.421    0.378    0.150
 1777.590    7.611   70.957    0.377    0.150
 1778.410    7.622   71.007    0.375    0.151
 1779.230    7.632   70.440    0.369    0.151
 1780.050    7.657   69.860    0.362    0.144
 1780.870    7.668   68.649    0.361    0.138
 1781.690    7.682   68.082    0.365    0.136
 1782.510    7.696   66.871    0.370    0.126
 1783.330    7.710   66.921    0.374    0.119
 1784.150    7.721   68.246    0.377    0.124
 1784.970    7.743   69.571    0.403    0.132
 1785.790    7.753   70.228    0.407    0.141
 1786.610    7.775   72.171    0.409    0.150
 1787.430    7.786   74.757    0.372    0.159
 1788.250    7.663   79.236    0.290    0.170
 1789.070    7.678   81.797    0.271    0.170
 1789.900    7.553   84.371    0.264    0.109
