~VERSION INFORMATION
 VERS.                 2.0:   CWLS LOG ASCII STANDARD -VERSION 2.0
 WRAP.                  NO:   ONE LINE PER DEPTH STEP
~WELL INFORMATION BLOCK
#MNEM.UNIT           DATA                    DESCRIPTION OF MNEMONIC
#---------    -------------------            -------------------------------
# Generated from Intellog Unique Number	CC_80_83/WELL/2351
NULL.         -999.25                        : NULL_VALUE
WELL.         HOMESTEAD ET AL COWPAR         : Well_name    - WELL
LOC .         10-13-081-05W4                 : Location     - LOCATION          
UWI .         00/10-13-081-05W4/0            : Uwi          - UNIQUE WELL ID    
ENTR.         DW                             : Entered      - ENTERED BY        
SRVC.         SCHLUMBERGER                   : Scn          - SERVICE COMPANY   
DATE.         24 FEB 78                      : Date         - LOG DATE
STRT.M        60.96                          : top_depth    - START DEPTH       
STOP.M        289.559                        : bot_depth    - STOP DEPTH        
STEP.M        0.3048                         : increment    - STEP LENGTH       
~CURVE INFORMATION BLOCK
#MNEM UNIT       ERCB CURVE CODE    CURVE DESCRIPTION
#-----------   ------------------   ----------------------------------
DEPT.M        00 001 00 00         : DEPTH        - DEPTH                       
DPHI.V/V      00 890 00 00         : PHID         - DENSITY POROSITY (LIMESTONE)
NPHI.V/V      00 330 00 00         : PHIN         - NEUTRON POROSITY (LIMESTONE)
GR  .API      00 310 00 00         : GR           - GAMMA RAY                   
ILD .OHMM     00 120 00 00         : RESD         - DEEP RESISTIVITY (DIL)      
~PARAMETER INFORMATION       
#MNEM.UNIT           DATA             DESCRIPTION OF MNEMONIC
#---------         -----------     ------------------------------
GL  .M        465.734              : gl           - GROUND LEVEL ELEVATION      
EREF.M        468.782              : kb           - ELEVATION OF DEPTH REFERENCE
DATM.M        468.782              : datum        - DATUM ELEVATION             
TDD .M        299.923              : tdd          - TOTAL DEPTH DRILLER         
RUN .         ONE                  : Run          - RUN NUMBER                  
ENG .         BILL                 : Engineer     - RECORDING ENGINEER          
WIT .         JIM                  : Witness      - WITNESSED BY                
MUD .         GEL                  : Mud_type     - MUD TYPE                    
MATR.         LIMESTONE            : Logunit      - NEUTRON MATRIX              
TMAX.C        25                   : BHT          - MAXIMUM RECORDED TEMPERATURE
BHTD.M        299.923              : BHTDEP       - MAXIMUM RECORDED TEMPERATURE
MATR.         1                    : LOGUNIT      - NEUTRON MATRIX              
RMT .C        25                   : MDTP         - TEMPERATURE OF MUD          
NEUT.         1                    : NEUTRON      - NEUTRON TYPE                
RESI.         0                    : RESIST       - RESISTIVITY TYPE            
RMC .OHMM     0.25                 : RMC          - RESISTIVITY OF MUD CAKE     
RMF .OHMM     0.25                 : RMF          - RESISTIVITY OF MUD FILTRATE 
SUFT.C        15                   : SUFT         - SURFACE TEMPERATURE         
~A  DEPTH     PHID     PHIN       GR     RESD
# ...
  167.030    0.280    0.605  100.589    2.341
  167.335    0.280    0.614   97.018    2.567
  167.640    0.278    0.592   95.225    3.145
  167.944    0.266    0.559   98.174    4.073
  168.249    0.274    0.534   98.165    4.898
  168.554    0.265    0.504   93.996    5.573
  168.859    0.253    0.488   92.201    5.998
  169.164    0.260    0.473   91.598    6.109
  169.468    0.256    0.493   85.059    6.220
  169.773    0.206    0.502   73.775    6.219
  170.078    0.161    0.454   63.083    6.946
  170.383    0.132    0.353   64.850    8.201
  170.688    0.232    0.419   71.954    9.331
  170.992    0.271    0.510   80.245    9.860
  171.297    0.278    0.515   84.979    9.499
  171.602    0.276    0.503   92.085    8.190
  171.907    0.275    0.488   93.851    7.604
  172.212    0.279    0.479   90.871    7.463
  172.516    0.300    0.486   88.485    7.741
  172.821    0.294    0.517   90.251    8.030
  173.126    0.287    0.488   96.764    8.485
  173.431    0.261    0.475   94.971    8.803
  173.736    0.253    0.475   97.328    8.963
  174.040    0.240    0.496   97.908    8.961
  174.345    0.260    0.509   95.522    8.957
  174.650    0.285    0.513   94.325    8.790
  174.955    0.272    0.499   94.308    8.628
  175.260    0.272    0.474   91.920    8.466
  175.564    0.259    0.475   90.723    8.310
  175.869    0.252    0.498   94.864    7.858
  176.174    0.241    0.532  101.375    7.296
  176.479    0.244    0.557   98.990    6.527
  176.783    0.265    0.560   91.261    6.288
  177.088    0.281    0.531   88.284    6.286
  177.393    0.287    0.471   88.859    6.402
  177.698    0.272    0.467   90.628    6.764
  178.003    0.279    0.468   90.617    6.763
  178.307    0.284    0.477   89.415    6.761
  178.612    0.278    0.488   89.403    6.394
  178.917    0.270    0.506   95.323    5.616
  179.222    0.255    0.581  104.801    5.025
  179.527    0.250    0.560  100.633    4.496
  179.831    0.260    0.546  101.807    4.331
  180.136    0.266    0.536  105.947    4.329
  180.441    0.254    0.550  105.340    4.409
  180.746    0.249    0.560  102.951    4.573
  181.051    0.238    0.544  101.753    4.573
  181.355    0.255    0.558   98.182    4.487
  181.660    0.283    0.547   89.269    4.655
  181.965    0.295    0.524   87.477    5.297
  182.270    0.297    0.504   91.616    5.009
  182.575    0.271    0.513   96.349    4.086
  182.879    0.278    0.569  100.487    3.865
  183.184    0.282    0.585   96.322    4.084
  183.489    0.279    0.539   95.712    4.646
  183.794    0.261    0.515   96.889    6.016
  184.099    0.202    0.487   92.722    6.974
  184.403    0.184    0.488   83.216    8.387
  184.708    0.084    0.386   64.220    9.901
  185.013    0.096    0.320   67.173   10.462
  185.318    0.205    0.447   79.617   10.080
  185.623    0.259    0.458   86.720    9.018
  185.927    0.223    0.451   88.485    7.494
  186.232    0.248    0.479   91.441    5.892
  186.537    0.254    0.499   94.394    4.987
  186.842    0.269    0.528   93.787    4.717
  187.146    0.270    0.572   95.552    4.298
  187.451    0.249    0.521   96.133    4.459
  187.756    0.258    0.502   94.340    4.800
  188.061    0.262    0.528   95.511    5.361
  188.366    0.280    0.542   95.496    5.988
  188.670    0.276    0.517   93.704    6.328
  188.975    0.269    0.496   91.914    6.564
  189.280    0.256    0.474   91.897    6.561
  189.585    0.257    0.487   94.853    6.560
  189.890    0.261    0.485   98.991    7.060
  190.194    0.275    0.469   96.606    7.190
  190.499    0.298    0.458   88.286    7.188
  190.804    0.304    0.460   93.611    7.054
  191.109    0.273    0.474   95.968    6.430
  191.414    0.235    0.507   95.956    5.343
  191.718    0.260    0.539   95.354    3.973
  192.023    0.293    0.579   88.221    2.848
  192.328    0.316    0.555   80.494    2.501
  192.633    0.311    0.568   82.855    2.279
  192.938    0.303    0.581   83.435    2.196
  193.242    0.290    0.587   82.824    2.320
  193.547    0.280    0.605   83.998    2.363
  193.852    0.267    0.613   86.352    2.689
  194.157    0.245    0.575   86.936    3.059
  194.462    0.256    0.535   86.926    3.612
  194.766    0.275    0.547   85.723    4.187
  195.071    0.266    0.534   85.119    4.943
  195.376    0.242    0.501   87.478    5.624
  195.681    0.267    0.443   91.024    6.166
  195.986    0.288    0.451   96.352    6.165
  196.290    0.273    0.499   96.335    5.414
  196.595    0.255    0.531   98.698    4.669
  196.900    0.262    0.551   98.682    4.101
  197.205    0.254    0.557   91.552    3.807
  197.509    0.255    0.565   93.318    3.470
  197.814    0.234    0.569   93.303    3.343
  198.119    0.228    0.574   93.291    3.281
  198.424    0.254    0.563   95.056    3.340
  198.729    0.266    0.532   94.448    3.402
  199.033    0.248    0.530   93.248    3.529
  199.338    0.237    0.544   93.237    3.594
  199.643    0.247    0.511   91.444    3.593
  199.948    0.254    0.523   92.024    3.526
  200.253    0.257    0.541   99.723    3.524
  200.557    0.249    0.553  102.083    3.524
  200.862    0.247    0.566   97.324    3.655
  201.167    0.248    0.545   90.783    3.862
  201.472    0.264    0.534   88.397    4.235
  201.777    0.293    0.487   88.976    4.643
  202.081    0.268    0.457   90.745    4.998
  202.386    0.235    0.470   89.545    4.997
  202.691    0.221    0.509   91.902    4.639
  202.996    0.217    0.522   93.075    4.724
  203.301    0.207    0.507   84.759    4.811
  203.605    0.193    0.439   77.624    5.275
  203.910    0.100    0.391   79.393    5.892
  204.215    0.135    0.424   82.345    6.112
  204.520    0.246    0.457   79.364    6.110
  204.825    0.268    0.434   74.605    5.996
  205.129    0.281    0.380   74.001    5.671
  205.434    0.296    0.397   75.763    4.890
  205.739    0.302    0.449   79.904    3.844
  206.044    0.301    0.489   85.823    3.314
  206.349    0.286    0.507   86.403    2.911
  206.653    0.295    0.515   86.389    2.653
  206.958    0.286    0.534   90.528    2.509
  207.263    0.290    0.552   91.702    2.463
  207.568    0.315    0.559   89.911    2.651
  207.872    0.310    0.418   93.452    2.907
  208.177    0.263    0.399   95.813    3.764
  208.482    0.199    0.412   96.988    4.965
  208.787    0.202    0.440   95.787    5.649
  209.092    0.218    0.440   91.029    5.752
  209.396    0.235    0.419   83.304    5.645
  209.701    0.244    0.389   77.358    5.749
  210.006    0.261    0.352   74.973    6.188
  210.311    0.276    0.323   72.583    7.041
  210.616    0.288    0.314   70.789    7.720
  210.920    0.290    0.308   70.181    8.158
  211.225    0.300    0.305   70.759    8.621
  211.530    0.302    0.314   71.344    8.460
  211.835    0.288    0.318   71.925    8.302
  212.140    0.276    0.322   70.130    8.300
  212.444    0.292    0.307   66.557    8.770
  212.749    0.294    0.295   67.140    9.268
  213.054    0.299    0.304   65.937   10.161
  213.359    0.305    0.293   59.993   10.937
  213.664    0.318    0.265   59.980   11.138
  213.968    0.330    0.243   62.931   10.931
  214.273    0.332    0.253   67.071    9.963
  214.578    0.324    0.309   70.024    8.433
  214.883    0.295    0.311   71.198    8.124
  215.188    0.315    0.309   60.505    7.827
  215.492    0.334    0.299   55.154    7.267
  215.797    0.333    0.329   52.171    6.502
  216.102    0.332    0.339   54.532    3.532
  216.407    0.326    0.364   58.673    2.531
  216.712    0.322    0.405   62.812    2.142
  217.016    0.292    0.398   65.764    1.953
  217.321    0.297    0.397   69.308    1.916
  217.626    0.268    0.431   70.481    1.952
  217.931    0.293    0.433   70.472    2.024
  218.236    0.290    0.431   70.458    2.100
  218.540    0.280    0.420   64.512    2.138
  218.845    0.282    0.410   52.041    2.060
  219.150    0.276    0.402   53.805    2.022
  219.455    0.278    0.410   59.130    1.984
  219.759    0.264    0.424   60.305    1.947
