~VERSION INFORMATION
 VERS.                 2.0:   CWLS LOG ASCII STANDARD -VERSION 2.0
 WRAP.                  NO:   ONE LINE PER DEPTH STEP
~WELL INFORMATION BLOCK
#MNEM.UNIT           DATA                    DESCRIPTION OF MNEMONIC
#---------    -------------------            -------------------------------
# Generated from Intellog Unique Number	CW_70_72/WELL/1062
NULL.         -999.25                        : NULL_VALUE
WELL.         MIKAS AMOCO CALLLING LAKE 11-3 : Well_name    - WELL              
LOC .         11-34-071-20W4                 : Location     - LOCATION          
UWI .         00/11-34-071-20W4/0            : Uwi          - UNIQUE WELL ID    
ENTR.         JAYE                           : Entered      - ENTERED BY        
SRVC.         SCHLUMBERGER                   : Scn          - SERVICE COMPANY   
DATE.         8 FEB 73                       : Date         - LOG DATE          
STRT.M        320.04                         : top_depth    - START DEPTH       
STOP.M        533.04                         : bot_depth    - STOP DEPTH        
STEP.M        0.25                           : increment    - STEP LENGTH       
~CURVE INFORMATION BLOCK
#MNEM UNIT       ERCB CURVE CODE    CURVE DESCRIPTION
#-----------   ------------------   ----------------------------------
DEPT.M        00 001 00 00         : DEPTH        - DEPTH                       
DPHI.V/V      00 890 00 00         : PHID         - DENSITY POROSITY (SANDSTONE)
NPHI.V/V      00 330 00 00         : PHIN         - NEUTRON POROSITY (SANDSTONE)
GR  .API      00 310 00 00         : GR           - GAMMA RAY                   
CALI.MM       00 280 01 00         : CAL          - CALIPER                     
ILD .OHMM     00 120 00 00         : RESD         - DEEP RESISTIVITY (DIL)      
~PARAMETER INFORMATION       
#MNEM.UNIT           DATA             DESCRIPTION OF MNEMONIC
#---------         -----------     ------------------------------
GL  .M        591.83               : gl           - GROUND LEVEL ELEVATION      
EREF.M        594.97               : kb           - ELEVATION OF DEPTH REFERENCE
DATM.M        591.83               : datum        - DATUM ELEVATION             
TDD .M        541.63               : tdd          - TOTAL DEPTH DRILLER         
RUN .         ONE                  : Run          - RUN NUMBER                  
ENG .         MACIJUK              : Engineer     - RECORDING ENGINEER          
WIT .         LEWIN/CONVENEY       : Witness      - WITNESSED BY                
BASE.         EDM                  : Branch       - HOME BASE OF LOGGING UNIT   
MUD .         GEL                  : Mud_type     - MUD TYPE                    
MATR.         SANDSTONE            : Logunit      - NEUTRON MATRIX              
TMAX.C        25.5556              : BHT          - MAXIMUM RECORDED TEMPERATURE
BHTD.M        540.41               : BHTDEP       - MAXIMUM RECORDED TEMPERATURE
RMT .C        15                   : MDTP         - TEMPERATURE OF MUD          
MUDD.KG/M     1104                 : MWT          - MUD DENSITY                 
NEUT.         1                    : NEUTRON      - NEUTRON TYPE                
RESI.         0                    : RESIST       - RESISTIVITY TYPE            
RM  .OHMM     4.44                 : RM           - RESISTIVITY OF MUD          
RMC .OHMM     0                    : RMC          - RESISTIVITY OF MUD CAKE     
RMF .OHMM     4.5                  : RMF          - RESISTIVITY OF MUD FILTRATE 
SUFT.C        0                    : SUFT         - SURFACE TEMPERATURE         
~A  DEPTH     PHID     PHIN       GR      CAL     RESD
# ...
  466.040    0.189    0.388   75.144  165.237    6.813
  466.290    0.182    0.361   69.455  163.341    8.341
  466.540    0.151    0.352   63.763  161.773   10.269
  466.790    0.185    0.343   59.473  161.214   12.345
  467.040    0.205    0.306   56.159  160.859   14.489
  467.290    0.142    0.277   53.454  160.724   16.916
  467.540    0.095    0.247   54.286  160.999   19.213
  467.790    0.105    0.253   61.156  161.376   13.311
  468.040    0.096    0.295   69.122  162.059   10.600
  468.290    0.124    0.336   75.689  162.752    9.198
  468.540    0.151    0.396   80.730  163.549    8.235
  468.790    0.179    0.432   85.646  164.032    7.661
  469.040    0.184    0.428   86.668  164.191    7.246
  469.290    0.170    0.421   83.535  163.951    6.866
  469.540    0.170    0.418   81.438  163.617    6.687
  469.790    0.165    0.436   82.453  163.674    6.644
  470.040    0.149    0.443   83.475  163.331    6.578
  470.290    0.160    0.426   83.388  163.701    6.513
  470.540    0.159    0.411   83.195  164.092    6.367
  470.790    0.153    0.401   83.894  164.262    6.145
  471.040    0.149    0.420   85.398  164.524    6.028
  471.290    0.182    0.434   87.695  163.770    6.101
  471.540    0.200    0.435   92.490  163.740    6.265
  471.790    0.196    0.429   90.945  164.018    6.578
  472.040    0.194    0.421   89.647  163.872    6.880
  472.290    0.178    0.412   89.569  164.360    7.183
  472.540    0.162    0.406   89.543  164.422    7.431
  472.790    0.162    0.392   89.582  164.482    7.534
  473.040    0.147    0.383   89.010  164.858    7.405
  473.290    0.130    0.372   85.394  165.456    7.030
  473.540    0.119    0.356   82.383  165.826    6.624
  473.790    0.214    0.371   88.828  166.006    6.208
  474.040    0.227    0.387   93.260  166.266    5.723
  474.290    0.200    0.412   96.040  167.477    5.463
  474.540    0.180    0.425   97.120  168.984    5.438
  474.790    0.200    0.418   94.843  170.702    5.504
  475.040    0.210    0.398   92.626  171.392    5.652
  475.290    0.165    0.400   90.717  171.460    5.805
  475.540    0.164    0.412   89.232  171.116    5.929
  475.790    0.189    0.415   87.142  170.467    6.113
  476.040    0.201    0.407   84.128  169.708    6.219
  476.290    0.186    0.405   80.629  168.849    6.341
  476.540    0.168    0.402   76.827  168.816    6.232
  476.790    0.147    0.389   79.365  168.977    5.777
  477.040    0.128    0.370   83.802  169.369    4.922
  477.290    0.207    0.408   88.662  169.637    4.148
  477.540    0.216    0.463   92.169  169.799    3.477
  477.790    0.227    0.516   96.786  169.459    3.367
  478.040    0.254    0.540  100.612  168.705    2.928
  478.290    0.264    0.584  103.328  167.833    2.655
  478.540    0.246    0.608  103.858  167.072    2.712
  478.790    0.242    0.572  100.606  166.230    2.831
  479.040    0.253    0.545   98.082  165.772    3.157
  479.290    0.227    0.514   95.133  165.831    3.666
  479.540    0.195    0.477   92.246  165.286    4.359
  479.790    0.166    0.427   88.141  165.363    5.356
  480.040    0.140    0.408   82.938  166.039    6.219
  480.290    0.120    0.393   79.809  167.869    5.839
  480.540    0.098    0.411   84.117  169.586    5.333
  480.790    0.190    0.431   89.153  172.229    4.943
  481.040    0.167    0.437   88.347  175.608    4.814
  481.290    0.161    0.440   86.434  176.081    5.082
  481.540    0.182    0.450   84.273  174.919    5.688
  481.790    0.201    0.431   81.086  173.738    6.813
  482.040    0.176    0.385   75.452  172.674    8.086
  482.290    0.086    0.363   67.868  170.360    9.844
  482.540    0.033    0.339   59.556  165.167   11.160
  482.790    0.001    0.300   60.754  163.680   10.326
  483.040   -0.003    0.310   65.246  163.647    8.608
  483.290    0.028    0.376   70.043  164.343    6.817
  483.540    0.110    0.411   74.045  165.439    6.182
  483.790    0.141    0.420   77.682  166.437    5.987
  484.040    0.135    0.433   80.834  166.712    5.820
  484.290    0.155    0.459   84.347  165.027    5.679
  484.540    0.165    0.475   86.706  162.714    5.561
  484.790    0.145    0.423   81.501  159.168    5.485
  485.040    0.131    0.411   78.735  157.683    5.392
  485.290    0.155    0.429   82.313  158.068    5.251
  485.540    0.209    0.443   86.317  159.265    5.114
  485.790    0.183    0.453   90.567  162.024    4.962
  486.040    0.166    0.454   90.726  163.948    4.745
  486.290    0.144    0.442   88.022  165.252    4.571
  486.540    0.148    0.453   87.700  166.572    4.443
  486.790    0.165    0.468   90.847  167.253    4.375
  487.040    0.186    0.480   94.363  167.725    4.404
  487.290    0.210    0.502   98.306  167.998    4.449
  487.540    0.187    0.518   98.348  168.596    4.502
  487.790    0.143    0.485   94.664  168.551    4.590
  488.040    0.129    0.453   89.467  168.202    4.663
  488.290    0.117    0.430   87.612  167.351    4.729
  488.540    0.119    0.431   89.908  166.589    4.759
  488.790    0.188    0.453   94.643  165.107    4.772
  489.040    0.204    0.462  100.904  163.629    4.777
  489.290    0.192    0.470  101.857  163.071    4.791
  489.540    0.178    0.474   98.604  162.836    4.831
  489.790    0.164    0.474   94.988  162.800    4.889
  490.040    0.155    0.474   92.649  162.549    4.957
  490.290    0.156    0.474   96.406  162.629    4.971
  490.540    0.213    0.471   97.851  162.383    4.923
  490.790    0.202    0.465   91.122  162.443    4.901
  491.040    0.189    0.437   88.418  162.824    4.790
  491.290    0.170    0.414   91.749  163.419    4.622
  491.540    0.185    0.410   96.609  163.691    4.469
  491.790    0.193    0.440  100.857  163.852    4.432
  492.040    0.184    0.469   97.664  164.237    4.494
  492.290    0.179    0.481   96.056  164.617    4.667
  492.540    0.172    0.504   96.282  164.674    4.741
  492.790    0.165    0.550   95.406  165.260    4.719
  493.040    0.153    0.512   90.566  165.537    4.673
  493.290    0.085    0.446   91.643  166.228    4.686
  493.540    0.102    0.477   95.956  166.603    4.910
  493.790    0.170    0.491   97.885  167.294    5.289
  494.040    0.165    0.481   97.437  167.667    5.521
  494.290    0.152    0.464   95.643  168.037    5.786
  494.540    0.113    0.448   92.757  168.120    6.096
  494.790    0.124    0.465   95.787  168.074    6.506
  495.040    0.160    0.468   95.527  167.013    7.007
  495.290    0.167    0.457   92.511  165.532    7.959
  495.540    0.146    0.325   82.369  163.629    8.811
  495.790    0.151    0.310   75.035  161.841    9.474
  496.040    0.145    0.303   68.909  161.809    9.060
  496.290    0.148    0.322   57.856  163.423    8.289
  496.540    0.170    0.337   51.980  165.762    7.712
  496.790    0.181    0.313   47.446  168.307    7.539
  497.040    0.184    0.299   42.001  170.335    7.900
  497.290    0.161    0.290   40.210  171.866    8.416
  497.540    0.148    0.283   41.585  172.029    8.786
  497.790    0.139    0.274   43.950  172.087    9.326
  498.040    0.126    0.272   45.876  171.745    9.684
  498.290    0.113    0.285   47.562  170.987   10.018
  498.540    0.086    0.298   48.884  167.339   10.346
  498.790    0.112    0.304   50.026  164.001   10.586
  499.040    0.142    0.299   50.921  162.717   10.696
  499.290    0.140    0.291   51.442  162.474   10.607
  499.540    0.121    0.278   53.435  162.551   10.580
  499.790    0.128    0.290   57.497  162.511   10.629
  500.040    0.136    0.306   62.416  162.798   10.756
  500.290    0.143    0.323   68.919  163.469   10.807
  500.540    0.139    0.323   76.035  165.604   10.762
  500.790    0.122    0.308   83.696  167.942   10.771
  501.040    0.127    0.313   90.874  169.559   10.683
  501.290    0.102    0.320   97.926  170.462   10.696
  501.540    0.105    0.320  107.049  170.525   10.686
  501.790    0.131    0.324  115.992  170.602   10.618
  502.040    0.135    0.334  123.594  170.665   10.629
  502.290    0.124    0.359  127.659  171.047   10.601
