~VERSION INFORMATION
 VERS.                 2.0:   CWLS LOG ASCII STANDARD -VERSION 2.0
 WRAP.                  NO:   ONE LINE PER DEPTH STEP
~WELL INFORMATION BLOCK
#MNEM.UNIT           DATA                    DESCRIPTION OF MNEMONIC
#---------    -------------------            -------------------------------
# Generated from Intellog Unique Number	CW_73_75/WELL/195
WELL.         10-12-074-26W4                 : Well_name    - WELL
LOC .         00/10-12-074-26W4/0            : Location     - LOCATION
UWI .         00/10-12-074-26W4/0            : Uwi          - UNIQUE WELL ID
ENTR.         JJ                             : Entered      - ENTERED BY
SRVC.         SCHLUMBERGER                   : Scn          - SERVICE COMPANY
DATE.         10 FEB 67                      : Date         - LOG DATE
STRT.M        475.488                        : top_depth    - START DEPTH
STOP.M        603.488                        : bot_depth    - STOP DEPTH
STEP.M        0.25                           : increment    - STEP LENGTH
 NULL. -999.2500:NULL Value
~CURVE INFORMATION BLOCK
#MNEM UNIT       ERCB CURVE CODE    CURVE DESCRIPTION
#-----------   ------------------   ----------------------------------
DEPT.M        00 001 00 00         : DEPTH        - DEPTH
DELT.US/F     00 520 00 00         : DELT         - SONIC TRAVEL TIME
GR  .API      00 310 00 00         : GR           - GAMMA RAY
CALI.MM       00 280 01 00         : CAL          - CALIPER
ILD .OHMM     00 120 00 00         : RESD         - DEEP RESISTIVITY (DIL)
~PARAMETER INFORMATION
#MNEM.UNIT           DATA             DESCRIPTION OF MNEMONIC
#---------         -----------     ------------------------------
GL  .M        677.479              : gl           - GROUND LEVEL ELEVATION
EREF.M        680.923              : kb           - ELEVATION OF DEPTH REFERENCE
DATM.M        677.479              : datum        - DATUM ELEVATION
TDD .M        606.552              : tdd          - TOTAL DEPTH DRILLER
RUN .         ONE                  : Run          - RUN NUMBER
ENG .         MCORE                : Engineer     - RECORDING ENGINEER
WIT .         RANSOM               : Witness      - WITNESSED BY
BASE.         S.L.                 : Branch       - HOME BASE OF LOGGING UNIT
MUD .         GEL                  : Mud_type     - MUD TYPE
MATR.         SANDSTONE            : Logunit      - NEUTRON MATRIX
TMAX.C        30                   : BHT          - MAXIMUM RECORDED TEMPERATURE
BHTD.M        605.638              : BHTDEP       - MAXIMUM RECORDED TEMPERATURE
RMT .C        14.4444              : MDTP         - TEMPERATURE OF MUD
MUDD.KG/M     1104                 : MWT          - MUD DENSITY
NEUT.         1                    : NEUTRON      - NEUTRON TYPE
RESI.         0                    : RESIST       - RESISTIVITY TYPE
RM  .OHMM     3.9                  : RM           - RESISTIVITY OF MUD
RMC .OHMM     3.6                  : RMC          - RESISTIVITY OF MUD CAKE
RMF .OHMM     4.8                  : RMF          - RESISTIVITY OF MUD FILTRATE
SUFT.C        5                    : SUFT         - SURFACE TEMPERATURE
~A  DEPTH     DELT       GR      CAL     RESD
  475.488  383.064   60.199  216.405    4.906
  475.738  335.862   63.283  217.036    5.021
  475.988  377.220   64.725  218.720    4.989
  476.238  375.945   62.884  223.141    4.813
  476.488  367.139   64.127  226.299    4.638
  476.738  372.858   66.813  227.035    4.524
  476.988  382.275   68.554  226.929    4.494
  477.238  388.397   69.399  226.611    4.687
  477.488  393.175   69.150  225.557    4.989
  477.738  397.145   67.507  226.609    5.450
  477.988  407.974   65.616  228.082    6.367
  478.238  416.450   58.750  230.819    6.563
  478.488  451.083   43.973  215.337    5.791
  478.738  465.409   37.754  216.705    4.855
  478.988  454.922   57.852  220.074    3.978
  479.238  438.316   63.772  228.076    3.617
  479.488  427.022   68.200  228.706    3.341
  479.738  431.463   70.686  232.075    3.269
  479.988  435.904   69.144  235.865    3.255
  480.238  429.519   67.402  233.336    3.205
  480.488  421.117   67.849  232.282    3.153
  480.738  415.001   69.888  231.754    3.163
  480.988  415.407   68.097  231.858    3.136
  481.238  416.621   68.146  232.594    3.124
  481.488  416.623   68.394  232.698    3.112
  481.738  415.417   65.209  231.328    3.146
  481.988  414.477   61.975  231.432    3.113
  482.238  413.203   64.163  231.957    3.228
  482.488  412.265   70.033  233.114    3.422
  482.738  412.537   69.436  234.272    3.619
  482.988  413.952   66.948  234.375    3.671
  483.238  413.081   69.236  233.848    3.703
  483.488  411.268   70.877  230.898    3.692
  483.738  405.353   69.085  229.317    3.660
  483.988  400.179   68.239  230.369    3.585
  484.238  402.737   67.392  232.790    3.455
  484.488  418.274   65.551  233.315    3.420
  484.738  418.814   62.963  229.944    3.373
  484.988  414.043   62.664  228.048    3.423
  485.238  410.617   65.748  229.310    3.495
  485.488  403.357   71.320  228.361    3.506
  485.738  398.653   72.762  230.044    3.597
  485.988  403.094   73.309  230.991    3.667
  486.238  406.123   74.453  231.832    3.887
  486.488  400.074   69.974  228.988    4.042
  486.738  399.136   65.297  228.987    4.239
  486.988  394.231   66.291  230.354    4.332
  487.238  385.694   68.878  217.506    4.400
  487.488  379.712   71.813  226.771    4.473
  487.738  385.699   73.255  228.139    4.586
  487.988  399.555   65.195  222.451    4.638
  488.238  395.792   64.448  220.871    4.668
  488.488  391.424   65.144  222.765    4.740
  488.738  394.655   66.238  218.867    5.019
  488.988  397.012   63.899  224.869    5.421
  489.238  396.746   58.227  229.606    6.071
  489.488  392.243   53.649  222.444    6.572
  489.738  384.716   49.818  216.440    7.366
  489.988  376.649   48.275  214.122    7.891
  490.238  376.248   49.269  214.648    7.676
  490.488  380.690   49.865  215.067    7.687
  490.738  383.382   48.621  214.856    8.150
  490.988  378.208   45.984  214.539    9.027
  491.238  372.092   40.958  214.326    9.821
  491.488  364.159   38.172  214.115   10.322
  491.738  362.750   37.425  213.903   10.890
  491.988  368.200   38.121  213.796    9.954
  492.238  366.523   40.210  213.795    8.440
  492.488  364.777   41.901  214.004    7.359
  492.738  366.797   42.696  214.530    6.768
  492.988  375.542   44.188  214.845    5.914
  493.238  380.924   47.471  215.581    5.203
  493.488  385.029   50.057  215.474    4.720
  493.738  373.534   47.917  215.789    4.464
  493.988  364.190   45.330  215.787    4.369
  494.238  359.015   46.275  215.891    4.296
  494.488  357.338   47.120  215.679    4.187
  494.738  357.676   47.965  215.573    4.218
  494.988  354.787   48.014  215.151    4.265
  495.238  354.992   44.830  214.728    4.360
  495.488  361.182   43.834  214.516    4.412
  495.738  366.901   45.226  214.936    4.423
  495.988  370.737   48.907  215.567    4.413
  496.238  373.295   48.658  216.092    4.423
  496.488  374.306   45.424  216.091    4.435
  496.738  371.149   42.388  215.669    4.440
  496.988  366.311   41.691  214.509    4.409
  497.238  363.557   42.437  214.297    4.378
  497.488  361.475   43.680  214.822    4.351
  497.738  359.932   45.072  215.453    4.341
  497.988  359.867   47.012  216.294    4.347
  498.238  360.611   50.196  216.714    4.377
  498.488  359.873   51.837  217.450    4.514
  498.738  358.060   49.697  218.396    4.645
  498.988  360.484   48.303  218.711    5.089
  499.238  367.884   47.855  219.026    5.676
  499.488  340.922   47.058  219.235    7.542
  499.738  292.914   46.212  219.550    9.261
  499.988  277.652   45.366  219.970    8.406
  500.238  256.810   46.708  220.285    6.644
  500.488  301.664   53.574  220.810    5.091
  500.738  355.866   63.871  221.230    4.318
  500.988  391.710   68.149  223.440    3.997
  501.238  403.144   70.437  225.440    3.907
  501.488  400.054   65.561  226.597    4.059
  501.738  390.911   58.944  219.014    4.297
  501.988  376.390   59.441  217.433    4.615
  502.238  358.842   65.012  220.802    4.936
  502.488  360.459   70.086  226.487    4.945
  502.738  376.601   71.927  229.750    4.772
  502.988  384.538   69.289  221.640    4.677
  503.238  383.735   68.443  223.534    4.605
  503.488  385.150   68.193  229.852    4.575
  503.738  382.262   63.765  225.428    4.604
  503.988  378.431   65.108  222.162    4.677
  504.238  378.233   73.167  226.162    4.709
  504.488  382.540   73.315  230.373    4.739
  504.738  383.754   71.972  231.636    4.791
  504.988  383.824   76.150  231.845    4.824
  505.238  381.607   78.487  231.949    4.899
  505.488  378.450   78.885  232.475    4.926
  505.738  379.125   76.099  232.473    4.955
  505.988  381.348   73.063  232.261    4.948
  506.238  382.426   72.067  231.839    4.874
  506.488  381.286   72.067  232.469    4.823
  506.738  382.096   71.668  234.469    4.727
  506.988  388.352   72.961  238.470    4.593
  507.238  393.735   71.966  238.784    4.481
  507.488  397.974   74.104  239.941    4.554
  507.738  410.148   74.701  244.152    4.584
  507.988  401.074   70.770  241.519    4.762
  508.238  389.241   65.496  220.561    4.934
  508.488  381.175   60.520  220.139    5.748
  508.738  383.532   53.206  220.558    6.624
  508.988  383.602   50.917  220.874    7.416
  509.238  381.924   51.066  220.872    7.859
  509.488  379.237   50.617  220.871    7.892
  509.738  376.820   50.020  220.870    7.677
  509.988  375.008   50.815  221.289    7.459
  510.238  373.329   53.053  221.815    7.263
  510.488  372.256   50.814  222.025    7.108
  510.738  374.546   47.629  222.339    6.974
  510.988  377.171   47.380  222.548    6.841
  511.238  379.931   48.922  222.442    6.686
  511.488  383.364   55.936  222.335    6.511
  511.738  374.759   56.084  221.913    6.277
  511.988  359.364   54.094  221.069    6.079
  512.238  352.978   52.651  220.225    5.822
  512.488  374.230   53.396  219.277    5.545
  512.738  390.305   56.082  218.644    5.449
  512.988  390.509   60.609  218.748    5.338
  513.238  384.595   63.395  221.063    5.264
  513.488  377.605   65.185  226.433    5.253
  513.738  369.942   61.005  227.800    5.223
  513.988  370.685   55.383  224.429    5.194
  514.238  382.590   59.064  221.690    5.185
  514.488  387.232   63.789  221.057    5.196
  514.738  379.032   68.864  226.005    5.222
  514.988  367.603   72.047  230.111    5.338
  515.238  358.260   71.151  231.794    5.389
  515.488  355.371   68.663  231.372    5.440
  515.738  353.357   66.821  230.528    5.367
  515.988  354.235   66.323  229.790    5.314
  516.238  360.289   66.820  229.367    5.325
  516.488  366.748   66.919  228.840    5.316
  516.738  368.230   64.282  224.205    5.140
  516.988  365.341   62.938  219.044    5.335
  517.238  356.266   63.833  217.568    6.028
  517.488  346.654   65.474  218.831    6.283
  517.738  338.318   67.513  216.829    6.088
  517.988  332.270   64.378  216.827    5.955
  518.238  326.019   60.298  216.510    5.801
  518.488  329.182   56.069  216.193    5.603
  518.738  341.692   53.780  216.508    5.327
