~VERSION INFORMATION
 VERS.                 2.0:   CWLS LOG ASCII STANDARD -VERSION 2.0
 WRAP.                  NO:   ONE LINE PER DEPTH STEP
~WELL INFORMATION BLOCK
#MNEM.UNIT           DATA                    DESCRIPTION OF MNEMONIC
#---------    -------------------            -------------------------------
# Generated from Intellog Unique Number	CC_80_83/WELL/2360
NULL.         -999.25                        : NULL_VALUE
WELL.         NUMAC SURMONT                  : Well_name    - WELL
LOC .         10-20-082-06W4                 : Location     - LOCATION          
UWI .         00/10-20-082-06W4/0            : Uwi          - UNIQUE WELL ID    
ENTR.         DW                             : Entered      - ENTERED BY        
SRVC.         DRESSER ATLAS                  : Scn          - SERVICE COMPANY   
DATE.         07 MAR 73                      : Date         - LOG DATE
STRT.M        67.056                         : top_depth    - START DEPTH       
STOP.M        295.655                        : bot_depth    - STOP DEPTH        
STEP.M        0.3048                         : increment    - STEP LENGTH       
~CURVE INFORMATION BLOCK
#MNEM UNIT       ERCB CURVE CODE    CURVE DESCRIPTION
#-----------   ------------------   ----------------------------------
DEPT.M        00 001 00 00         : DEPTH        - DEPTH                       
NPHI.V/V      00 330 00 00         : PHIN         - NEUTRON POROSITY (LIMESTONE)
GR  .API      00 310 00 00         : GR           - GAMMA RAY                   
RHOB.KG/M3    00 350 00 00         : DENS         - BULK DENSITY                
ILD .OHMM     00 120 00 00         : RESD         - DEEP RESISTIVITY (DIL)      
~PARAMETER INFORMATION       
#MNEM.UNIT           DATA             DESCRIPTION OF MNEMONIC
#---------         -----------     ------------------------------
GL  .M        529.133              : gl           - GROUND LEVEL ELEVATION      
EREF.M        530.962              : kb           - ELEVATION OF DEPTH REFERENCE
DATM.M        530.962              : datum        - DATUM ELEVATION             
TDD .M        295.351              : tdd          - TOTAL DEPTH DRILLER         
RUN .         ONE                  : Run          - RUN NUMBER                  
ENG .         BILL                 : Engineer     - RECORDING ENGINEER          
WIT .         JIM                  : Witness      - WITNESSED BY                
MUD .         GEL                  : Mud_type     - MUD TYPE                    
MATR.         LIMESTONE            : Logunit      - NEUTRON MATRIX              
TMAX.C        17.7778              : BHT          - MAXIMUM RECORDED TEMPERATURE
BHTD.M        295.351              : BHTDEP       - MAXIMUM RECORDED TEMPERATURE
MATR.         1                    : LOGUNIT      - NEUTRON MATRIX              
RMT .C        25                   : MDTP         - TEMPERATURE OF MUD          
NEUT.         0                    : NEUTRON      - NEUTRON TYPE                
RESI.         0                    : RESIST       - RESISTIVITY TYPE            
RMC .OHMM     0.25                 : RMC          - RESISTIVITY OF MUD CAKE     
RMF .OHMM     0.25                 : RMF          - RESISTIVITY OF MUD FILTRATE 
SUFT.C        15                   : SUFT         - SURFACE TEMPERATURE         
~A  DEPTH     PHIN       GR     DENS     RESD
   67.056    0.371   96.743 2178.840    3.792
   67.361    0.370   97.351 2182.910    3.865
   67.666    0.378   97.358 2186.970    3.794
   67.970    0.378   96.762 2172.740    3.794
   68.275    0.378   95.561 2168.670    3.724
   68.580    0.381   94.961 2182.890    3.725
   68.885    0.384   93.156 2180.860    3.657
   69.190    0.387   91.351 2168.660    3.590
   69.494    0.383   88.942 2176.790    3.590
   69.799    0.377   87.138 2191.010    3.591
   70.104    0.376   87.145 2217.430    3.524
   70.409    0.378   87.149 2182.870    3.460
   70.714    0.387   87.759 2150.350    3.333
   71.018    0.391   87.766 2138.160    3.272
   71.323    0.396   85.962 2154.410    3.272
   71.628    0.402   85.366 2130.020    3.212
   71.933    0.408   85.370 2156.440    3.153
   72.238    0.406   86.584 2176.760    3.154
   72.542    0.401   87.798 2199.110    3.154
   72.847    0.402   87.805 2174.720    3.214
   73.152    0.407   87.811 2154.390    3.215
   73.457    0.408   86.612 2176.740    3.277
   73.762    0.405   86.618 2229.580    3.339
   74.066    0.404   87.227 2211.290    3.403
   74.371    0.404   88.441 2132.020    3.340
   74.676    0.408   89.655 2136.080    3.279
   74.981    0.410   90.869 2136.080    3.219
   75.286    0.406   90.876 2154.370    3.219
   75.591    0.407   90.279 2168.590    3.343
   75.895    0.407   89.683 2148.260    3.472
   76.200    0.405   89.086 2150.290    3.408
   76.505    0.400   88.488 2170.610    3.283
   76.810    0.396   87.888 2199.060    3.222
   77.115    0.400   87.291 2237.670    3.223
   77.419    0.403   85.485 2197.020    3.347
   77.724    0.392   83.681 2158.400    3.542
   78.029    0.386   83.083 2152.300    3.678
   78.334    0.379   83.693 2215.300    3.748
   78.638    0.366   86.116 2237.660    3.820
   78.943    0.356   87.330 2245.780    3.680
   79.248    0.347   88.544 2253.910    3.612
   79.553    0.360   89.156 2268.130    3.751
   79.858    0.344   88.558 2262.030    3.969
   80.162    0.335   87.960 2235.610    4.122
   80.467    0.333   89.779 2245.770    3.971
   80.772    0.329   90.993 2235.600    3.825
   81.077    0.324   89.790 2211.210    3.972
   81.382    0.308   81.342 2241.690    4.704
   81.686    0.287   74.706 2280.300    6.235
   81.991    0.263   70.485 2276.230    7.960
   82.296    0.259   68.076 2243.710    6.981
   82.601    0.278   74.726 2237.610    5.171
   82.906    0.314   83.791 2227.450    4.982
   83.210    0.336   86.816 2211.190    4.130
   83.515    0.342   88.031 2231.510    3.760
   83.820    0.346   85.019 2276.210    3.761
   84.125    0.342   82.003 2298.570    4.712
   84.430    0.325   78.387 2318.890    7.536
   84.734    0.311   75.977 2320.920    9.803
   85.039    0.300   78.403 2276.200    7.828
   85.344    0.295   80.822 2241.650    8.282
   85.649    0.297   83.848 2184.740    7.979
   85.954    0.302   85.666 2146.120   10.981
   86.258    0.298   85.069 2176.600   11.403
   86.563    0.291   84.471 2200.990    7.835
   86.868    0.289   83.873 2194.890    7.985
   87.173    0.284   80.861 2170.500   12.533
   87.478    0.277   76.036 2109.520   14.295
   87.782    0.274   73.025 2133.910   15.412
   88.087    0.277   72.429 2160.320   15.129
   88.392    0.283   72.434 2125.770   13.777
   88.697    0.292   71.233 2093.250   16.012
   89.002    0.294   70.634 2079.020   16.943
   89.306    0.292   72.452 2099.340   16.323
   89.611    0.284   73.061 2142.020   15.723
   89.916    0.278   67.634 2166.400   16.328
   90.221    0.272   62.809 2188.750   17.277
   90.526    0.259   56.172 2221.270   16.959
   90.831    0.255   57.386 2324.910   15.735
   91.135    0.251   68.263 2328.970    9.660
   91.440    0.251   71.892 2284.260    8.963
   91.745    0.262   65.256 2204.990    9.664
   92.050    0.293   56.204 2204.990   11.662
   92.355    0.291   50.776 2225.310   17.962
   92.659    0.279   50.783 2213.110   21.272
   92.964    0.291   56.830 2117.590   17.635
   93.269    0.306   59.856 2119.620   17.639
   93.574    0.306   61.672 2133.840   14.622
   93.879    0.303   66.510 2146.030   13.567
   94.183    0.315   70.139 2162.290   12.588
   94.488    0.304   73.768 2192.770   10.241
   94.793    0.295   77.399 2217.160   10.635
   95.098    0.288   79.218 2229.350   10.637
   95.403    0.282   80.433 2247.630    9.870
   95.707    0.275   82.251 2251.700   10.059
   96.012    0.274   83.463 2247.630   11.260
   96.317    0.271   87.096 2229.330   10.063
   96.622    0.274   88.911 2263.880    9.514
   96.927    0.292   93.749 2249.650    8.827
   97.231    0.319   97.984 2269.970    8.190
   97.536    0.322   97.387 2282.160    8.191
   97.841    0.316   93.164 2278.090   13.348
   98.146    0.297   80.489 2253.700   12.155
   98.451    0.276   75.059 2227.280   10.862
   98.755    0.263   73.255 2196.790   10.270
   99.060    0.268   69.035 2123.620   10.272
   99.365    0.287   63.605 2048.420   13.614
   99.670    0.334   55.762 2060.610   14.138
   99.975    0.345   53.958 2078.900   12.400
  100.279    0.343   55.170 2174.420   11.945
  100.584    0.308   53.970 2115.480   11.082
  100.889    0.302   51.560 2080.920   12.881
  101.194    0.314   44.321 2091.080   17.397
  101.499    0.337   44.329 2121.560   20.604
  101.803    0.320   45.540 2091.070   19.479
  102.108    0.306   53.397 2139.850   15.847
  102.413    0.306   61.861 2176.430   15.267
  102.718    0.299   64.280 2160.160   14.707
  103.023    0.284   67.306 2137.800   14.436
  103.327    0.278   65.502 2137.800   14.440
  103.632    0.276   62.488 2125.600   15.278
  103.937    0.275   63.703 2182.510   16.167
  104.242    0.278   67.936 2292.250   18.441
  104.547    0.276   75.794 2306.470   19.512
  104.851    0.272   81.234 2227.210   17.113
  105.156    0.269   87.885 2184.520   13.161
  105.461    0.270   89.703 2231.260   11.984
  105.766    0.272   90.313 2271.910   10.510
  106.071    0.281   90.320 2271.900    8.236
  106.375    0.305   90.325 2219.060    8.393
  106.680    0.317   89.125 2156.050   12.452
  106.985    0.310   87.321 2162.150   13.176
  107.290    0.306   86.117 2154.020   12.457
  107.595    0.304   83.709 2115.400   12.695
  107.899    0.303   80.698 2060.520   14.481
  108.204    0.298   80.097 2044.260   16.830
  108.509    0.298   74.064 1979.220   13.693
  108.814    0.333   69.846 1936.540    9.954
  109.119    0.360   69.851 1899.950    6.969
  109.423    0.377   70.462 2129.600    8.253
  109.728    0.349   69.260 2190.570   11.793
  110.033    0.276   65.039 2168.210   13.706
  110.338    0.264   65.049 2196.660   11.578
  110.643    0.262   65.657 2192.590   11.364
  110.947    0.264   66.869 2192.590   10.948
  111.252    0.267   69.294 2153.970   10.350
  111.557    0.277   69.902 2147.870   13.720
  111.862    0.281   69.304 2184.450   11.589
  112.167    0.278   62.669 2194.610   10.553
  112.471    0.278   64.486 2182.410    9.255
  112.776    0.291   66.910 2174.280   11.596
  113.081    0.283   66.914 2153.950   10.363
  113.386    0.283   66.923 2113.300    9.983
  113.691    0.293   65.722 2162.070   10.563
  113.995    0.299   64.518 2121.420   10.765
  114.300    0.296   64.525 2129.550   10.567
  114.605    0.283   67.550 2198.650   10.569
  114.910    0.286   71.785 2221.000    6.488
  115.215    0.288   76.020 2216.930    5.798
  115.520    0.293   77.233 2168.150    6.867
  115.824    0.285   71.199 2233.180   16.288
  116.129    0.279   63.960 2245.370   16.292
  116.434    0.278   62.759 2235.210   13.762
  116.739    0.278   65.181 2151.880   13.010
  117.044    0.278   70.019 2141.710   12.772
  117.348    0.277   72.439 2155.940   12.536
  117.653    0.278   75.465 2145.770   12.077
  117.958    0.282   80.304 2141.710   10.997
  118.263    0.285   85.142 2129.510   10.794
  118.568    0.275   89.979 2092.920   12.313
  118.872    0.273   94.818 2119.340   14.858
  119.177    0.275   97.238 2137.630   17.930
  119.482    0.279   93.622 2125.430   17.273
  119.787    0.279   85.777 2121.360   16.026
