~VERSION INFORMATION
 VERS.                 2.0:   CWLS LOG ASCII STANDARD -VERSION 2.0
 WRAP.                  NO:   ONE LINE PER DEPTH STEP
~WELL INFORMATION BLOCK
#MNEM.UNIT           DATA                    DESCRIPTION OF MNEMONIC
#---------    -------------------            -------------------------------
# Generated from Intellog Unique Number	CS_71_72/WELL/3248
WELL.         AEC KIRBY                      : Well_name    - WELL
LOC .         00/15-32-071-04W4/0            : Location     - LOCATION
UWI .         00/15-32-071-04W4/0            : Uwi          - UNIQUE WELL ID
ENTR.         T                              : Entered      - ENTERED BY
SRVC.         COMPUTALOG                     : Scn          - SERVICE COMPANY
DATE.         03/24/92                       : Date         - LOG DATE
STRT.M        300                            : top_depth    - START DEPTH
STOP.M        500                            : bot_depth    - STOP DEPTH
STEP.M        0.25                           : increment    - STEP LENGTH
 NULL. -999.2500:NULL Value
~CURVE INFORMATION BLOCK
#MNEM UNIT       ERCB CURVE CODE    CURVE DESCRIPTION
#-----------   ------------------   ----------------------------------
DEPT.M        00 001 00 00         : DEPTH        - DEPTH
NPHI.V/V      00 330 00 00         : PHIN         - NEUTRON POROSITY (SANDSTONE)
GR  .API      00 310 00 00         : GR           - GAMMA RAY
DPHI.V/V      00 890 00 00         : PHID         - DENSITY POROSITY (SANDSTONE)
ILD .OHMM     00 120 00 00         : RESD         - DEEP RESISTIVITY (DIL)
~PARAMETER INFORMATION
#MNEM.UNIT           DATA             DESCRIPTION OF MNEMONIC
#---------         -----------     ------------------------------
GL  .M        679                  : gl           - GROUND LEVEL ELEVATION
EREF.M        682.5                : kb           - ELEVATION OF DEPTH REFERENCE
DATM.M        682.5                : datum        - DATUM ELEVATION
TDD .M        503                  : tdd          - TOTAL DEPTH DRILLER
RUN .         ONE                  : Run          - RUN NUMBER
ENG .         BILL                 : Engineer     - RECORDING ENGINEER
WIT .         JIM                  : Witness      - WITNESSED BY
MUD .         GEL                  : Mud_type     - MUD TYPE
MATR.         SANDSTONE            : Logunit      - NEUTRON MATRIX
TMAX.C        18                   : BHT          - MAXIMUM RECORDED TEMPERATURE
BHTD.M        503                  : BHTDEP       - MAXIMUM RECORDED TEMPERATURE
RMT .C        17                   : MDTP         - TEMPERATURE OF MUD
MUDD.KG/M     1100                 : MWT          - MUD DENSITY
NEUT.         1                    : NEUTRON      - NEUTRON TYPE
RESI.         0                    : RESIST       - RESISTIVITY TYPE
RM  .OHMM     4.4                  : RM           - RESISTIVITY OF MUD
RMC .OHMM     5.2                  : RMC          - RESISTIVITY OF MUD CAKE
RMF .OHMM     4.2                  : RMF          - RESISTIVITY OF MUD FILTRATE
SUFT.C        4                    : SUFT         - SURFACE TEMPERATURE
~A  DEPTH     PHIN       GR     PHID     RESD
# ...
  430.500    0.442   89.374    0.271    5.142
  430.750    0.445   90.003    0.269    5.053
  431.000    0.457   90.014    0.263    5.055
  431.250    0.463   91.261    0.259    5.062
  431.500    0.453   91.889    0.264    5.068
  431.750    0.463   78.936    0.275    5.073
  432.000    0.482   74.626    0.286    5.173
  432.250    0.453   67.846    0.296    5.178
  432.500    0.435   64.156    0.309    5.281
  432.750    0.448   64.782    0.313    5.386
  433.000    0.445   68.500    0.317    5.495
  433.250    0.430   72.836    0.322    5.603
  433.500    0.419   72.847    0.319    5.823
  433.750    0.408   69.155    0.286    5.939
  434.000    0.398   64.841    0.261    6.059
  434.250    0.391   67.940    0.186    6.065
  434.500    0.402   74.743    0.198    5.960
  434.750    0.412   83.397    0.225    5.964
  435.000    0.423   93.287    0.259    5.646
  435.250    0.423   99.475    0.273    5.546
  435.500    0.416   97.634    0.266    5.249
  435.750    0.413   97.648    0.262    5.154
  436.000    0.415   98.892    0.272    4.973
  436.250    0.418  100.752    0.277    4.884
  436.500    0.420  101.999    0.266    4.887
  436.750    0.410   96.454    0.261    4.891
  437.000    0.404   90.294    0.263    4.896
  437.250    0.432   87.216    0.268    4.993
  437.500    0.451   79.201    0.280    4.998
  437.750    0.449   74.891    0.301    5.003
  438.000    0.449   77.380    0.313    4.916
  438.250    0.446   78.621    0.327    4.923
  438.500    0.438   79.870    0.324    4.837
  438.750    0.416   82.351    0.296    4.841
  439.000    0.411   85.449    0.288    4.755
  439.250    0.420   89.162    0.284    4.670
  439.500    0.421   93.498    0.284    4.337
  439.750    0.420   90.419    0.285    3.880
  440.000    0.427   86.109    0.288    3.537
  440.250    0.442   89.210    0.294    3.409
  440.500    0.455   92.306    0.294    3.165
  440.750    0.444   91.703    0.294    2.995
  441.000    0.436   89.859    0.299    2.998
  441.250    0.443   87.404    0.303    3.176
  441.500    0.454   85.563    0.308    3.491
  441.750    0.435   81.253    0.300    3.767
  442.000    0.416   78.798    0.282    4.382
  442.250    0.432   81.890    0.274    4.729
  442.500    0.450   93.632    0.268    4.644
  442.750    0.451   96.116    0.260    4.395
  443.000    0.427   89.336    0.258    4.317
  443.250    0.424   84.411    0.262    4.241
  443.500    0.436   85.040    0.269    4.492
  443.750    0.417   83.814    0.276    4.668
  444.000    0.429   80.121    0.299    4.942
  444.250    0.438   69.022    0.307    5.335
  444.500    0.419   67.796    0.318    5.650
  444.750    0.421   63.486    0.325    6.097
  445.000    0.424   63.497    0.320    6.334
  445.250    0.412   63.508    0.310    6.834
  445.500    0.407   62.285    0.299    7.374
  445.750    0.408   61.682    0.289    8.109
  446.000    0.413   61.694    0.292    8.119
  446.250    0.414   62.940    0.315    8.123
  446.500    0.418   64.803    0.321    8.135
  446.750    0.419   67.901    0.329    8.141
  447.000    0.421   69.145    0.321    7.997
  447.250    0.429   71.008    0.304    7.289
  447.500    0.446   72.255    0.294    6.644
  447.750    0.453   74.121    0.285    6.054
  448.000    0.417   76.599    0.278    5.416
  448.250    0.419   80.315    0.273    4.936
  448.500    0.415   87.738    0.267    4.498
  448.750    0.419   95.158    0.261    4.099
  449.000    0.426  103.195    0.262    3.807
  449.250    0.430  105.059    0.264    3.469
  449.500    0.428  102.603    0.265    3.222
  449.750    0.425  101.997    0.263    2.992
  450.000    0.418  103.241    0.259    2.884
  450.250    0.412  103.252    0.257    2.888
  450.500    0.417  102.032    0.255    2.891
  450.750    0.432  100.805    0.255    2.893
  451.000    0.433   98.968    0.255    2.951
  451.250    0.429  100.214    0.257    3.010
  451.500    0.423  103.309    0.258    3.128
  451.750    0.422  104.555    0.263    3.191
  452.000    0.419   99.010    0.265    3.316
  452.250    0.408   93.468    0.268    3.446
  452.500    0.403   92.859    0.266    3.650
  452.750    0.403   90.404    0.260    3.793
  453.000    0.396   85.474    0.237    4.172
  453.250    0.382   77.459    0.202    4.333
  453.500    0.370   69.444    0.222    5.041
  453.750    0.376   70.073    0.225    5.438
  454.000    0.381   73.792    0.255    6.326
  454.250    0.385   70.713    0.269    7.359
  454.500    0.392   67.638    0.281    7.939
  454.750    0.414   68.890    0.278    8.407
  455.000    0.413   70.133    0.272    8.737
  455.250    0.410   71.999    0.267    8.750
  455.500    0.411   71.394    0.268    8.756
  455.750    0.411   68.935    0.278    8.765
  456.000    0.411   67.092    0.284    8.939
  456.250    0.408   70.808    0.276    9.120
  456.500    0.403   76.996    0.266    9.300
  456.750    0.401   74.540    0.261    9.667
  457.000    0.406   73.311    0.288   10.239
  457.250    0.411   69.001    0.315   10.438
  457.500    0.414   65.925    0.338   10.646
  457.750    0.411   68.409    0.341   11.070
  458.000    0.409   71.505    0.331   11.078
  458.250    0.409   77.690    0.315   11.086
  458.500    0.405   82.641    0.310   11.097
  458.750    0.402   85.739    0.307   10.310
  459.000    0.405   88.223    0.298   10.126
  459.250    0.407   90.704    0.284    9.586
  459.500    0.405   90.715    0.270    9.591
  459.750    0.406   91.347    0.258    9.427
  460.000    0.408   91.978    0.259    9.434
  460.250    0.412   91.987    0.260    9.441
  460.500    0.418   92.001    0.263    9.109
  460.750    0.421   92.013    0.265    9.111
  461.000    0.408   92.018    0.270    8.951
  461.250    0.386   87.708    0.276    8.793
  461.500    0.359   77.224    0.276    8.640
  461.750    0.360   72.296    0.260    8.647
  462.000    0.364   79.099    0.249    8.658
  462.250    0.367   82.197    0.238    8.668
  462.500    0.380   87.148    0.238    8.675
  462.750    0.393   87.779    0.240    8.852
  463.000    0.401   87.170    0.245    8.859
  463.250    0.402   85.332    0.237    8.867
  463.500    0.403   82.874    0.228    8.876
  463.750    0.402   82.268    0.219    8.887
  464.000    0.398   81.662    0.220    8.729
  464.250    0.392   81.674    0.222    8.577
  464.500    0.382   83.540    0.223    8.426
  464.750    0.382   86.024    0.222    8.432
  465.000    0.384   87.264    0.220    8.282
  465.250    0.386   92.215    0.219    8.136
  465.500    0.386   93.467    0.218    7.846
  465.750    0.383   92.858    0.218    7.564
  466.000    0.384   92.249    0.221    7.431
  466.250    0.387   91.643    0.224    7.302
  466.500    0.394   91.655    0.230    7.309
  466.750    0.400   91.666    0.232    7.317
  467.000    0.398   91.677    0.234    7.322
  467.250    0.389   88.602    0.234    7.329
  467.500    0.384   86.144    0.234    7.338
  467.750    0.383   91.094    0.227    7.344
  468.000    0.388   96.662    0.226    7.492
  468.250    0.395   83.091    0.233    7.498
  468.500    0.404   80.633    0.240    7.647
  468.750    0.398   76.940    0.243    7.655
  469.000    0.385   89.299    0.236    7.662
  469.250    0.384   96.719    0.235    7.672
  469.500    0.388   94.881    0.238    7.539
  469.750    0.389   93.038    0.242    7.544
  470.000    0.387   89.965    0.247    7.413
  470.250    0.381   87.510    0.248    7.420
  470.500    0.374   85.052    0.247    7.426
  470.750    0.368   85.063    0.244    7.433
  471.000    0.364   91.246    0.241    7.583
  471.250    0.365   98.665    0.223    7.589
  471.500    0.372  101.146    0.212    7.598
  471.750    0.390   99.309    0.210    7.604
  472.000    0.390   98.088    0.210    7.472
  472.250    0.387   98.100    0.211    7.340
  472.500    0.382   98.108    0.212    7.213
  472.750    0.380   98.117    0.212    6.954
  473.000    0.382   99.363    0.211    6.582
  473.250    0.385  101.844    0.209    6.464
  473.500    0.389  104.942    0.209    6.352
  473.750    0.392  106.808    0.209    6.237
