~VERSION INFORMATION
 VERS.                 2.0:   CWLS LOG ASCII STANDARD -VERSION 2.0
 WRAP.                  NO:   ONE LINE PER DEPTH STEP
~WELL INFORMATION BLOCK
#MNEM.UNIT           DATA                    DESCRIPTION OF MNEMONIC
#---------    -------------------            -------------------------------
# Generated from Intellog Unique Number	CC_80_83/WELL/2332
NULL.         -999.25                        : NULL_VALUE
WELL.         PEX HOUSE                      : Well_name    - WELL
LOC .         10-03-081-16W4                 : Location     - LOCATION          
UWI .         00/10-03-081-16W400            : Uwi          - UNIQUE WELL ID    
ENTR.         DW                             : Entered      - ENTERED BY        
SRVC.         SCHLUMBERGER                   : Scn          - SERVICE COMPANY   
DATE.         06 JAN 82                      : Date         - LOG DATE
STRT.M        170                            : top_depth    - START DEPTH       
STOP.M        364.996                        : bot_depth    - STOP DEPTH        
STEP.M        0.3                            : increment    - STEP LENGTH       
~CURVE INFORMATION BLOCK
#MNEM UNIT       ERCB CURVE CODE    CURVE DESCRIPTION
#-----------   ------------------   ----------------------------------
DEPT.M        00 001 00 00         : DEPTH        - DEPTH                       
DPHI.V/V      00 890 00 00         : PHID         - DENSITY POROSITY (LIMESTONE)
NPHI.V/V      00 330 00 00         : PHIN         - NEUTRON POROSITY (LIMESTONE)
GR  .API      00 310 00 00         : GR           - GAMMA RAY                   
ILD .OHMM     00 120 00 00         : RESD         - DEEP RESISTIVITY (DIL)      
~PARAMETER INFORMATION       
#MNEM.UNIT           DATA             DESCRIPTION OF MNEMONIC
#---------         -----------     ------------------------------
GL  .M        563.09               : gl           - GROUND LEVEL ELEVATION      
EREF.M        566.89               : kb           - ELEVATION OF DEPTH REFERENCE
DATM.M        566.89               : datum        - DATUM ELEVATION             
TDD .M        422                  : tdd          - TOTAL DEPTH DRILLER         
RUN .         ONE                  : Run          - RUN NUMBER                  
ENG .         BILL                 : Engineer     - RECORDING ENGINEER          
WIT .         JIM                  : Witness      - WITNESSED BY                
MUD .         GEL                  : Mud_type     - MUD TYPE                    
MATR.         LIMESTONE            : Logunit      - NEUTRON MATRIX              
TMAX.C        15                   : BHT          - MAXIMUM RECORDED TEMPERATURE
BHTD.M        422                  : BHTDEP       - MAXIMUM RECORDED TEMPERATURE
MATR.         1                    : LOGUNIT      - NEUTRON MATRIX              
RMT .C        25                   : MDTP         - TEMPERATURE OF MUD          
NEUT.         1                    : NEUTRON      - NEUTRON TYPE                
RESI.         0                    : RESIST       - RESISTIVITY TYPE            
RMC .OHMM     0.25                 : RMC          - RESISTIVITY OF MUD CAKE     
RMF .OHMM     0.25                 : RMF          - RESISTIVITY OF MUD FILTRATE 
SUFT.C        15                   : SUFT         - SURFACE TEMPERATURE         
~A  DEPTH     PHID     PHIN       GR     RESD
# ...
  274.400    0.190    0.464   82.251    7.465
  274.700    0.202    0.447   79.797    7.325
  275.000    0.258    0.451   81.043    7.326
  275.300    0.255    0.468   77.970    7.467
  275.600    0.261    0.444   66.871    7.907
  275.900    0.270    0.451   60.094    8.372
  276.200    0.261    0.442   63.197    8.372
  276.500    0.259    0.430   67.532    8.215
  276.800    0.261    0.429   68.161    6.923
  277.100    0.243    0.482   70.645    6.061
  277.400    0.240    0.484   74.363    5.835
  277.700    0.236    0.463   78.082    5.726
  278.000    0.225    0.443   79.945    5.618
  278.300    0.200    0.438   79.961    5.513
  278.600    0.198    0.503   82.444    5.514
  278.900    0.238    0.503   81.839    5.620
  279.200    0.256    0.473   73.831    5.838
  279.500    0.261    0.448   75.078    6.182
  279.800    0.246    0.467   76.943    6.422
  280.100    0.244    0.472   75.105    7.063
  280.400    0.239    0.499   71.415    8.070
  280.700    0.256    0.493   67.724    9.047
  281.000    0.252    0.452   65.266   11.153
  281.300    0.065    0.156   52.932   16.011
  281.600    0.000    0.137   49.859   20.898
  281.900    0.000    0.138   47.403   29.434
  282.200    0.000    0.141   43.713   34.933
  282.500    0.000    0.147   43.726   36.291
  282.800    0.025    0.155   49.916   19.009
  283.100    0.123    0.240   55.485   14.566
  283.400    0.190    0.304   62.288   11.817
  283.700    0.241    0.393   70.945    9.406
  284.000    0.242    0.428   74.665    8.885
  284.300    0.241    0.429   72.825    8.719
  284.600    0.253    0.438   66.668    8.394
  284.900    0.258    0.465   67.913    8.081
  285.200    0.227    0.482   77.805    6.311
  285.500    0.207    0.481   85.844    5.739
  285.800    0.205    0.488   77.834    5.850
  286.100    0.208    0.497   79.084    6.078
  286.400    0.216    0.445   85.886    6.435
  286.700    0.208    0.430   89.607    6.559
  287.000    0.197    0.456   88.383    6.686
  287.300    0.200    0.452   86.545    6.560
  287.600    0.152    0.451   87.181    6.561
  287.900    0.136    0.449   87.809    6.562
  288.200    0.180    0.441   87.820    6.562
  288.500    0.202    0.447   89.071    6.563
  288.800    0.203    0.452   94.024    6.319
  289.100    0.181    0.453   92.185    6.200
  289.400    0.199    0.420   88.495    6.200
  289.699    0.204    0.455   90.362    6.441
  289.999    0.204    0.474   90.991    7.221
  290.299    0.193    0.426   90.388    8.570
  290.599    0.192    0.389   87.312   10.976
  290.899    0.181    0.393   78.070   10.977
  291.199    0.153    0.386   79.937   10.771
  291.499    0.173    0.437   84.268    9.429
  291.799    0.208    0.436   87.990    8.098
  292.099    0.207    0.441   86.765    7.089
  292.399    0.205    0.449   85.548    6.447
  292.699    0.188    0.420   86.791    6.207
  292.999    0.190    0.422   91.127    6.090
  293.299    0.193    0.464   92.375    6.208
  293.599    0.187    0.488   88.688    6.699
  293.899    0.193    0.474   83.761    7.510
  294.199    0.210    0.448   78.835    8.419
  294.499    0.174    0.436   75.145    8.746
  294.799    0.241    0.459   71.456    8.915
  295.099    0.256    0.462   69.615    8.916
  295.399    0.263    0.465   68.395    8.584
  295.699    0.267    0.447   72.731    8.264
  295.999    0.256    0.434   78.919    8.109
  296.299    0.207    0.464   80.168    8.110
  296.599    0.196    0.458   74.006    8.266
  296.899    0.225    0.444   71.552    8.267
  297.199    0.240    0.438   76.503    8.268
  297.499    0.244    0.412   84.545    8.268
  297.799    0.226    0.393   85.794    8.113
  298.099    0.231    0.443   85.189    8.114
  298.399    0.242    0.460   82.735    7.962
  298.699    0.213    0.441   79.659    7.963
  298.999    0.182    0.418   75.350    7.963
  299.299    0.186    0.462   78.452    8.117
  299.599    0.223    0.456   79.085    8.274
  299.899    0.227    0.430   79.715    8.433
  300.199    0.226    0.419   75.406    8.434
  300.499    0.240    0.483   68.011    9.102
  300.799    0.229    0.487   62.469    9.637
  301.099    0.135    0.425   58.777    9.638
  301.399    0.144    0.361   63.731    9.104
  301.699    0.224    0.432   69.923    8.934
  301.999    0.238    0.434   72.404    9.106
  302.299    0.237    0.415   74.884   11.015
  302.599    0.214    0.430   76.134   13.073
  302.899    0.008    0.399   57.008   13.842
  303.199    0.000    0.189   45.293   13.582
  303.499    0.063    0.250   46.540   10.811
  303.799    0.131    0.329   57.049    9.464
  304.099    0.166    0.452   68.175    8.772
  304.399    0.221    0.480   68.191    8.286
  304.699    0.173    0.405   63.882    7.977
  304.999    0.177    0.405   63.897    7.680
  305.299    0.228    0.426   67.614    7.394
  305.599    0.265    0.453   74.420    7.255
  305.899    0.263    0.449   78.137    7.119
  306.199    0.247    0.436   75.681    7.120
  306.499    0.231    0.441   73.225    7.121
  306.799    0.227    0.446   73.241    6.987
  307.099    0.234    0.453   72.017    6.856
  307.399    0.232    0.455   78.822    6.601
  307.699    0.222    0.445   71.427    6.118
  307.999    0.234    0.445   81.319    5.779
  308.299    0.240    0.448   87.507    5.564
  308.599    0.236    0.468   81.349    5.356
  308.899    0.215    0.475   80.129    5.060
  309.199    0.200    0.460   81.374    4.514
  309.499    0.210    0.460   85.711    4.264
  309.799    0.215    0.477   87.575    4.265
  310.099    0.220    0.491   94.380    4.691
  310.399    0.194    0.496   96.863    6.360
  310.699    0.180    0.443   95.025    7.267
  310.999    0.197    0.403   85.781    7.549
  311.299    0.201    0.444   80.235    7.695
  311.599    0.169    0.418   75.309    7.696
  311.899    0.180    0.426   74.708    7.551
  312.199    0.255    0.443   73.485    7.996
  312.499    0.238    0.418   76.588    8.150
  312.799    0.200    0.428   79.687    8.307
  313.099    0.206    0.442   77.234    8.630
  313.399    0.212    0.408   76.629    8.797
  313.699    0.195    0.404   77.877    8.798
  313.999    0.193    0.425   83.445    8.633
  314.298    0.196    0.463   84.697    8.471
  314.598    0.178    0.477   84.090    8.471
  314.898    0.176    0.457   82.252    8.635
  315.198    0.183    0.414   82.884    8.971
  315.498    0.198    0.406   81.662    8.972
  315.798    0.182    0.414   80.446    9.144
  316.098    0.176    0.415   80.460    9.145
  316.398    0.184    0.448   81.085    9.322
  316.698    0.188    0.440   84.805    9.147
  316.998    0.187    0.423   81.732    8.976
  317.298    0.157    0.421   78.044    8.641
  317.598    0.145    0.417   78.056    8.009
  317.898    0.153    0.395   79.921    7.283
  318.198    0.152    0.392   89.196    6.498
  318.498    0.149    0.412   95.382    5.581
  318.798    0.171    0.439   96.014    4.442
  319.098    0.175    0.465   91.705    2.814
  319.398    0.180    0.475   91.101    2.559
  319.698    0.247    0.501   83.706    2.511
  319.998    0.276    0.566   83.720    2.869
  320.298    0.274    0.557   70.769    3.537
  320.598    0.221    0.452   57.200    4.530
  320.898    0.222    0.437   63.392    6.755
  321.198    0.227    0.439   67.110    8.018
  321.498    0.215    0.422   68.354    8.988
  321.798    0.211    0.442   62.812    8.989
  322.098    0.210    0.427   61.594    8.020
  322.398    0.192    0.411   67.778    4.620
  322.698    0.209    0.430   75.201    4.201
  322.998    0.211    0.451   78.920    3.820
  323.298    0.222    0.446   83.255    3.678
  323.598    0.228    0.506   83.267    3.749
  323.898    0.213    0.487   81.430    3.895
  324.198    0.192    0.462   79.593    4.203
  324.498    0.177    0.438   78.988    4.536
  324.798    0.189    0.440   80.236    4.536
  325.098    0.213    0.466   83.956    4.367
  325.398    0.186    0.475   90.141    4.125
  325.698    0.169    0.482   82.749    4.048
  325.998    0.196    0.491   85.230    3.972
  326.298    0.206    0.481   87.716    4.127
