~VERSION INFORMATION
 VERS.                 2.0:   CWLS LOG ASCII STANDARD -VERSION 2.0
 WRAP.                  NO:   ONE LINE PER DEPTH STEP
~WELL INFORMATION BLOCK
#MNEM.UNIT           DATA                    DESCRIPTION OF MNEMONIC
#---------    -------------------            -------------------------------
# Generated from Intellog Unique Number	CS_77_79/WELL/978
WELL.         TRANS-PRAIRIE PIPLINES         : Well_name    - WELL
LOC .         00/10-32-077-12W4/0            : Location     - LOCATION
UWI .         00/10-32-077-12W4/0            : Uwi          - UNIQUE WELL ID
ENTR.         SP                             : Entered      - ENTERED BY
SRVC.         SCHLUMBERGER                   : Scn          - SERVICE COMPANY
STRT.M        264.566                        : top_depth    - START DEPTH
STOP.M        469.066                        : bot_depth    - STOP DEPTH
STEP.M        0.25                           : increment    - STEP LENGTH
 NULL. -999.2500:NULL Value
~CURVE INFORMATION BLOCK
#MNEM UNIT       ERCB CURVE CODE    CURVE DESCRIPTION
#-----------   ------------------   ----------------------------------
DEPT.M        00 001 00 00         : DEPTH        - DEPTH
GR  .API      00 310 00 00         : GR           - GAMMA RAY
DPHI.V/V      00 890 00 00         : PHID         - DENSITY POROSITY (SANDSTONE)
NPHI.V/V      00 330 00 00         : PHIN         - NEUTRON POROSITY (SANDSTONE)
ILD .OHMM     00 120 00 00         : RESD         - DEEP RESISTIVITY (DIL)
~PARAMETER INFORMATION
#MNEM.UNIT           DATA             DESCRIPTION OF MNEMONIC
#---------         -----------     ------------------------------
GL  .M        669.188              : gl           - GROUND LEVEL ELEVATION
EREF.M        672.846              : kb           - ELEVATION OF DEPTH REFERENCE
DATM.M        669.188              : datum        - DATUM ELEVATION
TDD .M        475.488              : tdd          - TOTAL DEPTH DRILLER
RUN .         ONE                  : Run          - RUN NUMBER
ENG .         BILL                 : Engineer     - RECORDING ENGINEER
WIT .         JIM                  : Witness      - WITNESSED BY
MUD .         GEL                  : Mud_type     - MUD TYPE
MATR.         SANDSTONE            : Logunit      - NEUTRON MATRIX
TMAX.C        60                   : BHT          - MAXIMUM RECORDED TEMPERATURE
BHTD.M        475.488              : BHTDEP       - MAXIMUM RECORDED TEMPERATURE
MATR.         1                    : LOGUNIT      - NEUTRON MATRIX
RMT .C        25                   : MDTP         - TEMPERATURE OF MUD
NEUT.         1                    : NEUTRON      - NEUTRON TYPE
RESI.         0                    : RESIST       - RESISTIVITY TYPE
RMC .OHMM     0.25                 : RMC          - RESISTIVITY OF MUD CAKE
RMF .OHMM     0.25                 : RMF          - RESISTIVITY OF MUD FILTRATE
SUFT.C        15                   : SUFT         - SURFACE TEMPERATURE
~A  DEPTH       GR     PHID     PHIN     RESD
# ...
  395.066   55.879    0.320    0.559    6.937
  395.316   56.472    0.337    0.544    6.729
  395.566   57.425    0.340    0.558    6.460
  395.816   58.309    0.321    0.578    6.213
  396.066   58.844    0.315    0.544    6.123
  396.316   58.167    0.335    0.528    5.945
  396.566   58.187    0.331    0.525    5.904
  396.816   58.076    0.323    0.553    5.992
  397.066   58.177    0.329    0.546    6.110
  397.316   58.184    0.317    0.551    6.219
  397.566   56.541    0.331    0.560    6.207
  397.816   55.576    0.337    0.533    6.176
  398.066   55.150    0.336    0.497    6.095
  398.316   57.502    0.312    0.481    5.902
  398.566   58.868    0.314    0.496    5.869
  398.816   59.313    0.318    0.536    5.866
  399.066   58.988    0.307    0.564    5.920
  399.316   58.695    0.332    0.572    5.978
  399.566   58.662    0.313    0.576    6.078
  399.816   58.647    0.329    0.588    6.072
  400.066   58.627    0.321    0.595    6.067
  400.316   59.077    0.318    0.558    6.064
  400.566   59.337    0.321    0.555    6.060
  400.816   60.381    0.324    0.564    6.058
  401.066   60.757    0.324    0.541    6.055
  401.316   60.932    0.316    0.532    6.052
  401.566   60.929    0.318    0.544    6.047
  401.816   60.677    0.328    0.546    6.044
  402.066   58.860    0.326    0.528    6.042
  402.316   57.316    0.317    0.523    6.037
  402.566   58.199    0.305    0.514    6.032
  402.816   59.153    0.318    0.522    6.022
  403.066   59.618    0.310    0.573    5.913
  403.316   60.309    0.294    0.592    5.914
  403.566   60.233    0.307    0.605    5.913
  403.816   60.782    0.291    0.602    5.908
  404.066   61.587    0.306    0.597    5.904
  404.316   62.538    0.316    0.600    5.906
  404.566   63.539    0.309    0.596    5.792
  404.816   63.617    0.311    0.573    5.652
  405.066   62.551    0.315    0.545    5.574
  405.316   62.505    0.316    0.548    5.519
  405.566   62.468    0.319    0.575    5.468
  405.816   62.915    0.325    0.599    5.551
  406.066   63.648    0.318    0.598    5.562
  406.316   64.287    0.299    0.577    5.562
  406.566   65.304    0.305    0.559    5.557
  406.816   65.596    0.314    0.571    5.522
  407.066   65.977    0.313    0.590    5.453
  407.316   66.672    0.312    0.594    5.448
  407.566   65.896    0.322    0.601    5.447
  407.816   65.917    0.310    0.608    5.443
  408.066   67.232    0.291    0.615    5.430
  408.316   68.520    0.305    0.608    5.547
  408.566   69.549    0.311    0.595    5.536
  408.816   68.819    0.301    0.583    5.582
  409.066   68.898    0.295    0.566    5.631
  409.316   69.481    0.298    0.561    5.619
  409.566   68.316    0.302    0.553    5.742
  409.816   66.974    0.289    0.560    5.727
  410.066   66.354    0.286    0.562    5.725
  410.316   66.354    0.300    0.548    5.721
  410.566   66.925    0.308    0.560    5.718
  410.816   69.869    0.296    0.562    5.649
  411.066   72.911    0.287    0.543    5.611
  411.316   75.807    0.270    0.530    5.603
  411.566   77.144    0.248    0.501    5.547
  411.816   77.621    0.228    0.489    5.500
  412.066   77.254    0.230    0.494    5.493
  412.316   74.822    0.263    0.546    5.490
  412.566   73.146    0.289    0.578    5.487
  412.816   69.796    0.298    0.573    5.563
  413.066   69.833    0.288    0.584    5.572
  413.316   69.171    0.273    0.556    5.685
  413.566   67.320    0.257    0.525    5.754
  413.816   65.676    0.246    0.560    5.809
  414.066   64.320    0.281    0.588    5.889
  414.316   65.576    0.293    0.612    5.874
  414.566   67.510    0.270    0.628    5.999
  414.816   67.851    0.263    0.620    5.984
  415.066   70.029    0.267    0.600    5.929
  415.316   72.333    0.248    0.573    5.874
  415.566   75.371    0.228    0.568    5.868
  415.816   78.230    0.214    0.560    5.865
  416.066   80.465    0.232    0.557    5.862
  416.316   82.543    0.228    0.546    5.860
  416.566   83.885    0.207    0.534    5.855
  416.816   82.723    0.191    0.549    5.853
  417.066   82.170    0.199    0.554    5.919
  417.316   80.654    0.219    0.544    5.954
  417.566   79.729    0.224    0.546    5.946
  417.816   80.293    0.205    0.576    6.060
  418.066   81.608    0.207    0.609    6.191
  418.316   83.600    0.199    0.609    6.379
  418.566   85.252    0.204    0.590    6.666
  418.816   83.043    0.181    0.564    7.148
  419.066   82.540    0.193    0.551    7.469
  419.316   83.744    0.173    0.532    7.740
  419.566   86.762    0.169    0.502    7.661
  419.816   88.706    0.180    0.496    7.234
  420.066   90.752    0.180    0.505    7.122
  420.316   90.887    0.172    0.516    6.502
  420.566   90.703    0.161    0.489    6.480
  420.816   93.002    0.174    0.482    6.612
  421.066   94.332    0.169    0.485    6.594
  421.316   95.336    0.186    0.477    6.581
  421.566   95.573    0.196    0.471    6.542
  421.816   95.096    0.178    0.469    5.853
  422.066   93.958    0.171    0.475    5.407
  422.316   91.266    0.155    0.495    5.372
  422.566   89.425    0.168    0.473    5.197
  422.816   88.113    0.178    0.485    4.970
  423.066   87.702    0.192    0.497    4.467
  423.316   87.352    0.212    0.509    3.973
  423.566   86.363    0.224    0.559    3.390
  423.816   84.739    0.253    0.590    2.946
  424.066   84.917    0.283    0.633    2.631
  424.316   86.651    0.283    0.635    2.355
  424.566   86.080    0.262    0.641    2.143
  424.816   84.560    0.256    0.649    2.092
  425.066   83.906    0.263    0.649    2.095
  425.316   83.421    0.268    0.639    2.165
  425.566   82.716    0.272    0.629    2.386
  425.816   82.768    0.256    0.639    2.761
  426.066   83.345    0.247    0.641    3.195
  426.316   84.246    0.246    0.633    3.563
  426.566   86.792    0.231    0.623    3.885
  426.816   90.039    0.217    0.640    4.532
  427.066   87.029    0.193    0.613    5.041
  427.316   85.648    0.192    0.550    5.776
  427.566   87.832    0.191    0.528    6.402
  427.816   89.232    0.174    0.534    6.758
  428.066   88.826    0.142    0.519    6.762
  428.316   86.145    0.111    0.485    6.182
  428.566   84.935    0.117    0.468    5.359
  428.816   84.173    0.168    0.475    4.715
  429.066   86.612    0.175    0.491    4.406
  429.316   89.114    0.192    0.521    4.093
  429.566   91.473    0.193    0.552    4.008
  429.816   93.838    0.204    0.573    4.276
  430.066   97.353    0.204    0.600    4.996
  430.316   96.437    0.188    0.603    5.402
  430.566   90.330    0.162    0.514    6.459
  430.816   86.109    0.075    0.421    7.405
  431.066   79.362    0.044    0.389    8.016
  431.316   74.958    0.091    0.400    7.874
  431.566   71.916    0.173    0.455    7.106
  431.816   77.552    0.186    0.490    6.036
  432.066   82.553    0.180    0.522    4.869
  432.316   88.110    0.189    0.545    4.249
  432.566   91.293    0.202    0.569    4.050
  432.816   93.659    0.219    0.589    3.917
  433.066   92.951    0.223    0.600    3.960
  433.316   91.706    0.207    0.569    3.980
  433.566   91.242    0.203    0.557    4.045
  433.816   91.507    0.189    0.564    4.118
  434.066   92.552    0.174    0.566    4.289
  434.316   95.011    0.196    0.582    4.401
  434.566   97.571    0.206    0.590    4.671
  434.816   97.748    0.194    0.560    5.064
  435.066   97.320    0.175    0.531    5.285
  435.316   96.320    0.157    0.520    5.717
  435.566   94.698    0.138    0.548    6.053
  435.816   92.520    0.125    0.510    6.473
  436.066   89.819    0.122    0.482    6.826
  436.316   85.872    0.158    0.443    7.235
  436.566   82.108    0.160    0.439    7.900
  436.816   81.722    0.189    0.459    8.839
  437.066   82.739    0.225    0.438    9.462
  437.316   80.053    0.250    0.412   10.861
  437.566   71.960    0.260    0.394   12.186
  437.816   67.256    0.271    0.411   12.982
  438.066   70.183    0.259    0.423   12.303
  438.316   74.937    0.246    0.430   10.791
