~VERSION INFORMATION
 VERS.                 2.0:   CWLS LOG ASCII STANDARD -VERSION 2.0
 WRAP.                  NO:   ONE LINE PER DEPTH STEP
~WELL INFORMATION BLOCK
#MNEM.UNIT           DATA                    DESCRIPTION OF MNEMONIC
#---------    -------------------            -------------------------------
# Generated from Intellog Unique Number	CS_73_76/WELL/2188
WELL.         PEX-MARGIS                     : Well_name    - WELL
LOC .         00/10-14-074-09W4/0            : Location     - LOCATION
UWI .         00/10-14-074-09W4/0            : Uwi          - UNIQUE WELL ID
ENTR.         SP                             : Entered      - ENTERED BY
SRVC.         SCHLUMBERGER                   : Scn          - SERVICE COMPANY
STRT.M        285                            : top_depth    - START DEPTH
STOP.M        493                            : bot_depth    - STOP DEPTH
STEP.M        0.25                           : increment    - STEP LENGTH
 NULL. -999.2500:NULL Value
~CURVE INFORMATION BLOCK
#MNEM UNIT       ERCB CURVE CODE    CURVE DESCRIPTION
#-----------   ------------------   ----------------------------------
DEPT.M        00 001 00 00         : DEPTH        - DEPTH
ILD .OHMM     00 120 00 00         : RESD         - DEEP RESISTIVITY (DIL)
NPHI.V/V      00 330 00 00         : PHIN         - NEUTRON POROSITY (LIMESTONE)
GR  .API      00 310 00 00         : GR           - GAMMA RAY
DPHI.V/V      00 890 00 00         : PHID         - DENSITY POROSITY (LIMESTONE)
~PARAMETER INFORMATION
#MNEM.UNIT           DATA             DESCRIPTION OF MNEMONIC
#---------         -----------     ------------------------------
GL  .M        654.68               : gl           - GROUND LEVEL ELEVATION
EREF.M        658.64               : kb           - ELEVATION OF DEPTH REFERENCE
DATM.M        654.68               : datum        - DATUM ELEVATION
TDD .M        503.51               : tdd          - TOTAL DEPTH DRILLER
RUN .         ONE                  : Run          - RUN NUMBER
ENG .         BILL                 : Engineer     - RECORDING ENGINEER
WIT .         JIM                  : Witness      - WITNESSED BY
MUD .         GEL                  : Mud_type     - MUD TYPE
MATR.         LIMESTONE            : Logunit      - NEUTRON MATRIX
TMAX.C        34                   : BHT          - MAXIMUM RECORDED TEMPERATURE
BHTD.M        503.51               : BHTDEP       - MAXIMUM RECORDED TEMPERATURE
MATR.         1                    : LOGUNIT      - NEUTRON MATRIX
RMT .C        25                   : MDTP         - TEMPERATURE OF MUD
NEUT.         1                    : NEUTRON      - NEUTRON TYPE
RESI.         0                    : RESIST       - RESISTIVITY TYPE
RMC .OHMM     0.25                 : RMC          - RESISTIVITY OF MUD CAKE
RMF .OHMM     0.25                 : RMF          - RESISTIVITY OF MUD FILTRATE
SUFT.C        15                   : SUFT         - SURFACE TEMPERATURE
~A  DEPTH     RESD     PHIN       GR     PHID
  285.000    3.507    0.419  115.145    0.198
  285.250    3.377    0.428  114.520    0.199
  285.500    3.313    0.435  113.273    0.202
  285.750    3.190    0.444  111.403    0.220
  286.000    3.131    0.447  111.400    0.209
  286.250    3.131    0.420  110.154    0.207
  286.500    3.191    0.423  107.662    0.206
  286.750    3.191    0.430  102.680    0.190
  287.000    3.191    0.418  100.189    0.181
  287.250    3.377    0.404  102.053    0.164
  287.500    3.377    0.412  103.297    0.172
  287.750    3.712    0.412  107.028    0.183
  288.000    4.401    0.414  105.781    0.160
  288.250    5.318    0.417  102.045    0.147
  288.500    6.425    0.389   97.686    0.130
  288.750    7.197    0.388   95.194    0.113
  289.000    7.911    0.392   93.947    0.190
  289.250    8.533    0.387   98.924    0.205
  289.500    8.533    0.394  100.166    0.214
  289.750    8.533    0.401   99.541    0.200
  290.000    8.533    0.388  100.162    0.193
  290.250    8.374    0.387  102.649    0.201
  290.500    8.217    0.376  103.892    0.187
  290.750    8.063    0.376  100.778    0.181
  291.000    8.063    0.393  104.509    0.159
  291.250    7.764    0.407  104.508    0.181
  291.500    7.476    0.392  103.260    0.193
  291.750    7.336    0.388  102.636    0.197
  292.000    7.199    0.401  103.879    0.186
  292.250    7.199    0.403  105.121    0.183
  292.500    7.199    0.398  106.364    0.192
  292.750    7.200    0.402  104.494    0.172
  293.000    7.337    0.401  112.583    0.153
  293.250    7.337    0.396  113.204    0.160
  293.500    7.478    0.408  110.089    0.165
  293.750    7.620    0.394  104.485    0.178
  294.000    7.914    0.380   98.259    0.151
  294.250    8.220    0.380   99.501    0.175
  294.500    8.537    0.382   99.500    0.185
  294.750    8.537    0.377   97.629    0.186
  295.000    8.377    0.376   98.250    0.181
  295.250    8.378    0.390  104.472    0.162
  295.500    8.067    0.399  105.715    0.157
  295.750    7.767    0.403  101.978    0.160
  296.000    7.479    0.402  101.976    0.176
  296.250    7.067    0.403  103.840    0.183
  296.500    6.935    0.404  104.461    0.167
  296.750    6.805    0.413  101.969    0.156
  297.000    6.805    0.386   99.477    0.175
  297.250    6.805    0.372   98.852    0.167
  297.500    6.935    0.371  101.339    0.165
  297.750    7.203    0.367  103.204    0.156
  298.000    7.203    0.382  106.313    0.149
  298.250    7.341    0.397  108.801    0.155
  298.500    7.203    0.381  110.667    0.141
  298.750    7.203    0.393  111.910    0.146
  299.000    6.936    0.400  100.703    0.156
  299.250    6.806    0.418  101.324    0.165
  299.500    6.807    0.403  106.301    0.185
  299.750    6.937    0.416  105.054    0.210
  300.000    7.770    0.400   98.205    0.212
  300.250    9.936    0.377   91.979    0.211
  300.500   11.131    0.368   83.886    0.200
  300.750   11.781    0.353   77.037    0.178
  301.000   11.344    0.369   75.790    0.157
  301.250    9.751    0.377  103.173    0.157
  301.500    8.382    0.390  108.773    0.158
  301.750    7.772    0.393  108.148    0.142
  302.000    7.483    0.397  105.656    0.136
  302.250    9.214    0.389   96.940    0.155
  302.500   11.345    0.386   79.510    0.194
  302.750   13.969    0.374   65.193    0.218
  303.000   18.552    0.355   53.988    0.255
  303.250   20.782    0.353   43.405    0.281
  303.500   21.995    0.364   37.178    0.288
  303.750   19.268    0.360   35.931    0.293
  304.000   18.908    0.352   40.285    0.289
  304.250   20.012    0.352   38.416    0.305
  304.500   20.784    0.354   43.393    0.315
  304.750   20.013    0.341   51.481    0.319
  305.000   14.239    0.339   55.836    0.319
  305.250    9.217    0.349   59.569    0.326
  305.500    6.558    0.358   67.658    0.309
  305.750    5.326    0.355   90.062    0.273
  306.000    4.666    0.391  108.110    0.125
  306.250    3.862    0.421  118.066    0.104
  306.500    3.581    0.416  123.043    0.100
  306.750    3.383    0.418  124.286    0.104
  307.000    3.514    0.412  120.549    0.147
  307.250    4.245    0.418  116.189    0.198
  307.500    4.579    0.403  109.341    0.225
  307.750    5.532    0.390   93.157    0.238
  308.000    8.230    0.379   86.930    0.246
  308.250   10.524    0.374   83.194    0.226
  308.500   12.716    0.381   82.569    0.219
  308.750   14.244    0.365   81.944    0.210
  309.000   14.244    0.369   80.697    0.181
  309.250   13.207    0.374   81.317    0.158
  309.500   12.015    0.384   84.427    0.197
  309.750   10.931    0.402   86.913    0.202
  310.000   10.526    0.405   88.156    0.186
  310.250   10.526    0.390   88.777    0.185
  310.500   10.727    0.413   89.397    0.225
  310.750   10.932    0.421   89.395    0.224
  311.000   10.329    0.408   90.638    0.223
  311.250    8.713    0.400   96.859    0.215
  311.500    7.490    0.387  103.703    0.204
  311.750    6.687    0.378  111.792    0.198
  312.000    5.969    0.387  117.392    0.208
  312.250    5.640    0.404  122.369    0.177
  312.500    5.229    0.410  120.499    0.140
  312.750    5.035    0.401  120.497    0.114
  313.000    5.036    0.406  124.229    0.118
  313.250    5.132    0.416  125.473    0.168
  313.500    5.432    0.427  124.225    0.172
  313.750    5.858    0.441  122.356    0.168
  314.000    6.816    0.429  123.598    0.163
  314.250    8.882    0.417  119.861    0.178
  314.500   11.358    0.399  113.013    0.193
  314.750   13.466    0.391  104.919    0.210
  315.000   15.084    0.395  101.805    0.298
  315.250   15.965    0.390   98.068    0.329
  315.500   15.373    0.396   96.821    0.304
  315.750   13.467    0.401   99.309    0.277
  316.000   12.022    0.379  104.286    0.257
  316.250   11.359    0.369  105.528    0.228
  316.500   11.147    0.379  103.659    0.202
  316.750   11.798    0.384   98.678    0.198
  317.000   13.216    0.374   88.095    0.218
  317.250   13.988    0.368   78.756    0.234
  317.500   15.968    0.354   71.285    0.258
  317.750   17.223    0.338   67.548    0.277
  318.000   17.888    0.348   64.434    0.242
  318.250   17.553    0.359   64.432    0.202
  318.500   16.902    0.354   67.541    0.197
  318.750   16.275    0.352   68.784    0.249
  319.000   15.671    0.363   71.271    0.293
  319.250   14.807    0.378   74.381    0.318
  319.500   13.991    0.363   78.736    0.323
  319.750   13.219    0.373   86.201    0.320
  320.000   12.729    0.368   89.312    0.294
  320.250   12.027    0.384   94.912    0.264
  320.500   11.151    0.378   99.266    0.232
  320.750   10.737    0.361  101.131    0.218
  321.000   10.339    0.356  101.752    0.213
  321.250   10.146    0.363  105.483    0.198
  321.500   10.537    0.364  108.593    0.180
  321.750   10.943    0.375  109.836    0.176
  322.000   11.152    0.380  105.477    0.184
  322.250   11.804    0.370  106.097    0.205
  322.500   12.029    0.378  105.472    0.231
  322.750   11.583    0.390   99.246    0.244
  323.000   11.153    0.389   96.132    0.231
  323.250    9.957    0.383   98.618    0.175
  323.500    9.408    0.379  100.484    0.175
  323.750    8.399    0.395  104.839    0.186
  324.000    7.498    0.401  108.571    0.190
  324.250    6.822    0.408  121.639    0.180
  324.500    6.325    0.421  126.616    0.183
  324.750    6.446    0.409  125.369    0.186
  325.000    6.695    0.400  121.633    0.166
  325.250    7.086    0.396  116.651    0.166
  325.500    7.643    0.422  113.537    0.186
  325.750    8.891    0.436  109.177    0.196
  326.000    9.410    0.419  108.553    0.203
  326.250   10.150    0.425  107.306    0.205
  326.500   10.743    0.426  104.191    0.215
  326.750   10.743    0.411  102.322    0.214
  327.000   10.743    0.410  104.809    0.235
  327.250   10.744    0.385  107.920    0.248
  327.500   10.949    0.364  102.938    0.245
  327.750   11.371    0.358  101.691    0.242
  328.000   11.589    0.362  104.801    0.238
  328.250   11.589    0.358  104.798    0.225
