~VERSION INFORMATION
 VERS.                 2.0:   CWLS LOG ASCII STANDARD -VERSION 2.0
 WRAP.                  NO:   ONE LINE PER DEPTH STEP
~WELL INFORMATION BLOCK
#MNEM.UNIT           DATA                    DESCRIPTION OF MNEMONIC
#---------    -------------------            -------------------------------
# Generated from Intellog Unique Number	CW_73_75/WELL/1037
WELL.         THOM-JEN CHERPETA 11-11        : Well_name    - WELL
LOC .         00/11-11-074-20W4/0            : Location     - LOCATION
UWI .         00/11-11-074-20W4/0            : Uwi          - UNIQUE WELL ID
ENTR.         JAYE                           : Entered      - ENTERED BY
SRVC.         COMPUTALOG                     : Scn          - SERVICE COMPANY
DATE.         5 MAR 85                       : Date         - LOG DATE
STRT.M        450                            : top_depth    - START DEPTH
STOP.M        675                            : bot_depth    - STOP DEPTH
STEP.M        0.25                           : increment    - STEP LENGTH
 NULL. -999.2500:NULL Value
~CURVE INFORMATION BLOCK
#MNEM UNIT       ERCB CURVE CODE    CURVE DESCRIPTION
#-----------   ------------------   ----------------------------------
DEPT.M        00 001 00 00         : DEPTH        - DEPTH
GR  .API      00 310 00 00         : GR           - GAMMA RAY
CALI.MM       00 280 01 00         : CAL          - CALIPER
NPHI.V/V      00 330 00 00         : PHIN         - NEUTRON POROSITY (SANDSTONE)
DPHI.V/V      00 890 00 00         : PHID         - DENSITY POROSITY (SANDSTONE)
ILD .OHMM     00 120 00 00         : RESD         - DEEP RESISTIVITY (DIL)
~PARAMETER INFORMATION
#MNEM.UNIT           DATA             DESCRIPTION OF MNEMONIC
#---------         -----------     ------------------------------
GL  .M        763.9                : gl           - GROUND LEVEL ELEVATION
EREF.M        767.6                : kb           - ELEVATION OF DEPTH REFERENCE
DATM.M        763.9                : datum        - DATUM ELEVATION
TDD .M        700                  : tdd          - TOTAL DEPTH DRILLER
RUN .         ONE                  : Run          - RUN NUMBER
ENG .         TEETZEL              : Engineer     - RECORDING ENGINEER
WIT .         GORMAN               : Witness      - WITNESSED BY
BASE.         EDMONTON             : Branch       - HOME BASE OF LOGGING UNIT
MUD .         GEL CHEM             : Mud_type     - MUD TYPE
MATR.         SANDSTONE            : Logunit      - NEUTRON MATRIX
TMAX.C        38                   : BHT          - MAXIMUM RECORDED TEMPERATURE
BHTD.M        698.7                : BHTDEP       - MAXIMUM RECORDED TEMPERATURE
RMT .C        38                   : MDTP         - TEMPERATURE OF MUD
MUDD.KG/M     1110                 : MWT          - MUD DENSITY
NEUT.         1                    : NEUTRON      - NEUTRON TYPE
RESI.         0                    : RESIST       - RESISTIVITY TYPE
RM  .OHMM     4.7                  : RM           - RESISTIVITY OF MUD
RMC .OHMM     0                    : RMC          - RESISTIVITY OF MUD CAKE
RMF .OHMM     3.7                  : RMF          - RESISTIVITY OF MUD FILTRATE
SUFT.C        0                    : SUFT         - SURFACE TEMPERATURE
~A  DEPTH       GR      CAL     PHIN     PHID     RESD
  450.000   92.885  172.126    0.417    0.195    2.811
  450.250   90.577  171.727    0.427    0.195    2.856
  450.500   90.782  171.338    0.433    0.187    2.821
  450.750   94.575  171.049    0.424    0.181    2.745
  451.000   96.293  171.186    0.445    0.188    2.671
  451.250   98.074  171.101    0.455    0.195    2.659
  451.500   98.653  171.128    0.458    0.193    2.738
  451.750   97.729  171.254    0.467    0.200    2.857
  452.000   98.058  171.077    0.481    0.212    2.953
  452.250   93.793  170.900    0.473    0.218    3.007
  452.500   91.983  170.396    0.455    0.208    3.039
  452.750   92.756  169.904    0.442    0.211    2.951
  453.000   94.097  168.668    0.443    0.219    2.888
  453.250   95.240  166.908    0.446    0.218    2.853
  453.500   95.767  165.050    0.445    0.190    2.949
  453.750   81.990  163.513    0.345    0.091    3.184
  454.000   71.173  160.493    0.337    0.088    3.632
  454.250   63.508  158.004    0.371    0.129    4.230
  454.500   67.303  158.030    0.404    0.176    4.797
  454.750   72.044  159.319    0.402    0.230    5.112
  455.000   78.232  159.555    0.405    0.266    5.030
  455.250   85.616  160.208    0.432    0.304    4.988
  455.500   81.600  156.145    0.441    0.324    5.146
  455.750   74.377  152.080    0.404    0.323    5.525
  456.000   66.833  148.327    0.368    0.319    6.290
  456.250   58.915  148.881    0.357    0.320    6.843
  456.500   53.390  150.161    0.346    0.328    7.021
  456.750   51.393  151.342    0.350    0.330    6.975
  457.000   51.091  152.314    0.356    0.328    6.864
  457.250   51.929  152.760    0.369    0.329    6.716
  457.500   51.564  152.272    0.364    0.329    6.635
  457.750   53.977  151.664    0.377    0.329    6.604
  458.000   59.284  151.170    0.395    0.335    6.635
  458.250   66.666  151.195    0.399    0.331    6.781
  458.500   73.612  151.846    0.378    0.281    6.931
  458.750   80.932  152.617    0.361    0.235    7.070
  459.000   85.107  153.695    0.371    0.209    7.131
  459.250   88.209  155.298    0.387    0.206    7.058
  459.500   92.004  157.636    0.393    0.199    6.764
  459.750   96.047  161.331    0.377    0.182    6.301
  460.000   98.963  162.199    0.362    0.160    5.781
  460.250  101.245  160.439    0.373    0.160    5.355
  460.500  102.398  161.313    0.387    0.190    5.007
  460.750  101.277  165.119    0.394    0.218    4.909
  461.000   96.009  167.352    0.394    0.227    5.171
  461.250   87.080  168.426    0.386    0.229    5.520
  461.500   83.256  165.303    0.375    0.227    5.915
  461.750   83.018  161.022    0.355    0.228    6.256
  462.000   84.797  159.267    0.332    0.234    6.552
  462.250   84.626  157.614    0.317    0.221    6.535
  462.500   83.323  156.380    0.338    0.204    6.134
  462.750   88.125  156.519    0.368    0.207    5.670
  463.000   93.871  158.643    0.374    0.214    5.282
  463.250   98.041  159.513    0.377    0.233    4.995
  463.500   97.494  158.810    0.396    0.242    5.067
  463.750   87.498  155.994    0.412    0.234    5.555
  464.000   84.299  154.664    0.417    0.225    6.147
  464.250   85.957  153.322    0.381    0.226    6.538
  464.500   87.737  151.990    0.354    0.230    6.940
  464.750   89.954  152.019    0.340    0.225    7.324
  465.000   90.286  153.515    0.332    0.217    7.615
  465.250   91.685  159.420    0.335    0.217    7.961
  465.500   94.478  164.169    0.349    0.224    8.307
  465.750   90.464  164.081    0.341    0.226    8.735
  466.000   85.753  162.538    0.337    0.232    9.220
  466.250   79.413  159.738    0.364    0.244   10.577
  466.500   71.052  155.883    0.376    0.274   12.389
  466.750   56.015  153.490    0.357    0.296   15.388
  467.000   46.399  152.896    0.349    0.309   19.294
  467.250   33.630  152.081    0.345    0.316   26.394
  467.500   32.511  150.847    0.334    0.322   31.444
  467.750   33.283  150.771    0.328    0.330   30.134
  468.000   34.622  149.749    0.315    0.332   26.322
  468.250   33.005  149.980    0.303    0.323   21.074
  468.500   36.674  150.116    0.311    0.305   17.825
  468.750   39.964  148.889    0.341    0.283   15.987
  469.000   37.841  146.812    0.353    0.278   14.449
  469.250   37.667  145.477    0.332    0.279   13.107
  469.500   42.470  145.607    0.308    0.269   12.373
  469.750   52.121  147.313    0.312    0.259   11.812
  470.000   61.080  149.858    0.350    0.247   11.321
  470.250   69.159  152.096    0.356    0.233   10.788
  470.500   71.378  153.174    0.326    0.225   10.338
  470.750   67.868  153.619    0.318    0.226    9.888
  471.000   79.599  153.745    0.335    0.220    9.495
  471.250   89.756  154.196    0.371    0.220    9.082
  471.500   89.394  155.381    0.386    0.241    8.671
  471.750   84.055  157.825    0.377    0.248    8.358
  472.000   80.546  160.893    0.365    0.236    7.904
  472.250   82.076  163.018    0.364    0.222    7.604
  472.500   87.572  164.623    0.375    0.220    7.043
  472.750   94.070  165.699    0.367    0.213    6.365
  473.000   99.569  165.722    0.385    0.203    5.184
  473.250  106.385  163.861    0.444    0.193    4.088
  473.500  111.001  161.270    0.475    0.183    3.530
  473.750  111.774  159.090    0.501    0.173    3.184
  474.000  116.197  158.177    0.477    0.186    2.961
  474.250  111.742  157.671    0.471    0.175    2.795
  474.500  105.710  157.385    0.469    0.123    2.694
  474.750  108.375  157.416    0.459    0.123    2.722
  475.000  116.894  157.538    0.474    0.167    2.819
  475.250  123.649  157.260    0.507    0.198    2.947
  475.500  119.258  157.606    0.480    0.207    3.293
  475.750  114.608  158.785    0.448    0.205    3.603
  476.000  111.104  160.598    0.394    0.206    4.244
  476.250  109.793  163.038    0.358    0.221    5.018
  476.500  111.325  165.271    0.403    0.228    5.789
  476.750  111.024  166.557    0.418    0.216    6.238
  477.000  110.661  166.475    0.406    0.205    6.221
  477.250  111.186  166.090    0.389    0.202    5.917
  477.500  110.698  164.113    0.382    0.205    5.607
  477.750  106.935  161.834    0.400    0.209    5.538
  478.000  101.343  160.186    0.420    0.201    5.682
  478.250   95.632  158.956    0.447    0.193    5.963
  478.500   88.467  158.349    0.412    0.218    6.426
  478.750   82.504  158.064    0.382    0.235    7.044
  479.000   78.739  158.617    0.353    0.235    7.782
  479.250   78.882  158.533    0.356    0.237    8.660
  479.500   83.996  158.148    0.367    0.248    8.717
  479.750   88.928  158.698    0.387    0.251    8.710
  480.000   92.031  160.620    0.413    0.239    8.587
  480.250   88.520  162.844    0.392    0.240    8.451
  480.500   79.341  163.611    0.374    0.256    8.176
  480.750   73.565  161.328    0.342    0.250    7.732
  481.000   72.127  161.254    0.325    0.239    7.341
  481.250   79.140  163.376    0.350    0.229    7.075
  481.500   91.942  165.392    0.377    0.231    6.755
  481.750   94.603  166.263    0.417    0.239    6.647
  482.000   84.350  163.043    0.421    0.249    6.654
  482.250   81.853  153.832    0.412    0.224    6.996
  482.500   88.921  152.282    0.395    0.213    7.274
  482.750   98.008  153.047    0.378    0.225    7.308
  483.000  110.116  156.012    0.379    0.232    7.071
  483.250  115.674  158.767    0.392    0.229    6.612
  483.500  113.423  161.841    0.394    0.226    6.101
  483.750  101.847  164.390    0.396    0.237    5.959
  484.000   85.241  163.997    0.411    0.251    6.422
  484.250   71.214  158.986    0.430    0.270    7.187
  484.500   65.559  154.394    0.432    0.288    8.547
  484.750   63.941  149.804    0.408    0.310   10.595
  485.000   63.514  147.835    0.402    0.329   13.286
  485.250   62.774  150.278    0.405    0.321   17.599
  485.500   61.471  151.037    0.399    0.291   24.073
  485.750   60.603  151.478    0.380    0.253   28.626
  486.000   60.560  151.410    0.364    0.228   30.214
  486.250   61.270  151.227    0.382    0.240   30.131
