~VERSION INFORMATION
 VERS.                 2.0:   CWLS LOG ASCII STANDARD -VERSION 2.0
 WRAP.                  NO:   ONE LINE PER DEPTH STEP
~WELL INFORMATION BLOCK
#MNEM.UNIT           DATA                    DESCRIPTION OF MNEMONIC
#---------    -------------------            -------------------------------
# Generated from Intellog Unique Number	CS_73_76/WELL/4864
WELL.         ALBERTA ENERGY CO.LTD.         : Well_name    - WELL
LOC .         00/12-36-072-03W4/0            : Location     - LOCATION
UWI .         00/12-36-072-03W4/0            : Uwi          - UNIQUE WELL ID
ENTR.         JOETTE                         : Entered      - ENTERED BY
SRVC.         SCHLUMBERGER                   : Scn          - SERVICE COMPANY
DATE.         05/13/92                       : Date         - LOG DATE
STRT.M        345                            : top_depth    - START DEPTH
STOP.M        575                            : bot_depth    - STOP DEPTH
STEP.M        0.25                           : increment    - STEP LENGTH
 NULL. -999.2500:NULL Value
~CURVE INFORMATION BLOCK
#MNEM UNIT       ERCB CURVE CODE    CURVE DESCRIPTION
#-----------   ------------------   ----------------------------------
DEPT.M        00 001 00 00         : DEPTH        - DEPTH
ILD .OHMM     00 120 00 00         : RESD         - DEEP RESISTIVITY (DIL)
DPHI.V/V      00 890 00 00         : PHID         - DENSITY POROSITY (SANDSTONE)
NPHI.V/V      00 330 00 00         : PHIN         - NEUTRON POROSITY (SANDSTONE)
GR  .API      00 310 00 00         : GR           - GAMMA RAY
CALI.MM       00 280 01 00         : CAL          - CALIPER
~PARAMETER INFORMATION
#MNEM.UNIT           DATA             DESCRIPTION OF MNEMONIC
#---------         -----------     ------------------------------
GL  .M        698.81               : gl           - GROUND LEVEL ELEVATION
EREF.M        702.22               : kb           - ELEVATION OF DEPTH REFERENCE
DATM.M        702.22               : datum        - DATUM ELEVATION
TDD .M        588                  : tdd          - TOTAL DEPTH DRILLER
RUN .         ONE                  : Run          - RUN NUMBER
ENG .         BILL                 : Engineer     - RECORDING ENGINEER
WIT .         JIM                  : Witness      - WITNESSED BY
MUD .         GEL                  : Mud_type     - MUD TYPE
MATR.         SANDSTONE            : Logunit      - NEUTRON MATRIX
TMAX.C        30                   : BHT          - MAXIMUM RECORDED TEMPERATURE
BHTD.M        588                  : BHTDEP       - MAXIMUM RECORDED TEMPERATURE
MATR.         1                    : LOGUNIT      - NEUTRON MATRIX
RMT .C        12                   : MDTP         - TEMPERATURE OF MUD
NEUT.         1                    : NEUTRON      - NEUTRON TYPE
RESI.         0                    : RESIST       - RESISTIVITY TYPE
RMC .OHMM     2.7                  : RMC          - RESISTIVITY OF MUD CAKE
RMF .OHMM     2.6                  : RMF          - RESISTIVITY OF MUD FILTRATE
SUFT.C        15                   : SUFT         - SURFACE TEMPERATURE
~A  DEPTH     RESD     PHID     PHIN       GR      CAL
# ...
  381.500   28.676    0.356    0.456   56.822  140.369
  381.750   27.124    0.355    0.457   54.508  140.429
  382.000   24.258    0.353    0.454   53.964  140.503
  382.250   22.949    0.340    0.446   55.777  139.777
  382.500   23.401    0.324    0.443   62.898  139.822
  382.750   25.241    0.320    0.443   64.133  139.882
  383.000   25.738    0.311    0.444   63.589  139.956
  383.250   25.757    0.299    0.452   67.160  140.016
  383.500   24.828    0.291    0.465   73.113  140.076
  383.750   23.053    0.286    0.482   82.002  140.922
  384.000   22.222    0.281    0.515   88.533  140.982
  384.250   21.424    0.273    0.477   72.068  141.828
  384.500   20.652    0.247    0.431   73.882  141.887
  384.750   19.179    0.251    0.462   72.747  142.733
  385.000   18.480    0.271    0.492   72.202  142.793
  385.250   16.530    0.263    0.508   70.489  142.868
  385.500   16.233    0.263    0.516   68.176  142.928
  385.750   15.357    0.273    0.511   70.568  142.972
  386.000   14.803    0.279    0.519   75.931  143.047
  386.250   14.270    0.267    0.537   77.155  143.107
  386.500   13.755    0.266    0.558   76.020  142.365
  386.750   13.015    0.270    0.556   76.088  142.425
  387.000   12.544    0.271    0.552   76.110  142.515
  387.250   11.871    0.263    0.551   74.987  143.346
  387.500   10.818    0.254    0.542   76.789  144.222
  387.750    9.856    0.249    0.525   80.962  145.053
  388.000    9.502    0.251    0.506   81.007  145.884
  388.250    9.333    0.260    0.513   85.780  145.944
  388.500    9.697    0.250    0.527   86.414  145.217
  388.750   10.657    0.245    0.529   81.163  146.063
  389.000   11.934    0.257    0.541   85.325  149.268
  389.250   13.367    0.274    0.505   90.688  150.114
  389.500   13.885    0.285    0.486   86.594  147.815
  389.750   13.893    0.294    0.480   84.280  143.172
  390.000   13.906    0.302    0.470   81.977  142.446
  390.250   13.914    0.293    0.472   84.959  141.734
  390.500   13.932    0.292    0.477   85.015  141.779
  390.750   13.940    0.290    0.471   80.921  141.854
  391.000   14.212    0.282    0.459   76.260  141.899
  391.250   15.048    0.267    0.449   74.525  141.959
  391.500   15.936    0.260    0.455   74.570  142.018
  391.750   16.244    0.262    0.466   73.435  142.078
  392.000   17.196    0.274    0.465   73.480  142.924
  392.250   17.866    0.285    0.466   75.305  142.999
  392.500   18.566    0.294    0.476   76.529  143.059
  392.750   18.924    0.306    0.490   75.395  142.317
  393.000   19.662    0.318    0.503   73.081  140.805
  393.250   20.431    0.322    0.515   71.368  139.307
  393.500   20.830    0.325    0.523   70.222  139.352
  393.750   20.853    0.331    0.487   68.498  138.640
  394.000   20.094    0.339    0.471   64.427  138.700
  394.250   18.311    0.341    0.479   60.344  138.760
  394.500   16.072    0.335    0.476   60.989  138.820
  394.750   13.088    0.323    0.470   61.012  139.666
  395.000    6.076    0.299    0.466   62.236  140.512
  395.250    7.332    0.250    0.473   64.639  142.174
  395.500    9.903    0.228    0.493   78.847  142.990
  395.750   23.036    0.212    0.530   89.506  143.851
  396.000   25.796    0.216    0.423   96.048  143.895
  396.250   23.507    0.196    0.364   90.775  142.398
  396.500   20.253    0.109    0.194   71.951  140.885
  396.750   18.452    0.012    0.197   50.167  140.159
  397.000   16.509   -0.019    0.359   40.199  140.233
  397.250   16.834    0.236    0.430   43.771  140.308
  397.500   17.159    0.311    0.458   50.891  140.338
  397.750   16.862    0.341    0.459   50.358  139.626
  398.000   16.556    0.347    0.475   49.223  139.686
  398.250   16.257    0.350    0.477   59.303  139.746
  398.500   15.971    0.355    0.475   59.348  139.005
  398.750   15.686    0.352    0.480   58.203  139.094
  399.000   15.698    0.347    0.487   53.541  139.124
  399.250   15.132    0.343    0.491   52.396  139.199
  399.500   14.859    0.338    0.490   51.873  140.045
  399.750   14.058    0.337    0.492   51.306  140.105
  400.000   14.071    0.337    0.498   51.362  140.149
  400.250   13.823    0.341    0.500   54.934  140.224
  400.500   13.833    0.345    0.484   55.568  141.085
  400.750   13.838    0.344    0.464   56.803  141.145
  401.000   13.851    0.342    0.464   62.155  141.205
  401.250   13.864    0.345    0.463   65.749  141.264
  401.500   13.872    0.351    0.447   63.424  141.324
  401.750   13.883    0.353    0.447   61.722  141.369
  402.000   14.980    0.344    0.444   62.334  141.429
  402.250   15.561    0.331    0.448   64.159  141.503
  402.500   15.864    0.324    0.451   64.204  141.563
  402.750   16.180    0.314    0.442   61.890  141.608
  403.000   15.888    0.320    0.431   61.334  141.668
  403.250   15.031    0.336    0.427   53.124  141.758
  403.500   13.959    0.330    0.431   46.093  141.802
  403.750   13.707    0.321    0.435   43.779  141.862
  404.000   12.968    0.320    0.440   44.414  141.952
  404.250   12.270    0.323    0.448   46.227  141.210
  404.500   11.826    0.322    0.457   49.221  141.270
  404.750   11.190    0.314    0.456   54.584  141.315
  405.000   11.196    0.286    0.457   61.114  141.390
  405.250   11.209    0.276    0.468   64.697  141.464
  405.500   11.215    0.281    0.474   64.152  140.723
  405.750   11.434    0.284    0.477   60.671  140.813
  406.000   11.663    0.278    0.488   60.727  140.828
  406.250   11.670    0.269    0.490   61.928  140.887
  406.500   11.683    0.269    0.489   63.164  140.962
  406.750   11.687    0.276    0.485   64.410  141.022
  407.000   11.698    0.287    0.473   64.444  141.082
  407.250   11.492    0.308    0.477   63.899  141.141
  407.500   11.073    0.328    0.483   60.984  141.201
  407.750   10.676    0.337    0.491   55.733  141.291
  408.000   10.291    0.332    0.501   56.947  141.336
  408.250   10.108    0.332    0.511   56.991  141.381
  408.500    9.926    0.332    0.517   58.215  141.470
  408.750    9.751    0.323    0.482   62.977  141.515
  409.000    9.575    0.315    0.478   66.560  141.605
  409.250    9.584    0.259    0.479   68.396  141.650
  409.500    9.591    0.246    0.469   70.210  141.694
  409.750    9.597    0.278    0.460   74.371  141.799
  410.000    9.973    0.281    0.459   74.416  141.814
  410.250   10.167    0.280    0.460   69.755  141.874
  410.500   10.369    0.278    0.450   67.430  141.948
  410.750   10.186    0.279    0.435   66.885  141.993
  411.000   10.190    0.281    0.440   66.930  142.869
  411.250   10.012    0.266    0.435   68.165  142.914
  411.500    9.832    0.232    0.401   71.147  143.745
  411.750    9.481    0.218    0.390   72.972  144.591
  412.000    9.308    0.215    0.398   71.838  146.238
  412.250    9.143    0.230    0.468   73.062  147.069
  412.500    8.981    0.244    0.472   76.645  148.746
  412.750    8.497    0.259    0.539   78.470  149.577
  413.000    8.345    0.274    0.580   80.862  149.637
  413.250    8.672    0.490    0.612   90.364  146.567
  413.500    9.007    0.531    0.618   85.669  143.482
  413.750    9.715    0.385    0.602   78.638  141.939
  414.000   10.095    0.338    0.543   68.069  140.427
  414.250   10.296    0.329    0.484   57.500  140.486
  414.500   10.302    0.336    0.477   49.879  140.546
  414.750   10.308    0.345    0.476   41.658  140.606
  415.000    9.940    0.353    0.470   36.396  140.666
  415.250    9.944    0.350    0.456   35.261  140.740
  415.500    9.766    0.351    0.443   38.266  141.601
  415.750    9.776    0.360    0.448   39.501  141.631
  416.000    9.601    0.362    0.453   40.714  141.691
  416.250    9.610    0.357    0.452   43.718  141.766
  416.500    9.619    0.348    0.458   49.648  141.840
  416.750    9.623    0.343    0.467   47.935  141.900
  417.000    9.632    0.342    0.478   50.339  141.945
  417.250    9.639    0.340    0.489   55.691  141.233
  417.500    9.647    0.337    0.492   57.504  141.293
  417.750    9.475    0.337    0.491   58.762  141.338
