~VERSION INFORMATION
 VERS.                 2.0:   CWLS LOG ASCII STANDARD -VERSION 2.0
 WRAP.                  NO:   ONE LINE PER DEPTH STEP
~WELL INFORMATION BLOCK
#MNEM.UNIT           DATA                    DESCRIPTION OF MNEMONIC
#---------    -------------------            -------------------------------
# Generated from Intellog Unique Number	CW_70_72/WELL/3033
NULL.         -999.25                        : NULL_VALUE
WELL.         PANTHER FOW HUNDO 11-32        : Well_name    - WELL              
LOC .         11-32-070-01W5                 : Location     - LOCATION          
UWI .         00/11-32-070-01W5/0            : Uwi          - UNIQUE WELL ID    
ENTR.         JAYE                           : Entered      - ENTERED BY        
SRVC.         SCHLUMBERGER                   : Scn          - SERVICE COMPANY   
DATE.         18 FEB 79                      : Date         - LOG DATE          
STRT.M        410                            : top_depth    - START DEPTH       
STOP.M        655                            : bot_depth    - STOP DEPTH        
STEP.M        0.25                           : increment    - STEP LENGTH       
~CURVE INFORMATION BLOCK
#MNEM UNIT       ERCB CURVE CODE    CURVE DESCRIPTION
#-----------   ------------------   ----------------------------------
DEPT.M        00 001 00 00         : DEPTH        - DEPTH                       
ILD .OHMM     00 120 00 00         : RESD         - DEEP RESISTIVITY (DIL)      
CALI.MM       00 280 01 00         : CAL          - CALIPER                     
GR  .API      00 310 00 00         : GR           - GAMMA RAY                   
NPHI.V/V      00 330 00 00         : PHIN         - NEUTRON POROSITY (SANDSTONE)
DPHI.V/V      00 890 00 00         : PHID         - DENSITY POROSITY (SANDSTONE)
~PARAMETER INFORMATION       
#MNEM.UNIT           DATA             DESCRIPTION OF MNEMONIC
#---------         -----------     ------------------------------
GL  .M        591.1                : gl           - GROUND LEVEL ELEVATION      
EREF.M        595                  : kb           - ELEVATION OF DEPTH REFERENCE
DATM.M        591.1                : datum        - DATUM ELEVATION             
TDD .M        1533                 : tdd          - TOTAL DEPTH DRILLER         
RUN .         ONE                  : Run          - RUN NUMBER                  
ENG .         GILLIS               : Engineer     - RECORDING ENGINEER          
WIT .         WETHERLEY            : Witness      - WITNESSED BY                
BASE.         EDM                  : Branch       - HOME BASE OF LOGGING UNIT   
MUD .         GEL MUD              : Mud_type     - MUD TYPE                    
MATR.         SANDSTONE            : Logunit      - NEUTRON MATRIX              
TMAX.C        42                   : BHT          - MAXIMUM RECORDED TEMPERATURE
BHTD.M        1532.5               : BHTDEP       - MAXIMUM RECORDED TEMPERATURE
RMT .C        17                   : MDTP         - TEMPERATURE OF MUD          
MUDD.KG/M     1090                 : MWT          - MUD DENSITY                 
NEUT.         1                    : NEUTRON      - NEUTRON TYPE                
RESI.         0                    : RESIST       - RESISTIVITY TYPE            
RM  .OHMM     1.41                 : RM           - RESISTIVITY OF MUD          
RMC .OHMM     0.25                 : RMC          - RESISTIVITY OF MUD CAKE     
RMF .OHMM     1.13                 : RMF          - RESISTIVITY OF MUD FILTRATE 
SUFT.C        0                    : SUFT         - SURFACE TEMPERATURE         
~A  DEPTH     RESD      CAL       GR     PHIN     PHID
# ...
  556.000    3.650  237.645   59.890    0.426    0.262
  556.250    3.553  237.656   59.843    0.421    0.260
  556.500    3.361  237.682   59.923    0.407    0.260
  556.750    3.237  238.022   60.570    0.406    0.267
  557.000    3.174  238.048   61.338    0.431    0.276
  557.250    3.080  238.072   65.072    0.438    0.293
  557.500    3.005  238.418   65.717    0.421    0.300
  557.750    2.917  238.864   65.294    0.424    0.280
  558.000    2.876  238.992   65.877    0.434    0.274
  558.250    2.853  239.121   65.198    0.444    0.279
  558.500    2.821  239.149   66.031    0.454    0.275
  558.750    2.809  238.647   66.992    0.465    0.269
  559.000    2.797  238.150   66.944    0.470    0.266
  559.250    2.795  237.757   65.259    0.468    0.255
  559.500    2.815  236.943   63.573    0.451    0.290
  559.750    2.815  236.126   61.888    0.434    0.266
  560.000    2.815  235.209   60.139    0.428    0.258
  560.250    3.034  234.291   58.327    0.419    0.250
  560.500    3.098  233.684   56.894    0.413    0.235
  560.750    3.354  233.609   56.090    0.408    0.224
  561.000    3.748  233.108   55.665    0.400    0.209
  561.250    3.966  233.034   55.302    0.392    0.195
  561.500    4.152  232.845   54.942    0.381    0.181
  561.750    4.363  232.446   54.769    0.376    0.195
  562.000    4.602  232.266   54.975    0.369    0.204
  562.250    4.763  232.503   55.176    0.362    0.211
  562.500    4.950  233.783   55.442    0.353    0.191
  562.750    5.050  236.015   56.151    0.341    0.177
  563.000    5.074  237.513   57.115    0.343    0.176
  563.250    5.052  238.172   58.515    0.360    0.184
  563.500    4.848  238.617   60.607    0.396    0.201
  563.750    4.408  238.533   63.962    0.434    0.229
  564.000    3.927  238.348   67.255    0.462    0.251
  564.250    3.493  238.271   69.853    0.459    0.238
  564.500    3.205  238.302   71.254    0.447    0.255
  564.750    3.036  238.114   71.774    0.433    0.251
  565.000    2.962  238.242   70.847    0.447    0.244
  565.250    2.950  238.481   68.782    0.456    0.256
  565.500    2.948  238.193   66.465    0.440    0.267
  565.750    2.979  238.219   63.205    0.448    0.274
  566.000    3.005  238.245   61.771    0.439    0.269
  566.250    3.021  238.269   62.290    0.428    0.270
  566.500    2.986  238.505   65.015    0.420    0.280
  566.750    2.951  239.055   67.930    0.411    0.295
  567.000    2.929  239.814   70.025    0.417    0.264
  567.250    2.943  241.415   70.164    0.409    0.241
  567.500    3.002  244.278   68.290    0.401    0.203
  567.750    3.045  246.089   66.037    0.391    0.214
  568.000    3.146  247.913   66.875    0.399    0.228
  568.250    3.330  246.455   68.462    0.415    0.232
  568.500    3.493  241.754   69.677    0.429    0.222
  568.750    3.637  239.784   67.297    0.445    0.252
  569.000    3.724  240.967   67.312    0.420    0.275
  569.250    3.763  241.726   69.723    0.404    0.240
  569.500    3.782  241.752   69.549    0.408    0.225
  569.750    3.717  241.044   69.374    0.422    0.240
  570.000    3.613  240.125   69.956    0.438    0.235
  570.250    3.546  239.207   70.098    0.450    0.211
  570.500    3.530  238.497   65.956    0.424    0.229
  570.750    3.528  238.523   65.783    0.411    0.243
  571.000    3.494  238.973   65.987    0.405    0.261
  571.250    3.518  239.520   67.516    0.399    0.246
  571.500    3.562  240.070   68.978    0.404    0.223
  571.750    3.600  240.731   70.506    0.425    0.205
  572.000    3.742  241.486   72.034    0.448    0.217
  572.250    3.802  242.248   70.222    0.439    0.213
  572.500    3.806  244.275   73.957    0.418    0.203
  572.750    3.721  245.973   73.783    0.400    0.188
  573.000    3.739  248.209   72.601    0.387    0.169
  573.250    3.849  249.600   72.174    0.372    0.153
  573.500    4.083  250.571   72.820    0.359    0.142
  573.750    4.371  250.596   73.654    0.345    0.126
  574.000    4.654  249.989   74.049    0.339    0.140
  574.250    4.880  249.702   74.380    0.345    0.158
  574.500    5.119  249.936   74.897    0.357    0.163
  574.750    5.230  249.858   75.984    0.361    0.156
  575.000    5.276  249.675   77.639    0.351    0.143
  575.250    5.205  250.116   81.246    0.362    0.132
  575.500    5.041  250.880   80.696    0.375    0.150
  575.750    4.873  252.060   79.512    0.361    0.161
  576.000    4.659  252.823   81.293    0.344    0.162
  576.250    4.512  253.265   85.024    0.326    0.154
  576.500    4.526  253.923   91.655    0.318    0.155
  576.750    4.592  254.368   93.940    0.352    0.142
  577.000    4.666  253.973   92.946    0.373    0.123
  577.250    4.777  252.948   85.717    0.350    0.097
  577.500    5.104  250.352   78.361    0.332    0.084
  577.750    5.555  248.489   72.833    0.317    0.074
  578.000    6.070  247.881   68.817    0.323    0.058
  578.250    6.213  247.801   66.438    0.350    0.121
  578.500    6.085  249.402   65.129    0.383    0.113
  578.750    5.991  252.684   63.505    0.388    0.089
  579.000    6.170  245.362   58.921    0.356    0.059
  579.250    6.677  243.080   62.780    0.294    0.035
  579.500    7.349  242.680   70.672    0.282    0.034
  579.750    7.940  242.712   76.044    0.310    0.055
  580.000    8.313  242.845   76.309    0.341    0.067
  580.250    8.246  242.872   73.114    0.316    0.045
  580.500    7.956  243.109   76.909    0.344    0.057
  580.750    7.411  243.027   82.720    0.369    0.105
  581.000    6.826  243.363   89.415    0.398    0.103
  581.250    6.371  243.183   82.815    0.392    0.102
  581.500    5.991  243.315   79.553    0.369    0.102
  581.750    5.813  243.963   78.371    0.360    0.099
  582.000    5.745  244.724   78.452    0.376    0.112
  582.250    5.721  245.279   79.097    0.391    0.111
  582.500    5.780  245.306   79.677    0.386    0.084
  582.750    5.940  245.329   82.843    0.350    0.064
  583.000    6.230  245.250   85.001    0.351    0.087
  583.250    6.609  245.066   80.796    0.375    0.076
  583.500    6.802  245.307   72.557    0.366    0.057
  583.750    6.977  245.745   68.918    0.332    0.033
  584.000    6.822  245.774   78.951    0.310    0.068
  584.250    6.569  246.114   85.080    0.342    0.109
  584.500    6.130  247.614   88.055    0.383    0.141
  584.750    5.362  249.211   87.567    0.385    0.137
  585.000    4.993  250.076   86.259    0.380    0.129
  585.250    4.864  250.732   86.021    0.388    0.112
  585.500    4.897  249.286   83.896    0.389    0.108
  585.750    5.147  247.001   77.548    0.376    0.129
  586.000    5.417  244.719   78.319    0.364    0.126
  586.250    5.691  245.586   82.556    0.352    0.102
  586.500    5.992  246.343   82.258    0.341    0.086
  586.750    6.274  245.426   78.745    0.331    0.097
  587.000    6.398  243.140   74.412    0.347    0.083
  587.250    6.588  237.079   70.837    0.321    0.055
  587.500    6.757  235.634   81.689    0.287    0.041
  587.750    6.957  237.972   88.003    0.309    0.094
  588.000    7.084  239.990   89.659    0.327    0.098
  588.250    7.158  239.804   84.444    0.348    0.087
  588.500    7.194  236.263   76.647    0.320    0.028
  588.750    7.152  237.864   85.042    0.288    0.053
  589.000    7.082  240.301   87.577    0.301    0.094
  589.250    6.882  243.163   89.925    0.334    0.127
  589.500    6.365  244.137   93.594    0.362    0.103
  589.750    5.842  244.683   97.389    0.359    0.079
  590.000    5.511  247.127  105.849    0.341    0.077
  590.250    5.259  250.723  111.091    0.349    0.108
  590.500    5.121  254.633  103.485    0.385    0.130
  590.750    5.025  256.652   95.498    0.400    0.151
  591.000    4.707  251.847   90.412    0.385    0.168
  591.250    3.575  255.865   88.727    0.395    0.205
  591.500    2.574  283.298   88.363    0.464    0.301
  591.750    2.267  327.527   87.307    0.537    0.343
  592.000    2.120  277.361   85.561    0.545    0.345
  592.250    2.027  326.425   83.496    0.510    0.302
