~VERSION INFORMATION
 VERS.                 2.0:   CWLS LOG ASCII STANDARD -VERSION 2.0
 WRAP.                  NO:   ONE LINE PER DEPTH STEP
~WELL INFORMATION BLOCK
#MNEM.UNIT           DATA                    DESCRIPTION OF MNEMONIC
#---------    -------------------            -------------------------------
# Generated from Intellog Unique Number	CX_WELLS/WELL/2793
WELL.         TRITON ATCOR HANGST            : Well_name    - WELL
LOC .         00/11-13-081-11W4/0            : Location     - LOCATION
UWI .         00/11-13-081-11W400            : Uwi          - UNIQUE WELL ID
ENTR.         T                              : Entered      - ENTERED BY
SRVC.         SCHLUMBERGER                   : Scn          - SERVICE COMPANY
STRT.M        260                            : top_depth    - START DEPTH
STOP.M        480                            : bot_depth    - STOP DEPTH
STEP.M        0.25                           : increment    - STEP LENGTH
 NULL. -999.2500:NULL Value
~CURVE INFORMATION BLOCK
#MNEM UNIT       ERCB CURVE CODE    CURVE DESCRIPTION
#-----------   ------------------   ----------------------------------
DEPT.M        00 001 00 00         : DEPTH        - DEPTH
GR  .API      00 310 00 00         : GR           - GAMMA RAY
NPHI.V/V      00 330 00 00         : PHIN         - NEUTRON POROSITY (SANDSTONE)
DPHI.V/V      00 890 00 00         : PHID         - DENSITY POROSITY (SANDSTONE)
ILD .OHMM     00 120 00 00         : RESD         - DEEP RESISTIVITY (OTHER)
~PARAMETER INFORMATION
#MNEM.UNIT           DATA             DESCRIPTION OF MNEMONIC
#---------         -----------     ------------------------------
GL  .M        696                  : gl           - GROUND LEVEL ELEVATION
EREF.M        698                  : kb           - ELEVATION OF DEPTH REFERENCE
DATM.M        698                  : datum        - DATUM ELEVATION
TDD .M        488                  : tdd          - TOTAL DEPTH DRILLER
RUN .         ONE                  : Run          - RUN NUMBER
ENG .         BILL                 : Engineer     - RECORDING ENGINEER
WIT .         JIM                  : Witness      - WITNESSED BY
MUD .         GEL                  : Mud_type     - MUD TYPE
MATR.         SANDSTONE            : Logunit      - NEUTRON MATRIX
TMAX.C        22                   : BHT          - MAXIMUM RECORDED TEMPERATURE
BHTD.M        488                  : BHTDEP       - MAXIMUM RECORDED TEMPERATURE
MATR.         1                    : LOGUNIT      - NEUTRON MATRIX
RMT .C        18                   : MDTP         - TEMPERATURE OF MUD
NEUT.         1                    : NEUTRON      - NEUTRON TYPE
RESI.         9.7                  : RESIST       - RESISTIVITY TYPE
RMC .OHMM     0.25                 : RMC          - RESISTIVITY OF MUD CAKE
RMF .OHMM     7                    : RMF          - RESISTIVITY OF MUD FILTRATE
SUFT.C        4                    : SUFT         - SURFACE TEMPERATURE
~A  DEPTH       GR     PHIN     PHID     RESD
# ...
  347.000   87.038    0.456    0.297   11.028
  347.250   84.197    0.463    0.282    9.211
  347.500   83.061    0.470    0.281    7.162
  347.750   81.952    0.476    0.291    6.795
  348.000   81.439    0.476    0.312    7.188
  348.250   78.571    0.476    0.318    7.464
  348.500   74.553    0.475    0.329    8.040
  348.750   75.771    0.473    0.338    8.986
  349.000   77.584    0.471    0.338    9.679
  349.250   77.639    0.468    0.339   10.427
  349.500   76.530    0.466    0.341   11.663
  349.750   76.002    0.463    0.342   12.111
  350.000   76.084    0.457    0.343   12.349
  350.250   76.112    0.451    0.343   12.841
  350.500   76.166    0.446    0.343   12.859
  350.750   75.680    0.445    0.341   12.876
  351.000   76.302    0.447    0.340   12.912
  351.250   76.330    0.453    0.340   12.924
  351.500   76.979    0.458    0.339   12.959
  351.750   75.870    0.459    0.337   12.977
  352.000   73.612    0.460    0.335   13.001
  352.250   73.084    0.460    0.333   12.797
  352.500   75.466    0.462    0.332   12.820
  352.750   78.429    0.467    0.329   12.613
  353.000   80.229    0.473    0.323   12.636
  353.250   80.852    0.478    0.320   12.438
  353.500   80.933    0.488    0.310   12.449
  353.750   81.556    0.455    0.296   12.039
  354.000   82.192    0.453    0.273   11.833
  354.250   83.437    0.455    0.252   11.432
  354.500   84.060    0.466    0.245   11.050
  354.750   85.264    0.490    0.257   10.484
  355.000   87.673    0.501    0.271    9.769
  355.250   89.459    0.528    0.285    9.268
  355.500   93.018    0.539    0.298    8.480
  355.750   94.818    0.525    0.310    7.483
  356.000   97.781    0.530    0.316    6.487
  356.250  101.340    0.547    0.287    5.826
  356.500  103.708    0.564    0.267    5.046
  356.750  106.089    0.577    0.260    4.372
  357.000  106.725    0.578    0.258    3.789
  357.250  104.453    0.580    0.256    3.343
  357.500  103.358    0.575    0.256    3.172
  357.750  102.817    0.569    0.258    3.122
  358.000  102.871    0.574    0.265    3.072
  358.250  102.358    0.586    0.272    3.077
  358.500  101.249    0.596    0.279    3.142
  358.750   99.571    0.594    0.279    3.147
  359.000  100.221    0.588    0.280    3.269
  359.250  100.844    0.570    0.280    3.458
  359.500  101.467    0.543    0.274    3.864
  359.750   96.867    0.498    0.264    4.317
  360.000   93.431    0.477    0.262    4.822
  360.250   91.754    0.479    0.264    5.383
  360.500   90.645    0.485    0.271    6.124
  360.750   90.104    0.493    0.282    7.493
  361.000   90.159    0.502    0.305    7.788
  361.250   91.972    0.511    0.324    7.805
  361.500   93.204    0.524    0.329    7.816
  361.750   93.826    0.521    0.302    7.834
  362.000   93.313    0.445    0.295    7.700
  362.250   92.190    0.451    0.301    7.718
  362.500   89.349    0.476    0.309    7.597
  362.750   89.986    0.504    0.315    7.607
  363.000   91.190    0.511    0.290    7.353
  363.250   93.003    0.536    0.283    7.104
  363.500   94.235    0.553    0.308    6.740
  363.750   95.467    0.567    0.315    6.059
  364.000   95.521    0.576    0.305    5.643
  364.250   95.562    0.577    0.293    5.258
  364.500   94.453    0.551    0.281    4.986
  364.750   93.912    0.537    0.276    4.648
  365.000   93.385    0.525    0.274    4.490
  365.250   93.439    0.523    0.267    4.499
  365.500   93.494    0.489    0.263    4.587
  365.750   93.562    0.478    0.258    5.034
  366.000   92.480    0.449    0.254    5.522
  366.250   91.926    0.442    0.252    6.169
  366.500   90.235    0.446    0.249    6.525
  366.750   89.126    0.452    0.245    6.782
  367.000   88.626    0.459    0.244    6.795
  367.250   88.653    0.467    0.239    6.449
  367.500   89.290    0.464    0.237    6.012
  367.750   90.508    0.465    0.238    6.017
  368.000   91.753    0.465    0.236    5.923
  368.250   91.794    0.465    0.229    5.934
  368.500   91.280    0.465    0.226    6.051
  368.750   90.739    0.465    0.235    6.401
  369.000   90.212    0.462    0.246    6.771
  369.250   90.862    0.462    0.253    7.166
  369.500   91.498    0.463    0.255    7.581
  369.750   91.553    0.462    0.258    8.020
  370.000   92.203    0.458    0.253    8.331
  370.250   91.648    0.454    0.238    8.503
  370.500   91.135    0.451    0.228    8.671
  370.750   89.457    0.453    0.234    8.850
  371.000   88.916    0.466    0.247    8.870
  371.250   88.985    0.472    0.261    9.049
  371.500   89.621    0.455    0.277    9.236
  371.750   89.662    0.446    0.285    9.244
  372.000   89.730    0.452    0.276    9.435
  372.250   89.203    0.449    0.275    9.452
  372.500   88.675    0.442    0.275    9.465
  372.750   88.743    0.450    0.272    9.317
  373.000   88.784    0.459    0.269    8.839
  373.250   90.016    0.474    0.268    8.387
  373.500   90.639    0.503    0.261    8.103
  373.750   91.289    0.515    0.253    7.975
  374.000   91.329    0.483    0.254    7.846
  374.250   92.561    0.476    0.258    7.716
  374.500   95.511    0.465    0.260    7.737
  374.750   99.651    0.460    0.263    7.886
  375.000  103.196    0.460    0.259    7.901
  375.250  106.159    0.462    0.254    8.071
  375.500  107.377    0.493    0.245    8.079
  375.750  103.955    0.493    0.245    8.242
  376.000  101.669    0.492    0.252    8.112
  376.250  100.005    0.493    0.260    7.837
  376.500  100.046    0.499    0.263    7.436
  376.750  100.696    0.506    0.251    7.052
  377.000  101.928    0.527    0.258    6.458
  377.250  102.550    0.533    0.264    6.237
  377.500  103.200    0.542    0.285    5.917
  377.750  103.228    0.550    0.300    5.717
  378.000   99.210    0.541    0.315    5.727
  378.250   91.702    0.504    0.285    8.247
  378.500   85.370    0.476    0.234    9.051
  378.750   80.771    0.462    0.159    9.924
  379.000   76.740    0.325    0.058   11.505
  379.250   72.722    0.276    0.038   12.171
  379.500   73.358    0.349    0.051   12.193
  379.750   79.812    0.462    0.121   11.786
  380.000   90.338    0.460    0.244   11.585
  380.250   97.969    0.458    0.249   11.192
  380.500  100.932    0.458    0.250   10.619
  380.750  100.987    0.459    0.250   10.264
  381.000  100.487    0.459    0.250   10.094
  381.250   99.946    0.458    0.249    9.765
  381.500  100.000    0.457    0.252    9.430
  381.750  100.068    0.455    0.255    9.107
  382.000   99.541    0.459    0.258    8.497
  382.250   99.582    0.470    0.267    8.202
  382.500  100.232    0.479    0.273    7.920
  382.750  100.300    0.490    0.280    7.380
  383.000  100.327    0.514    0.282    6.752
  383.250  100.382    0.540    0.283    6.067
  383.500  101.045    0.545    0.286    5.451
  383.750  102.277    0.563    0.288    4.898
  384.000  102.886    0.582    0.291    4.482
  384.250  104.699    0.577    0.295    4.256
  384.500  103.590    0.569    0.296    4.262
  384.750  101.900    0.532    0.293    4.268
  385.000  101.359    0.489    0.281    4.436
  385.250  101.440    0.477    0.270    4.780
  385.500  101.481    0.482    0.266    4.962
  385.750  100.940    0.484    0.261    5.649
  386.000   99.845    0.481    0.256    5.973
  386.250   99.318    0.479    0.258    6.434
  386.500   99.400    0.472    0.266    7.058
  386.750  100.009    0.467    0.272    8.179
  387.000  100.659    0.457    0.279    9.140
  387.250  100.699    0.447    0.284    9.842
  387.500  100.186    0.439    0.283   10.411
  387.750   99.104    0.441    0.276   11.431
  388.000   99.131    0.443    0.271   11.875
  388.250   99.186    0.445    0.260   12.109
  388.500   99.240    0.444    0.249   12.585
  388.750   97.563    0.437    0.204   12.839
  389.000   94.127    0.422    0.165   13.092
  389.250   91.841    0.385    0.125   13.116
  389.500   93.073    0.409    0.154   12.916
  389.750   96.618    0.436    0.218   12.473
  390.000   98.999    0.442    0.238   11.834
  390.250   99.635    0.455    0.238   11.031
