~VERSION INFORMATION
 VERS.                 2.0:   CWLS LOG ASCII STANDARD -VERSION 2.0
 WRAP.                  NO:   ONE LINE PER DEPTH STEP
~WELL INFORMATION BLOCK
#MNEM.UNIT           DATA                    DESCRIPTION OF MNEMONIC
#---------    -------------------            -------------------------------
# Generated from Intellog Unique Number	CW_70_72/WELL/1051
NULL.         -999.25                        : NULL_VALUE
WELL.         DECALTA ET AL SMITH 11-03      : Well_name    - WELL              
LOC .         11-03-071-01W5                 : Location     - LOCATION          
UWI .         00/11-03-071-01W5/0            : Uwi          - UNIQUE WELL ID    
ENTR.         JAYE                           : Entered      - ENTERED BY        
SRVC.         SCHLUMBERGER                   : Scn          - SERVICE COMPANY   
DATE.         1 NOV 77                       : Date         - LOG DATE          
STRT.M        384.048                        : top_depth    - START DEPTH       
STOP.M        644.298                        : bot_depth    - STOP DEPTH        
STEP.M        0.25                           : increment    - STEP LENGTH       
~CURVE INFORMATION BLOCK
#MNEM UNIT       ERCB CURVE CODE    CURVE DESCRIPTION
#-----------   ------------------   ----------------------------------
DEPT.M        00 001 00 00         : DEPTH        - DEPTH                       
DPHI.V/V      00 890 00 00         : PHID         - DENSITY POROSITY (SANDSTONE)
NPHI.V/V      00 330 00 00         : PHIN         - NEUTRON POROSITY (SANDSTONE)
GR  .API      00 310 00 00         : GR           - GAMMA RAY                   
CALI.MM       00 280 01 00         : CAL          - CALIPER                     
ILD .OHMM     00 120 00 00         : RESD         - DEEP RESISTIVITY (DIL)      
~PARAMETER INFORMATION       
#MNEM.UNIT           DATA             DESCRIPTION OF MNEMONIC
#---------         -----------     ------------------------------
GL  .M        572.11               : gl           - GROUND LEVEL ELEVATION      
EREF.M        575.158              : kb           - ELEVATION OF DEPTH REFERENCE
DATM.M        572.11               : datum        - DATUM ELEVATION             
TDD .M        649.224              : tdd          - TOTAL DEPTH DRILLER         
RUN .         ONE                  : Run          - RUN NUMBER                  
ENG .         KUBICA               : Engineer     - RECORDING ENGINEER          
WIT .         RIES                 : Witness      - WITNESSED BY                
BASE.         EDM                  : Branch       - HOME BASE OF LOGGING UNIT   
MUD .         GEL                  : Mud_type     - MUD TYPE                    
MATR.         SANDSTONE            : Logunit      - NEUTRON MATRIX              
TMAX.C        26.6667              : BHT          - MAXIMUM RECORDED TEMPERATURE
BHTD.M        651.358              : BHTDEP       - MAXIMUM RECORDED TEMPERATURE
RMT .C        8.88889              : MDTP         - TEMPERATURE OF MUD          
MUDD.KG/M     1116                 : MWT          - MUD DENSITY                 
NEUT.         1                    : NEUTRON      - NEUTRON TYPE                
RESI.         0                    : RESIST       - RESISTIVITY TYPE            
RM  .OHMM     4.03                 : RM           - RESISTIVITY OF MUD          
RMC .OHMM     0                    : RMC          - RESISTIVITY OF MUD CAKE     
RMF .OHMM     4.38                 : RMF          - RESISTIVITY OF MUD FILTRATE 
SUFT.C        0                    : SUFT         - SURFACE TEMPERATURE         
~A  DEPTH     PHID     PHIN       GR      CAL     RESD
  384.048    0.227    0.535  143.953  166.988    2.368
  384.298    0.226    0.520  141.305  167.598    2.428
  384.548    0.211    0.504  137.102  168.084    2.474
  384.798    0.211    0.490  131.348  168.578    2.570
  385.048    0.219    0.473  120.684  168.859    2.704
  385.298    0.231    0.450  111.761  168.937    2.916
  385.548    0.241    0.398  101.658  168.277    3.133
  385.798    0.255    0.393   95.403  167.512    3.430
  386.048    0.268    0.409   99.095  166.744    3.726
  386.298    0.250    0.427  100.296  165.763    3.996
  386.548    0.247    0.421   99.949  165.416    4.174
  386.798    0.248    0.408   96.493  165.387    4.343
  387.048    0.260    0.403   87.197  165.354    4.336
  387.298    0.273    0.396   96.044  165.323    4.201
  387.548    0.266    0.391  113.898  164.976    3.950
  387.798    0.239    0.411  125.226  164.733    3.728
  388.048    0.233    0.434  128.980  164.386    3.518
  388.298    0.243    0.459  131.795  164.249    3.320
  388.548    0.188    0.470  131.885  164.113    3.145
  388.798    0.215    0.466  126.006  163.657    3.076
  389.048    0.211    0.438  110.061  163.629    3.317
  389.298    0.241    0.425   97.407  162.860    4.118
  389.548    0.313    0.378   83.952  160.513    5.711
  389.798    0.332    0.341   73.659  157.217    7.376
  390.048    0.337    0.347   68.525  155.816    9.890
  390.298    0.326    0.373   66.875  155.575   11.584
  390.548    0.300    0.387   66.461  155.540   12.562
  390.798    0.285    0.385   67.976  155.615   10.998
  391.048    0.286    0.385   73.280  155.900    9.413
  391.298    0.289    0.391   76.844  156.184    8.011
  391.548    0.280    0.396   80.719  156.150    7.093
  391.798    0.273    0.399   86.895  156.121    6.520
  392.048    0.289    0.394   93.132  156.196    5.871
  392.298    0.266    0.389   99.493  156.475    5.774
  392.548    0.247    0.393  103.241  156.446    6.310
  392.798    0.227    0.392   98.855  156.728    6.894
  393.048    0.219    0.382  101.053  156.909    7.241
  393.298    0.228    0.413  102.752  156.878    7.230
  393.548    0.240    0.434  101.843  157.265    7.192
  393.798    0.254    0.413   99.505  157.763    7.047
  394.048    0.244    0.400   96.360  158.575    7.036
  394.298    0.244    0.406   91.788  159.487    7.185
  394.548    0.244    0.407   89.450  160.301    7.462
  394.798    0.238    0.402   92.328  161.105    7.592
  395.048    0.250    0.390   95.889  161.603    7.481
  395.298    0.248    0.394   99.456  161.996    7.007
  395.548    0.237    0.400  105.261  162.273    6.465
  395.798    0.230    0.406  114.043  162.345    5.789
  396.048    0.229    0.410  120.154  162.320    5.292
  396.298    0.224    0.413  123.472  162.283    4.756
  396.548    0.211    0.408  123.685  162.463    4.438
  396.798    0.192    0.413  123.272  162.436    4.260
  397.048    0.195    0.415  123.478  162.507    4.096
  397.298    0.202    0.397  125.866  162.472    3.895
  397.548    0.211    0.393  133.719  162.449    3.711
  397.798    0.220    0.400  150.082  169.150    3.450
  398.048    0.198    0.424  160.729  172.280    3.249
  398.298    0.167    0.451  161.996  175.505    3.061
  398.548    0.182    0.490  154.871  176.848    2.830
  398.798    0.185    0.492  145.515  177.551    2.660
  399.048    0.154    0.473  132.988  175.834    2.568
  399.298    0.209    0.454  111.514  172.751    2.593
  399.548    0.252    0.392  101.474  166.298    2.663
  399.798    0.282    0.365   99.629  163.738    2.787
  400.048    0.288    0.375  107.421  162.869    2.872
  400.298    0.296    0.357  112.351  161.460    2.879
  400.548    0.241    0.362  113.496  160.381    2.853
  400.798    0.238    0.377  108.360  159.506    2.748
  401.048    0.246    0.397   94.717  158.950    2.613
  401.298    0.233    0.409   81.942  158.916    2.475
  401.548    0.241    0.367   68.047  159.408    2.263
  401.798    0.275    0.349   70.741  159.486    2.080
  402.048    0.292    0.357  103.632  159.871    2.112
  402.298    0.263    0.376  136.771  160.164    2.286
  402.548    0.240    0.395  140.708  160.655    2.508
  402.798    0.222    0.413  131.598  160.838    2.899
  403.048    0.214    0.388  126.462  160.700    3.173
  403.298    0.212    0.374  134.750  160.352    3.302
  403.548    0.185    0.387  144.093  159.880    3.449
  403.798    0.157    0.406  156.482  163.444    3.568
  404.048    0.202    0.413  154.761  168.889    3.734
  404.298    0.206    0.404  152.117  174.753    3.952
  404.548    0.194    0.384  150.150  170.928    4.174
  404.798    0.193    0.378  153.156  169.004    4.029
  405.048    0.190    0.432  159.705  169.816    3.574
  405.298    0.175    0.479  170.660  175.047    3.249
  405.548    0.186    0.515  169.690  180.805    2.796
  405.798    0.186    0.531  161.823  184.245    2.367
  406.048    0.197    0.534  159.486  187.054    2.127
  406.298    0.240    0.531  154.726  189.654    2.011
  406.548    0.248    0.522  143.194  190.361    2.061
  406.798    0.231    0.469  129.238  178.646    2.219
  407.048    0.238    0.461  118.761  172.615    2.388
  407.298    0.299    0.461  102.693  169.105    2.518
  407.548    0.294    0.440   89.605  167.711    2.605
  407.798    0.270    0.419   86.584  166.100    2.726
  408.048    0.253    0.421   89.714  164.805    2.832
  408.298    0.245    0.432   94.770  163.719    2.881
  408.548    0.255    0.401   99.637  162.740    2.947
  408.798    0.252    0.387  100.967  161.440    2.976
  409.048    0.258    0.396   95.152  160.678    2.894
  409.298    0.284    0.410   91.510  159.592    2.794
  409.548    0.314    0.410   95.567  158.406    2.737
  409.798    0.297    0.418   98.080  157.317    2.682
  410.048    0.275    0.424   98.288  156.867    2.668
  410.298    0.280    0.430   98.248  157.149    2.644
  410.548    0.290    0.437   97.277  158.278    2.635
  410.798    0.298    0.418   93.079  158.978    2.621
  411.048    0.308    0.410   93.656  159.263    2.602
  411.298    0.324    0.412   98.403  159.236    2.579
  411.548    0.325    0.416   98.989  158.987    2.555
  411.798    0.316    0.436   91.804  158.854    2.547
  412.048    0.317    0.446   88.536  158.712    2.519
  412.298    0.326    0.446   89.242  158.792    2.496
  412.548    0.329    0.438   87.525  158.539    2.478
  412.798    0.314    0.429   82.207  158.730    2.493
  413.048    0.309    0.434   82.043  158.899    2.517
  413.298    0.317    0.445   85.981  158.984    2.537
  413.548    0.336    0.468   87.174  159.369    2.562
  413.798    0.359    0.484   87.082  159.859    2.592
  414.048    0.353    0.451   82.632  160.355    2.612
  414.298    0.333    0.415   87.437  160.851    2.618
  414.548    0.330    0.419   90.754  161.344    2.633
  414.798    0.320    0.430   89.472  161.841    2.715
  415.048    0.321    0.418   86.949  161.811    2.798
  415.298    0.321    0.412   85.231  161.782    2.928
  415.548    0.318    0.408   81.466  161.535    3.041
  415.798    0.316    0.404   77.825  161.298    2.941
  416.048    0.321    0.401   81.204  161.364    2.699
  416.298    0.308    0.395   86.075  161.653    2.371
  416.548    0.311    0.394   93.864  161.625    2.139
  416.798    0.318    0.422  111.221  162.116    1.933
  417.048    0.292    0.442  122.055  163.135    1.761
  417.298    0.250    0.479  124.253  164.583    1.674
  417.548    0.265    0.467  110.546  167.077    1.647
  417.798    0.278    0.452  100.004  166.727    1.660
  418.048    0.290    0.446   95.928  162.804    1.685
  418.298    0.300    0.440   90.421  158.141    1.702
  418.548    0.312    0.429   88.397  154.631    1.715
  418.798    0.306    0.399   94.757  153.442    1.742
  419.048    0.296    0.403   98.134  153.933    1.775
  419.298    0.283    0.428   97.723  155.698    1.806
  419.548    0.250    0.413   98.797  158.510    1.848
  419.798    0.255    0.411  100.129  161.001    1.873
  420.048    0.275    0.418  100.714  161.917    1.902
  420.298    0.295    0.430  100.673  161.990    1.910
