~VERSION INFORMATION
 VERS.                 2.0:   CWLS LOG ASCII STANDARD -VERSION 2.0
 WRAP.                  NO:   ONE LINE PER DEPTH STEP
~WELL INFORMATION BLOCK
#MNEM.UNIT           DATA                    DESCRIPTION OF MNEMONIC
#---------    -------------------            -------------------------------
# Generated from Intellog Unique Number	CS_73_76/WELL/2186
WELL.         TOTAL PETROLEUM (N.A.) LT      : Well_name    - WELL
LOC .         00/10-09-074-07W4/0            : Location     - LOCATION
UWI .         00/10-09-074-07W4/0            : Uwi          - UNIQUE WELL ID
ENTR.         SP                             : Entered      - ENTERED BY
SRVC.         SCHLUMBERGER                   : Scn          - SERVICE COMPANY
STRT.M        304.8                          : top_depth    - START DEPTH
STOP.M        530.05                         : bot_depth    - STOP DEPTH
STEP.M        0.25                           : increment    - STEP LENGTH
 NULL. -999.2500:NULL Value
~CURVE INFORMATION BLOCK
#MNEM UNIT       ERCB CURVE CODE    CURVE DESCRIPTION
#-----------   ------------------   ----------------------------------
DEPT.M        00 001 00 00         : DEPTH        - DEPTH
GR  .API      00 310 00 00         : GR           - GAMMA RAY
DPHI.V/V      00 890 00 00         : PHID         - DENSITY POROSITY (SANDSTONE)
NPHI.V/V      00 330 00 00         : PHIN         - NEUTRON POROSITY (SANDSTONE)
ILD .OHMM     00 120 00 00         : RESD         - DEEP RESISTIVITY (DIL)
~PARAMETER INFORMATION
#MNEM.UNIT           DATA             DESCRIPTION OF MNEMONIC
#---------         -----------     ------------------------------
GL  .M        692.81               : gl           - GROUND LEVEL ELEVATION
EREF.M        696.163              : kb           - ELEVATION OF DEPTH REFERENCE
DATM.M        692.81               : datum        - DATUM ELEVATION
TDD .M        357.226              : tdd          - TOTAL DEPTH DRILLER
RUN .         ONE                  : Run          - RUN NUMBER
ENG .         BILL                 : Engineer     - RECORDING ENGINEER
WIT .         JIM                  : Witness      - WITNESSED BY
MUD .         GEL                  : Mud_type     - MUD TYPE
MATR.         SANDSTONE            : Logunit      - NEUTRON MATRIX
TMAX.C        21.1111              : BHT          - MAXIMUM RECORDED TEMPERATURE
BHTD.M        357.226              : BHTDEP       - MAXIMUM RECORDED TEMPERATURE
MATR.         1                    : LOGUNIT      - NEUTRON MATRIX
RMT .C        25                   : MDTP         - TEMPERATURE OF MUD
NEUT.         1                    : NEUTRON      - NEUTRON TYPE
RESI.         0                    : RESIST       - RESISTIVITY TYPE
RMC .OHMM     0.25                 : RMC          - RESISTIVITY OF MUD CAKE
RMF .OHMM     0.25                 : RMF          - RESISTIVITY OF MUD FILTRATE
SUFT.C        15                   : SUFT         - SURFACE TEMPERATURE
~A  DEPTH       GR     PHID     PHIN     RESD
# ...
  435.300   74.091    0.269    0.480    6.131
  435.550   69.403    0.279    0.465    6.227
  435.800   65.829    0.246    0.443    7.436
  436.050   60.358    0.183    0.394    8.887
  436.300   51.741    0.030    0.282   10.703
  436.550   47.725    0.042    0.227   11.875
  436.800   41.381    0.094    0.295   11.152
  437.050   42.731    0.152    0.394    9.480
  437.300   50.698    0.214    0.427    8.201
  437.550   58.503    0.282    0.466    7.001
  437.800   63.877    0.301    0.470    6.365
  438.050   66.240    0.303    0.452    6.008
  438.300   67.766    0.287    0.441    5.661
  438.550   71.769    0.272    0.449    5.498
  438.800   78.701    0.251    0.472    5.352
  439.050   81.862    0.237    0.490    5.365
  439.300   83.826    0.227    0.496    5.418
  439.550   85.719    0.231    0.500    5.463
  439.800   86.727    0.216    0.510    5.560
  440.050   85.706    0.212    0.493    5.620
  440.300   83.775    0.223    0.479    5.684
  440.550   85.376    0.234    0.475    5.678
  440.800   84.730    0.241    0.470    5.801
  441.050   83.778    0.236    0.459    5.909
  441.300   83.374    0.232    0.454    5.915
  441.550   83.071    0.235    0.459    5.945
  441.800   82.014    0.248    0.466    6.033
  442.050   80.688    0.247    0.470    6.036
  442.300   79.391    0.237    0.476    6.038
  442.550   77.853    0.228    0.488    6.052
  442.800   78.001    0.228    0.497    5.928
  443.050   79.728    0.228    0.505    5.943
  443.300   81.608    0.218    0.476    5.938
  443.550   84.433    0.235    0.463    6.106
  443.800   87.328    0.253    0.464    6.294
  444.050   88.911    0.248    0.467    6.283
  444.300   88.993    0.256    0.484    6.435
  444.550   89.034    0.259    0.503    6.308
  444.800   87.282    0.281    0.506    6.066
  445.050   87.832    0.269    0.490    5.706
  445.300   85.639    0.230    0.483    5.468
  445.550   82.427    0.238    0.471    5.327
  445.800   79.314    0.251    0.467    4.939
  446.050   76.306    0.272    0.482    4.131
  446.300   75.211    0.302    0.516    3.388
  446.550   76.551    0.335    0.559    2.865
  446.800   77.043    0.354    0.595    2.545
  447.050   75.630    0.333    0.607    2.408
  447.300   74.101    0.327    0.591    2.368
  447.550   73.427    0.324    0.563    2.376
  447.800   75.366    0.338    0.580    2.327
  448.050   78.177    0.349    0.593    2.290
  448.300   79.904    0.278    0.588    2.291
  448.550   79.243    0.273    0.558    2.290
  448.800   79.206    0.257    0.545    2.324
  449.050   81.534    0.247    0.542    2.447
  449.300   78.501    0.258    0.566    2.575
  449.550   76.067    0.273    0.547    2.954
  449.800   75.365    0.268    0.509    3.393
  450.050   75.714    0.280    0.494    3.640
  450.300   71.521    0.281    0.494    3.936
  450.550   68.834    0.294    0.497    4.246
  450.800   65.822    0.345    0.507    4.449
  451.050   59.734    0.357    0.498    4.727
  451.300   55.355    0.333    0.463    5.350
  451.550   54.869    0.336    0.444    6.053
  451.800   55.794    0.329    0.474    6.544
  452.050   53.599    0.336    0.495    7.389
  452.300   53.177    0.329    0.456    8.904
  452.550   54.093    0.313    0.442   10.593
  452.800   55.053    0.325    0.479   12.875
  453.050   55.599    0.331    0.498   15.304
  453.300   55.580    0.336    0.479   17.456
  453.550   55.564    0.330    0.466   18.665
  453.800   56.180    0.323    0.457   18.907
  454.050   56.084    0.320    0.462   19.084
  454.300   53.850    0.318    0.469   20.064
  454.550   51.531    0.333    0.483   21.909
  454.800   49.303    0.349    0.491   24.486
  455.050   48.358    0.343    0.480   25.142
  455.300   49.791    0.328    0.484   24.461
  455.550   52.810    0.315    0.485   23.186
  455.800   54.855    0.306    0.483   21.559
  456.050   54.887    0.307    0.491   19.442
  456.300   54.886    0.316    0.499   18.775
  456.550   54.878    0.313    0.481   17.562
  456.800   54.871    0.300    0.460   18.280
  457.050   54.864    0.291    0.454   19.536
  457.300   54.826    0.306    0.460   22.283
  457.550   54.605    0.304    0.466   27.545
  457.800   53.105    0.294    0.473   31.949
  458.050   54.013    0.311    0.483   32.713
  458.300   55.559    0.301    0.470   32.721
  458.550   55.053    0.267    0.449   32.788
  458.800   54.266    0.244    0.427   30.458
  459.050   53.624    0.220    0.376   28.733
  459.300   54.682    0.242    0.424   25.032
  459.550   55.839    0.282    0.492   23.062
  459.800   57.172    0.307    0.512   21.144
  460.050   57.825    0.322    0.524   17.908
  460.300   56.918    0.302    0.528   16.022
  460.550   56.538    0.303    0.495   20.946
  460.800   56.547    0.311    0.489   27.647
  461.050   56.623    0.318    0.482   31.335
  461.300   57.621    0.316    0.471   28.762
  461.550   58.288    0.315    0.474   28.824
  461.800   58.965    0.323    0.486   31.497
  462.050   60.395    0.336    0.498   22.786
  462.300   60.957    0.349    0.511   15.120
  462.550   57.520    0.345    0.521   12.289
  462.800   56.857    0.351    0.533   11.540
  463.050   56.786    0.350    0.547   10.958
  463.300   57.639    0.339    0.559   11.085
  463.550   60.541    0.347    0.565   11.654
  463.800   62.194    0.312    0.550   13.138
  464.050   60.656    0.304    0.542   15.599
  464.300   59.012    0.275    0.536   17.803
  464.550   58.111    0.290    0.528   20.246
  464.800   59.245    0.300    0.510   22.850
  465.050   59.641    0.307    0.502   25.840
  465.300   60.005    0.299    0.496   28.563
  465.550   60.587    0.307    0.488   30.922
  465.800   60.600    0.321    0.487   32.539
  466.050   59.930    0.319    0.503   33.477
  466.300   59.592    0.324    0.528   34.557
  466.550   58.714    0.355    0.539   34.672
  466.800   58.191    0.318    0.519   35.395
  467.050   55.184    0.324    0.491   34.092
  467.300   53.940    0.318    0.490   31.256
  467.550   57.212    0.307    0.498   24.753
  467.800   58.939    0.305    0.505   18.586
  468.050   60.556    0.291    0.500   15.380
  468.300   60.464    0.315    0.481   13.247
  468.550   58.911    0.288    0.468   11.968
  468.800   55.571    0.279    0.465   11.682
  469.050   53.130    0.289    0.480   14.615
  469.300   49.453    0.302    0.491   17.901
  469.550   45.615    0.329    0.456   22.595
  469.800   40.120    0.287    0.423   29.627
  470.050   34.410    0.277    0.409   40.081
  470.300   30.772    0.302    0.402   55.890
  470.550   31.583    0.302    0.384   58.612
  470.800   34.922    0.308    0.383   47.344
  471.050   39.702    0.296    0.390   37.346
  471.300   48.321    0.284    0.407   29.419
  471.550   62.256    0.289    0.413   23.280
  471.800   68.587    0.280    0.432   20.221
  472.050   75.686    0.263    0.401   16.985
  472.300   75.694    0.245    0.391   14.368
  472.550   73.675    0.224    0.384   12.999
  472.800   70.438    0.204    0.392   11.810
  473.050   69.255    0.217    0.406   11.000
  473.300   68.984    0.237    0.425   10.488
  473.550   69.374    0.237    0.439    9.976
  473.800   71.988    0.229    0.422    9.710
  474.050   75.495    0.222    0.432    9.409
  474.300   78.844    0.227    0.436    9.331
  474.550   79.297    0.212    0.432    9.197
  474.800   79.670    0.211    0.423    9.028
  475.050   81.659    0.232    0.419    8.864
  475.300   81.739    0.211    0.411    8.881
  475.550   79.037    0.198    0.403    8.876
  475.800   73.232    0.189    0.398    9.058
  476.050   63.748    0.198    0.397    9.340
  476.300   56.788    0.221    0.390    9.628
  476.550   54.362    0.238    0.374    9.939
  476.800   53.685    0.222    0.358   10.049
  477.050   59.853    0.210    0.346   10.104
  477.300   62.672    0.216    0.366    9.959
  477.550   63.412    0.196    0.379    9.918
  477.800   68.756    0.195    0.374    9.436
  478.050   69.770    0.180    0.376    9.179
  478.300   69.129    0.188    0.371    9.065
  478.550   71.543    0.192    0.362    8.962
