~VERSION INFORMATION
 VERS.                 2.0:   CWLS LOG ASCII STANDARD -VERSION 2.0
 WRAP.                  NO:   ONE LINE PER DEPTH STEP
~WELL INFORMATION BLOCK
#MNEM.UNIT           DATA                    DESCRIPTION OF MNEMONIC
#---------    -------------------            -------------------------------
# Generated from Intellog Unique Number	CC_80_83/WELL/2390
NULL.         -999.25                        : NULL_VALUE
WELL.         GULF RESDELN                   : Well_name    - WELL              
LOC .         10-35-083-06W4                 : Location     - LOCATION          
UWI .         00/10-35-083-06W4/0            : Uwi          - UNIQUE WELL ID    
ENTR.         DW                             : Entered      - ENTERED BY        
SRVC.         SCHLUMBERGER                   : Scn          - SERVICE COMPANY   
DATE.         09 FEB 79                      : Date         - LOG DATE
STRT.M        135                            : top_depth    - START DEPTH       
STOP.M        374.996                        : bot_depth    - STOP DEPTH        
STEP.M        0.3                            : increment    - STEP LENGTH       
~CURVE INFORMATION BLOCK
#MNEM UNIT       ERCB CURVE CODE    CURVE DESCRIPTION
#-----------   ------------------   ----------------------------------
DEPT.M        00 001 00 00         : DEPTH        - DEPTH                       
DPHI.V/V      00 890 00 00         : PHID         - DENSITY POROSITY (LIMESTONE)
NPHI.V/V      00 330 00 00         : PHIN         - NEUTRON POROSITY (LIMESTONE)
GR  .API      00 310 00 00         : GR           - GAMMA RAY                   
ILD .OHMM     00 120 00 00         : RESD         - DEEP RESISTIVITY (DIL)      
~PARAMETER INFORMATION       
#MNEM.UNIT           DATA             DESCRIPTION OF MNEMONIC
#---------         -----------     ------------------------------
GL  .M        542.64               : gl           - GROUND LEVEL ELEVATION      
EREF.M        546.14               : kb           - ELEVATION OF DEPTH REFERENCE
DATM.M        546.14               : datum        - DATUM ELEVATION             
TDD .M        380                  : tdd          - TOTAL DEPTH DRILLER         
RUN .         ONE                  : Run          - RUN NUMBER                  
ENG .         BILL                 : Engineer     - RECORDING ENGINEER          
WIT .         JIM                  : Witness      - WITNESSED BY                
MUD .         GEL                  : Mud_type     - MUD TYPE                    
MATR.         LIMESTONE            : Logunit      - NEUTRON MATRIX              
TMAX.C        25                   : BHT          - MAXIMUM RECORDED TEMPERATURE
BHTD.M        380                  : BHTDEP       - MAXIMUM RECORDED TEMPERATURE
MATR.         1                    : LOGUNIT      - NEUTRON MATRIX              
RMT .C        25                   : MDTP         - TEMPERATURE OF MUD          
NEUT.         1                    : NEUTRON      - NEUTRON TYPE                
RESI.         0                    : RESIST       - RESISTIVITY TYPE            
RMC .OHMM     0.25                 : RMC          - RESISTIVITY OF MUD CAKE     
RMF .OHMM     0.25                 : RMF          - RESISTIVITY OF MUD FILTRATE 
SUFT.C        4                    : SUFT         - SURFACE TEMPERATURE         
~A  DEPTH     PHID     PHIN       GR     RESD
# ...
  239.401    0.291    0.485   93.054    7.638
  239.701    0.256    0.481   97.923    8.065
  240.001    0.284    0.484  102.179    8.684
  240.301    0.243    0.481  104.597   10.075
  240.601    0.232    0.448  100.257   11.048
  240.901    0.152    0.427   90.391   11.892
  241.201    0.141    0.430   88.501   11.212
  241.501    0.196    0.405   90.309    9.619
  241.801    0.260    0.408   91.497    8.092
  242.101    0.259    0.429   90.225    7.490
  242.401    0.244    0.451   90.797    6.670
  242.701    0.266    0.477   92.602    6.290
  243.001    0.272    0.509   96.856    6.392
  243.301    0.274    0.502  103.569    6.626
  243.601    0.276    0.492   98.616    6.995
  243.901    0.230    0.476   95.504    6.982
  244.201    0.245    0.463  100.366    6.834
  244.501    0.276    0.449  100.946    6.569
  244.801    0.260    0.488   97.214    5.852
  245.101    0.232    0.495   95.954    5.115
  245.401    0.243    0.479   97.751    5.008
  245.701    0.257    0.501   94.031    5.090
  246.001    0.288    0.514   89.689    5.480
  246.301    0.268    0.527   85.352    7.398
  246.601    0.242    0.468   81.012    8.584
  246.901    0.241    0.441   83.427    8.729
  247.201    0.261    0.429   87.681    6.944
  247.501    0.265    0.446   92.555    5.024
  247.801    0.277    0.485   98.025    3.996
  248.101    0.267    0.507   98.609    3.300
  248.401    0.255    0.543   96.727    3.172
  248.701    0.247    0.562   88.706    3.750
  249.001    0.258    0.523   82.523    4.785
  249.301    0.239    0.490   77.573    8.573
  249.601    0.195    0.460   73.847   13.206
  249.901    0.133    0.409   69.507   14.204
  250.201    0.191    0.302   68.236   13.647
  250.501    0.261    0.340   79.243   12.397
  250.801    0.295    0.386   81.051   11.045
  251.101    0.295    0.418   77.940   10.023
  251.401    0.280    0.435   77.285    9.812
  251.701    0.278    0.449   77.244   10.170
  252.001    0.270    0.455   71.061   10.734
  252.301    0.242    0.454   69.781   10.513
  252.601    0.197    0.352   70.974    9.908
  252.901    0.251    0.396   73.389    9.704
  253.201    0.276    0.431   74.571    9.504
  253.501    0.278    0.448   75.146    9.843
  253.801    0.244    0.453   76.332    9.638
  254.101    0.199    0.450   76.906    8.754
  254.401    0.243    0.417   81.164    8.097
  254.701    0.249    0.426   94.632    6.688
  255.001    0.235    0.435   93.359    6.074
  255.301    0.234    0.454   96.384    5.835
  255.601    0.245    0.458   97.575    6.160
  255.901    0.253    0.457   96.295    6.881
  256.201    0.240    0.463   96.879    7.408
  256.501    0.233    0.462   99.296    8.121
  256.801    0.233    0.426  102.323    8.106
  257.101    0.235    0.420   99.826    7.788
  257.401    0.237    0.422   94.876    6.806
  257.701    0.225    0.441   91.150    4.483
  258.001    0.219    0.456   90.487    3.499
  258.301    0.284    0.468   87.383    2.784
  258.601    0.294    0.493   82.430    2.342
  258.901    0.290    0.521   79.320    2.382
  259.201    0.289    0.540   78.651    2.765
  259.501    0.262    0.557   79.838    3.333
  259.801    0.260    0.576   79.182    3.867
  260.101    0.251    0.487   78.531    4.401
  260.401    0.234    0.464   81.562    4.828
  260.701    0.230    0.470   82.136    5.393
  261.001    0.233    0.495   81.479    5.915
  261.301    0.223    0.492   82.061    6.248
  261.601    0.220    0.453   83.247    6.351
  261.901    0.215    0.427   85.040    5.878
  262.201    0.214    0.429   88.076    4.948
  262.501    0.236    0.433   95.400    3.787
  262.801    0.259    0.471   96.584    3.505
  263.101    0.253    0.495   91.012    3.369
  263.401    0.243    0.522   90.979    3.237
  263.701    0.246    0.539   90.933    3.291
  264.001    0.237    0.539   88.436    3.409
  264.301    0.230    0.538   88.400    3.598
  264.601    0.236    0.520   90.197    3.661
  264.901    0.242    0.522   89.541    3.722
  265.201    0.245    0.522   88.270    3.713
  265.501    0.244    0.492   88.850    3.567
  265.801    0.249    0.489   91.875    3.427
  266.101    0.257    0.497   93.061    3.420
  266.401    0.262    0.530   94.858    3.477
  266.701    0.243    0.532   98.501    3.671
  267.001    0.256    0.536   97.844    3.950
  267.301    0.255    0.471   94.740    4.332
  267.601    0.243    0.489   92.856    4.662
  267.901    0.237    0.505   92.190    5.110
  268.201    0.218    0.497   92.156    5.100
  268.501    0.207    0.458   90.882    5.187
  268.801    0.194    0.467   89.010    5.477
  269.101    0.177    0.455   83.441    6.008
  269.401    0.166    0.464   77.260    6.341
  269.701    0.188    0.467   73.532    6.091
  270.001    0.241    0.380   69.195    5.967
  270.301    0.251    0.404   66.699    5.626
  270.601    0.246    0.415   67.885    5.405
  270.901    0.249    0.402   75.215    4.996
  271.201    0.260    0.411   84.381    4.802
  271.501    0.242    0.435   88.636    4.975
  271.801    0.258    0.461   84.293    5.354
  272.101    0.265    0.495   76.891    5.871
  272.401    0.295    0.505   71.931    6.561
  272.701    0.275    0.487   70.659    7.331
  273.001    0.289    0.456   69.397    8.349
  273.301    0.309    0.438   66.289   10.258
  273.601    0.329    0.435   60.109   11.684
  273.901    0.358    0.436   56.384   11.652
  274.201    0.397    0.509   63.093   11.194
  274.500    0.285    0.506   69.194   10.756
  274.800    0.255    0.441   69.144   10.142
  275.100    0.277    0.431   70.952    9.565
  275.400    0.290    0.423   80.729    8.681
  275.700    0.288    0.416   79.463    8.185
  276.000    0.285    0.432   80.031    8.010
  276.300    0.271    0.454   80.606    8.301
  276.600    0.264    0.450   71.974    8.603
  276.900    0.260    0.427   70.083    9.253
  277.200    0.259    0.416   68.207    9.775
  277.500    0.263    0.408   63.255   10.133
  277.800    0.279    0.402   63.199   12.208
  278.100    0.292    0.397   64.397   13.904
  278.400    0.302    0.413   65.580   14.950
  278.700    0.304    0.428   67.993   14.928
  279.000    0.292    0.438   70.411   14.615
  279.300    0.302    0.449   69.758   13.020
  279.600    0.332    0.453   65.412   11.381
  279.900    0.274    0.434   66.592   10.141
  280.200    0.276    0.411   67.180    9.377
  280.500    0.253    0.404   68.364    9.011
  280.800    0.261    0.395   72.622    8.498
  281.100    0.251    0.392   73.197    8.164
  281.400    0.245    0.398   72.536    7.841
  281.700    0.240    0.404   78.019    7.673
  282.000    0.244    0.399   79.818    7.517
  282.300    0.242    0.374   79.167    7.643
  282.600    0.223    0.381   77.898    7.624
  282.900    0.228    0.391   77.858    7.751
  283.200    0.227    0.398   75.352    7.737
  283.500    0.221    0.400   73.470    7.721
  283.800    0.251    0.394   74.036    7.702
  284.100    0.243    0.390   74.611    7.544
  284.400    0.251    0.395   74.567    7.386
  284.700    0.252    0.416   74.540    7.226
  285.000    0.238    0.402   70.814    7.212
  285.300    0.251    0.387   65.849    7.618
  285.600    0.229    0.359   65.819    8.515
  285.900    0.240    0.356   67.623    9.335
  286.200    0.257    0.375   70.039    9.490
  286.500    0.269    0.394   68.155    9.119
  286.800    0.262    0.404   68.727    8.595
  287.100    0.238    0.397   72.982    8.257
  287.400    0.240    0.379   83.375    8.401
  287.700    0.252    0.384   80.268    8.870
  288.000    0.271    0.403   70.401    9.018
  288.300    0.283    0.399   64.838    8.662
  288.600    0.286    0.396   64.795    8.484
  288.900    0.277    0.357   66.590    8.303
  289.200    0.255    0.357   69.624    7.977
  289.500    0.250    0.386   70.193    7.663
  289.800    0.211    0.391   72.610    7.649
  290.100    0.241    0.387   79.322    7.492
  290.400    0.216    0.398   85.419    7.334
  290.700    0.201    0.439   88.449    6.911
  291.000    0.193    0.405   92.702    6.896
  291.300    0.215    0.415   81.602    7.419
