~VERSION INFORMATION
 VERS.                 2.0:   CWLS LOG ASCII STANDARD -VERSION 2.0
 WRAP.                  NO:   ONE LINE PER DEPTH STEP
~WELL INFORMATION BLOCK
#MNEM.UNIT           DATA                    DESCRIPTION OF MNEMONIC
#---------    -------------------            -------------------------------
# Generated from Intellog Unique Number	CS_73_76/WELL/2198
WELL.         BOW VALLEY EXPLORATION         : Well_name    - WELL
LOC .         00/11-07-074-15W4/0            : Location     - LOCATION
UWI .         00/11-07-074-15W4/0            : Uwi          - UNIQUE WELL ID
ENTR.         SP                             : Entered      - ENTERED BY
SRVC.         SCHLUMBERGER                   : Scn          - SERVICE COMPANY
STRT.M        286.512                        : top_depth    - START DEPTH
STOP.M        505.762                        : bot_depth    - STOP DEPTH
STEP.M        0.25                           : increment    - STEP LENGTH
 NULL. -999.2500:NULL Value
~CURVE INFORMATION BLOCK
#MNEM UNIT       ERCB CURVE CODE    CURVE DESCRIPTION
#-----------   ------------------   ----------------------------------
DEPT.M        00 001 00 00         : DEPTH        - DEPTH
GR  .API      00 310 00 00         : GR           - GAMMA RAY
DPHI.V/V      00 890 00 00         : PHID         - DENSITY POROSITY (SANDSTONE)
NPHI.V/V      00 330 00 00         : PHIN         - NEUTRON POROSITY (SANDSTONE)
ILD .OHMM     00 120 00 00         : RESD         - DEEP RESISTIVITY (DIL)
~PARAMETER INFORMATION
#MNEM.UNIT           DATA             DESCRIPTION OF MNEMONIC
#---------         -----------     ------------------------------
GL  .M        639.623              : gl           - GROUND LEVEL ELEVATION
EREF.M        640.69               : kb           - ELEVATION OF DEPTH REFERENCE
DATM.M        639.623              : datum        - DATUM ELEVATION
TDD .M        512.064              : tdd          - TOTAL DEPTH DRILLER
RUN .         ONE                  : Run          - RUN NUMBER
ENG .         BILL                 : Engineer     - RECORDING ENGINEER
WIT .         JIM                  : Witness      - WITNESSED BY
MUD .         GEL                  : Mud_type     - MUD TYPE
MATR.         SANDSTONE            : Logunit      - NEUTRON MATRIX
TMAX.C        16.6667              : BHT          - MAXIMUM RECORDED TEMPERATURE
BHTD.M        512.369              : BHTDEP       - MAXIMUM RECORDED TEMPERATURE
MATR.         1                    : LOGUNIT      - NEUTRON MATRIX
RMT .C        25                   : MDTP         - TEMPERATURE OF MUD
NEUT.         1                    : NEUTRON      - NEUTRON TYPE
RESI.         0                    : RESIST       - RESISTIVITY TYPE
RMC .OHMM     0.25                 : RMC          - RESISTIVITY OF MUD CAKE
RMF .OHMM     0.25                 : RMF          - RESISTIVITY OF MUD FILTRATE
SUFT.C        15                   : SUFT         - SURFACE TEMPERATURE
~A  DEPTH       GR     PHID     PHIN     RESD
# ...
  373.512   80.094    0.255    0.507    5.645
  373.762   79.721    0.238    0.498    6.372
  374.012   82.642    0.235    0.490    7.020
  374.262   86.271    0.225    0.494    7.113
  374.512   87.975    0.217    0.501    6.961
  374.762   85.172    0.221    0.510    6.135
  375.012   84.065    0.236    0.541    5.615
  375.262   84.209    0.203    0.548    5.159
  375.512   85.868    0.203    0.541    4.775
  375.762   87.502    0.220    0.542    4.311
  376.012   88.391    0.236    0.549    4.014
  376.262   87.778    0.243    0.553    3.775
  376.512   86.449    0.248    0.554    3.692
  376.762   85.064    0.255    0.571    3.699
  377.012   83.094    0.286    0.580    3.644
  377.262   80.717    0.324    0.610    3.487
  377.512   79.841    0.323    0.591    3.250
  377.762   76.169    0.344    0.550    3.155
  378.012   76.789    0.298    0.532    3.050
  378.262   81.773    0.291    0.553    3.513
  378.512   77.050    0.352    0.601    4.497
  378.762   69.398    0.382    0.578    5.558
  379.012   63.924    0.351    0.495    6.521
  379.262   60.824    0.332    0.477    7.310
  379.512   61.711    0.340    0.482    7.603
  379.762   64.335    0.336    0.491    7.467
  380.012   63.283    0.331    0.482    7.391
  380.262   60.620    0.329    0.479    7.315
  380.512   58.138    0.321    0.469    7.189
  380.762   56.741    0.330    0.474    7.195
  381.012   55.370    0.333    0.486    7.197
  381.262   55.974    0.321    0.492    7.067
  381.512   57.847    0.330    0.504    7.076
  381.762   58.436    0.343    0.485    7.081
  382.012   60.022    0.360    0.490    7.174
  382.262   60.032    0.352    0.477    7.261
  382.512   59.048    0.342    0.479    7.751
  382.762   61.128    0.346    0.487    8.500
  383.012   59.903    0.338    0.490    9.305
  383.262   54.903    0.332    0.489   12.006
  383.512   49.925    0.299    0.470   14.828
  383.762   45.035    0.085    0.437   18.737
  384.012   42.489    0.028    0.210   24.845
  384.262   42.317    0.033    0.147   29.097
  384.512   42.296    0.031    0.138   33.194
  384.762   42.314    0.032    0.139   33.768
  385.012   42.440    0.023    0.137   33.572
  385.262   43.481    0.012    0.134   30.913
  385.512   44.474    0.022    0.138   29.490
  385.762   45.487    0.036    0.147   26.259
  386.012   45.898    0.049    0.161   22.585
  386.262   46.531    0.054    0.179   18.648
  386.512   48.058    0.083    0.253   14.982
  386.762   51.543    0.139    0.294   11.325
  387.012   55.204    0.286    0.339    9.824
  387.262   58.104    0.332    0.445    8.380
  387.512   59.002    0.335    0.455    7.767
  387.762   57.742    0.330    0.468    7.537
  388.012   57.373    0.335    0.478    7.700
  388.262   56.805    0.339    0.485    7.877
  388.512   60.721    0.345    0.493    8.184
  388.762   59.277    0.354    0.498    8.299
  389.012   58.264    0.350    0.491    8.315
  389.262   57.243    0.330    0.491    8.127
  389.512   57.305    0.325    0.502    7.765
  389.762   57.392    0.339    0.495    7.537
  390.012   57.424    0.338    0.483    7.170
  390.262   56.952    0.336    0.473    7.097
  390.512   56.887    0.345    0.474    6.919
  390.762   56.215    0.335    0.487    6.932
  391.012   56.663    0.349    0.472    6.832
  391.262   58.105    0.358    0.454    6.954
  391.512   61.531    0.362    0.444    6.939
  391.762   67.460    0.356    0.450    6.943
  392.012   72.400    0.329    0.451    6.945
  392.262   74.240    0.305    0.464    6.956
  392.512   74.508    0.257    0.466    6.819
  392.762   75.503    0.233    0.451    6.663
  393.012   75.485    0.232    0.450    6.468
  393.262   75.728    0.227    0.484    6.338
  393.512   76.060    0.244    0.521    6.356
  393.762   74.694    0.262    0.543    6.649
  394.012   71.700    0.267    0.539    6.841
  394.262   67.704    0.273    0.534    6.972
  394.512   65.269    0.301    0.525    6.973
  394.762   64.795    0.323    0.531    6.982
  395.012   64.154    0.327    0.522    6.871
  395.262   64.312    0.339    0.494    6.535
  395.512   66.806    0.347    0.511    6.363
  395.762   69.291    0.314    0.509    6.468
  396.012   71.904    0.276    0.493    6.850
  396.262   74.593    0.269    0.492    7.435
  396.512   77.653    0.257    0.501    7.871
  396.762   79.983    0.251    0.496    8.547
  397.012   81.487    0.276    0.485    9.063
  397.262   72.511    0.283    0.481    9.466
  397.512   65.523    0.303    0.485    9.846
  397.762   61.788    0.318    0.484   10.483
  398.012   61.786    0.305    0.482   11.028
  398.262   58.391    0.295    0.479   11.363
  398.512   54.225    0.305    0.485   11.523
  398.762   49.840    0.314    0.472   11.581
  399.012   48.418    0.323    0.464   10.841
  399.262   48.403    0.310    0.470   10.600
  399.512   49.972    0.313    0.479    9.879
  399.762   49.180    0.329    0.462    9.242
  400.012   47.690    0.332    0.462    9.266
  400.262   47.458    0.322    0.465    9.572
  400.512   47.437    0.313    0.448    9.981
  400.762   45.667    0.284    0.425    9.776
  401.012   43.320    0.197    0.315    9.233
  401.262   41.517    0.046    0.221    8.810
  401.512   42.617    0.156    0.244    8.539
  401.762   47.880    0.249    0.283    8.495
  402.012   51.251    0.306    0.353    8.328
  402.262   54.329    0.337    0.409    8.747
  402.512   57.281    0.343    0.473    8.995
  402.762   58.169    0.329    0.497    9.270
  403.012   58.281    0.326    0.479    9.518
  403.262   58.307    0.323    0.480    9.315
  403.512   59.756    0.326    0.471    9.218
  403.762   60.857    0.321    0.459    8.943
  404.012   62.480    0.315    0.447    8.525
  404.262   64.503    0.321    0.455    7.951
  404.512   65.662    0.320    0.473    7.742
  404.762   66.672    0.329    0.494    7.397
  405.012   67.831    0.325    0.491    7.534
  405.262   66.652    0.333    0.500    7.605
  405.512   66.260    0.323    0.511    7.387
  405.762   66.422    0.315    0.519    7.318
  406.012   66.704    0.336    0.524    7.244
  406.262   66.129    0.338    0.512    6.814
  406.512   66.158    0.337    0.500    6.744
  406.762   66.169    0.322    0.508    6.739
  407.012   66.587    0.321    0.518    6.696
  407.262   66.767    0.337    0.521    6.743
  407.512   66.783    0.335    0.504    6.748
  407.762   66.492    0.327    0.488    6.687
  408.012   65.494    0.332    0.487    6.469
  408.262   64.358    0.319    0.498    6.087
  408.512   67.155    0.326    0.518    5.495
  408.762   70.926    0.312    0.500    4.733
  409.012   77.117    0.322    0.482    4.260
  409.262   80.209    0.297    0.472    3.939
  409.512   82.500    0.266    0.488    3.628
  409.762   84.123    0.234    0.514    3.519
  410.012   85.408    0.263    0.542    3.525
  410.262   87.815    0.251    0.565    3.634
  410.512   88.014    0.238    0.561    3.970
  410.762   86.501    0.253    0.551    4.422
  411.012   86.098    0.261    0.534    4.772
  411.262   84.143    0.246    0.529    5.178
  411.512   83.002    0.248    0.534    5.592
  411.762   84.397    0.255    0.507    5.856
  412.012   88.454    0.255    0.496    6.043
  412.262   87.775    0.247    0.488    6.095
  412.512   86.165    0.236    0.483    6.095
  412.762   86.076    0.234    0.481    6.060
  413.012   86.078    0.238    0.485    5.993
  413.262   83.382    0.233    0.491    6.006
  413.512   83.469    0.226    0.496    5.877
  413.762   84.329    0.230    0.507    5.892
  414.012   84.202    0.240    0.507    5.894
  414.262   84.539    0.254    0.498    5.896
  414.512   82.001    0.249    0.487    5.898
  414.762   80.382    0.244    0.481    5.889
  415.012   79.545    0.259    0.486    6.019
  415.262   81.137    0.265    0.493    6.101
  415.512   80.647    0.273    0.485    6.344
  415.762   78.254    0.267    0.499    6.613
  416.012   75.917    0.252    0.496    6.862
  416.262   77.514    0.272    0.472    6.859
  416.512   77.190    0.280    0.460    6.731
  416.762   73.215    0.248    0.462    6.626
