~VERSION INFORMATION
 VERS.                 2.0:   CWLS LOG ASCII STANDARD -VERSION 2.0
 WRAP.                  NO:   ONE LINE PER DEPTH STEP
~WELL INFORMATION BLOCK
#MNEM.UNIT           DATA                    DESCRIPTION OF MNEMONIC
#---------    -------------------            -------------------------------
# Generated from Intellog Unique Number	CS_77_79/WELL/928
WELL.         NORCEN ENERGY RESOURCES        : Well_name    - WELL
LOC .         00/10-02-077-12W4/0            : Location     - LOCATION
UWI .         00/10-02-077-12W4/0            : Uwi          - UNIQUE WELL ID
ENTR.         SP                             : Entered      - ENTERED BY
SRVC.         SCHLUMBERGER                   : Scn          - SERVICE COMPANY
STRT.M        260                            : top_depth    - START DEPTH
STOP.M        520                            : bot_depth    - STOP DEPTH
STEP.M        0.25                           : increment    - STEP LENGTH
 NULL. -999.2500:NULL Value
~CURVE INFORMATION BLOCK
#MNEM UNIT       ERCB CURVE CODE    CURVE DESCRIPTION
#-----------   ------------------   ----------------------------------
DEPT.M        00 001 00 00         : DEPTH        - DEPTH
ILD .OHMM     00 120 00 00         : RESD         - DEEP RESISTIVITY (DIL)
DPHI.V/V      00 890 00 00         : PHID         - DENSITY POROSITY (LIMESTONE)
NPHI.V/V      00 330 00 00         : PHIN         - NEUTRON POROSITY (LIMESTONE)
GR  .API      00 310 00 00         : GR           - GAMMA RAY
~PARAMETER INFORMATION
#MNEM.UNIT           DATA             DESCRIPTION OF MNEMONIC
#---------         -----------     ------------------------------
GL  .M        662.7                : gl           - GROUND LEVEL ELEVATION
EREF.M        666                  : kb           - ELEVATION OF DEPTH REFERENCE
DATM.M        662.7                : datum        - DATUM ELEVATION
TDD .M        531                  : tdd          - TOTAL DEPTH DRILLER
RUN .         ONE                  : Run          - RUN NUMBER
ENG .         BILL                 : Engineer     - RECORDING ENGINEER
WIT .         JIM                  : Witness      - WITNESSED BY
MUD .         GEL                  : Mud_type     - MUD TYPE
MATR.         LIMESTONE            : Logunit      - NEUTRON MATRIX
TMAX.C        15.5                 : BHT          - MAXIMUM RECORDED TEMPERATURE
BHTD.M        531                  : BHTDEP       - MAXIMUM RECORDED TEMPERATURE
MATR.         1                    : LOGUNIT      - NEUTRON MATRIX
RMT .C        25                   : MDTP         - TEMPERATURE OF MUD
NEUT.         1                    : NEUTRON      - NEUTRON TYPE
RESI.         0                    : RESIST       - RESISTIVITY TYPE
RMC .OHMM     0.25                 : RMC          - RESISTIVITY OF MUD CAKE
RMF .OHMM     0.25                 : RMF          - RESISTIVITY OF MUD FILTRATE
SUFT.C        15                   : SUFT         - SURFACE TEMPERATURE
~A  DEPTH     RESD     PHID     PHIN       GR
# ...
  477.500   12.240    0.345    0.383   35.723
  477.750    8.925    0.355    0.380   33.271
  478.000    6.270    0.351    0.372   26.541
  478.250    5.505    0.343    0.366   24.688
  478.500    5.205    0.341    0.360   28.318
  478.750    5.108    0.335    0.348   33.782
  479.000    5.108    0.312    0.339   42.907
  479.250    5.300    0.239    0.332   67.880
  479.500    5.923    0.160    0.361   90.412
  479.750    6.870    0.159    0.387  108.068
  480.000    7.678    0.175    0.383  113.523
  480.250    8.582    0.164    0.378  111.676
  480.500    9.241    0.168    0.378  104.944
  480.750    9.589    0.169    0.371   99.440
  481.000    9.586    0.175    0.353   99.409
  481.250    9.585    0.187    0.366  101.832
  481.500    9.407    0.173    0.374  104.857
  481.750    9.232    0.190    0.371  104.824
  482.000    9.403    0.209    0.374  102.981
  482.250    9.401    0.225    0.370   95.638
  482.500    9.575    0.220    0.362   91.350
  482.750    9.935    0.208    0.346   89.499
  483.000   10.310    0.199    0.353   90.695
  483.250   10.898    0.206    0.372   83.353
  483.500   11.520    0.235    0.386   73.575
  483.750   11.734    0.253    0.391   69.896
  484.000   11.951    0.288    0.381   73.525
  484.250   11.513    0.300    0.379   77.150
  484.500   10.489    0.280    0.380   82.017
  484.750    9.919    0.273    0.379   83.826
  485.000    9.555    0.263    0.389   84.410
  485.250    9.205    0.281    0.411   81.944
  485.500    9.035    0.314    0.413   72.172
  485.750    8.867    0.149    0.399   72.758
  486.000    8.702    0.130    0.380   75.765
  486.250    8.540    0.142    0.373   78.195
  486.500    8.226    0.183    0.383   88.539
  486.750    8.074    0.225    0.396  100.094
  487.000    7.494    0.268    0.399   94.572
  487.250    7.220    0.308    0.395   93.331
  487.500    6.955    0.317    0.401   92.083
  487.750    6.953    0.300    0.387   91.451
  488.000    7.083    0.280    0.378   91.439
  488.250    7.349    0.268    0.372   96.907
  488.500    7.485    0.243    0.354  107.245
  488.750    7.766    0.218    0.351  112.704
  489.000    7.911    0.173    0.365  115.731
  489.250    7.764    0.170    0.383  116.323
  489.500    7.762    0.187    0.395  113.241
  489.750    7.761    0.178    0.392  112.007
  490.000    8.357    0.195    0.383  107.711
  490.250    8.672    0.232    0.391  105.254
  490.500    9.338    0.219    0.384  108.883
  490.750    9.690    0.199    0.368  111.916
  491.000   10.055    0.223    0.368  107.014
  491.250   10.432    0.231    0.397   94.791
  491.500   10.430    0.235    0.364   89.285
  491.750   10.623    0.248    0.347   86.821
  492.000   10.820    0.235    0.358   87.409
  492.250   10.818    0.253    0.373   89.218
  492.500   11.019    0.277    0.385   91.023
  492.750   11.017    0.267    0.385   91.611
  493.000   10.811    0.230    0.386   94.636
  493.250   10.809    0.153    0.388  101.929
  493.500   11.009    0.203    0.395  108.610
  493.750   11.008    0.211    0.373  103.091
  494.000   11.006    0.205    0.371   96.979
  494.250   10.801    0.223    0.385   87.200
  494.500   10.798    0.248    0.379   78.643
  494.750   10.598    0.272    0.372   82.275
  495.000   10.401    0.191    0.361   98.716
  495.250   10.207    0.174    0.356  104.170
  495.500    9.833    0.173    0.361  104.154
  495.750    9.831    0.173    0.357  104.737
  496.000    9.649    0.185    0.353  110.203
  496.250    9.468    0.208    0.360  114.447
  496.500    8.953    0.164    0.343  119.303
  496.750    8.626    0.172    0.363  124.155
  497.000    8.006    0.198    0.386  121.080
  497.250    7.572    0.216    0.408  116.790
  497.500    7.294    0.197    0.427  115.552
  497.750    7.158    0.209    0.428  115.525
  498.000    7.024    0.225    0.428  114.893
  498.250    7.023    0.232    0.399  113.653
  498.500    7.153    0.211    0.403  106.301
  498.750    7.286    0.165    0.404  105.065
  499.000    7.702    0.031    0.395  105.045
  499.250    7.992    0.003    0.397  105.021
  499.500    7.990    0.061    0.378  106.826
  499.750    7.988    0.102    0.367  111.679
  500.000    7.987    0.124    0.362  115.928
  500.250    7.838    0.131    0.363  109.800
  500.500    7.837    0.121    0.365  107.336
  500.750    7.835    0.105    0.357  106.711
  501.000    7.834    0.106    0.351  109.120
  501.250    7.833    0.114    0.347  110.918
  501.500    7.831    0.116    0.351  111.515
  501.750    7.829    0.114    0.365  110.883
  502.000    7.683    0.110    0.367  110.249
  502.250    7.682    0.104    0.370  108.995
  502.500    7.680    0.098    0.365  107.758
  502.750    7.678    0.107    0.356  107.130
  503.000    7.677    0.102    0.343  105.278
  503.250    7.676    0.104    0.340  106.471
  503.500    7.533    0.105    0.342  110.106
  503.750    7.392    0.095    0.351  110.699
  504.000    7.391    0.095    0.360  107.620
  504.250    7.254    0.106    0.366  104.550
  504.500    7.252    0.109    0.357  103.922
  504.750    7.251    0.100    0.357  106.337
  505.000    7.116    0.085    0.366  107.528
  505.250    6.983    0.082    0.376  107.498
  505.500    6.982    0.093    0.379  108.089
  505.750    6.980    0.104    0.373  108.072
  506.000    6.851    0.103    0.370  108.658
  506.250    6.850    0.098    0.370  109.245
  506.500    6.723    0.102    0.369  107.391
  506.750    6.597    0.110    0.372  106.753
  507.000    6.596    0.104    0.379  107.335
  507.250    6.473    0.102    0.379  107.925
  507.500    6.353    0.112    0.368  109.123
  507.750    6.234    0.104    0.360  111.538
  508.000    6.233    0.098    0.362  111.517
  508.250    6.118    0.095    0.374  108.438
  508.500    6.116    0.114    0.384  108.423
  508.750    6.002    0.108    0.392  112.661
  509.000    6.001    0.125    0.395  114.465
  509.250    5.889    0.128    0.382  115.060
  509.500    5.888    0.119    0.376  111.979
  509.750    5.887    0.116    0.382  111.349
  510.000    5.778    0.088    0.381  112.548
  510.250    5.776    0.102    0.378  114.958
  510.500    5.669    0.109    0.378  114.939
  510.750    5.668    0.111    0.373  109.423
  511.000    5.667    0.112    0.373  106.965
  511.250    5.562    0.109    0.375  108.167
  511.500    5.560    0.117    0.380  109.967
  511.750    5.559    0.123    0.382  111.166
  512.000    5.455    0.124    0.382  112.960
  512.250    5.455    0.118    0.386  113.556
  512.500    5.353    0.114    0.391  109.880
  512.750    5.352    0.115    0.403  108.633
  513.000    5.351    0.122    0.396  111.046
  513.250    5.350    0.123    0.388  109.195
  513.500    5.251    0.120    0.394  106.728
  513.750    5.249    0.111    0.392  107.925
  514.000    5.347    0.104    0.393  107.897
  514.250    5.346    0.093    0.397  107.886
  514.500    5.547    0.081    0.405   99.323
  514.750    5.864    0.066    0.397   95.647
  515.000    6.801    0.034    0.384   89.524
  515.250    8.036    0.049    0.326   84.016
  515.500    8.816    0.061    0.286   69.972
  515.750   10.038    0.046    0.264   54.709
  516.000   11.644    0.044    0.241   41.268
  516.250   14.279    0.050    0.244   34.537
  516.500   17.189    0.049    0.238   30.249
  516.750   19.939    0.045    0.209   27.180
  517.000   21.873    0.053    0.189   23.493
  517.250   23.553    0.064    0.186   21.646
  517.500   23.549    0.071    0.183   22.230
  517.750   23.987    0.064    0.185   22.817
  518.000   23.983    0.044    0.177   22.181
  518.250   23.977    0.050    0.175   22.154
  518.500   24.877    0.038    0.176   24.572
  518.750   25.338    0.030    0.181   30.034
  519.000   25.808    0.051    0.176   32.450
  519.250   26.287    0.059    0.170   33.037
  519.500   26.775    0.062    0.170   33.008
  519.750   27.273    0.052    0.172   32.995
  520.000   27.265    0.039    0.174   34.191
