~VERSION INFORMATION
 VERS.                 2.0:   CWLS LOG ASCII STANDARD -VERSION 2.0
 WRAP.                  NO:   ONE LINE PER DEPTH STEP
~WELL INFORMATION BLOCK
#MNEM.UNIT           DATA                    DESCRIPTION OF MNEMONIC
#---------    -------------------            -------------------------------
# Generated from Intellog Unique Number	CW_76_78/WELL/2578
WELL.         10-20-078-24W4                 : Well_name    - WELL
LOC .         00/10-20-078-24W4/0            : Location     - LOCATION
UWI .         00/10-20-078-24W4/0            : Uwi          - UNIQUE WELL ID
ENTR.         MAX                            : Entered      - ENTERED BY
SRVC.         SCHLUMBERGER                   : Scn          - SERVICE COMPANY
STRT.M        274.32                         : top_depth    - START DEPTH
STOP.M        518.07                         : bot_depth    - STOP DEPTH
STEP.M        0.25                           : increment    - STEP LENGTH
 NULL. -999.2500:NULL Value
~CURVE INFORMATION BLOCK
#MNEM UNIT       ERCB CURVE CODE    CURVE DESCRIPTION
#-----------   ------------------   ----------------------------------
DEPT.M        00 001 00 00         : DEPTH        - DEPTH
ILD .OHMM     00 120 00 00         : RESD         - DEEP RESISTIVITY (DIL)
NPHI.V/V      00 330 00 00         : PHIN         - NEUTRON POROSITY (SANDSTONE)
DPHI.V/V      00 890 00 00         : PHID         - DENSITY POROSITY (SANDSTONE)
CALI.MM       00 280 01 00         : CAL          - CALIPER
GR  .API      00 310 00 00         : GR           - GAMMA RAY
~PARAMETER INFORMATION
#MNEM.UNIT           DATA             DESCRIPTION OF MNEMONIC
#---------         -----------     ------------------------------
GL  .M        588.874              : gl           - GROUND LEVEL ELEVATION
EREF.M        592.836              : kb           - ELEVATION OF DEPTH REFERENCE
DATM.M        588.874              : datum        - DATUM ELEVATION
TDD .M        536.448              : tdd          - TOTAL DEPTH DRILLER
RUN .         ONE                  : Run          - RUN NUMBER
ENG .         BILL                 : Engineer     - RECORDING ENGINEER
WIT .         JIM                  : Witness      - WITNESSED BY
MUD .         GEL                  : Mud_type     - MUD TYPE
MATR.         SANDSTONE            : Logunit      - NEUTRON MATRIX
TMAX.C        16.6667              : BHT          - MAXIMUM RECORDED TEMPERATURE
BHTD.M        536.448              : BHTDEP       - MAXIMUM RECORDED TEMPERATURE
RMT .C        19.4444              : MDTP         - TEMPERATURE OF MUD
MUDD.KG/M     9300                 : MWT          - MUD DENSITY
NEUT.         1                    : NEUTRON      - NEUTRON TYPE
RESI.         0                    : RESIST       - RESISTIVITY TYPE
RM  .OHMM     3.82                 : RM           - RESISTIVITY OF MUD
RMC .OHMM     0                    : RMC          - RESISTIVITY OF MUD CAKE
RMF .OHMM     3.9                  : RMF          - RESISTIVITY OF MUD FILTRATE
SUFT.C        -20.5556             : SUFT         - SURFACE TEMPERATURE
~A  DEPTH     RESD     PHIN     PHID      CAL       GR
# ...
  493.320    7.607    0.385    0.208  203.371   94.021
  493.570    7.397    0.372    0.193  201.841   86.635
  493.820    7.666    0.358    0.163  201.313   84.552
  494.070    7.943    0.359    0.135  201.280   92.786
  494.320    7.653    0.480    0.168  201.229  103.964
  494.570    7.511    0.518    0.183  201.221  108.664
  494.820    7.370    0.564    0.216  202.689  117.781
  495.070    7.298    0.555    0.239  203.658  118.059
  495.320    7.292    0.531    0.263  204.626  104.190
  495.570    7.292    0.492    0.294  202.095   96.214
  495.820    7.478    0.439    0.297  200.573   85.294
  496.070    7.822    0.414    0.254  199.542   77.910
  496.320    8.406    0.424    0.250  199.006   76.415
  496.570    8.951    0.419    0.266  199.476   72.859
  496.820    9.617    0.410    0.261  200.452   73.431
  497.070   10.056    0.415    0.271  201.413   76.658
  497.320   10.419    0.415    0.257  201.413   84.891
  497.570   10.316    0.412    0.243  201.850   91.651
  497.820    9.942    0.405    0.245  201.825   94.286
  498.070    9.495    0.400    0.237  201.792   96.624
  498.320    8.983    0.391    0.231  201.792  100.141
  498.570    8.658    0.400    0.243  201.730  103.365
  498.820    8.569    0.435    0.236  201.704  107.473
  499.070    8.336    0.489    0.235  201.704  110.992
  499.320    8.033    0.448    0.255  202.130  115.395
  499.570    7.954    0.417    0.231  202.611  117.143
  499.820    7.947    0.391    0.188  203.073  115.360
  500.070    7.800    0.409    0.175  203.044  108.856
  500.320    7.584    0.411    0.196  203.011  103.534
  500.570    7.584    0.405    0.175  202.985  100.863
  500.820    7.503    0.399    0.172  203.455   97.602
  501.070    7.499    0.378    0.157  203.925   97.589
  501.320    7.630    0.401    0.124  204.391  106.997
  501.570    7.906    0.412    0.118  204.857  109.634
  501.820    8.495    0.407    0.148  205.826  114.332
  502.070    8.964    0.384    0.148  206.791  115.493
  502.320    8.876    0.395    0.158  205.771  116.353
  502.570    7.882    0.415    0.168  205.235  116.635
  502.820    5.631    0.434    0.152  204.707  116.912
  503.070    4.059    0.448    0.137  204.678  116.596
  503.320    4.130    0.436    0.122  204.678  115.697
  503.570    4.241    0.417    0.127  204.106  114.499
  503.820    4.475    0.416    0.158  203.585  114.187
  504.070    5.661    0.425    0.182  203.552  113.875
  504.320    6.250    0.424    0.183  203.552  115.626
  504.570    7.487    0.424    0.175  203.501  117.374
  504.820    7.828    0.454    0.170  203.468  117.650
  505.070    7.145    0.511    0.188  203.435  117.632
  505.320    5.639    0.534    0.198  203.406  119.086
  505.570    5.146    0.574    0.195  203.376  118.480
  505.820    4.959    0.562    0.168  203.344  119.349
  506.070    4.955    0.531    0.166  203.318  115.793
  506.320    4.955    0.524    0.151  203.780  113.711
  506.570    5.037    0.525    0.146  204.247  113.104
  506.820    5.035    0.531    0.134  204.225  113.674
  507.070    4.985    0.520    0.110  204.188  115.718
  507.320    4.937    0.496    0.132  204.155  121.009
  507.570    4.843    0.483    0.160  204.133  126.590
  507.820    4.796    0.481    0.176  203.594  128.339
  508.070    4.706    0.502    0.188  203.594  130.679
  508.320    4.619    0.515    0.158  204.031  128.005
  508.570    4.330    0.504    0.135  204.009  127.988
  508.820    3.846    0.466    0.124  203.976  127.384
  509.070    3.324    0.448    0.083  204.446  125.596
  509.320    3.174    0.479    0.054  204.908  127.052
  509.570    3.319    0.481    0.105  204.908  129.685
  509.820    3.502    0.479    0.140  204.857  126.721
  510.070    3.937    0.476    0.154  205.815  120.219
  510.320    4.387    0.470    0.133  206.787  118.435
  510.570    4.629    0.492    0.132  207.257  115.469
  510.820    4.225    0.491    0.119  208.218  111.916
  511.070    3.751    0.468    0.084  208.692  108.068
  511.320    3.922    0.448    0.025  209.158  104.216
  511.570    3.991    0.443    0.118  208.637  100.370
  511.820    4.061    0.430    0.128  207.103   93.868
  512.070    4.170    0.426    0.142  205.577   75.286
  512.320    4.441    0.413    0.167  204.546   52.282
  512.570    5.084    0.406    0.266  204.018   39.887
  512.820    6.202    0.402    0.258  203.490   40.164
  513.070    6.786    0.395    0.234  203.461   46.924
  513.320    7.160    0.374    0.205  203.428   61.641
  513.570    7.220    0.373    0.155  203.399   70.756
  513.820    6.894    0.380    0.126  203.366   70.737
  514.070    6.584    0.374    0.138  203.336   68.953
  514.320    6.344    0.405    0.161  202.808   79.544
  514.570    6.226    0.456    0.146  202.779   93.671
  514.820    5.945    0.498    0.122  202.746  103.378
  515.070    5.425    0.519    0.104  202.721  106.893
  515.320    4.907    0.575    0.120  202.185   90.376
  515.570    4.477    0.550    0.130  202.152   78.271
  515.820    4.161    0.517    0.152  202.130   44.074
  516.070    3.797    0.498    0.176  201.598   31.383
  516.320    3.561    0.491    0.161  201.569   24.586
  516.570    3.400    0.477    0.145  201.540   23.390
  516.820    3.429    0.471    0.130  201.507   23.668
  517.070    3.553    0.463    0.117  200.979   23.646
  517.320    3.748    0.464    0.125  200.949   22.743
  517.570    3.919    0.441    0.128  200.917   22.435
  517.820    4.135    0.430    0.130  201.383   21.235
  518.070    4.444    0.417    0.122  202.351   20.628
