~VERSION INFORMATION
 VERS.                 2.0:   CWLS LOG ASCII STANDARD -VERSION 2.0
 WRAP.                  NO:   ONE LINE PER DEPTH STEP
~WELL INFORMATION BLOCK
#MNEM.UNIT           DATA                    DESCRIPTION OF MNEMONIC
#---------    -------------------            -------------------------------
# Generated from Intellog Unique Number	CS_67_68/WELL/2211
WELL.         12-08-067-01W4                 : Well_name    - WELL
LOC .         00/12-08-067-01W4/0            : Location     - LOCATION
UWI .         00/12-08-067-01W4/0            : Uwi          - UNIQUE WELL ID
ENTR.         SP                             : Entered      - ENTERED BY
SRVC.         SCHLUMBERGER                   : Scn          - SERVICE COMPANY
STRT.M        315                            : top_depth    - START DEPTH
STOP.M        570                            : bot_depth    - STOP DEPTH
STEP.M        0.25                           : increment    - STEP LENGTH
 NULL. -999.2500:NULL Value
~CURVE INFORMATION BLOCK
#MNEM UNIT       ERCB CURVE CODE    CURVE DESCRIPTION
#-----------   ------------------   ----------------------------------
DEPT.M        00 001 00 00         : DEPTH        - DEPTH
ILD .OHMM     00 120 00 00         : RESD         - DEEP RESISTIVITY (DIL)
DPHI.V/V      00 890 00 00         : PHID         - DENSITY POROSITY (LIMESTONE)
NPHI.V/V      00 330 00 00         : PHIN         - NEUTRON POROSITY (LIMESTONE)
GR  .API      00 310 00 00         : GR           - GAMMA RAY
CALI.MM       00 280 01 00         : CAL          - CALIPER
~PARAMETER INFORMATION
#MNEM.UNIT           DATA             DESCRIPTION OF MNEMONIC
#---------         -----------     ------------------------------
GL  .M        609.53               : gl           - GROUND LEVEL ELEVATION
EREF.M        613.4                : kb           - ELEVATION OF DEPTH REFERENCE
DATM.M        613.4                : datum        - DATUM ELEVATION
TDD .M        576                  : tdd          - TOTAL DEPTH DRILLER
RUN .         ONE                  : Run          - RUN NUMBER
ENG .         BILL                 : Engineer     - RECORDING ENGINEER
WIT .         JIM                  : Witness      - WITNESSED BY
MUD .         GEL                  : Mud_type     - MUD TYPE
MATR.         LIMESTONE            : Logunit      - NEUTRON MATRIX
TMAX.C        25                   : BHT          - MAXIMUM RECORDED TEMPERATURE
BHTD.M        575                  : BHTDEP       - MAXIMUM RECORDED TEMPERATURE
MATR.         1                    : LOGUNIT      - NEUTRON MATRIX
RMT .C        25                   : MDTP         - TEMPERATURE OF MUD
NEUT.         1                    : NEUTRON      - NEUTRON TYPE
RESI.         0                    : RESIST       - RESISTIVITY TYPE
RMC .OHMM     0.25                 : RMC          - RESISTIVITY OF MUD CAKE
RMF .OHMM     0.25                 : RMF          - RESISTIVITY OF MUD FILTRATE
SUFT.C        15                   : SUFT         - SURFACE TEMPERATURE
~A  DEPTH     RESD     PHID     PHIN       GR      CAL
# ...
  497.500   12.029    0.267    0.361   41.316  155.959
  497.750   11.916    0.282    0.359   30.833  156.153
  498.000   11.870    0.299    0.356   26.327  156.142
  498.250   11.758    0.304    0.354   24.656  156.131
  498.500   11.625    0.311    0.352   24.526  156.119
  498.750   11.645    0.320    0.363   26.923  156.005
  499.000   11.730    0.326    0.373   30.366  155.994
  499.250   11.794    0.330    0.381   48.478  155.982
  499.500   11.903    0.310    0.370   58.085  156.074
  499.750   11.923    0.279    0.341   56.906  156.061
  500.000   11.965    0.269    0.337   51.105  156.358
  500.250   11.963    0.279    0.340   47.217  156.450
  500.500   11.962    0.284    0.338   43.082  156.540
  500.750   11.871    0.273    0.330   44.616  156.530
  501.000   11.650    0.261    0.323   51.758  156.005
  501.250   11.540    0.237    0.317   66.664  155.788
  501.500   11.305    0.210    0.332   72.759  154.954
  501.750   11.094    0.188    0.344   62.706  154.018
  502.000   10.908    0.190    0.360   43.904  153.494
  502.250   10.685    0.213    0.363   30.955  153.173
  502.500   10.565    0.244    0.344   28.237  152.648
  502.750   10.485    0.283    0.328   34.885  152.330
  503.000   10.503    0.267    0.313   38.638  151.803
  503.250   10.521    0.253    0.310   42.081  151.382
  503.500   10.519    0.242    0.320   50.518  150.856
  503.750   10.556    0.248    0.326   55.071  150.743
  504.000   10.614    0.263    0.346   48.224  151.245
  504.250   10.612    0.272    0.339   48.156  152.158
  504.500   10.630    0.262    0.323   59.672  153.790
  504.750   10.708    0.239    0.329   60.221  154.806
  505.000   10.887    0.232    0.352   49.242  154.281
  505.250   11.215    0.263    0.380   40.732  153.139
  505.500   11.445    0.278    0.355   31.174  152.100
  505.750   11.572    0.303    0.343   27.531  150.752
  506.000   11.722    0.303    0.359   32.146  150.330
  506.250   11.829    0.306    0.359   35.221  150.114
  506.500   11.828    0.314    0.354   39.651  149.999
  506.750   11.738    0.310    0.351   41.554  150.090
  507.000   11.606    0.298    0.350   38.774  150.282
  507.250   11.604    0.294    0.345   37.041  150.685
  507.500   11.645    0.291    0.341   41.163  151.803
  507.750   11.622    0.298    0.339   45.039  153.126
  508.000   11.663    0.306    0.339   42.013  154.862
  508.250   11.704    0.311    0.339   36.520  156.082
  508.500   11.769    0.319    0.349   34.358  156.481
  508.750   11.811    0.324    0.354   33.796  156.367
  509.000   11.721    0.321    0.354   35.082  155.946
  509.250   11.720    0.313    0.352   34.891  155.626
  509.500   11.652    0.308    0.349   33.344  155.512
  509.750   11.694    0.315    0.346   33.584  155.089
  510.000   11.758    0.320    0.351   34.747  154.561
  510.250   11.474    0.320    0.357   33.631  154.346
  510.500   11.754    0.315    0.356   31.097  154.130
  510.750   11.818    0.313    0.349   29.365  153.709
  511.000   11.882    0.315    0.349   28.557  153.492
  511.250   11.947    0.317    0.340   28.549  152.965
  511.500   11.989    0.319    0.331   29.528  152.853
  511.750   11.965    0.322    0.332   29.707  153.045
  512.000   11.919    0.323    0.346   28.222  153.753
  512.250   11.873    0.337    0.365   23.346  155.282
  512.500   11.761    0.345    0.360   24.017  155.477
  512.750   11.650    0.343    0.352   25.734  155.362
  513.000   11.626    0.344    0.359   27.270  155.142
  513.250   11.624    0.348    0.365   28.618  154.825
  513.500   11.536    0.348    0.365   28.981  154.609
  513.750   11.534    0.346    0.356   28.605  154.391
  514.000   11.468    0.340    0.352   27.795  154.175
  514.250   11.488    0.339    0.366   27.480  153.958
  514.500   11.465    0.343    0.374   27.413  153.945
  514.750   11.463    0.339    0.372   26.358  154.140
  515.000   11.482    0.338    0.374   25.919  154.438
  515.250   11.524    0.336    0.364   26.160  154.836
  515.500   11.543    0.342    0.370   26.831  155.338
  515.750   11.541    0.352    0.379   27.379  155.738
  516.000   11.647    0.346    0.382   28.235  156.138
  516.250   11.733    0.339    0.367   29.029  156.022
  516.500   11.995    0.334    0.354   33.582  155.804
  516.750   12.129    0.345    0.354   42.388  155.693
  517.000   12.195    0.355    0.368   56.124  155.270
  517.250   11.990    0.336    0.381   59.137  155.154
  517.500   11.745    0.308    0.376   51.242  154.835
  517.750   11.527    0.308    0.388   40.080  154.515
  518.000   11.312    0.317    0.392   34.157  154.296
  518.250   11.247    0.325    0.379   32.917  154.491
  518.500   11.225    0.326    0.362   33.773  154.791
  518.750   11.349    0.313    0.352   38.265  155.087
  519.000   11.368    0.305    0.341   53.912  155.487
  519.250   11.282    0.294    0.332   60.376  155.885
  519.500   11.134    0.278    0.322   64.004  156.077
  519.750   10.907    0.265    0.347   64.984  156.068
  520.000   10.764    0.274    0.381   65.840  155.953
  520.250   10.662    0.263    0.362   67.435  155.635
  520.500   10.621    0.251    0.357   69.585  155.519
  520.750   10.659    0.242    0.369   67.914  155.405
  521.000   10.737    0.244    0.376   62.361  155.085
  521.250   10.755    0.258    0.379   56.499  154.766
  521.500   10.814    0.277    0.368   49.405  154.035
  521.750   10.812    0.292    0.359   40.772  153.820
  522.000   10.750    0.311    0.358   33.492  153.499
  522.250   10.708    0.324    0.359   31.267  153.073
  522.500   10.667    0.324    0.358   28.178  152.858
  522.750   10.586    0.323    0.359   26.076  152.950
  523.000   10.486    0.327    0.359   26.131  153.454
  523.250   10.387    0.333    0.365   31.608  153.956
  523.500   10.309    0.339    0.363   37.519  154.663
  523.750   10.249    0.335    0.363   45.584  154.961
  524.000   10.210    0.324    0.363   49.707  155.666
  524.250   10.208    0.318    0.378   51.425  156.066
  524.500   10.245    0.324    0.391   53.144  156.570
  524.750   10.300    0.315    0.377   56.896  156.866
  525.000    9.589    0.324    0.387   56.499  157.698
  525.250    9.503    0.326    0.384   61.371  159.720
  525.500    9.441    0.327    0.375   65.021  158.874
  525.750    9.426    0.327    0.368   63.538  158.437
  526.000    9.467    0.325    0.366   58.689  157.589
  526.250    9.542    0.323    0.363   55.187  157.259
  526.500    9.637    0.315    0.358   51.194  156.816
  526.750    9.713    0.307    0.350   49.708  156.780
  527.000    9.806    0.295    0.355   51.831  156.858
  527.250    9.850    0.289    0.373   48.022  157.037
  527.500    9.874    0.296    0.371   42.438  157.207
  527.750    9.898    0.304    0.363   38.815  157.385
  528.000    9.939    0.308    0.356   46.624  157.250
  528.250    9.889    0.299    0.356   50.519  157.323
  528.500    9.839    0.291    0.361   46.158  157.296
  528.750    9.842    0.303    0.367   42.595  157.367
  529.000    9.883    0.303    0.369   44.290  157.234
  529.250    9.942    0.302    0.370   48.918  157.306
  529.500   10.060    0.299    0.366   52.872  157.175
  529.750   10.179    0.289    0.360   54.629  157.142
  530.000   10.319    0.288    0.354   50.577  157.116
  530.250   10.440    0.294    0.349   44.017  156.272
  530.500   10.425    0.298    0.344   40.086  154.305
  530.750   10.162    0.296    0.343   37.988  152.543
  531.000    9.922    0.303    0.345   37.051  151.901
  531.250    9.818    0.309    0.349   36.240  153.603
  531.500    9.752    0.314    0.356   35.243  155.614
  531.750    9.738    0.305    0.353   34.431  158.129
  532.000    9.797    0.303    0.346   34.230  160.039
  532.250    9.967    0.302    0.349   34.274  160.517
  532.500   10.178    0.298    0.345   32.421  160.080
  532.750   10.317    0.292    0.335   27.388  159.439
  533.000   10.303    0.286    0.324   26.822  159.104
  533.250   10.213    0.299    0.316   32.607  158.765
  533.500    9.862    0.311    0.313   35.099  158.328
  533.750    9.470    0.324    0.318   37.648  157.893
