~VERSION INFORMATION
 VERS.                 2.0:   CWLS LOG ASCII STANDARD -VERSION 2.0
 WRAP.                  NO:   ONE LINE PER DEPTH STEP
~WELL INFORMATION BLOCK
#MNEM.UNIT           DATA                    DESCRIPTION OF MNEMONIC
#---------    -------------------            -------------------------------
# Generated from Intellog Unique Number	CS_69_70/WELL/889
WELL.         BOW VALLEY INDUSTRIES          : Well_name    - WELL
LOC .         00/11-21-069-13W4/0            : Location     - LOCATION
UWI .         00/11-21-069-13W4/0            : Uwi          - UNIQUE WELL ID
ENTR.         SP                             : Entered      - ENTERED BY
SRVC.         SCHLUMBERGER                   : Scn          - SERVICE COMPANY
STRT.M        270                            : top_depth    - START DEPTH
STOP.M        472                            : bot_depth    - STOP DEPTH
STEP.M        0.25                           : increment    - STEP LENGTH
 NULL. -999.2500:NULL Value
~CURVE INFORMATION BLOCK
#MNEM UNIT       ERCB CURVE CODE    CURVE DESCRIPTION
#-----------   ------------------   ----------------------------------
DEPT.M        00 001 00 00         : DEPTH        - DEPTH
ILD .OHMM     00 120 00 00         : RESD         - DEEP RESISTIVITY (DIL)
DPHI.V/V      00 890 00 00         : PHID         - DENSITY POROSITY (LIMESTONE)
NPHI.V/V      00 330 00 00         : PHIN         - NEUTRON POROSITY (LIMESTONE)
GR  .API      00 310 00 00         : GR           - GAMMA RAY
~PARAMETER INFORMATION
#MNEM.UNIT           DATA             DESCRIPTION OF MNEMONIC
#---------         -----------     ------------------------------
GL  .M        568.76               : gl           - GROUND LEVEL ELEVATION
EREF.M        571.5                : kb           - ELEVATION OF DEPTH REFERENCE
DATM.M        568.76               : datum        - DATUM ELEVATION
TDD .M        480                  : tdd          - TOTAL DEPTH DRILLER
RUN .         ONE                  : Run          - RUN NUMBER
ENG .         BILL                 : Engineer     - RECORDING ENGINEER
WIT .         JIM                  : Witness      - WITNESSED BY
MUD .         GEL                  : Mud_type     - MUD TYPE
MATR.         LIMESTONE            : Logunit      - NEUTRON MATRIX
TMAX.C        24.2                 : BHT          - MAXIMUM RECORDED TEMPERATURE
BHTD.M        480                  : BHTDEP       - MAXIMUM RECORDED TEMPERATURE
MATR.         1                    : LOGUNIT      - NEUTRON MATRIX
RMT .C        25                   : MDTP         - TEMPERATURE OF MUD
NEUT.         1                    : NEUTRON      - NEUTRON TYPE
RESI.         0                    : RESIST       - RESISTIVITY TYPE
RMC .OHMM     0.25                 : RMC          - RESISTIVITY OF MUD CAKE
RMF .OHMM     0.25                 : RMF          - RESISTIVITY OF MUD FILTRATE
SUFT.C        15                   : SUFT         - SURFACE TEMPERATURE
~A  DEPTH     RESD     PHID     PHIN       GR
# ...
  444.000    6.934    0.236    0.343   93.273
  444.250    6.560    0.217    0.346   95.816
  444.500    6.561    0.202    0.343   97.814
  444.750    6.811    0.189    0.337   99.329
  445.000    6.954    0.180    0.337   98.666
  445.250    7.059    0.193    0.341   97.338
  445.500    7.153    0.200    0.333  101.696
  445.750    7.101    0.202    0.326  106.416
  446.000    6.908    0.202    0.321  111.923
  446.250    6.909    0.194    0.326  117.067
  446.500    7.226    0.186    0.348  110.961
  446.750    7.487    0.182    0.366  105.641
  447.000    7.787    0.180    0.372  102.014
  447.250    8.009    0.182    0.353   97.783
  447.500    8.115    0.194    0.336   94.943
  447.750    8.117    0.203    0.325   92.647
  448.000    8.014    0.193    0.315   91.137
  448.250    7.809    0.188    0.320   92.652
  448.500    7.725    0.182    0.335   93.925
  448.750    7.199    0.176    0.345   94.532
  449.000    5.991    0.177    0.355   88.728
  449.250    5.290    0.189    0.361   86.856
  449.500    4.733    0.199    0.363   94.419
  449.750    4.363    0.196    0.365  100.470
  450.000    4.189    0.177    0.365  106.763
  450.250    4.182    0.162    0.390  117.653
  450.500    4.406    0.165    0.456  121.889
  450.750    4.918    0.163    0.475  121.106
  451.000    5.772    0.158    0.443  120.020
  451.250    6.047    0.154    0.424  119.478
  451.500    6.015    0.127    0.403  119.480
  451.750    5.938    0.123    0.380  119.785
  452.000    5.928    0.123    0.359  120.817
  452.250    5.952    0.117    0.349  121.727
  452.500    5.953    0.133    0.351  122.939
  452.750    5.856    0.139    0.358  124.635
  453.000    5.707    0.123    0.363  125.969
  453.250    5.551    0.143    0.368  127.060
  453.500    5.440    0.148    0.372  127.848
  453.750    5.301    0.135    0.377  124.464
  454.000    5.128    0.132    0.381  117.632
  454.250    4.960    0.147    0.380  112.251
  454.500    4.843    0.146    0.362  107.838
  454.750    4.772    0.145    0.349  102.881
  455.000    4.773    0.145    0.343  100.283
  455.250    4.855    0.163    0.339   99.379
  455.500    4.883    0.179    0.346  103.978
  455.750    4.903    0.168    0.349  104.223
  456.000    4.876    0.178    0.346  107.189
  456.250    4.850    0.156    0.347  109.248
  456.500    4.851    0.144    0.350  111.126
  456.750    4.888    0.146    0.358  113.185
  457.000    4.926    0.167    0.367  115.425
  457.250    5.001    0.174    0.374  117.605
  457.500    5.182    0.162    0.371  118.273
  457.750    5.309    0.153    0.364  117.187
  458.000    5.615    0.153    0.360  115.678
  458.250    5.894    0.173    0.366  114.954
  458.500    6.702    0.159    0.364  102.800
  458.750    8.551    0.198    0.350   89.556
  459.000    9.544    0.229    0.329   75.285
  459.250    9.564    0.273    0.302   64.884
  459.500    9.251    0.327    0.275   52.185
  459.750    8.543    0.346    0.193   42.026
  460.000    7.228    0.403    0.188   38.279
  460.250    4.706    0.348    0.262   38.826
  460.500    2.592    0.329    0.321   37.800
  460.750    1.992    0.312    0.352   36.835
  461.000    1.788    0.301    0.353   41.192
  461.250    1.727    0.300    0.346   50.510
  461.500    1.860    0.288    0.336   60.674
  461.750    2.171    0.248    0.329   70.354
  462.000    2.423    0.229    0.328   81.788
  462.250    2.611    0.214    0.341   85.117
  462.500    2.746    0.215    0.341   82.821
  462.750    2.835    0.223    0.335   79.739
  463.000    2.878    0.230    0.331   77.988
  463.250    2.884    0.238    0.318   80.349
  463.500    2.826    0.208    0.312   87.247
  463.750    3.033    0.190    0.331   89.367
  464.000    3.102    0.191    0.339   80.962
  464.250    3.029    0.212    0.341   74.614
  464.500    2.823    0.225    0.339   69.052
  464.750    2.685    0.235    0.339   64.700
  465.000    2.617    0.254    0.340   63.553
  465.250    2.627    0.257    0.346   62.467
  465.500    2.692    0.257    0.348   61.320
  465.750    2.831    0.241    0.339   64.770
  466.000    3.102    0.226    0.335   68.825
  466.250    3.411    0.214    0.330   72.094
  466.500    3.744    0.211    0.329   73.064
  466.750    3.989    0.243    0.353   71.676
  467.000    4.118    0.252    0.392   68.110
  467.250    4.066    0.249    0.408   63.576
  467.500    3.796    0.246    0.381   65.877
  467.750    3.359    0.258    0.362   73.803
  468.000    3.403    0.272    0.351   82.213
  468.250    3.653    0.283    0.345   87.962
  468.500    4.078    0.259    0.340   95.465
  468.750    4.500    0.223    0.348  100.004
  469.000    5.108    0.205    0.358  101.458
  469.250    5.873    0.186    0.353  101.642
  469.500    6.829    0.145    0.347   91.181
  469.750    7.693    0.090    0.266   81.748
  470.000    8.090    0.059    0.220   67.779
  470.250    8.122    0.022    0.205   75.402
  470.500    7.886    0.000    0.270   93.429
  470.750    7.174    0.021    0.320  105.529
  471.000    6.231    0.035    0.344  114.362
  471.250    5.700    0.050    0.360  118.417
  471.500    5.483    0.062    0.373  121.202
  471.750    5.424    0.075    0.372  103.059
  472.000    5.475    0.082    0.369   88.546
