~VERSION INFORMATION
 VERS.                 2.0:   CWLS LOG ASCII STANDARD -VERSION 2.0
 WRAP.                  NO:   ONE LINE PER DEPTH STEP
~WELL INFORMATION BLOCK
#MNEM.UNIT           DATA                    DESCRIPTION OF MNEMONIC
#---------    -------------------            -------------------------------
# Generated from Intellog Unique Number	CS_69_70/WELL/2878
WELL.         AEC FISHER 10-27-69-03 W4M     : Well_name    - WELL
LOC .         00/10-27-069-03W4/0            : Location     - LOCATION
UWI .         00/10-27-069-03W4/0            : Uwi          - UNIQUE WELL ID
ENTR.         ANDERSEN                       : Entered      - ENTERED BY
SRVC.         SCHLUMBERGER                   : Scn          - SERVICE COMPANY
STRT.M        365                            : top_depth    - START DEPTH
STOP.M        605                            : bot_depth    - STOP DEPTH
STEP.M        0.25                           : increment    - STEP LENGTH
 NULL. -999.2500:NULL Value
~CURVE INFORMATION BLOCK
#MNEM UNIT       ERCB CURVE CODE    CURVE DESCRIPTION
#-----------   ------------------   ----------------------------------
DEPT.M        00 001 00 00         : DEPTH        - DEPTH
ILD .OHMM     00 120 00 00         : RESD         - DEEP RESISTIVITY (DIL)
GR  .API      00 310 00 00         : GR           - GAMMA RAY
CALI.MM       00 280 01 00         : CAL          - CALIPER
NPHI.V/V      00 330 00 00         : PHIN         - NEUTRON POROSITY (SANDSTONE)
DPHI.V/V      00 890 00 00         : PHID         - DENSITY POROSITY (SANDSTONE)
~PARAMETER INFORMATION
#MNEM.UNIT           DATA             DESCRIPTION OF MNEMONIC
#---------         -----------     ------------------------------
GL  .M        707                  : gl           - GROUND LEVEL ELEVATION
EREF.M        710.3                : kb           - ELEVATION OF DEPTH REFERENCE
DATM.M        710.3                : datum        - DATUM ELEVATION
TDD .M        612                  : tdd          - TOTAL DEPTH DRILLER
RUN .         ONE                  : Run          - RUN NUMBER
ENG .         BILL                 : Engineer     - RECORDING ENGINEER
WIT .         JIM                  : Witness      - WITNESSED BY
MUD .         GEL                  : Mud_type     - MUD TYPE
MATR.         SANDSTONE            : Logunit      - NEUTRON MATRIX
TMAX.C        25                   : BHT          - MAXIMUM RECORDED TEMPERATURE
BHTD.M        612                  : BHTDEP       - MAXIMUM RECORDED TEMPERATURE
MATR.         1                    : LOGUNIT      - NEUTRON MATRIX
RMT .C        22                   : MDTP         - TEMPERATURE OF MUD
NEUT.         1                    : NEUTRON      - NEUTRON TYPE
RESI.         0                    : RESIST       - RESISTIVITY TYPE
RMC .OHMM     2.54                 : RMC          - RESISTIVITY OF MUD CAKE
RMF .OHMM     4.82                 : RMF          - RESISTIVITY OF MUD FILTRATE
SUFT.C        15                   : SUFT         - SURFACE TEMPERATURE
~A  DEPTH     RESD       GR      CAL     PHIN     PHID
# ...
  547.500    7.127  104.518  164.360    0.378    0.189
  547.750    7.139  103.405  163.487    0.370    0.187
  548.000    7.154  106.842  163.508    0.369    0.183
  548.250    7.569  106.311  163.573    0.380    0.189
  548.500    7.726  104.628  163.595    0.399    0.197
  548.750    7.882  102.376  162.700    0.411    0.197
  549.000    7.892  100.117  162.732    0.411    0.142
  549.250    7.905   97.871  161.826    0.381    0.161
  549.500    7.918   96.188  161.901    0.355    0.190
  549.750    7.934   94.505  161.923    0.363    0.204
  550.000    7.947   96.803  161.966    0.364    0.199
  550.250    7.960  103.101  162.020    0.357    0.196
  550.500    7.973  104.266  163.013    0.353    0.192
  550.750    7.986  103.723  163.056    0.366    0.175
  551.000    7.999  106.033  164.049    0.389    0.171
  551.250    7.870  105.483  164.092    0.404    0.175
  551.500    7.879  100.959  164.135    0.410    0.190
  551.750    8.042   99.839  164.178    0.404    0.199
  552.000    8.059  101.587  164.232    0.410    0.199
  552.250    8.219  102.182  164.265    0.396    0.194
  552.500    8.232  103.911  164.319    0.380    0.189
  552.750    8.246  105.076  164.351    0.363    0.198
  553.000    8.259  103.963  164.405    0.373    0.194
  553.250    8.125  102.849  164.459    0.363    0.195
  553.500    7.990  104.597  164.513    0.363    0.196
  553.750    8.000  102.914  164.546    0.375    0.195
  554.000    8.020  103.503  165.528    0.391    0.192
  554.250    8.033  106.947  165.571    0.404    0.187
  554.500    8.043  108.681  165.625    0.413    0.180
  554.750    8.059  104.720  165.690    0.424    0.183
  555.000    8.069  100.189  165.722    0.425    0.188
  555.250    8.089   99.646  165.776    0.371    0.189
  555.500    8.096  104.235  165.798    0.361    0.176
  555.750    8.109  109.387  166.812    0.358    0.171
  556.000    7.974  112.831  166.834    0.378    0.166
  556.250    7.842  109.439  166.909    0.401    0.158
  556.500    7.439  110.604  166.942    0.409    0.163
  556.750    7.315  111.206  167.934    0.406    0.174
  557.000    7.191  110.093  167.977    0.419    0.187
  557.250    7.071  108.980  168.032    0.420    0.196
  557.500    7.086  107.297  168.053    0.432    0.189
  557.750    7.229  105.620  169.046    0.439    0.180
  558.000    7.375  105.646  169.111    0.422    0.178
  558.250    7.665  105.672  169.154    0.409    0.180
  558.500    7.820  105.129  168.248    0.413    0.186
  558.750    7.978  102.313  167.342    0.410    0.192
  559.000    7.991  101.200  167.385    0.350    0.201
  559.250    8.011  102.935  166.479    0.338    0.195
  559.500    8.018  104.663  166.511    0.332    0.182
  559.750    7.888  103.556  166.576    0.348    0.177
  560.000    7.901  103.576  165.670    0.359    0.188
  560.250    7.914   97.906  165.713    0.369    0.198
  560.500    7.927   94.514  164.807    0.351    0.178
  560.750    7.940   91.692  164.839    0.360    0.192
  561.000    8.104   94.572  164.904    0.376    0.208
  561.250    8.114   98.022  163.977    0.356    0.215
  561.500    8.127   97.479  164.031    0.338    0.201
  561.750    7.992   93.511  164.074    0.344    0.206
  562.000    7.859   87.841  163.168    0.346    0.212
  562.250    7.587   83.880  163.222    0.340    0.210
  562.500    7.325  101.000  163.265    0.353    0.201
  562.750    6.943  105.589  163.308    0.396    0.192
  563.000    6.955  101.621  164.301    0.407    0.199
  563.250    6.842   94.812  164.344    0.407    0.205
  563.500    6.980   85.155  165.337    0.381    0.216
  563.750    7.389   80.055  166.329    0.348    0.235
  564.000    8.118   91.472  166.372    0.338    0.253
  564.250    8.749   98.340  167.365    0.351    0.235
  564.500    9.092  104.062  167.408    0.373    0.161
  564.750    8.460  100.101  167.473    0.419    0.173
  565.000    7.049   86.456  167.505    0.384    0.188
  565.250    5.874   60.275  167.549    0.415    0.207
  565.500    5.268   47.769  167.592    0.449    0.287
  565.750    4.725   35.834  166.697    0.352    0.333
  566.000    4.479   28.455  166.751    0.352    0.371
  566.250    4.326   26.203  166.794    0.356    0.350
  566.500    4.254   31.937  166.837    0.359    0.335
  566.750    4.264   30.824  166.891    0.368    0.328
  567.000    4.270   29.141  166.913    0.360    0.337
  567.250    4.356   28.022  166.967    0.345    0.338
  567.500    4.444   26.908  167.970    0.345    0.360
  567.750    4.534   36.048  167.992    0.388    0.387
  568.000    4.712   42.922  168.035    0.389    0.411
  568.250    4.718   44.650  169.060    0.375    0.396
  568.500    4.726   50.372  169.082    0.361    0.314
  568.750    4.735   53.815  169.125    0.352    0.301
  569.000    4.743   53.285  169.179    0.350    0.297
  569.250    4.751   52.165  168.262    0.357    0.295
  569.500    4.847   49.919  167.378    0.368    0.295
  569.750    4.855   45.382  167.399    0.379    0.306
  570.000    4.863   43.129  166.515    0.372    0.319
  570.250    4.782   43.155  166.558    0.363    0.328
  570.500    4.703   47.168  166.601    0.353    0.316
  570.750    4.624   53.466  166.655    0.353    0.288
  571.000    4.385   60.897  166.677    0.363    0.264
  571.250    4.233   58.645  166.731    0.390    0.276
  571.500    4.089   52.405  166.785    0.395    0.304
  571.750    4.021   45.026  166.828    0.390    0.321
  572.000    4.179   46.198  165.922    0.377    0.335
  572.250    4.421   48.496  165.976    0.370    0.335
  572.500    4.948   53.654  166.008    0.369    0.346
  572.750    5.637   59.376  166.062    0.357    0.291
  573.000    6.423   79.338  166.095    0.338    0.266
  573.250    7.185   91.908  166.127    0.322    0.208
  573.500    8.190   89.079  166.181    0.311    0.137
  573.750    8.359   83.409  165.286    0.316    0.165
  574.000    7.775   62.930  165.329    0.333    0.233
  574.250    6.974   48.147  165.373    0.361    0.279
  574.500    5.496   44.185  165.405    0.386    0.312
  574.750    4.667   40.794  165.448    0.399    0.332
  575.000    4.341   42.535  164.542    0.393    0.339
  575.250    4.116   43.130  164.607    0.380    0.338
  575.500    3.974   43.156  164.650    0.359    0.342
  575.750    3.837   42.606  165.632    0.363    0.340
  576.000    3.773   40.923  165.675    0.384    0.343
  576.250    3.712   39.810  165.740    0.391    0.346
  576.500    3.650   40.988  165.762    0.399    0.351
  576.750    3.654   40.438  165.816    0.403    0.350
  577.000    3.594   39.894  165.881    0.398    0.350
  577.250    3.599   38.781  165.924    0.390    0.352
  577.500    3.672   38.237  165.945    0.388    0.358
  577.750    3.750   38.840  166.010    0.377    0.365
  578.000    3.826   41.720  166.992    0.373    0.372
  578.250    3.902   43.448  167.046    0.372    0.382
  578.500    3.982   42.335  167.078    0.372    0.381
  578.750    4.140   42.361  167.132    0.367    0.374
  579.000    4.221   48.083  167.186    0.359    0.361
  579.250    4.388   58.937  167.208    0.355    0.349
  579.500    4.475   62.957  167.251    0.355    0.312
  579.750    4.654   66.394  166.345    0.351    0.292
  580.000    4.837   68.698  166.388    0.356    0.287
  580.250    4.932   67.592  166.464    0.367    0.249
  580.500    5.126   64.194  166.497    0.384    0.256
  580.750    5.230   65.372  166.551    0.362    0.270
  581.000    5.238   65.397  166.572    0.341    0.271
  581.250    5.344   61.999  165.666    0.337    0.256
  581.500    5.164   59.177  165.709    0.355    0.264
  581.750    4.985   63.191  165.763    0.349    0.283
  582.000    4.725   68.343  165.807    0.346    0.295
  582.250    4.562   66.097  166.821    0.363    0.277
  582.500    4.404   59.857  166.842    0.380    0.306
  582.750    4.252   51.909  166.886    0.387    0.325
  583.000    4.180   45.106  166.929    0.376    0.337
  583.250    4.112   47.404  166.972    0.362    0.322
  583.500    4.119   46.867  167.026    0.358    0.321
  583.750    4.050   44.045  167.069    0.357    0.330
