~VERSION INFORMATION
 VERS.                 2.0:   CWLS LOG ASCII STANDARD -VERSION 2.0
 WRAP.                  NO:   ONE LINE PER DEPTH STEP
~WELL INFORMATION BLOCK
#MNEM.UNIT           DATA                    DESCRIPTION OF MNEMONIC
#---------    -------------------            -------------------------------
# Generated from Intellog Unique Number	CS_77_79/WELL/3301
WELL.         TRITON CANADA RESOURCES LTD.   : Well_name    - WELL
LOC .         00/10-29-079-10W4/0            : Location     - LOCATION
UWI .         00/10-29-079-10W4/0            : Uwi          - UNIQUE WELL ID
ENTR.         JOETTE                         : Entered      - ENTERED BY
SRVC.         SCHLUMBERGER                   : Scn          - SERVICE COMPANY
DATE.         08/24/92                       : Date         - LOG DATE
STRT.M        250                            : top_depth    - START DEPTH
STOP.M        465                            : bot_depth    - STOP DEPTH
STEP.M        0.25                           : increment    - STEP LENGTH
 NULL. -999.2500:NULL Value
~CURVE INFORMATION BLOCK
#MNEM UNIT       ERCB CURVE CODE    CURVE DESCRIPTION
#-----------   ------------------   ----------------------------------
DEPT.M        00 001 00 00         : DEPTH        - DEPTH
GR  .API      00 310 00 00         : GR           - GAMMA RAY
NPHI.V/V      00 330 00 00         : PHIN         - NEUTRON POROSITY (SANDSTONE)
DPHI.V/V      00 890 00 00         : PHID         - DENSITY POROSITY (SANDSTONE)
ILD .OHMM     00 120 00 00         : RESD         - DEEP RESISTIVITY (DIL)
~PARAMETER INFORMATION
#MNEM.UNIT           DATA             DESCRIPTION OF MNEMONIC
#---------         -----------     ------------------------------
GL  .M        664.8                : gl           - GROUND LEVEL ELEVATION
EREF.M        666.5                : kb           - ELEVATION OF DEPTH REFERENCE
DATM.M        666.5                : datum        - DATUM ELEVATION
TDD .M        473                  : tdd          - TOTAL DEPTH DRILLER
RUN .         ONE                  : Run          - RUN NUMBER
ENG .         BILL                 : Engineer     - RECORDING ENGINEER
WIT .         JIM                  : Witness      - WITNESSED BY
MUD .         GEL                  : Mud_type     - MUD TYPE
MATR.         SANDSTONE            : Logunit      - NEUTRON MATRIX
TMAX.C        25                   : BHT          - MAXIMUM RECORDED TEMPERATURE
BHTD.M        473                  : BHTDEP       - MAXIMUM RECORDED TEMPERATURE
MATR.         1                    : LOGUNIT      - NEUTRON MATRIX
RMT .C        4.44                 : MDTP         - TEMPERATURE OF MUD
NEUT.         1                    : NEUTRON      - NEUTRON TYPE
RESI.         0                    : RESIST       - RESISTIVITY TYPE
RMC .OHMM     5.98                 : RMC          - RESISTIVITY OF MUD CAKE
RMF .OHMM     6.46                 : RMF          - RESISTIVITY OF MUD FILTRATE
SUFT.C        15                   : SUFT         - SURFACE TEMPERATURE
~A  DEPTH       GR     PHIN     PHID     RESD
# ...
  337.000   68.241    0.468    0.352   10.615
  337.250   71.253    0.485    0.344    9.517
  337.500   71.295    0.496    0.333    8.528
  337.750   68.424    0.487    0.322    7.236
  338.000   70.833    0.476    0.327    6.608
  338.250   73.242    0.471    0.341    6.142
  338.500   76.827    0.472    0.334    4.840
  338.750   81.015    0.463    0.324    3.416
  339.000   85.175    0.586    0.296    3.235
  339.250   91.715    0.578    0.290    3.065
  339.500   97.654    0.569    0.281    3.012
  339.750   99.475    0.570    0.271    2.961
  340.000  105.427    0.565    0.271    2.962
  340.250  112.542    0.563    0.269    2.966
  340.500  107.304    0.576    0.264    3.081
  340.750  103.831    0.580    0.260    3.140
  341.000  106.828    0.547    0.268    3.322
  341.250  105.708    0.538    0.273    3.514
  341.500  103.999    0.521    0.271    3.649
  341.750  104.055    0.509    0.262    3.860
  342.000  107.641    0.496    0.255    4.009
  342.250  108.285    0.484    0.248    4.163
  342.500  107.179    0.488    0.241    4.323
  342.750  103.720    0.495    0.242    4.490
  343.000   99.644    0.489    0.258    4.751
  343.250   97.921    0.484    0.267    4.933
  343.500  102.711    0.474    0.268    5.218
  343.750   98.636    0.533    0.267    5.728
  344.000   93.384    0.556    0.268    6.401
  344.250   88.734    0.538    0.283    7.159
  344.500   82.908    0.510    0.301    7.431
  344.750   78.272    0.495    0.291    7.576
  345.000   81.255    0.471    0.270    7.309
  345.250   86.634    0.457    0.269    6.673
  345.500   83.749    0.449    0.280    6.093
  345.750   84.967    0.503    0.286    5.463
  346.000   92.082    0.529    0.271    5.269
  346.250  103.329    0.494    0.259    5.178
  346.500  104.561    0.473    0.248    5.579
  346.750   99.912    0.466    0.240    6.012
  347.000   97.027    0.471    0.234    6.600
  347.250   94.730    0.475    0.240    6.605
  347.500   92.433    0.473    0.250    6.491
  347.750   90.752    0.474    0.252    6.148
  348.000   90.192    0.473    0.252    5.719
  348.250   88.498    0.472    0.254    5.519
  348.500   86.789    0.463    0.259    5.323
  348.750   91.537    0.470    0.256    5.233
  349.000   96.313    0.503    0.250    5.140
  349.250   94.605    0.498    0.245    5.145
  349.500   93.470    0.485    0.255    5.343
  349.750   91.173    0.476    0.256    5.758
  350.000   88.891    0.465    0.256    6.205
  350.250   86.005    0.457    0.258    6.444
  350.500   84.283    0.446    0.252    6.569
  350.750   89.059    0.435    0.249    6.577
  351.000   93.233    0.432    0.254    6.463
  351.250   98.009    0.440    0.258    6.234
  351.500   95.712    0.459    0.253    5.905
  351.750   92.225    0.485    0.254    5.493
  352.000   88.177    0.500    0.256    5.397
  352.250   87.631    0.500    0.255    5.207
  352.500   92.407    0.488    0.254    4.934
  352.750   94.228    0.478    0.260    4.848
  353.000   92.519    0.472    0.270    4.676
  353.250   96.707    0.535    0.280    4.513
  353.500   98.528    0.543    0.281    4.354
  353.750   97.407    0.540    0.279    4.203
  354.000   95.699    0.529    0.272    4.128
  354.250   95.755    0.524    0.269    4.132
  354.500   99.915    0.542    0.268    4.061
  354.750  109.396    0.538    0.262    4.065
  355.000  109.453    0.526    0.257    4.069
  355.250  104.215    0.521    0.252    4.305
  355.500  101.918    0.523    0.251    4.638
  355.750  100.797    0.517    0.256    4.997
  356.000   99.677    0.506    0.269    5.484
  356.250   96.218    0.490    0.280    6.018
  356.500   92.745    0.463    0.302    6.727
  356.750   89.846    0.447    0.308    7.660
  357.000   82.857    0.489    0.298    8.562
  357.250   85.252    0.480    0.273    8.729
  357.500   84.132    0.502    0.266    8.579
  357.750   82.437    0.500    0.259    8.128
  358.000   83.067    0.526    0.256    7.840
  358.250   87.241    0.495    0.258    7.566
  358.500   84.356    0.472    0.262    7.301
  358.750   82.059    0.459    0.263    7.044
  359.000   82.718    0.466    0.259    6.921
  359.250   86.303    0.460    0.257    6.679
  359.500   85.771    0.492    0.259    6.565
  359.750   83.474    0.506    0.273    6.570
  360.000   84.707    0.499    0.273    6.455
  360.250   90.057    0.499    0.268    6.347
  360.500   94.819    0.472    0.260    6.351
  360.750   97.830    0.469    0.255    6.359
  361.000  100.239    0.472    0.251    6.246
  361.250   95.604    0.462    0.250    6.252
  361.500   92.705    0.443    0.253    6.260
  361.750   88.657    0.439    0.262    6.153
  362.000   88.713    0.477    0.266    6.047
  362.250   91.122    0.481    0.266    5.944
  362.500   92.943    0.474    0.260    5.732
  362.750   92.411    0.465    0.258    5.332
  363.000   91.277    0.469    0.262    4.869
  363.250   91.333    0.469    0.270    4.610
  363.500   94.932    0.460    0.280    3.911
  363.750   98.518    0.538    0.298    3.317
  364.000  101.515    0.573    0.298    2.973
  364.250  102.748    0.566    0.292    3.031
  364.500  102.818    0.567    0.286    3.148
  364.750  101.109    0.577    0.286    3.455
  365.000   98.224    0.543    0.285    3.724
  365.250   94.737    0.504    0.277    3.865
  365.500   91.264    0.486    0.269    4.485
  365.750   89.569    0.476    0.267    4.921
  366.000   89.037    0.480    0.274    5.605
  366.250   89.093    0.473    0.278    5.818
  366.500   89.135    0.462    0.284    6.270
  366.750   89.191    0.489    0.278    6.510
  367.000   88.071    0.477    0.278    6.886
  367.250   84.023    0.440    0.314    7.285
  367.500   83.505    0.427    0.330    7.708
  367.750   86.503    0.393    0.346    8.156
  368.000   88.926    0.424    0.352    8.160
  368.250   88.954    0.443    0.295    8.170
  368.500   87.847    0.441    0.283    8.028
  368.750   86.713    0.432    0.271    8.186
  369.000   86.181    0.425    0.255    8.344
  369.250   89.781    0.399    0.261    8.511
  369.500   95.145    0.398    0.268    8.515
  369.750   96.377    0.395    0.261    8.523
  370.000   93.492    0.390    0.253    8.378
  370.250   92.960    0.405    0.253    8.085
  370.500   93.605    0.404    0.258    7.382
  370.750   97.764    0.405    0.259    6.738
  371.000  103.114    0.424    0.254    6.153
  371.250  103.199    0.456    0.259    6.158
  371.500   99.725    0.469    0.266    6.515
  371.750   97.989    0.478    0.261    6.890
  372.000   93.927    0.483    0.264    7.563
  372.250   92.807    0.458    0.272    8.000
  372.500   92.289    0.442    0.268    8.157
  372.750   90.580    0.444    0.263    8.314
  373.000   87.093    0.437    0.274    8.479
  373.250   85.398    0.419    0.281    8.187
  373.500   86.631    0.412    0.286    8.191
  373.750   81.393    0.436    0.286    7.900
  374.000   75.553    0.452    0.288    7.624
  374.250   75.035    0.453    0.293    7.491
  374.500   76.870    0.455    0.319    7.227
  374.750   79.278    0.462    0.322    7.102
  375.000   80.497    0.453    0.318    6.980
  375.250   82.906    0.448    0.307    6.859
  375.500   85.315    0.450    0.296    6.742
  375.750   87.136    0.441    0.283    6.747
  376.000   87.808    0.456    0.276    6.632
  376.250   89.615    0.462    0.286    6.639
  376.500   89.685    0.448    0.272    6.770
  376.750   86.800    0.435    0.276    6.901
  377.000   84.489    0.438    0.283    7.168
  377.250   81.604    0.433    0.296    7.309
  377.500   81.660    0.439    0.313    7.592
  377.750   83.495    0.467    0.331    7.596
  378.000   84.140    0.468    0.337    8.186
  378.250   78.299    0.462    0.330    8.656
  378.500   71.885    0.472    0.313   10.041
  378.750   71.353    0.478    0.302   11.020
  379.000   70.821    0.461    0.244   13.017
  379.250   64.406    0.232    0.078   15.376
  379.500   61.535    0.215    0.046   15.968
  379.750   65.695    0.359    0.076   15.406
  380.000   70.471    0.408    0.126   13.558
  380.250   70.541    0.433    0.261   12.152
