~VERSION INFORMATION
 VERS.                 2.0:   CWLS LOG ASCII STANDARD -VERSION 2.0
 WRAP.                  NO:   ONE LINE PER DEPTH STEP
~WELL INFORMATION BLOCK
#MNEM.UNIT           DATA                    DESCRIPTION OF MNEMONIC
#---------    -------------------            -------------------------------
# Generated from Intellog Unique Number	CS_73_76/WELL/3279
WELL.         BAAY LAND CONSULTANTS LTD.     : Well_name    - WELL
LOC .         00/16-04-075-05W4/0            : Location     - LOCATION
UWI .         00/16-04-075-05W4/0            : Uwi          - UNIQUE WELL ID
ENTR.         SP                             : Entered      - ENTERED BY
SRVC.         SCHLUMBERGER                   : Scn          - SERVICE COMPANY
STRT.M        243.84                         : top_depth    - START DEPTH
STOP.M        460.09                         : bot_depth    - STOP DEPTH
STEP.M        0.25                           : increment    - STEP LENGTH
 NULL. -999.2500:NULL Value
~CURVE INFORMATION BLOCK
#MNEM UNIT       ERCB CURVE CODE    CURVE DESCRIPTION
#-----------   ------------------   ----------------------------------
DEPT.M        00 001 00 00         : DEPTH        - DEPTH
GR  .API      00 310 00 00         : GR           - GAMMA RAY
DPHI.V/V      00 890 00 00         : PHID         - DENSITY POROSITY (SANDSTONE)
NPHI.V/V      00 330 00 00         : PHIN         - NEUTRON POROSITY (SANDSTONE)
ILD .OHMM     00 120 00 00         : RESD         - DEEP RESISTIVITY (DIL)
~PARAMETER INFORMATION
#MNEM.UNIT           DATA             DESCRIPTION OF MNEMONIC
#---------         -----------     ------------------------------
GL  .M        649.834              : gl           - GROUND LEVEL ELEVATION
EREF.M        652.272              : kb           - ELEVATION OF DEPTH REFERENCE
DATM.M        649.834              : datum        - DATUM ELEVATION
TDD .M        559.308              : tdd          - TOTAL DEPTH DRILLER
RUN .         ONE                  : Run          - RUN NUMBER
ENG .         BILL                 : Engineer     - RECORDING ENGINEER
WIT .         JIM                  : Witness      - WITNESSED BY
MUD .         GEL                  : Mud_type     - MUD TYPE
MATR.         SANDSTONE            : Logunit      - NEUTRON MATRIX
TMAX.C        26.6667              : BHT          - MAXIMUM RECORDED TEMPERATURE
BHTD.M        559.308              : BHTDEP       - MAXIMUM RECORDED TEMPERATURE
MATR.         1                    : LOGUNIT      - NEUTRON MATRIX
RMT .C        25                   : MDTP         - TEMPERATURE OF MUD
NEUT.         1                    : NEUTRON      - NEUTRON TYPE
RESI.         0                    : RESIST       - RESISTIVITY TYPE
RMC .OHMM     0.25                 : RMC          - RESISTIVITY OF MUD CAKE
RMF .OHMM     0.25                 : RMF          - RESISTIVITY OF MUD FILTRATE
SUFT.C        15                   : SUFT         - SURFACE TEMPERATURE
~A  DEPTH       GR     PHID     PHIN     RESD
# ...
  374.340   64.933    0.335    0.412    3.193
  374.590   61.751    0.333    0.425    2.862
  374.840   63.215    0.320    0.445    2.590
  375.090   65.144    0.304    0.464    2.304
  375.340   63.993    0.294    0.468    2.168
  375.590   65.003    0.296    0.482    2.076
  375.840   65.266    0.293    0.487    1.990
  376.090   65.279    0.304    0.485    1.867
  376.340   65.285    0.315    0.487    1.808
  376.590   65.290    0.320    0.493    1.753
  376.840   64.852    0.325    0.497    1.859
  377.090   64.545    0.292    0.507    2.084
  377.340   63.585    0.121    0.399    2.261
  377.590   60.453    0.191    0.283    2.432
  377.840   56.210    0.298    0.331    2.359
  378.090   58.200    0.334    0.406    2.087
  378.340   63.430    0.348    0.478    1.782
  378.590   65.516    0.327    0.499    1.677
  378.840   67.018    0.311    0.504    1.601
  379.090   68.174    0.323    0.503    1.595
  379.340   70.156    0.322    0.498    1.560
  379.590   71.172    0.322    0.495    1.561
  379.840   70.008    0.321    0.507    1.558
  380.090   68.915    0.343    0.520    1.588
  380.340   69.635    0.344    0.503    1.605
  380.590   70.732    0.336    0.490    1.662
  380.840   70.722    0.327    0.481    1.766
  381.090   71.284    0.327    0.494    1.943
  381.340   73.249    0.340    0.501    2.302
  381.590   71.579    0.300    0.509    2.770
  381.840   68.886    0.218    0.509    3.048
  382.090   63.064    0.049    0.493    3.263
  382.340   55.078    0.037    0.260    3.337
  382.590   50.315    0.106    0.203    2.900
  382.840   48.132    0.200    0.262    2.497
  383.090   50.574    0.286    0.316    2.129
  383.340   59.160    0.368    0.365    1.890
  383.590   63.551    0.350    0.532    1.863
  383.840   66.865    0.342    0.538    2.002
  384.090   70.145    0.319    0.532    2.146
  384.340   73.502    0.300    0.515    2.353
  384.590   78.114    0.269    0.492    2.550
  384.840   81.263    0.237    0.485    2.766
  385.090   84.869    0.240    0.515    2.884
  385.340   85.034    0.229    0.517    3.036
  385.590   85.067    0.234    0.500    3.123
  385.840   85.483    0.228    0.483    3.216
  386.090   86.430    0.215    0.471    3.293
  386.340   88.073    0.207    0.477    3.353
  386.590   88.439    0.208    0.485    3.343
  386.840   88.544    0.215    0.490    3.420
  387.090   86.996    0.213    0.495    3.409
  387.340   84.638    0.212    0.506    3.472
  387.590   84.616    0.217    0.521    3.540
  387.840   85.541    0.215    0.528    3.592
  388.090   88.088    0.219    0.522    3.591
  388.340   90.624    0.243    0.504    3.669
  388.590   89.360    0.232    0.491    3.663
  388.840   91.718    0.230    0.475    3.662
  389.090   93.563    0.210    0.476    3.660
  389.340   95.331    0.214    0.481    3.709
  389.590   94.959    0.221    0.483    3.725
  389.840   92.926    0.233    0.478    3.724
  390.090   90.647    0.246    0.478    3.798
  390.340   89.753    0.257    0.471    3.792
  390.590   89.233    0.217    0.460    3.788
  390.840   91.879    0.201    0.454    3.750
  391.090   92.996    0.219    0.451    3.718
  391.340   94.076    0.205    0.450    3.719
  391.590   93.316    0.192    0.445    3.604
  391.840   90.989    0.203    0.460    3.565
  392.090   88.583    0.208    0.471    3.339
  392.340   87.544    0.216    0.460    3.075
  392.590   87.569    0.238    0.455    2.755
  392.840   86.135    0.256    0.441    2.442
  393.090   84.695    0.276    0.483    2.175
  393.340   82.886    0.313    0.570    2.092
  393.590   80.583    0.311    0.591    2.044
  393.840   79.723    0.296    0.583    2.098
  394.090   78.710    0.291    0.566    2.124
  394.340   78.372    0.284    0.566    2.185
  394.590   78.023    0.288    0.592    2.247
  394.840   77.514    0.286    0.589    2.239
  395.090   76.817    0.282    0.577    2.285
  395.340   76.871    0.291    0.565    2.327
  395.590   76.601    0.274    0.554    2.379
  395.840   78.328    0.254    0.560    2.610
  396.090   79.874    0.252    0.570    2.951
  396.340   81.528    0.260    0.573    3.078
  396.590   81.551    0.263    0.552    3.481
  396.840   81.049    0.242    0.554    3.870
  397.090   81.446    0.218    0.527    4.123
  397.340   80.302    0.202    0.490    4.284
  397.590   79.256    0.195    0.491    4.641
  397.840   80.420    0.200    0.489    4.787
  398.090   83.185    0.197    0.480    5.037
  398.340   87.326    0.223    0.499    5.096
  398.590   87.749    0.223    0.502    5.060
  398.840   84.649    0.196    0.477    4.748
  399.090   82.745    0.208    0.464    4.284
  399.340   83.503    0.217    0.451    3.821
  399.590   84.644    0.224    0.481    3.606
  399.840   86.941    0.210    0.505    3.386
  400.090   90.040    0.200    0.514    3.367
  400.340   92.874    0.208    0.492    3.466
  400.590   94.988    0.204    0.498    3.627
  400.840   94.766    0.214    0.513    3.889
  401.090   92.222    0.202    0.511    4.071
  401.340   90.209    0.198    0.492    4.165
  401.590   88.263    0.204    0.489    4.154
  401.840   89.212    0.205    0.499    4.090
  402.090   89.344    0.228    0.501    3.894
  402.340   88.329    0.243    0.501    3.788
  402.590   89.202    0.225    0.512    3.601
  402.840   91.652    0.232    0.525    3.497
  403.090   91.392    0.230    0.516    3.389
  403.340   91.038    0.219    0.511    3.380
  403.590   91.394    0.212    0.505    3.461
  403.840   92.019    0.222    0.516    3.557
  404.090   90.085    0.237    0.532    3.934
  404.340   84.219    0.228    0.509    4.575
  404.590   79.299    0.201    0.491    5.079
  404.840   74.971    0.225    0.473    5.625
  405.090   73.516    0.253    0.482    6.103
  405.340   74.838    0.243    0.493    6.420
  405.590   74.035    0.266    0.454    6.451
  405.840   74.113    0.279    0.458    6.207
  406.090   73.124    0.292    0.469    6.208
  406.340   73.147    0.280    0.471    6.231
  406.590   74.677    0.276    0.483    6.739
  406.840   74.478    0.265    0.488    7.547
  407.090   72.687    0.233    0.477    8.060
  407.340   69.318    0.079    0.462    8.557
  407.590   63.449    0.050    0.347    8.973
  407.840   64.886    0.186    0.362    8.944
  408.090   68.696    0.214    0.412    8.925
  408.340   68.304    0.226    0.423    9.160
  408.590   69.384    0.240    0.431    9.616
  408.840   73.213    0.252    0.422   10.375
  409.090   71.770    0.262    0.414   11.507
  409.340   70.568    0.263    0.420   12.173
  409.590   72.556    0.259    0.428   12.841
  409.840   74.238    0.257    0.436   12.934
  410.090   75.324    0.261    0.423   13.134
  410.340   73.972    0.263    0.406   13.007
  410.590   71.828    0.273    0.417   12.869
  410.840   73.845    0.286    0.441   12.433
  411.090   68.992    0.302    0.442   12.263
  411.340   60.291    0.288    0.426   11.498
  411.590   60.548    0.270    0.406   10.684
  411.840   61.607    0.287    0.415    9.681
  412.090   59.956    0.305    0.419    8.895
  412.340   57.621    0.288    0.410    7.847
  412.590   56.508    0.293    0.421    7.286
  412.840   61.976    0.286    0.443    6.748
  413.090   64.900    0.275    0.455    6.338
  413.340   70.089    0.239    0.449    6.090
  413.590   76.675    0.223    0.458    5.893
  413.840   83.147    0.220    0.467    5.900
  414.090   90.070    0.212    0.483    5.904
  414.340   93.657    0.205    0.499    6.012
  414.590   93.481    0.199    0.503    6.041
  414.840   94.484    0.196    0.455    6.110
  415.090   92.432    0.196    0.432    6.173
  415.340   92.451    0.193    0.429    6.345
  415.590   93.324    0.183    0.443    6.332
  415.840   93.356    0.178    0.463    6.262
  416.090   92.481    0.191    0.478    6.215
  416.340   90.976    0.184    0.462    6.210
  416.590   90.906    0.174    0.448    6.209
  416.840   91.634    0.168    0.439    6.213
  417.090   92.624    0.157    0.443    6.421
  417.340   93.877    0.178    0.455    6.481
  417.590   94.547    0.178    0.476    6.555
