~VERSION INFORMATION
 VERS.                 2.0:   CWLS LOG ASCII STANDARD -VERSION 2.0
 WRAP.                  NO:   ONE LINE PER DEPTH STEP
~WELL INFORMATION BLOCK
#MNEM.UNIT           DATA                    DESCRIPTION OF MNEMONIC
#---------    -------------------            -------------------------------
# Generated from Intellog Unique Number	CW_70_72/WELL/1055
NULL.         -999.25                        : NULL_VALUE
WELL.         NORCEN VICTOR 11-08            : Well_name    - WELL              
LOC .         11-08-072-01W5                 : Location     - LOCATION          
UWI .         00/11-08-072-01W5/0            : Uwi          - UNIQUE WELL ID    
ENTR.         JAYE                           : Entered      - ENTERED BY        
SRVC.         WESTERN ATLAS                  : Scn          - SERVICE COMPANY   
DATE.         11 MAR 81                      : Date         - LOG DATE          
STRT.M        424                            : top_depth    - START DEPTH       
STOP.M        673                            : bot_depth    - STOP DEPTH        
STEP.M        0.25                           : increment    - STEP LENGTH       
~CURVE INFORMATION BLOCK
#MNEM UNIT       ERCB CURVE CODE    CURVE DESCRIPTION
#-----------   ------------------   ----------------------------------
DEPT.M        00 001 00 00         : DEPTH        - DEPTH                       
DPHI.V/V      00 890 00 00         : PHID         - DENSITY POROSITY (SANDSTONE)
NPHI.V/V      00 330 00 00         : PHIN         - NEUTRON POROSITY (SANDSTONE)
GR  .API      00 310 00 00         : GR           - GAMMA RAY                   
CALI.MM       00 280 01 00         : CAL          - CALIPER                     
ILD .OHMM     00 120 00 00         : RESD         - DEEP RESISTIVITY (DIL)      
~PARAMETER INFORMATION       
#MNEM.UNIT           DATA             DESCRIPTION OF MNEMONIC
#---------         -----------     ------------------------------
GL  .M        610.84               : gl           - GROUND LEVEL ELEVATION      
EREF.M        615.4                : kb           - ELEVATION OF DEPTH REFERENCE
DATM.M        610.84               : datum        - DATUM ELEVATION             
TDD .M        685                  : tdd          - TOTAL DEPTH DRILLER         
RUN .         ONE                  : Run          - RUN NUMBER                  
BASE.         R.D.                 : Branch       - HOME BASE OF LOGGING UNIT   
MUD .         GEL CHEM             : Mud_type     - MUD TYPE                    
MATR.         SANDSTONE            : Logunit      - NEUTRON MATRIX              
TMAX.C        30                   : BHT          - MAXIMUM RECORDED TEMPERATURE
BHTD.M        685.4                : BHTDEP       - MAXIMUM RECORDED TEMPERATURE
RMT .C        5                    : MDTP         - TEMPERATURE OF MUD          
MUDD.KG/M     1110                 : MWT          - MUD DENSITY                 
NEUT.         1                    : NEUTRON      - NEUTRON TYPE                
RESI.         0                    : RESIST       - RESISTIVITY TYPE            
RM  .OHMM     7                    : RM           - RESISTIVITY OF MUD          
RMC .OHMM     3.5                  : RMC          - RESISTIVITY OF MUD CAKE     
RMF .OHMM     4.5                  : RMF          - RESISTIVITY OF MUD FILTRATE 
SUFT.C        0                    : SUFT         - SURFACE TEMPERATURE         
~A  DEPTH     PHID     PHIN       GR      CAL     RESD
# ...
  643.000    0.122    0.189   58.169  220.501    4.308
  643.250    0.105    0.165   53.129  220.600    4.719
  643.500    0.080    0.146   50.921  220.699    5.335
  643.750    0.000    0.170   56.711  220.904    6.021
  644.000    0.031    0.226   67.476  221.212    6.377
  644.250    0.057    0.247   78.744  221.311    6.593
  644.500    0.087    0.266   97.821  221.620    6.774
  644.750    0.108    0.271   94.732  221.928    7.269
  645.000    0.050    0.218   83.708  222.028    7.754
  645.250    0.014    0.191   73.062  222.128    8.703
  645.500   -0.008    0.190   63.865  222.226    9.895
  645.750    0.010    0.216   67.703  222.221   10.878
  646.000    0.033    0.243   71.855  222.005   10.182
  646.250    0.023    0.268   72.544  221.999    8.194
  646.500    0.010    0.287   73.989  222.203    7.037
  646.750    0.021    0.315   90.170  222.407    5.999
  647.000    0.107    0.345  104.146  222.821    5.020
  647.250    0.134    0.360  110.565  222.711    4.451
  647.500    0.151    0.370  114.088  222.494    4.067
  647.750    0.157    0.375  120.004  222.384    3.842
  648.000    0.156    0.365  113.766  222.168    3.597
  648.250    0.146    0.337  104.254  222.057    3.535
  648.500    0.113    0.316   93.419  222.156    3.688
  648.750    0.004    0.299   98.202  222.045    3.847
  649.000    0.082    0.299   94.671  221.935    3.954
  649.250    0.120    0.310   91.835  221.403    3.996
  649.500    0.136    0.327   99.766  221.082    3.957
  649.750    0.156    0.329  105.933  220.762    3.809
  650.000    0.139    0.315   97.680  219.812    3.579
  650.250    0.123    0.290   92.198  217.706    3.326
  650.500    0.138    0.274   87.346  216.547    3.219
  650.750    0.151    0.286   92.380  215.805    3.223
  651.000    0.139    0.300   97.666  215.485    3.382
  651.250    0.133    0.294  100.496  215.165    3.718
  651.500    0.129    0.283  103.704  215.157    4.118
  651.750    0.121    0.287  110.061  214.942    4.344
  652.000    0.111    0.300  107.916  214.727    4.408
  652.250    0.097    0.291   99.726  214.405    4.323
  652.500    0.081    0.281   91.788  213.981    4.100
  652.750    0.102    0.275   86.370  213.239    3.881
  653.000    0.136    0.268   87.184  212.919    3.667
  653.250    0.134    0.282   90.770  212.492    3.478
  653.500    0.132    0.278   92.971  212.383    3.311
  653.750    0.139    0.277   85.348  212.587    3.181
  654.000    0.154    0.294   80.621  214.680    3.046
  654.250    0.163    0.305   85.907  218.242    2.982
  654.500    0.170    0.312   94.720  220.021    3.088
  654.750    0.154    0.321  101.895  221.064    3.264
  655.000    0.124    0.332  112.849  221.584    3.476
  655.250    0.118    0.343  105.855  221.787    3.716
  655.500    0.066    0.355   92.817  222.096    3.928
  655.750    0.008    0.347   87.209  222.194    4.030
  656.000    0.108    0.360  103.200  221.979    4.080
  656.250    0.158    0.380  110.753  221.657    4.131
  656.500    0.134    0.358  103.382  221.336    4.176
  656.750    0.123    0.336  104.386  221.331    4.196
  657.000    0.116    0.322  111.435  221.536    4.194
  657.250    0.104    0.336  122.137  221.740    4.145
  657.500    0.106    0.349  118.985  221.839    4.073
  657.750    0.109    0.340  109.157  221.728    4.032
  658.000    0.098    0.295  100.023  221.933    4.000
  658.250    0.084    0.302  101.153  222.137    3.982
  658.500    0.092    0.311  105.935  222.339    3.935
  658.750    0.104    0.320  113.426  222.440    3.882
  659.000    0.112    0.326  120.034  222.329    3.850
  659.250    0.113    0.325  113.418  222.217    3.841
  659.500    0.108    0.302  105.292  222.107    3.831
  659.750    0.094    0.298  107.744  221.890    3.807
  660.000    0.083    0.316  112.715  221.884    3.742
  660.250    0.094    0.334  116.679  222.089    3.732
  660.500    0.111    0.356  112.960  222.712    3.737
  660.750    0.125    0.383  108.360  223.126    3.734
  661.000    0.118    0.342  114.149  223.331    3.719
  661.250    0.073    0.326  110.808  223.640    3.681
  661.500    0.029    0.309   92.165  223.949    3.376
  661.750    0.002    0.298   98.774  224.783    2.883
  662.000    0.049    0.317  106.642  225.511    2.865
  662.250    0.091    0.344  111.109  226.451    2.891
  662.500    0.086    0.356  112.806  227.284    2.900
  662.750    0.092    0.372  113.243  226.858    2.876
  663.000    0.070    0.390  110.658  225.698    2.713
  663.250    0.082    0.383  114.999  225.167    2.502
  663.500    0.098    0.369  116.570  225.371    2.226
  663.750    0.109    0.354  114.929  225.680    1.866
  664.000    0.109    0.361  115.618  225.989    1.588
  664.250    0.081    0.367  118.952  226.194    1.756
  664.500    0.022    0.353  111.896  226.398    1.849
  664.750    0.052    0.341  105.721  226.707    1.955
  665.000    0.079    0.350  118.060  227.015    2.320
  665.250    0.094    0.362  108.800  227.115    2.638
  665.500    0.085    0.374  107.033  226.899    2.747
  665.750    0.091    0.385  117.357  226.683    2.797
  666.000    0.070    0.395  118.046  226.257    2.918
  666.250    0.034    0.338  112.690  226.041    3.067
  666.500    0.013    0.323  107.145  225.511    3.218
  666.750    0.001    0.301  102.104  224.874    3.364
  667.000    0.010    0.270   92.591  224.554    3.555
  667.250    0.034    0.250   74.389  224.129    3.801
  667.500    0.050    0.228   56.186  223.388    3.870
  667.750    0.088    0.220   56.246  222.962    3.854
  668.000    0.112    0.239   65.877  222.642    3.815
  668.250    0.128    0.246   67.385  222.320    3.785
  668.500    0.121    0.276   73.553  222.630    3.789
  668.750    0.101    0.296   81.609  223.359    3.787
  669.000    0.119    0.316   78.016  224.612    3.799
  669.250    0.177    0.341   80.091  220.826    3.818
  669.500    0.213    0.331   86.196  225.230    3.837
  669.750    0.292    0.338   91.734  231.942    3.943
  670.000    0.353    0.346   90.282  242.956    4.160
  670.250    0.154    0.325   90.278  253.025    4.472
  670.500    0.096    0.215   85.426  217.335    5.210
  670.750    0.140    0.190   63.697  216.385    6.104
  671.000    0.176    0.161   57.459  208.088    7.409
  671.250    0.077    0.145   49.333  201.785    8.567
  671.500    0.017    0.129   42.780  199.994    9.472
  671.750   -0.003    0.155   47.940  198.938   10.316
  672.000    0.041    0.176   46.488  198.197   10.762
  672.250    0.042    0.169   39.180  198.087   10.937
  672.500    0.023    0.151   36.028  198.291   10.412
  672.750    0.023    0.163   33.694  198.600    9.657
  673.000    0.028    0.175   34.320  199.433    9.262
