~VERSION INFORMATION
 VERS.                 2.0:   CWLS LOG ASCII STANDARD -VERSION 2.0
 WRAP.                  NO:   ONE LINE PER DEPTH STEP
~WELL INFORMATION BLOCK
#MNEM.UNIT           DATA                    DESCRIPTION OF MNEMONIC
#---------    -------------------            -------------------------------
# Generated from Intellog Unique Number	CW_79_81/WELL/3696
WELL.         EAGLE RESOURCES LTD.           : Well_name    - WELL
LOC .         00/15-23-079-22W4/0            : Location     - LOCATION
UWI .         00/15-23-079-22W4/0            : Uwi          - UNIQUE WELL ID
ENTR.         JOETTE                         : Entered      - ENTERED BY
SRVC.         COMPUTALOG                     : Scn          - SERVICE COMPANY
DATE.         08-26-92                       : Date         - LOG DATE
STRT.M        175                            : top_depth    - START DEPTH
STOP.M        450                            : bot_depth    - STOP DEPTH
STEP.M        0.25                           : increment    - STEP LENGTH
 NULL. -999.2500:NULL Value
~CURVE INFORMATION BLOCK
#MNEM UNIT       ERCB CURVE CODE    CURVE DESCRIPTION
#-----------   ------------------   ----------------------------------
DEPT.M        00 001 00 00         : DEPTH        - DEPTH
NPHI.V/V      00 330 00 00         : PHIN         - NEUTRON POROSITY (SANDSTONE)
GR  .API      00 310 00 00         : GR           - GAMMA RAY
DPHI.V/V      00 890 00 00         : PHID         - DENSITY POROSITY (SANDSTONE)
ILD .OHMM     00 120 00 00         : RESD         - DEEP RESISTIVITY (DIL)
~PARAMETER INFORMATION
#MNEM.UNIT           DATA             DESCRIPTION OF MNEMONIC
#---------         -----------     ------------------------------
GL  .M        575.8                : gl           - GROUND LEVEL ELEVATION
EREF.M        579.42               : kb           - ELEVATION OF DEPTH REFERENCE
DATM.M        579.42               : datum        - DATUM ELEVATION
TDD .M        449                  : tdd          - TOTAL DEPTH DRILLER
RUN .         ONE                  : Run          - RUN NUMBER
ENG .         BILL                 : Engineer     - RECORDING ENGINEER
WIT .         JIM                  : Witness      - WITNESSED BY
MUD .         GEL                  : Mud_type     - MUD TYPE
MATR.         SANDSTONE            : Logunit      - NEUTRON MATRIX
TMAX.C        22                   : BHT          - MAXIMUM RECORDED TEMPERATURE
BHTD.M        449                  : BHTDEP       - MAXIMUM RECORDED TEMPERATURE
MATR.         1                    : LOGUNIT      - NEUTRON MATRIX
RMT .C        20                   : MDTP         - TEMPERATURE OF MUD
NEUT.         1                    : NEUTRON      - NEUTRON TYPE
RESI.         0                    : RESIST       - RESISTIVITY TYPE
RMC .OHMM     3.1                  : RMC          - RESISTIVITY OF MUD CAKE
RMF .OHMM     4.5                  : RMF          - RESISTIVITY OF MUD FILTRATE
SUFT.C        15                   : SUFT         - SURFACE TEMPERATURE
~A  DEPTH     PHIN       GR     PHID     RESD
# ...
  218.500    0.492  104.945    0.264    3.320
  218.750    0.489  107.391    0.275    3.261
  219.000    0.490  106.817    0.281    3.265
  219.250    0.499  102.014    0.277    3.393
  219.500    0.483  100.221    0.267    3.728
  219.750    0.457   98.445    0.258    4.096
  220.000    0.425   94.231    0.214    4.671
  220.250    0.420   83.970    0.124    5.132
  220.500    0.425   80.975    0.170    5.852
  220.750    0.433   87.061    0.182    6.079
  221.000    0.444   99.808    0.210    6.200
  221.250    0.464  110.148    0.204    6.092
  221.500    0.465  107.751    0.205    5.769
  221.750    0.461  105.966    0.210    5.361
  222.000    0.451  104.787    0.223    4.980
  222.250    0.457  102.397    0.241    4.378
  222.500    0.471  100.008    0.247    4.068
  222.750    0.495   96.407    0.253    3.780
  223.000    0.506   96.439    0.259    3.449
  223.250    0.530   97.690    0.262    3.327
  223.500    0.550   96.511    0.271    3.267
  223.750    0.567   92.305    0.283    3.332
  224.000    0.554   88.704    0.292    3.800
  224.250    0.522   86.314    0.294    4.497
  224.500    0.448   84.522    0.289    6.292
  224.750    0.431   81.526    0.296   10.220
  225.000    0.416   77.320    0.305   11.876
  225.250    0.411   79.774    0.299   13.797
  225.500    0.411   83.439    0.291   14.604
  225.750    0.416   87.111    0.286   15.170
  226.000    0.430   82.897    0.277   15.190
  226.250    0.445   78.085    0.280   15.783
  226.500    0.444   73.274    0.289   18.335
  226.750    0.448   67.251    0.284   23.816
  227.000    0.454   61.834    0.282   27.171
  227.250    0.456   56.417    0.292   29.286
  227.500    0.454   51.008    0.316   42.533
  227.750    0.446   48.005    0.333   45.022
  228.000    0.437   44.404    0.341   50.392
  228.250    0.426   43.839    0.344   57.477
  228.500    0.427   45.695    0.340   57.538
  228.750    0.430   46.930    0.332   52.469
  229.000    0.425   48.770    0.317   34.891
  229.250    0.417   52.435    0.302   31.231
  229.500    0.413   56.099    0.308   25.478
  229.750    0.418   59.175    0.317   22.396
  230.000    0.424   59.804    0.323   23.270
  230.250    0.429   55.590    0.324   27.541
  230.500    0.427   48.962    0.334   31.405
  230.750    0.422   42.342    0.343   32.621
  231.000    0.422   40.558    0.352   32.664
  231.250    0.439   41.187    0.353   30.346
  231.500    0.439   44.262    0.343   17.711
  231.750    0.440   46.095    0.316   11.560
  232.000    0.452   49.759    0.305   10.542
  232.250    0.463   61.303    0.296    8.924
  232.500    0.459   81.920    0.286    7.556
  232.750    0.432   89.831    0.264    6.640
  233.000    0.424   89.863    0.246    6.774
  233.250    0.429   87.465    0.277    7.724
  233.500    0.433   82.048    0.289   10.609
  233.750    0.428   77.236    0.296   10.820
  234.000    0.427   77.276    0.295   11.251
  234.250    0.436   77.906    0.279   11.052
  234.500    0.448   80.368    0.265   10.657
  234.750    0.457   79.197    0.256   10.469
  235.000    0.457   79.229    0.272   10.877
  235.250    0.459   79.850    0.297   12.636
  235.500    0.467   78.066    0.307   15.236
  235.750    0.445   66.594    0.304   17.058
  236.000    0.402   59.361    0.200   17.724
  236.250    0.355   55.760    0.171   15.864
  236.500    0.336   53.983    0.229   13.685
  236.750    0.365   54.613    0.277   12.027
  237.000    0.390   58.883    0.288   11.386
  237.250    0.423   64.978    0.300   11.191
  237.500    0.441   66.220    0.297   11.849
  237.750    0.449   70.490    0.294   12.308
  238.000    0.449   68.101    0.290   12.552
  238.250    0.444   64.516    0.279   13.042
  238.500    0.445   63.321    0.272   13.550
  238.750    0.436   61.545    0.282   13.568
  239.000    0.422   58.549    0.301   13.579
  239.250    0.423   55.546    0.314   12.859
  239.500    0.421   53.156    0.329   12.171
  239.750    0.418   56.821    0.326   11.307
  240.000    0.439   64.724    0.316    9.756
  240.250    0.439   69.607    0.312    8.896
  240.500    0.438   75.080    0.299    8.115
  240.750    0.436   82.386    0.261    7.543
  241.000    0.434   88.472    0.245    7.410
  241.250    0.428   93.969    0.245    7.845
  241.500    0.424   93.985    0.247    8.458
  241.750    0.414   94.623    0.245    9.826
  242.000    0.413   95.268    0.240   14.546
  242.250    0.418   97.116    0.232   15.981
  242.500    0.408   99.562    0.241   21.551
  242.750    0.387  100.200    0.292   22.380
  243.000    0.382   90.544    0.306   24.134
  243.250    0.391   69.991    0.319   27.020
  243.500    0.370   44.586    0.326   26.550
  243.750    0.360   43.423    0.311   24.666
  244.000    0.366   45.255    0.290   20.500
  244.250    0.377   58.631    0.291   17.367
  244.500    0.393   62.280    0.304   16.741
  244.750    0.399   66.550    0.298   16.764
  245.000    0.405   69.609    0.262   16.781
  245.250    0.421   66.614    0.236   16.494
  245.500    0.420   66.662    0.269   16.198
  245.750    0.428   68.502    0.276   14.235
  246.000    0.439   70.948    0.281   11.613
  246.250    0.453   76.437    0.270    8.319
  246.500    0.461   81.305    0.229    7.731
  246.750    0.470  101.325    0.221    7.050
  247.000    0.482  112.255    0.202    6.430
  247.250    0.496  114.708    0.190    5.864
  247.500    0.493  112.327    0.161    5.551
  247.750    0.500  109.929    0.134    5.354
  248.000    0.513  106.336    0.123    5.164
  248.250    0.517  103.341    0.176    5.074
  248.500    0.507  114.263    0.193    5.080
  248.750    0.498  120.963    0.200    4.993
  249.000    0.478  122.214    0.169    4.814
  249.250    0.470  119.824    0.176    4.643
  249.500    0.513  116.223    0.204    4.315
  249.750    0.532  119.282    0.211    4.011
  250.000    0.521  124.150    0.234    3.941
  250.250    0.492  123.576    0.245    4.328
  250.500    0.458  116.343    0.256    5.418
  250.750    0.429  107.907    0.248    6.413
  251.000    0.438  105.509    0.241    7.452
  251.250    0.440  105.549    0.243    8.185
  251.500    0.436  107.405    0.248    8.198
  251.750    0.442  108.632    0.241    8.051
  252.000    0.451  108.664    0.235    7.345
  252.250    0.445  109.301    0.225    6.826
  252.500    0.443  111.150    0.219    6.584
  252.750    0.449  110.576    0.224    7.369
  253.000    0.457  104.562    0.254    8.246
  253.250    0.464   98.531    0.301   12.436
  253.500    0.464   79.197    0.312   17.076
  253.750    0.449   73.158    0.329   18.760
  254.000    0.450   68.355    0.349   20.998
  254.250    0.447   67.781    0.360   28.840
  254.500    0.441   64.786    0.365   47.724
  254.750    0.441   59.974    0.368   64.339
  255.000    0.454   58.182    0.362   90.027
  255.250    0.452   61.846    0.362  106.550
  255.500    0.442   61.895    0.369  106.663
  255.750    0.434   59.505    0.371  102.931
  256.000    0.426   58.931    0.366  101.087
  256.250    0.431   58.955    0.367   95.701
  256.500    0.448   59.003    0.369   87.292
  256.750    0.455   59.019    0.361   73.912
  257.000    0.456   58.454    0.359   51.958
  257.250    0.453   59.697    0.358   43.183
  257.500    0.455   64.564    0.363   34.579
  257.750    0.471   64.604    0.368   32.737
  258.000    0.468   64.022    0.334   34.014
  258.250    0.463   64.668    0.325   36.680
  258.500    0.458   62.876    0.327   40.299
  258.750    0.456   60.486    0.343   42.657
  259.000    0.445   62.342    0.366   47.746
  259.250    0.456   68.429    0.368   51.489
  259.500    0.459   67.250    0.373   58.744
  259.750    0.462   66.063    0.377   59.895
  260.000    0.461   64.884    0.371   59.958
  260.250    0.455   63.713    0.350   56.748
  260.500    0.449   63.139    0.346   51.776
  260.750    0.452   62.574    0.341   51.817
  261.000    0.454   62.590    0.340   51.872
  261.250    0.449   60.200    0.344   50.983
  261.500    0.445   56.607    0.351   51.037
  261.750    0.448   56.639    0.354   75.514
