~VERSION INFORMATION
 VERS.                 2.0:   CWLS LOG ASCII STANDARD -VERSION 2.0
 WRAP.                  NO:   ONE LINE PER DEPTH STEP
~WELL INFORMATION BLOCK
#MNEM.UNIT           DATA                    DESCRIPTION OF MNEMONIC
#---------    -------------------            -------------------------------
# Generated from Intellog Unique Number	CS_73_76/WELL/3238
WELL.         10-20-075-18W4                 : Well_name    - WELL
LOC .         00/10-20-075-18W4/0            : Location     - LOCATION
UWI .         00/10-20-075-18W4/0            : Uwi          - UNIQUE WELL ID
ENTR.         SP                             : Entered      - ENTERED BY
SRVC.         SCHLUMBERGER                   : Scn          - SERVICE COMPANY
STRT.M        237.744                        : top_depth    - START DEPTH
STOP.M        441.744                        : bot_depth    - STOP DEPTH
STEP.M        0.25                           : increment    - STEP LENGTH
 NULL. -999.2500:NULL Value
~CURVE INFORMATION BLOCK
#MNEM UNIT       ERCB CURVE CODE    CURVE DESCRIPTION
#-----------   ------------------   ----------------------------------
DEPT.M        00 001 00 00         : DEPTH        - DEPTH
GR  .API      00 310 00 00         : GR           - GAMMA RAY
DPHI.V/V      00 890 00 00         : PHID         - DENSITY POROSITY (SANDSTONE)
NPHI.V/V      00 330 00 00         : PHIN         - NEUTRON POROSITY (SANDSTONE)
ILD .OHMM     00 120 00 00         : RESD         - DEEP RESISTIVITY (DIL)
~PARAMETER INFORMATION
#MNEM.UNIT           DATA             DESCRIPTION OF MNEMONIC
#---------         -----------     ------------------------------
GL  .M        580.644              : gl           - GROUND LEVEL ELEVATION
EREF.M        583.692              : kb           - ELEVATION OF DEPTH REFERENCE
DATM.M        580.644              : datum        - DATUM ELEVATION
TDD .M        448.056              : tdd          - TOTAL DEPTH DRILLER
RUN .         ONE                  : Run          - RUN NUMBER
ENG .         BILL                 : Engineer     - RECORDING ENGINEER
WIT .         JIM                  : Witness      - WITNESSED BY
MUD .         GEL                  : Mud_type     - MUD TYPE
MATR.         SANDSTONE            : Logunit      - NEUTRON MATRIX
TMAX.C        10.5556              : BHT          - MAXIMUM RECORDED TEMPERATURE
BHTD.M        448.056              : BHTDEP       - MAXIMUM RECORDED TEMPERATURE
MATR.         1                    : LOGUNIT      - NEUTRON MATRIX
RMT .C        25                   : MDTP         - TEMPERATURE OF MUD
NEUT.         1                    : NEUTRON      - NEUTRON TYPE
RESI.         0                    : RESIST       - RESISTIVITY TYPE
RMC .OHMM     0.25                 : RMC          - RESISTIVITY OF MUD CAKE
RMF .OHMM     0.25                 : RMF          - RESISTIVITY OF MUD FILTRATE
SUFT.C        15                   : SUFT         - SURFACE TEMPERATURE
~A  DEPTH       GR     PHID     PHIN     RESD
  237.744   99.403    0.180    0.509    2.939
  237.994   97.238    0.175    0.522    3.018
  238.244   93.254    0.160    0.529    3.064
  238.494   86.624    0.142    0.536    3.054
  238.744   84.732    0.118    0.497    3.052
  238.994   86.761    0.077    0.478    3.051
  239.244   92.659    0.188    0.489    3.051
  239.494   98.651    0.211    0.514    3.060
  239.744   97.559    0.199    0.516    2.927
  239.994   96.305    0.189    0.529    2.756
  240.244   99.413    0.203    0.536    2.684
  240.494  101.188    0.221    0.544    2.687
  240.744  100.141    0.211    0.531    2.771
  240.994   99.188    0.214    0.522    2.855
  241.244   98.215    0.200    0.523    2.942
  241.494   97.568    0.197    0.517    3.002
  241.744   97.675    0.199    0.517    2.999
  241.994   98.789    0.201    0.522    2.999
  242.244   98.390    0.202    0.516    3.000
  242.494   99.482    0.197    0.508    3.000
  242.744  100.006    0.197    0.523    3.000
  242.994   98.636    0.203    0.530    2.995
  243.244   96.343    0.212    0.545    3.059
  243.494   94.893    0.214    0.560    3.084
  243.744   93.520    0.211    0.535    3.348
  243.994   89.830    0.198    0.504    3.809
  244.244   86.668    0.193    0.516    4.393
  244.494   81.201    0.196    0.490    5.101
  244.744   72.946    0.184    0.451    6.073
  244.994   64.417    0.172    0.457    7.502
  245.244   54.788    0.254    0.439    9.354
  245.494   47.004    0.286    0.410   10.693
  245.744   42.733    0.310    0.393   11.726
  245.994   44.757    0.300    0.400   12.528
  246.244   46.253    0.294    0.410   12.152
  246.494   46.998    0.302    0.415   11.781
  246.744   47.621    0.305    0.421   10.969
  246.994   49.536    0.297    0.427   10.615
  247.244   50.993    0.309    0.429   10.438
  247.494   51.683    0.319    0.436   10.803
  247.744   54.894    0.313    0.443   10.799
  247.994   60.858    0.316    0.452   10.773
  248.244   66.946    0.327    0.443   10.440
  248.494   72.486    0.311    0.432   10.114
  248.744   76.462    0.301    0.423   10.027
  248.994   79.468    0.283    0.432    9.856
  249.244   77.748    0.258    0.439    9.769
  249.494   75.629    0.251    0.432    9.879
  249.744   78.502    0.268    0.419   10.008
  249.994   76.451    0.266    0.416   10.046
  250.244   73.690    0.262    0.424   10.054
  250.494   73.044    0.261    0.431    9.788
  250.744   77.414    0.258    0.433    9.067
  250.994   80.092    0.260    0.436    8.405
  251.244   87.865    0.254    0.439    7.506
  251.494   94.675    0.231    0.441    6.875
  251.744  100.054    0.198    0.444    5.980
  251.994  103.767    0.192    0.454    5.390
  252.244  106.576    0.195    0.460    5.094
  252.494  103.184    0.222    0.465    5.507
  252.744   96.189    0.222    0.467    6.182
  252.994   88.318    0.218    0.461    7.288
  253.244   81.111    0.234    0.450    8.472
  253.494   73.231    0.246    0.447    9.869
  253.744   66.630    0.228    0.428   10.830
  253.994   61.277    0.202    0.408   10.931
  254.244   65.981    0.151    0.395   10.552
  254.494   73.895    0.129    0.409    9.945
  254.744   83.048    0.235    0.420    8.952
  254.994   89.862    0.258    0.407    7.694
  255.244   93.173    0.235    0.407    6.859
  255.494   94.889    0.227    0.420    6.098
  255.744   95.835    0.225    0.441    5.704
  255.994   97.456    0.212    0.461    5.681
  256.244   96.251    0.218    0.483    6.069
  256.494   93.901    0.221    0.498    7.143
  256.744   90.950    0.223    0.480    8.066
  256.994   88.044    0.242    0.438    8.925
  257.244   85.568    0.259    0.420    9.545
  257.494   89.133    0.273    0.414    9.850
  257.744   91.961    0.263    0.412    9.904
  257.994   94.928    0.258    0.412    9.909
  258.244   97.249    0.250    0.412    9.916
  258.494   98.728    0.248    0.419    9.938
  258.744   97.796    0.246    0.428    9.949
  258.994   94.393    0.237    0.442    9.875
  259.244   91.480    0.230    0.439    9.370
  259.494   89.038    0.249    0.429    8.863
  259.744   86.865    0.276    0.439    8.220
  259.994   90.905    0.301    0.472    7.406
  260.244   98.646    0.332    0.570    6.569
  260.494  104.184    0.297    0.556    5.851
  260.744  101.434    0.256    0.518    5.347
  260.994   96.524    0.188    0.485    5.440
  261.244   92.317    0.199    0.459    5.655
  261.494   91.021    0.195    0.446    6.205
  261.744   91.467    0.182    0.442    7.005
  261.994   88.202    0.177    0.427    7.721
  262.244   84.485    0.178    0.408    8.233
  262.494   89.162    0.199    0.396    7.746
  262.744   97.032    0.241    0.421    6.999
  262.994  103.433    0.234    0.449    5.858
  263.244  107.021    0.201    0.499    5.133
  263.494  107.638    0.171    0.522    4.460
  263.744  105.992    0.154    0.536    3.990
  263.994  106.098    0.140    0.550    3.744
  264.244  109.165    0.149    0.563    3.459
  264.494  112.151    0.157    0.563    3.320
  264.744  118.137    0.181    0.571    3.193
  264.994  120.961    0.206    0.580    3.093
  265.244  121.858    0.159    0.581    3.089
  265.494  121.810    0.150    0.573    3.089
  265.744  119.739    0.184    0.564    3.213
  265.994  118.610    0.206    0.567    3.561
  266.244  118.285    0.224    0.534    3.916
  266.494  115.625    0.213    0.507    4.333
  266.744  113.454    0.206    0.487    5.189
  266.994  110.673    0.214    0.474    5.915
  267.244  107.439    0.226    0.478    6.693
  267.494  104.895    0.224    0.472    7.073
  267.744  105.586    0.211    0.476    7.162
  267.994  106.580    0.229    0.471    7.101
  268.244  108.270    0.228    0.481    7.038
  268.494  108.867    0.218    0.488    7.011
  268.744  105.674    0.233    0.494    7.362
  268.994   98.354    0.231    0.483    7.728
  269.244   88.109    0.219    0.464    8.364
  269.494   82.752    0.224    0.432    8.906
  269.744   78.487    0.230    0.419    9.767
  269.994   72.025    0.245    0.431   10.515
  270.244   75.811    0.252    0.440   11.012
  270.494   77.667    0.258    0.445   12.326
  270.744   75.472    0.257    0.445   13.106
  270.994   74.837    0.252    0.447   13.907
  271.244   74.773    0.252    0.458   14.305
  271.494   75.931    0.251    0.466   14.584
  271.744   77.974    0.257    0.473   13.502
  271.994   80.670    0.243    0.477   11.734
  272.244   82.807    0.260    0.467   10.644
  272.494   86.135    0.277    0.461    9.609
  272.744   89.331    0.258    0.472    9.063
  272.994   91.100    0.234    0.491    8.603
  273.244   92.008    0.231    0.486    8.470
  273.494   94.624    0.267    0.470    8.380
  273.744   98.022    0.256    0.476    8.323
  273.994  103.648    0.270    0.467    8.177
  274.244  105.679    0.269    0.453    8.120
  274.494  107.596    0.234    0.453    7.702
  274.744  103.700    0.254    0.455    7.480
  274.994   91.558    0.245    0.477    7.204
  275.244   79.755    0.234    0.489    7.061
  275.494   74.021    0.240    0.477    7.404
  275.744   72.335    0.257    0.483    8.630
  275.994   68.321    0.281    0.498   10.140
  276.244   64.766    0.287    0.477   11.645
  276.494   62.041    0.278    0.451   13.438
  276.744   61.106    0.271    0.453   14.607
  276.994   62.348    0.281    0.456   16.027
  277.244   63.554    0.306    0.463   16.764
  277.494   64.542    0.313    0.469   17.538
  277.744   65.526    0.317    0.472   18.454
  277.994   66.516    0.313    0.453   18.967
  278.244   68.919    0.322    0.458   18.678
  278.494   71.892    0.314    0.466   13.529
  278.744   77.798    0.298    0.465    9.431
  278.994   82.902    0.282    0.497    6.970
  279.244   87.537    0.262    0.545    5.934
  279.494   90.810    0.265    0.574    5.296
  279.744   88.919    0.277    0.553    5.125
  279.994   85.825    0.259    0.528    5.507
  280.244   85.920    0.250    0.507    6.043
  280.494   87.555    0.249    0.516    6.773
  280.744   83.651    0.247    0.526    7.226
  280.994   75.722    0.290    0.524    7.542
