~VERSION INFORMATION
 VERS.                 2.0:   CWLS LOG ASCII STANDARD -VERSION 2.0
 WRAP.                  NO:   ONE LINE PER DEPTH STEP
~WELL INFORMATION BLOCK
#MNEM.UNIT           DATA                    DESCRIPTION OF MNEMONIC
#---------    -------------------            -------------------------------
# Generated from Intellog Unique Number	CW_79_81/WELL/879
WELL.         PARAMOUNT ET AL HORIZON        : Well_name    - WELL
LOC .         00/10-35-079-19W4/0            : Location     - LOCATION
UWI .         00/10-35-079-19W4/0            : Uwi          - UNIQUE WELL ID
ENTR.         MAX                            : Entered      - ENTERED BY
SRVC.         COMPUTALOG                     : Scn          - SERVICE COMPANY
STRT.M        198.12                         : top_depth    - START DEPTH
STOP.M        367.62                         : bot_depth    - STOP DEPTH
STEP.M        0.25                           : increment    - STEP LENGTH
 NULL. -999.2500:NULL Value
~CURVE INFORMATION BLOCK
#MNEM UNIT       ERCB CURVE CODE    CURVE DESCRIPTION
#-----------   ------------------   ----------------------------------
DEPT.M        00 001 00 00         : DEPTH        - DEPTH
ILD .OHMM     00 120 00 00         : RESD         - DEEP RESISTIVITY (DIL)
NPHI.V/V      00 330 00 00         : PHIN         - NEUTRON POROSITY (SANDSTONE)
DPHI.V/V      00 890 00 00         : PHID         - DENSITY POROSITY (SANDSTONE)
CALI.MM       00 280 01 00         : CAL          - CALIPER
GR  .API      00 310 00 00         : GR           - GAMMA RAY
~PARAMETER INFORMATION
#MNEM.UNIT           DATA             DESCRIPTION OF MNEMONIC
#---------         -----------     ------------------------------
GL  .M        563.88               : gl           - GROUND LEVEL ELEVATION
EREF.M        566.928              : kb           - ELEVATION OF DEPTH REFERENCE
DATM.M        563.88               : datum        - DATUM ELEVATION
TDD .M        368.198              : tdd          - TOTAL DEPTH DRILLER
RUN .         ONE                  : Run          - RUN NUMBER
ENG .         BILL                 : Engineer     - RECORDING ENGINEER
WIT .         JIM                  : Witness      - WITNESSED BY
MUD .         GEL                  : Mud_type     - MUD TYPE
MATR.         SANDSTONE            : Logunit      - NEUTRON MATRIX
TMAX.C        16.1111              : BHT          - MAXIMUM RECORDED TEMPERATURE
BHTD.M        368.198              : BHTDEP       - MAXIMUM RECORDED TEMPERATURE
RMT .C        15                   : MDTP         - TEMPERATURE OF MUD
MUDD.KG/M     9800                 : MWT          - MUD DENSITY
NEUT.         1                    : NEUTRON      - NEUTRON TYPE
RESI.         0                    : RESIST       - RESISTIVITY TYPE
RM  .OHMM     1.35                 : RM           - RESISTIVITY OF MUD
RMC .OHMM     0                    : RMC          - RESISTIVITY OF MUD CAKE
RMF .OHMM     1.05                 : RMF          - RESISTIVITY OF MUD FILTRATE
SUFT.C        -20.5556             : SUFT         - SURFACE TEMPERATURE
~A  DEPTH     RESD     PHIN     PHID      CAL       GR
# ...
  344.120   12.171    0.279    0.136  158.301   92.447
  344.370   12.699    0.319    0.158  157.974   93.426
  344.620   13.108    0.315    0.180  158.148  103.040
  344.870   13.127    0.318    0.194  157.821  104.626
  345.120   13.138    0.319    0.203  157.538   97.022
  345.370   13.272    0.313    0.206  157.669   98.607
  345.620   13.365    0.309    0.206  157.407   99.290
  345.870   13.417    0.304    0.206  157.538  104.742
  346.120   13.510    0.296    0.194  157.713  109.897
  346.370   13.607    0.292    0.200  157.364  107.036
  346.620   13.817    0.292    0.202  155.553   95.566
  346.870   14.111    0.288    0.196  155.226  100.116
  347.120   14.200    0.283    0.183  155.379   96.946
  347.370   14.376    0.303    0.175  157.103   93.505
  347.620   14.074    0.329    0.202  159.329  102.204
  347.870   13.769    0.303    0.210  159.438  104.395
  348.120   13.627    0.287    0.207  158.609  104.795
  348.370   13.679    0.273    0.198  158.304  104.898
  348.620   13.930    0.271    0.176  158.981  104.408
  348.870   14.104    0.268    0.164  160.683  104.821
  349.120   13.962    0.267    0.136  161.818  101.341
  349.370   13.459    0.292    0.125  162.015  103.236
  349.620   12.919    0.302    0.147  162.168  106.896
  349.870   11.552    0.324    0.188  162.342  103.751
  350.120   11.049    0.327    0.199  162.648  105.620
  350.370    9.681    0.335    0.202  162.714  112.554
  350.620    9.100    0.365    0.211  162.910  116.523
  350.870    8.366    0.388    0.218  164.089  116.034
  351.120    7.982    0.382    0.218  166.250  113.160
  351.370    7.763    0.379    0.221  165.966  112.374
  351.620    7.540    0.379    0.228  165.093   98.533
  351.870    7.154    0.383    0.230  165.290   94.164
  352.120    5.943    0.390    0.228  165.945   92.785
  352.370    5.365    0.406    0.230  166.643  102.399
  352.620    3.916    0.460    0.234  166.796   95.079
  352.870    3.613    0.465    0.250  167.997   89.241
  353.120    3.550    0.431    0.269  167.190   83.403
  353.370    4.632    0.404    0.291  165.815   77.566
  353.620    6.740    0.366    0.263  165.510   72.926
  353.870   10.039    0.325    0.249  167.190   65.593
  354.120   13.770    0.328    0.245  169.395   57.977
  354.370   15.524    0.318    0.248  168.063   58.995
  354.620   15.144    0.330    0.256  166.187   58.789
  354.870   14.130    0.336    0.257  166.885   63.635
  355.120   12.561    0.343    0.239  167.060   66.418
  355.370   10.914    0.357    0.223  165.707   75.724
  355.620    8.872    0.360    0.208  164.420   83.250
  355.870    7.424    0.384    0.207  165.075   88.701
  356.120    6.568    0.390    0.207  165.730   90.596
  356.370    5.713    0.383    0.212  168.960   91.009
  356.620    5.806    0.374    0.222  169.113   94.076
  356.870    6.214    0.351    0.202  167.804   95.378
  357.120    7.654    0.342    0.194  163.941   93.084
  357.370    8.655    0.336    0.182  162.588   93.187
  357.620    9.105    0.311    0.159  162.261   88.844
  357.870    9.832    0.263    0.132  160.952   85.674
  358.120   10.201    0.264    0.110  162.109   83.999
  358.370   10.020    0.310    0.122  163.331   99.257
  358.620    8.609    0.366    0.136  163.506  112.712
  358.870    7.714    0.381    0.185  164.182  119.349
  359.120    7.175    0.371    0.207  163.833  122.417
  359.370    7.148    0.359    0.204  162.502  124.917
  359.620    7.320    0.367    0.210  162.197  121.450
  359.870    7.889    0.378    0.215  162.372  118.886
  360.120    9.644    0.387    0.217  163.049  120.755
  360.370   11.359    0.334    0.195  163.703  124.428
  360.620   13.074    0.316    0.174  164.402  112.365
  360.870   14.116    0.231    0.159  164.599  105.329
  361.120   14.726    0.216    0.148  164.773   94.155
  361.370   14.462    0.242    0.131  162.940   94.271
  361.620   13.448    0.266    0.131  163.617   96.437
  361.870   12.947    0.283    0.156  164.774   98.022
  362.120   12.450    0.297    0.174  165.451   96.063
  362.370   12.226    0.319    0.181  167.109  105.059
  362.620   12.159    0.318    0.183  170.361  111.412
  362.870   12.136    0.327    0.180  172.020  115.665
  363.120   12.071    0.314    0.184  172.718  120.228
  363.370   11.929    0.306    0.191  172.871  122.406
  363.620   11.703    0.288    0.193  173.068  121.027
  363.870   11.442    0.311    0.198  172.195  130.332
  364.120   11.298    0.339    0.211  168.857  149.148
  364.370   11.271    0.342    0.223  166.522  145.398
  364.620   11.404    0.330    0.216  164.689  118.166
  364.870   11.657    0.322    0.192  164.362   88.577
  365.120   11.987    0.325    0.187  165.038   81.257
  365.370   12.040    0.334    0.200  164.755   88.783
  365.620   11.581    0.346    0.222  164.406  105.228
  365.870   10.170    0.356    0.235  166.108  114.533
  366.120    9.318    0.357    0.194  168.269  121.183
  366.370    9.172    0.353    0.185  169.971  122.485
  366.620    9.224    0.316    0.170  170.124  122.304
  366.870    9.319    0.306    0.162  167.287  121.196
  367.120    9.450    0.295    0.147  164.974  118.915
  367.370    9.862    0.278    0.129  164.604  114.856
  367.620   10.230    0.272    0.108  163.273  108.425
