~VERSION INFORMATION
 VERS.                 2.0:   CWLS LOG ASCII STANDARD -VERSION 2.0
 WRAP.                  NO:   ONE LINE PER DEPTH STEP
~WELL INFORMATION BLOCK
#MNEM.UNIT           DATA                    DESCRIPTION OF MNEMONIC
#---------    -------------------            -------------------------------
# Generated from Intellog Unique Number	CW_70_72/WELL/1076
NULL.         -999.25                        : NULL_VALUE
WELL.         CABRE ET AK NUTSYE 16-27       : Well_name    - WELL              
LOC .         16-27-071-03W5                 : Location     - LOCATION          
UWI .         00/16-27-071-03W5/0            : Uwi          - UNIQUE WELL ID    
ENTR.         JAYE                           : Entered      - ENTERED BY        
SRVC.         COMPUTALOG                     : Scn          - SERVICE COMPANY   
DATE.         19 NOV 85                      : Date         - LOG DATE          
STRT.M        440                            : top_depth    - START DEPTH       
STOP.M        650                            : bot_depth    - STOP DEPTH        
STEP.M        0.25                           : increment    - STEP LENGTH       
~CURVE INFORMATION BLOCK
#MNEM UNIT       ERCB CURVE CODE    CURVE DESCRIPTION
#-----------   ------------------   ----------------------------------
DEPT.M        00 001 00 00         : DEPTH        - DEPTH                       
DPHI.V/V      00 890 00 00         : PHID         - DENSITY POROSITY (SANDSTONE)
NPHI.V/V      00 330 00 00         : PHIN         - NEUTRON POROSITY (SANDSTONE)
GR  .API      00 310 00 00         : GR           - GAMMA RAY                   
CALI.MM       00 280 01 00         : CAL          - CALIPER                     
ILD .OHMM     00 120 00 00         : RESD         - DEEP RESISTIVITY (DIL)      
~PARAMETER INFORMATION       
#MNEM.UNIT           DATA             DESCRIPTION OF MNEMONIC
#---------         -----------     ------------------------------
GL  .M        635.2                : gl           - GROUND LEVEL ELEVATION      
EREF.M        638.78               : kb           - ELEVATION OF DEPTH REFERENCE
DATM.M        635.2                : datum        - DATUM ELEVATION             
TDD .M        660                  : tdd          - TOTAL DEPTH DRILLER         
RUN .         ONE                  : Run          - RUN NUMBER                  
ENG .         AHLOY                : Engineer     - RECORDING ENGINEER          
WIT .         BLOTT                : Witness      - WITNESSED BY                
BASE.         EDMONTON             : Branch       - HOME BASE OF LOGGING UNIT   
MUD .         GEL CHEN             : Mud_type     - MUD TYPE                    
MATR.         SANDSTONE            : Logunit      - NEUTRON MATRIX              
TMAX.C        27                   : BHT          - MAXIMUM RECORDED TEMPERATURE
BHTD.M        659.1                : BHTDEP       - MAXIMUM RECORDED TEMPERATURE
RMT .C        16.7                 : MDTP         - TEMPERATURE OF MUD          
MUDD.KG/M     1140                 : MWT          - MUD DENSITY                 
NEUT.         1                    : NEUTRON      - NEUTRON TYPE                
RESI.         0                    : RESIST       - RESISTIVITY TYPE            
RM  .OHMM     3                    : RM           - RESISTIVITY OF MUD          
RMC .OHMM     3.7                  : RMC          - RESISTIVITY OF MUD CAKE     
RMF .OHMM     3.2                  : RMF          - RESISTIVITY OF MUD FILTRATE 
SUFT.C        0                    : SUFT         - SURFACE TEMPERATURE         
~A  DEPTH     PHID     PHIN       GR      CAL     RESD
# ...
  513.000    0.012    0.117   47.847  162.320   21.300
  513.250    0.013    0.114   47.228  162.028   21.859
  513.500    0.010    0.110   45.215  161.730   22.434
  513.750    0.005    0.106   42.063  161.543   23.244
  514.000   -0.006    0.102   40.115  161.566   23.768
  514.250   -0.010    0.100   39.178  162.225   23.751
  514.500   -0.012    0.100   38.812  162.775   23.024
  514.750   -0.013    0.101   39.397  162.269   20.180
  515.000   -0.010    0.105   42.577  157.966   17.091
  515.250   -0.001    0.111   47.087  155.773   13.036
  515.500    0.018    0.120   50.837  155.167   10.097
  515.750    0.074    0.131   53.953  155.714    7.600
  516.000    0.163    0.158   55.108  155.949    5.999
  516.250    0.216    0.207   57.147  155.974    4.817
  516.500    0.234    0.297   60.391  156.001    4.222
  516.750    0.148    0.330   58.885  155.810    3.707
  517.000    0.154    0.363   53.200  155.517    3.225
  517.250    0.246    0.367   54.481  155.121    2.897
  517.500    0.288    0.358   59.813  155.141    2.668
  517.750    0.314    0.348   60.081  155.165    2.547
  518.000    0.312    0.337   56.612  155.082    2.441
  518.250    0.312    0.335   57.260  154.789    2.366
  518.500    0.313    0.349   59.997  155.021    2.303
  518.750    0.315    0.360   62.353  156.208    2.266
  519.000    0.316    0.369   62.242  157.181    2.227
  519.250    0.312    0.376   64.598  158.471    2.251
  519.500    0.304    0.382   64.802  159.443    2.310
  519.750    0.297    0.386   59.939  157.145    2.313
  520.000    0.300    0.390   58.561  153.896    2.307
  520.250    0.307    0.394   61.108  152.758    2.306
  520.500    0.313    0.388   61.818  152.781    2.300
  520.750    0.316    0.375   61.201  153.017    2.299
  521.000    0.321    0.365   61.466  154.201    2.297
  521.250    0.326    0.360   66.230  155.385    2.266
  521.500    0.330    0.369   67.321  156.463    2.256
  521.750    0.336    0.382   67.019  158.916    2.241
  522.000    0.340    0.380   67.601  159.677    2.201
  522.250    0.341    0.378   68.249  160.332    2.167
  522.500    0.340    0.376   68.833  160.038    2.133
  522.750    0.331    0.380   68.719  159.006    2.119
  523.000    0.316    0.397   64.808  157.871    2.114
  523.250    0.307    0.394   66.532  156.837    2.112
  523.500    0.317    0.383   67.938  156.863    2.115
  523.750    0.326    0.366   64.470  156.884    2.118
  524.000    0.330    0.368   62.838  156.910    2.136
  524.250    0.327    0.376   64.498  157.249    2.172
  524.500    0.313    0.379   61.789  158.434    2.213
  524.750    0.299    0.373   53.508  159.933    2.314
  525.000    0.295    0.388   57.766  161.750    2.435
  525.250    0.289    0.402   59.932  162.408    2.562
  525.500    0.282    0.397   61.402  161.268    2.604
  525.750    0.267    0.388   62.175  157.812    2.481
  526.000    0.281    0.375   63.647  155.195    2.374
  526.250    0.293    0.360   65.117  153.108    2.293
  526.500    0.296    0.357   66.208  154.611    2.326
  526.750    0.293    0.364   67.425  157.166    2.415
  527.000    0.285    0.366   68.135  158.878    2.555
  527.250    0.274    0.365   68.275  158.582    2.734
  527.500    0.264    0.357   67.592  157.866    2.909
  527.750    0.264    0.365   64.947  156.625    3.037
  528.000    0.268    0.379   61.858  155.381    2.905
  528.250    0.274    0.389   65.102  154.242    2.737
  528.500    0.277    0.385   68.726  153.426    2.645
  528.750    0.267    0.380   72.538  153.130    2.597
  529.000    0.248    0.394   77.175  153.998    2.576
  529.250    0.251    0.420   82.825  156.342    2.589
  529.500    0.270    0.427   84.042  159.320    2.593
  529.750    0.272    0.421   79.054  159.980    2.580
  530.000    0.248    0.395   74.318  158.945    2.521
  530.250    0.272    0.383   70.153  157.072    2.453
  530.500    0.290    0.389   67.635  155.827    2.378
  530.750    0.308    0.397   67.017  154.476    2.310
  531.000    0.313    0.403   66.270  153.235    2.269
  531.250    0.304    0.404   64.956  152.729    2.246
  531.500    0.290    0.395   64.334  152.860    2.275
  531.750    0.290    0.387   64.730  154.255    2.330
  532.000    0.296    0.381   66.073  155.756    2.387
  532.250    0.292    0.385   68.049  156.306    2.455
  532.500    0.284    0.394   68.697  156.539    2.500
  532.750    0.281    0.394   68.712  156.778    2.522
  533.000    0.281    0.388   68.534  157.118    2.516
  533.250    0.285    0.378   68.801  157.879    2.453
  533.500    0.286    0.367   70.400  157.692    2.396
  533.750    0.282    0.355   74.086  157.606    2.354
  534.000    0.289    0.368   78.406  157.421    2.348
  534.250    0.305    0.389   73.100  156.915    2.360
  534.500    0.314    0.389   67.478  156.731    2.381
  534.750    0.292    0.383   67.493  157.172    2.439
  535.000    0.245    0.376   74.219  158.145    2.566
  535.250    0.223    0.372   83.288  159.964    2.756
  535.500    0.206    0.384   88.241  163.574    2.967
  535.750    0.201    0.402   89.078  165.286    3.157
  536.000    0.203    0.406   89.093  164.887    3.284
  536.250    0.200    0.399   86.954  164.279    3.338
  536.500    0.189    0.401   84.880  163.986    3.224
  536.750    0.181    0.405   84.323  163.376    3.049
  537.000    0.175    0.397   85.160  163.080    2.850
  537.250    0.171    0.390   88.339  163.001    2.630
  537.500    0.180    0.381   88.796  164.185    2.426
  537.750    0.202    0.400   90.267  169.800    2.205
  538.000    0.225    0.438   93.321  176.263    1.921
  538.250    0.250    0.461   91.373  179.875    1.756
  538.500    0.265    0.476   89.802  182.324    1.728
  538.750    0.274    0.466   89.184  180.765    1.740
  539.000    0.261    0.454   89.767  175.723    1.769
  539.250    0.232    0.442   92.063  172.368    1.718
  539.500    0.242    0.449   92.771  171.230    1.679
  539.750    0.269    0.477   92.912  171.887    1.729
  540.000    0.285    0.497   92.482  173.915    1.883
  540.250    0.256    0.494   90.280  177.422    2.113
  540.500    0.224    0.449   86.305  178.819    2.431
  540.750    0.196    0.425   82.456  176.729    2.839
  541.000    0.192    0.396   80.001  172.636    3.187
  541.250    0.190    0.376   81.599  167.806    3.371
  541.500    0.194    0.358   79.712  162.236    3.147
  541.750    0.227    0.360   72.635  156.242    2.843
  542.000    0.262    0.373   67.202  150.253    2.516
  542.250    0.285    0.361   62.911  149.536    2.295
  542.500    0.315    0.353   62.291  149.769    2.101
  542.750    0.330    0.357   62.241  150.745    1.957
  543.000    0.336    0.377   61.685  151.295    1.912
  543.250    0.339    0.386   61.320  151.849    1.940
  543.500    0.338    0.380   62.727  151.977    1.987
  543.750    0.338    0.368   65.717  152.209    2.032
  544.000    0.338    0.360   68.137  152.341    2.073
  544.250    0.334    0.369   67.772  152.466    2.116
  544.500    0.331    0.377   66.837  152.805    2.159
  544.750    0.329    0.387   67.546  152.723    2.199
  545.000    0.328    0.392   68.004  152.747    2.219
  545.250    0.331    0.396   66.690  152.455    2.264
  545.500    0.333    0.403   64.612  152.057    2.319
  545.750    0.330    0.397   64.246  151.761    2.399
  546.000    0.326    0.385   67.364  151.681    2.457
  546.250    0.319    0.385   67.631  151.182    2.542
  546.500    0.313    0.391   66.378  150.886    2.593
  546.750    0.311    0.399   66.583  150.592    2.616
  547.000    0.314    0.399   66.976  150.509    2.595
  547.250    0.315    0.390   67.561  150.741    2.544
  547.500    0.314    0.384   68.650  151.608    2.467
  547.750    0.313    0.402   69.740  152.371    2.396
  548.000    0.311    0.401   68.870  154.611    2.362
  548.250    0.308    0.396   67.552  155.689    2.334
  548.500    0.306    0.391   64.781  155.394    2.319
  548.750    0.305    0.384   63.527  154.470    2.313
  549.000    0.317    0.378   64.492  154.281    2.325
  549.250    0.330    0.382   65.013  154.521    2.355
