~VERSION INFORMATION
 VERS.                 2.0:   CWLS LOG ASCII STANDARD -VERSION 2.0
 WRAP.                  NO:   ONE LINE PER DEPTH STEP
~WELL INFORMATION BLOCK
#MNEM.UNIT           DATA                    DESCRIPTION OF MNEMONIC
#---------    -------------------            -------------------------------
# Generated from Intellog Unique Number	CW_73_75/WELL/1051
WELL.         CHIEFCO LILY LAKE 13-07        : Well_name    - WELL
LOC .         00/13-07-075-05W5/0            : Location     - LOCATION
UWI .         00/13-07-075-05W5/0            : Uwi          - UNIQUE WELL ID
ENTR.         JAYE                           : Entered      - ENTERED BY
SRVC.         SCHLUMBERGER                   : Scn          - SERVICE COMPANY
DATE.         14 JAN 84                      : Date         - LOG DATE
STRT.M        625                            : top_depth    - START DEPTH
STOP.M        870                            : bot_depth    - STOP DEPTH
STEP.M        0.25                           : increment    - STEP LENGTH
 NULL. -999.2500:NULL Value
~CURVE INFORMATION BLOCK
#MNEM UNIT       ERCB CURVE CODE    CURVE DESCRIPTION
#-----------   ------------------   ----------------------------------
DEPT.M        00 001 00 00         : DEPTH        - DEPTH
ILD .OHMM     00 120 00 00         : RESD         - DEEP RESISTIVITY (DIL)
NPHI.V/V      00 330 00 00         : PHIN         - NEUTRON POROSITY (SANDSTONE)
DPHI.V/V      00 890 00 00         : PHID         - DENSITY POROSITY (SANDSTONE)
GR  .API      00 310 00 00         : GR           - GAMMA RAY
CALI.MM       00 280 01 00         : CAL          - CALIPER
~PARAMETER INFORMATION
#MNEM.UNIT           DATA             DESCRIPTION OF MNEMONIC
#---------         -----------     ------------------------------
GL  .M        873.9                : gl           - GROUND LEVEL ELEVATION
EREF.M        876                  : kb           - ELEVATION OF DEPTH REFERENCE
DATM.M        873.9                : datum        - DATUM ELEVATION
TDD .M        889                  : tdd          - TOTAL DEPTH DRILLER
RUN .         ONE                  : Run          - RUN NUMBER
ENG .         BRANDSTROM           : Engineer     - RECORDING ENGINEER
WIT .         KUCHINSKI            : Witness      - WITNESSED BY
BASE.         5202                 : Branch       - HOME BASE OF LOGGING UNIT
MUD .         GEL CHEM             : Mud_type     - MUD TYPE
MATR.         SANDSTONE            : Logunit      - NEUTRON MATRIX
TMAX.C        31                   : BHT          - MAXIMUM RECORDED TEMPERATURE
BHTD.M        890.5                : BHTDEP       - MAXIMUM RECORDED TEMPERATURE
RMT .C        31                   : MDTP         - TEMPERATURE OF MUD
MUDD.KG/M     1110                 : MWT          - MUD DENSITY
NEUT.         1                    : NEUTRON      - NEUTRON TYPE
RESI.         0                    : RESIST       - RESISTIVITY TYPE
RM  .OHMM     7.829                : RM           - RESISTIVITY OF MUD
RMC .OHMM     0                    : RMC          - RESISTIVITY OF MUD CAKE
RMF .OHMM     8.115                : RMF          - RESISTIVITY OF MUD FILTRATE
SUFT.C        0                    : SUFT         - SURFACE TEMPERATURE
~A  DEPTH     RESD     PHIN     PHID       GR      CAL
# ...
  698.000    3.498    0.458    0.255   79.132  203.374
  698.250    3.525    0.458    0.263   76.554  203.838
  698.500    3.566    0.473    0.269   73.421  204.301
  698.750    3.580    0.463    0.261   74.754  204.658
  699.000    3.594    0.459    0.243   80.237  205.013
  699.250    3.615    0.474    0.235   81.197  205.374
  699.500    3.643    0.465    0.232   81.227  205.637
  699.750    3.699    0.468    0.224   81.753  205.993
  700.000    3.734    0.465    0.230   82.216  206.450
  700.250    3.784    0.447    0.249   83.363  206.809
  700.500    3.835    0.433    0.239   85.002  206.855
  700.750    3.894    0.453    0.217   87.077  206.704
  701.000    3.924    0.468    0.202   91.260  206.651
  701.250    3.969    0.466    0.195   94.760  206.707
  701.500    3.977    0.455    0.187   90.638  206.746
  701.750    3.978    0.444    0.179   87.506  206.597
  702.000    3.956    0.436    0.177   81.584  206.436
  702.250    3.898    0.448    0.184   78.205  206.272
  702.500    3.833    0.455    0.186   80.157  206.324
  702.750    3.748    0.443    0.189   83.535  206.175
  703.000    3.623    0.432    0.196   82.883  205.903
  703.250    3.412    0.461    0.206   82.168  205.441
  703.500    3.201    0.468    0.201   82.631  205.074
  703.750    2.986    0.471    0.203   83.281  204.508
  704.000    2.827    0.478    0.234   84.177  204.246
  704.250    2.770    0.476    0.227   85.261  203.776
  704.500    2.765    0.473    0.210   85.724  203.414
  704.750    2.937    0.461    0.210   85.506  202.841
  705.000    3.296    0.463    0.226   85.783  201.863
  705.250    3.656    0.482    0.238   83.705  201.192
  705.500    4.094    0.472    0.254   78.654  200.511
  705.750    4.474    0.475    0.275   71.742  199.835
  706.000    4.926    0.492    0.300   65.758  199.478
  706.250    5.030    0.487    0.296   59.341  199.018
  706.500    5.021    0.488    0.282   56.272  198.745
  706.750    4.984    0.484    0.271   56.674  198.590
  707.000    4.976    0.457    0.282   57.014  198.233
  707.250    4.977    0.449    0.283   59.151  198.075
  707.500    4.950    0.445    0.279   60.854  198.017
  707.750    4.932    0.448    0.276   61.752  198.061
  708.000    4.923    0.444    0.276   61.531  197.810
  708.250    4.952    0.437    0.276   60.696  197.759
  708.500    4.990    0.436    0.281   58.988  197.798
  708.750    5.038    0.445    0.286   56.663  197.853
  709.000    5.144    0.452    0.293   57.250  198.210
  709.250    5.233    0.459    0.294   57.466  198.363
  709.500    5.415    0.465    0.289   57.246  198.304
  709.750    5.518    0.479    0.280   56.347  198.145
  710.000    5.478    0.478    0.201   54.146  198.206
  710.250    5.246    0.228    0.077   49.649  198.450
  710.500    5.006    0.186    0.029   47.386  198.298
  710.750    4.794    0.174    0.045   49.832  198.248
  711.000    4.635    0.239    0.102   53.584  198.292
  711.250    4.448    0.340    0.227   58.198  198.030
  711.500    4.349    0.343    0.315   60.523  198.082
  711.750    4.284    0.363    0.318   61.111  198.034
  712.000    4.229    0.448    0.306   62.316  198.078
  712.250    4.112    0.466    0.301   63.216  198.329
  712.500    4.005    0.461    0.298   62.994  198.180
  712.750    3.909    0.461    0.296   58.809  198.118
  713.000    3.779    0.455    0.294   59.583  197.963
  713.250    3.647    0.435    0.290   62.092  198.015
  713.500    3.506    0.446    0.293   64.972  197.964
  713.750    3.364    0.485    0.302   64.321  197.595
  714.000    3.253    0.505    0.304   67.573  197.852
  714.250    3.253    0.510    0.304   66.921  197.706
  714.500    3.315    0.506    0.304   64.102  197.749
  714.750    3.385    0.486    0.303   65.060  197.794
  715.000    3.463    0.461    0.301   67.691  197.851
  715.250    3.536    0.463    0.306   72.307  197.697
  715.500    3.524    0.506    0.310   68.992  197.537
  715.750    3.465    0.485    0.314   65.178  197.683
  716.000    3.401    0.483    0.316   62.293  197.933
  716.250    3.319    0.489    0.306   61.086  198.090
  716.500    3.221    0.479    0.301   61.918  198.036
  716.750    3.138    0.469    0.304   64.552  197.777
  717.000    3.109    0.466    0.305   66.998  198.142
  717.250    3.103    0.451    0.304   70.067  198.287
  717.500    3.110    0.459    0.304   71.521  198.651
  717.750    3.151    0.472    0.307   70.249  198.809
  718.000    3.212    0.499    0.319   67.741  198.959
  718.250    3.261    0.512    0.310   66.590  199.319
  718.500    3.305    0.480    0.280   65.751  199.358
  718.750    3.337    0.453    0.258   66.340  199.830
  719.000    3.375    0.428    0.240   70.584  199.667
  719.250    3.427    0.450    0.270   72.906  199.511
  719.500    3.506    0.510    0.311   69.093  199.774
  719.750    3.614    0.516    0.316   67.759  200.027
  720.000    3.803    0.511    0.307   68.844  200.176
  720.250    4.002    0.489    0.304   68.561  200.428
  720.500    4.110    0.465    0.301   66.359  200.477
  720.750    4.150    0.465    0.298   67.567  200.632
  721.000    4.027    0.473    0.292   70.696  200.580
  721.250    3.923    0.450    0.282   67.070  200.324
  721.500    3.764    0.419    0.269   63.010  199.950
  721.750    3.612    0.383    0.280   59.196  199.693
  722.000    3.479    0.439    0.303   55.320  199.033
  722.250    3.382    0.451    0.308   52.189  198.870
  722.500    3.301    0.441    0.305   48.870  198.703
  722.750    3.228    0.439    0.309   46.667  198.551
  723.000    3.121    0.453    0.322   50.231  198.706
  723.250    3.104    0.470    0.326   55.903  198.547
  723.500    3.098    0.460    0.329   60.517  198.602
  723.750    3.110    0.455    0.333   57.883  198.538
  724.000    3.123    0.472    0.336   55.869  198.695
  724.250    3.123    0.471    0.340   54.965  198.736
  724.500    3.153    0.449    0.346   54.873  198.687
  724.750    3.177    0.431    0.339   55.274  198.939
  725.000    3.220    0.448    0.330   57.597  199.101
  725.250    3.239    0.439    0.310   62.712  199.247
  725.500    3.246    0.430    0.295   68.875  199.201
  725.750    3.045    0.445    0.311   78.387  199.244
  726.000    2.639    0.473    0.325   78.356  199.090
  726.250    2.215    0.467    0.332   76.773  199.339
  726.500    1.828    0.457    0.308   82.009  200.937
  726.750    1.575    0.469    0.236   86.811  203.573
  727.000    1.368    0.492    0.200   88.826  206.410
  727.250    1.269    0.479    0.193   90.651  208.834
  727.500    1.245    0.477    0.197   92.542  210.431
  727.750    1.318    0.476    0.200   92.325  211.211
  728.000    1.462    0.476    0.189   88.075  211.463
  728.250    1.716    0.482    0.178   87.857  211.413
  728.500    2.092    0.476    0.182   84.601  210.944
  728.750    2.489    0.465    0.193   76.265  210.168
  729.000    2.851    0.454    0.205   77.596  208.877
  729.250    3.266    0.494    0.189   77.750  207.787
  729.500    3.596    0.485    0.189   76.478  206.591
  729.750    3.734    0.471    0.211   80.101  205.301
  730.000    3.813    0.460    0.217   85.647  204.215
  730.250    3.893    0.456    0.206   79.293  203.231
  730.500    3.946    0.453    0.196   76.410  202.771
  730.750    3.976    0.444    0.214   79.541  202.611
  731.000    4.007    0.443    0.216   83.844  202.457
  731.250    4.015    0.460    0.216   77.612  201.774
  731.500    4.039    0.451    0.221   78.145  200.995
  731.750    4.062    0.435    0.222   80.647  199.808
  732.000    4.070    0.442    0.218   85.327  199.440
  732.250    4.033    0.471    0.212   85.049  199.493
  732.500    3.981    0.493    0.229   77.947  199.441
  732.750    3.937    0.472    0.243   77.110  199.282
  733.000    3.945    0.456    0.255   78.011  198.813
  733.250    3.975    0.451    0.252   78.351  198.557
  733.500    3.983    0.471    0.237   78.502  198.402
  733.750    4.060    0.478    0.220   77.972  198.351
  734.000    4.114    0.472    0.218   75.956  198.404
  734.250    4.169    0.452    0.261   69.293  198.336
