~VERSION INFORMATION
 VERS.                 2.0:   CWLS LOG ASCII STANDARD -VERSION 2.0
 WRAP.                  NO:   ONE LINE PER DEPTH STEP
~WELL INFORMATION BLOCK
#MNEM.UNIT           DATA                    DESCRIPTION OF MNEMONIC
#---------    -------------------            -------------------------------
# Generated from Intellog Unique Number	CS_69_70/WELL/871
WELL.         GULF OIL CANADA LIMITED        : Well_name    - WELL
LOC .         00/10-27-069-15W4/0            : Location     - LOCATION
UWI .         00/10-27-069-15W4/0            : Uwi          - UNIQUE WELL ID
ENTR.         SP                             : Entered      - ENTERED BY
SRVC.         SCHLUMBERGER                   : Scn          - SERVICE COMPANY
STRT.M        274.32                         : top_depth    - START DEPTH
STOP.M        478.32                         : bot_depth    - STOP DEPTH
STEP.M        0.25                           : increment    - STEP LENGTH
 NULL. -999.2500:NULL Value
~CURVE INFORMATION BLOCK
#MNEM UNIT       ERCB CURVE CODE    CURVE DESCRIPTION
#-----------   ------------------   ----------------------------------
DEPT.M        00 001 00 00         : DEPTH        - DEPTH
GR  .API      00 310 00 00         : GR           - GAMMA RAY
DPHI.V/V      00 890 00 00         : PHID         - DENSITY POROSITY (SANDSTONE)
NPHI.V/V      00 330 00 00         : PHIN         - NEUTRON POROSITY (SANDSTONE)
ILD .OHMM     00 120 00 00         : RESD         - DEEP RESISTIVITY (DIL)
~PARAMETER INFORMATION
#MNEM.UNIT           DATA             DESCRIPTION OF MNEMONIC
#---------         -----------     ------------------------------
GL  .M        561.746              : gl           - GROUND LEVEL ELEVATION
EREF.M        565.252              : kb           - ELEVATION OF DEPTH REFERENCE
DATM.M        561.746              : datum        - DATUM ELEVATION
TDD .M        480.06               : tdd          - TOTAL DEPTH DRILLER
RUN .         ONE                  : Run          - RUN NUMBER
ENG .         BILL                 : Engineer     - RECORDING ENGINEER
WIT .         JIM                  : Witness      - WITNESSED BY
MUD .         GEL                  : Mud_type     - MUD TYPE
MATR.         SANDSTONE            : Logunit      - NEUTRON MATRIX
TMAX.C        13.3333              : BHT          - MAXIMUM RECORDED TEMPERATURE
BHTD.M        480.06               : BHTDEP       - MAXIMUM RECORDED TEMPERATURE
MATR.         1                    : LOGUNIT      - NEUTRON MATRIX
RMT .C        25                   : MDTP         - TEMPERATURE OF MUD
NEUT.         1                    : NEUTRON      - NEUTRON TYPE
RESI.         0                    : RESIST       - RESISTIVITY TYPE
RMC .OHMM     0.25                 : RMC          - RESISTIVITY OF MUD CAKE
RMF .OHMM     0.25                 : RMF          - RESISTIVITY OF MUD FILTRATE
SUFT.C        15                   : SUFT         - SURFACE TEMPERATURE
~A  DEPTH       GR     PHID     PHIN     RESD
# ...
  317.820   97.210    0.156    0.421    3.076
  318.070   93.949    0.182    0.419    2.999
  318.320   89.961    0.199    0.414    2.969
  318.570   87.465    0.215    0.411    3.114
  318.820   87.776    0.208    0.407    3.477
  319.070   87.533    0.199    0.414    3.831
  319.320   85.007    0.192    0.457    4.272
  319.570   78.646    0.184    0.453    4.660
  319.820   74.294    0.067    0.402    4.948
  320.070   66.570   -0.003    0.360    4.733
  320.320   68.968    0.034    0.313    4.154
  320.570   75.905    0.080    0.294    3.528
  320.820   85.195    0.128    0.350    3.033
  321.070   91.253    0.196    0.398    2.757
  321.320   90.186    0.210    0.427    2.643
  321.570   86.726    0.200    0.437    2.696
  321.820   85.704    0.194    0.423    2.794
  322.070   86.034    0.192    0.427    2.883
  322.320   86.423    0.193    0.429    2.977
  322.570   87.712    0.191    0.420    3.035
  322.820   89.113    0.176    0.431    3.093
  323.070   90.497    0.174    0.439    3.117
  323.320   92.647    0.161    0.426    3.155
  323.570   94.919    0.147    0.422    3.177
  323.820   95.259    0.165    0.425    3.199
  324.070   95.486    0.178    0.427    3.213
  324.320   98.415    0.176    0.422    3.235
  324.570  101.005    0.172    0.419    3.267
  324.820  103.225    0.173    0.419    3.307
  325.070  105.293    0.150    0.422    3.367
  325.320  107.506    0.130    0.432    3.423
  325.570  109.095    0.113    0.445    3.526
  325.820  110.294    0.103    0.453    3.603
  326.070  109.817    0.121    0.459    3.670
  326.320  107.766    0.141    0.444    3.701
  326.570  106.846    0.159    0.430    3.727
  326.820  102.123    0.171    0.429    3.722
  327.070   98.794    0.167    0.428    3.705
  327.320   95.580    0.162    0.424    3.637
  327.570   93.304    0.158    0.417    3.543
  327.820   98.833    0.148    0.411    3.455
  328.070  104.762    0.138    0.414    3.383
  328.320  108.860    0.123    0.435    3.368
  328.570  109.005    0.124    0.450    3.395
  328.820  107.481    0.130    0.480    3.451
  329.070  108.521    0.135    0.514    3.569
  329.320  110.839    0.135    0.488    3.828
  329.570  112.852    0.124    0.433    4.188
  329.820  113.208    0.116    0.432    4.482
  330.070  112.404    0.114    0.430    4.611
  330.320  110.795    0.118    0.419    4.706
  330.570  109.299    0.120    0.416    4.753
  330.820  107.503    0.128    0.419    4.733
  331.070  106.146    0.136    0.404    4.705
  331.320  106.512    0.126    0.390    4.686
  331.570  108.990    0.117    0.378    4.689
  331.820  109.627    0.107    0.374    4.679
  332.070  107.777    0.099    0.387    4.658
  332.320  106.858    0.103    0.391    4.631
  332.570  109.180    0.116    0.394    4.605
  332.820  110.483    0.104    0.404    4.554
  333.070  108.652    0.091    0.421    4.519
  333.320  104.145    0.100    0.414    4.453
  333.570  104.449    0.118    0.399    4.361
  333.820  106.783    0.103    0.382    4.231
  334.070  105.528    0.093    0.372    4.383
  334.320  102.645    0.094    0.370    4.448
  334.570   99.288    0.107    0.371    4.108
  334.820   97.041    0.126    0.374    3.962
  335.070  100.287    0.132    0.394    3.862
  335.320  103.322    0.135    0.420    3.671
  335.570  104.644    0.149    0.441    3.499
  335.820  104.857    0.156    0.450    3.531
  336.070  102.147    0.154    0.448    3.759
  336.320   98.996    0.151    0.435    4.067
  336.570   96.573    0.143    0.428    4.295
  336.820   93.961    0.153    0.440    4.436
  337.070   86.808    0.171    0.449    4.529
  337.320   83.184    0.194    0.433    4.474
  337.570   87.942    0.194    0.423    4.435
  337.820   89.114    0.185    0.421    4.600
  338.070   81.365    0.191    0.430    5.133
  338.320   77.909    0.219    0.422    6.051
  338.570   75.111    0.214    0.434    6.854
  338.820   72.932    0.229    0.441    7.565
  339.070   70.554    0.245    0.447    8.217
  339.320   69.309    0.243    0.450    8.427
  339.570   68.158    0.233    0.453    7.710
  339.820   67.125    0.227    0.458    6.703
  340.070   68.137    0.233    0.457    5.906
  340.320   73.917    0.234    0.448    5.329
  340.570   77.786    0.228    0.442    4.755
  340.820   79.467    0.222    0.438    4.229
  341.070   81.726    0.236    0.448    4.043
  341.320   84.153    0.220    0.455    3.973
  341.570   87.279    0.203    0.442    4.012
  341.820   89.478    0.191    0.446    4.057
  342.070   91.117    0.176    0.453    4.160
  342.320   92.350    0.169    0.466    4.253
  342.570   91.889    0.161    0.469    4.521
  342.820   90.200    0.180    0.462    4.916
  343.070   87.205    0.196    0.453    5.413
  343.320   77.141    0.218    0.447    5.838
  343.570   70.442    0.234    0.445    6.291
  343.820   65.832    0.210    0.448    6.647
  344.070   59.180    0.159    0.429    6.831
  344.320   53.159    0.121    0.340    6.686
  344.570   55.510    0.169    0.395    6.318
  344.820   60.070    0.218    0.416    5.394
  345.070   64.252    0.226    0.427    4.689
  345.320   69.330    0.227    0.424    4.242
  345.570   75.127    0.217    0.421    4.036
  345.820   83.173    0.202    0.419    3.806
  346.070   90.089    0.177    0.422    3.646
  346.320   95.613    0.152    0.434    3.541
  346.570   99.646    0.132    0.447    3.501
  346.820  103.324    0.126    0.470    3.428
  347.070  100.824    0.126    0.462    3.343
  347.320   95.784    0.145    0.449    3.272
  347.570   89.408    0.164    0.442    3.221
  347.820   84.025    0.179    0.432    3.157
  348.070   80.251    0.180    0.424    3.086
  348.320   77.327    0.181    0.418    3.048
  348.570   76.629    0.191    0.420    3.020
  348.820   78.694    0.201    0.422    3.013
  349.070   80.347    0.204    0.423    3.002
  349.320   81.096    0.198    0.420    2.984
  349.570   79.839    0.202    0.414    2.956
  349.820   78.001    0.210    0.422    2.870
  350.070   76.545    0.217    0.426    2.776
  350.320   75.453    0.216    0.423    2.686
  350.570   74.005    0.210    0.424    2.648
  350.820   72.325    0.208    0.430    2.618
  351.070   71.201    0.212    0.439    2.599
  351.320   70.850    0.216    0.439    2.596
  351.570   72.703    0.227    0.429    2.613
  351.820   74.369    0.232    0.419    2.649
  352.070   76.573    0.220    0.423    2.680
  352.320   80.071    0.209    0.432    2.697
  352.570   84.227    0.195    0.436    2.715
  352.820   87.537    0.183    0.443    2.754
  353.070   89.894    0.184    0.453    2.800
  353.320   90.840    0.195    0.467    2.856
  353.570   89.054    0.202    0.456    2.888
  353.820   86.215    0.192    0.443    2.905
  354.070   84.111    0.184    0.440    2.932
  354.320   82.933    0.204    0.472    2.940
  354.570   86.871    0.223    0.481    2.934
  354.820   90.585    0.138    0.453    2.943
  355.070   92.710    0.124    0.438    2.953
  355.320   94.908    0.129    0.445    2.948
  355.570   97.397    0.156    0.450    2.921
  355.820   97.754    0.173    0.450    2.883
  356.070   91.478    0.182    0.446    2.713
  356.320   87.290    0.203    0.438    2.671
  356.570   84.104    0.200    0.439    2.608
  356.820   82.743    0.194    0.428    2.540
  357.070   80.761    0.199    0.426    2.497
  357.320   78.195    0.208    0.435    2.462
  357.570   75.149    0.215    0.432    2.497
  357.820   73.552    0.221    0.427    2.575
  358.070   74.172    0.208    0.418    2.688
  358.320   74.471    0.199    0.408    3.006
  358.570   73.734    0.189    0.397    3.363
  358.820   71.446    0.055    0.385    3.696
  359.070   68.878    0.023    0.358    3.958
  359.320   66.053   -0.005    0.263    4.162
  359.570   66.684   -0.022    0.188    4.174
  359.820   74.574    0.154    0.380    3.890
  360.070   79.029    0.169    0.409    3.395
  360.320   84.333    0.174    0.426    3.086
  360.570   79.660    0.108    0.417    2.995
  360.820   70.452    0.042    0.358    3.108
  361.070   63.286    0.002    0.225    3.624
