~VERSION INFORMATION
 VERS.                 2.0:   CWLS LOG ASCII STANDARD -VERSION 2.0
 WRAP.                  NO:   ONE LINE PER DEPTH STEP
~WELL INFORMATION BLOCK
#MNEM.UNIT           DATA                    DESCRIPTION OF MNEMONIC
#---------    -------------------            -------------------------------
# Generated from Intellog Unique Number	CW_82_90/WELL/924
WELL.         PARAMOUNT ET AL LIVOCK 10-25   : Well_name    - WELL
LOC .         00/10-25-084-19W4/0            : Location     - LOCATION
UWI .         00/10-25-084-19W400            : Uwi          - UNIQUE WELL ID
ENTR.         JAYE                           : Entered      - ENTERED BY
SRVC.         COMPUTALOG                     : Scn          - SERVICE COMPANY
DATE.         31 JAN 77                      : Date         - LOG DATE
STRT.M        213.36                         : top_depth    - START DEPTH
STOP.M        341.36                         : bot_depth    - STOP DEPTH
STEP.M        0.25                           : increment    - STEP LENGTH
 NULL. -999.2500:NULL Value
~CURVE INFORMATION BLOCK
#MNEM UNIT       ERCB CURVE CODE    CURVE DESCRIPTION
#-----------   ------------------   ----------------------------------
DEPT.M        00 001 00 00         : DEPTH        - DEPTH
CALI.MM       00 280 01 00         : CAL          - CALIPER
GR  .API      00 310 00 00         : GR           - GAMMA RAY
NPHI.V/V      00 330 00 00         : PHIN         - NEUTRON POROSITY (SANDSTONE)
DPHI.V/V      00 890 00 00         : PHID         - DENSITY POROSITY (SANDSTONE)
ILD .OHMM     00 120 00 00         : RESD         - DEEP RESISTIVITY (DIL)
~PARAMETER INFORMATION
#MNEM.UNIT           DATA             DESCRIPTION OF MNEMONIC
#---------         -----------     ------------------------------
GL  .M        582.168              : gl           - GROUND LEVEL ELEVATION
EREF.M        585.521              : kb           - ELEVATION OF DEPTH REFERENCE
DATM.M        582.168              : datum        - DATUM ELEVATION
TDD .M        370.942              : tdd          - TOTAL DEPTH DRILLER
RUN .         ONE                  : Run          - RUN NUMBER
ENG .         KING                 : Engineer     - RECORDING ENGINEER
WIT .         KNIGHT               : Witness      - WITNESSED BY
BASE.         MEDICINE HAT         : Branch       - HOME BASE OF LOGGING UNIT
MUD .         GEL CHEM             : Mud_type     - MUD TYPE
MATR.         SANDSTONE            : Logunit      - NEUTRON MATRIX
TMAX.C        0                    : BHT          - MAXIMUM RECORDED TEMPERATURE
BHTD.M        61                   : BHTDEP       - MAXIMUM RECORDED TEMPERATURE
RMT .C        1217                 : MDTP         - TEMPERATURE OF MUD
MUDD.KG/M     47                   : MWT          - MUD DENSITY
NEUT.         9.3                  : NEUTRON      - NEUTRON TYPE
RM  .OHMM     0                    : RM           - RESISTIVITY OF MUD
RMC .OHMM     5.5                  : RMC          - RESISTIVITY OF MUD CAKE
RMF .OHMM     0                    : RMF          - RESISTIVITY OF MUD FILTRATE
SUFT.C        3.8                  : SUFT         - SURFACE TEMPERATURE
SUFT.C        0                    : SUFT         - SURFACE TEMPERATURE
~A  DEPTH      CAL       GR     PHIN     PHID     RESD
# ...
  322.860  159.535  107.998    0.332    0.191    7.286
  323.110  160.156  109.215    0.336    0.227    7.330
  323.360  160.261  109.216    0.326    0.225    7.324
  323.610  160.675  104.842    0.336    0.221    7.326
  323.860  161.192  102.899    0.351    0.213    7.305
  324.110  160.783  101.198    0.360    0.202    7.292
  324.360  160.580   98.161    0.329    0.185    7.246
  324.610  160.583  101.019    0.336    0.174    7.049
  324.860  161.511  105.032    0.349    0.203    6.827
  325.110  161.720  112.509    0.369    0.216    6.510
  325.360  161.105  117.677    0.393    0.217    6.177
  325.610  160.593  123.756    0.385    0.222    5.875
  325.860  160.081  128.073    0.388    0.221    5.590
  326.110  160.495  128.561    0.364    0.218    5.288
  326.360  160.292  129.839    0.384    0.216    4.931
  326.610  160.501  134.095    0.395    0.215    4.750
  326.860  161.224  134.704    0.409    0.215    4.640
  327.110  161.638  125.954    0.393    0.215    4.619
  327.360  162.155  129.906    0.404    0.209    4.654
  327.610  161.849  133.797    0.415    0.199    4.952
  327.860  161.955  134.102    0.385    0.194    5.419
  328.110  161.957  132.463    0.341    0.183    6.270
  328.360  161.959  134.166    0.303    0.176    7.505
  328.610  161.962  103.232    0.250    0.143    8.852
  328.860  162.171  101.592    0.209    0.115    9.951
  329.110  162.585  108.340    0.176    0.069   10.874
  329.360  162.485  115.027    0.153    0.120   11.589
  329.610  162.384  118.311    0.224    0.209   11.224
  329.860  161.976  115.821    0.313    0.212   10.730
  330.110  161.567  113.026    0.327    0.213   10.245
  330.360  160.849  109.624    0.292    0.220   11.096
  330.610  160.542   95.890    0.260    0.238   12.179
  330.860  160.031   73.404    0.248    0.268   12.958
  331.110  159.724   69.516    0.300    0.292   14.001
  331.360  159.006   64.959    0.303    0.300   14.836
  331.610  158.803   65.082    0.311    0.298   14.583
  331.860  158.291   74.443    0.319    0.288   13.193
  332.110  158.397   79.976    0.331    0.265   11.299
  332.360  158.399   86.237    0.361    0.236    9.149
  332.610  158.505   97.483    0.351    0.221    7.767
  332.860  158.713  108.971    0.326    0.210    5.945
  333.110  159.025  115.415    0.298    0.209    3.803
  333.360  159.131  118.334    0.353    0.215    3.142
  333.610  159.441  131.828    0.402    0.225    2.857
  333.860  160.165  139.792    0.464    0.234    2.755
  334.110  160.991  138.152    0.455    0.229    2.846
  334.360  162.022  133.352    0.445    0.221    3.009
  334.610  162.540  129.221    0.436    0.215    3.179
  334.860  162.748  125.819    0.427    0.211    3.479
  335.110  162.957  122.356    0.417    0.202    3.633
  335.360  162.547  121.750    0.407    0.198    3.643
  335.610  162.036  125.155    0.405    0.190    3.574
  335.860  162.141  133.726    0.393    0.186    3.529
  336.110  162.040  144.182    0.391    0.197    3.539
  336.360  161.632  142.846    0.418    0.218    3.622
  336.610  160.708  134.339    0.418    0.221    3.809
  336.860  159.578  130.329    0.403    0.211    4.108
  337.110  158.346  126.745    0.388    0.212    4.702
  337.360  158.040  106.386    0.376    0.225    7.634
  337.610  158.763   86.574    0.280    0.281   11.102
  337.860  159.177   91.437    0.250    0.260   12.753
  338.110  159.901   98.489    0.152    0.235   13.812
  338.360  160.212  104.325    0.164    0.228   13.744
  338.610  160.523  101.106    0.299    0.234   13.834
  338.860  160.629   94.786    0.260    0.243   14.509
  339.110  160.941   88.892    0.235    0.255   15.240
  339.360  161.354   81.418    0.204    0.257   15.851
  339.610  161.974   78.746    0.187    0.258   16.462
  339.860  161.771   84.278    0.178    0.244   16.848
  340.110  159.921   84.766    0.199    0.235   16.819
  340.360  157.660   90.298    0.228    0.238   13.884
  340.610  156.633   87.382    0.223    0.243   13.167
  340.860  158.385   83.615    0.229    0.250   13.082
  341.110  159.932   78.633    0.169    0.271   13.229
  341.360  160.655   72.557    0.143    0.295   13.343
