~VERSION INFORMATION
 VERS.                 2.0:   CWLS LOG ASCII STANDARD -VERSION 2.0
 WRAP.                  NO:   ONE LINE PER DEPTH STEP
~WELL INFORMATION BLOCK
#MNEM.UNIT           DATA                    DESCRIPTION OF MNEMONIC
#---------    -------------------            -------------------------------
# Generated from Intellog Unique Number	CS_71_72/WELL/870
WELL.         AEC IPIATIK KIRBY              : Well_name    - WELL
LOC .         00/10-25-071-05W4/0            : Location     - LOCATION
UWI .         00/10-25-071-05W4/0            : Uwi          - UNIQUE WELL ID
ENTR.         SP                             : Entered      - ENTERED BY
SRVC.         SCHLUMBERGER                   : Scn          - SERVICE COMPANY
STRT.M        300                            : top_depth    - START DEPTH
STOP.M        520                            : bot_depth    - STOP DEPTH
STEP.M        0.25                           : increment    - STEP LENGTH
 NULL. -999.2500:NULL Value
~CURVE INFORMATION BLOCK
#MNEM UNIT       ERCB CURVE CODE    CURVE DESCRIPTION
#-----------   ------------------   ----------------------------------
DEPT.M        00 001 00 00         : DEPTH        - DEPTH
GR  .API      00 310 00 00         : GR           - GAMMA RAY
NPHI.V/V      00 330 00 00         : PHIN         - NEUTRON POROSITY (LIMESTONE)
DPHI.V/V      00 890 00 00         : PHID         - DENSITY POROSITY (LIMESTONE)
ILD .OHMM     00 120 00 00         : RESD         - DEEP RESISTIVITY (DIL)
~PARAMETER INFORMATION
#MNEM.UNIT           DATA             DESCRIPTION OF MNEMONIC
#---------         -----------     ------------------------------
GL  .M        681.4                : gl           - GROUND LEVEL ELEVATION
EREF.M        685.4                : kb           - ELEVATION OF DEPTH REFERENCE
DATM.M        681.4                : datum        - DATUM ELEVATION
TDD .M        543.5                : tdd          - TOTAL DEPTH DRILLER
RUN .         ONE                  : Run          - RUN NUMBER
ENG .         BILL                 : Engineer     - RECORDING ENGINEER
WIT .         JIM                  : Witness      - WITNESSED BY
MUD .         GEL                  : Mud_type     - MUD TYPE
MATR.         LIMESTONE            : Logunit      - NEUTRON MATRIX
TMAX.C        20                   : BHT          - MAXIMUM RECORDED TEMPERATURE
BHTD.M        543.5                : BHTDEP       - MAXIMUM RECORDED TEMPERATURE
MATR.         1                    : LOGUNIT      - NEUTRON MATRIX
RMT .C        25                   : MDTP         - TEMPERATURE OF MUD
NEUT.         1                    : NEUTRON      - NEUTRON TYPE
RESI.         0                    : RESIST       - RESISTIVITY TYPE
RMC .OHMM     0.25                 : RMC          - RESISTIVITY OF MUD CAKE
RMF .OHMM     0.25                 : RMF          - RESISTIVITY OF MUD FILTRATE
SUFT.C        15                   : SUFT         - SURFACE TEMPERATURE
~A  DEPTH       GR     PHIN     PHID     RESD
# ...
  343.500   79.333    0.414    0.251    6.734
  343.750   77.363    0.421    0.251    6.853
  344.000   76.184    0.416    0.251    6.922
  344.250   78.040    0.409    0.254    6.966
  344.500   79.344    0.408    0.251    6.958
  344.750   79.681    0.413    0.241    6.911
  345.000   78.259    0.418    0.234    6.864
  345.250   78.596    0.422    0.237    6.743
  345.500   82.026    0.413    0.247    6.720
  345.750   86.062    0.400    0.253    6.700
  346.000   87.916    0.392    0.245    6.705
  346.250   82.495    0.395    0.246    6.697
  346.500   76.526    0.399    0.255    6.701
  346.750   73.277    0.389    0.259    6.706
  347.000   73.917    0.379    0.259    6.686
  347.250   75.283    0.393    0.253    6.678
  347.500   77.622    0.409    0.248    6.658
  347.750   79.049    0.400    0.258    6.637
  348.000   77.871    0.409    0.269    6.617
  348.250   70.987    0.419    0.273    6.597
  348.500   70.415    0.422    0.267    6.564
  348.750   73.845    0.408    0.257    6.544
  349.000   77.279    0.404    0.241    6.537
  349.250   79.492    0.404    0.232    6.529
  349.500   82.693    0.409    0.233    6.510
  349.750   83.805    0.413    0.242    6.478
  350.000   84.946    0.414    0.244    6.435
  350.250   84.964    0.412    0.234    6.401
  350.500   84.153    0.401    0.227    6.288
  350.750   82.363    0.392    0.225    6.188
  351.000   80.095    0.382    0.240    6.144
  351.250   79.091    0.380    0.247    6.024
  351.500   80.277    0.391    0.251    5.937
  351.750   81.223    0.400    0.259    5.787
  352.000   80.891    0.405    0.261    5.662
  352.250   76.739    0.416    0.253    5.407
  352.500   68.703    0.432    0.250    5.114
  352.750   56.726    0.443    0.290    4.757
  353.000   47.903    0.429    0.316    4.441
  353.250   44.417    0.416    0.324    4.224
  353.500   42.030    0.406    0.331    3.989
  353.750   40.306    0.426    0.342    3.837
  354.000   38.938    0.442    0.341    3.677
  354.250   37.577    0.434    0.335    3.605
  354.500   36.341    0.421    0.327    3.607
  354.750   35.286    0.426    0.318    3.658
  355.000   34.763    0.421    0.315    3.751
  355.250   34.008    0.412    0.321    3.803
  355.500   33.620    0.405    0.328    3.871
  355.750   33.952    0.398    0.331    3.902
  356.000   35.199    0.396    0.331    3.912
  356.250   36.326    0.417    0.327    3.893
  356.500   36.175    0.433    0.331    3.831
  356.750   35.240    0.433    0.342    3.762
  357.000   36.911    0.421    0.353    3.709
  357.250   38.884    0.428    0.352    3.663
  357.500   39.953    0.444    0.339    3.638
  357.750   39.620    0.433    0.328    3.668
  358.000   38.621    0.432    0.325    3.726
  358.250   38.352    0.442    0.336    3.785
  358.500   37.294    0.425    0.341    3.780
  358.750   36.234    0.414    0.353    3.755
  359.000   37.358    0.406    0.359    3.702
  359.250   40.852    0.404    0.352    3.588
  359.500   41.310    0.419    0.343    3.491
  359.750   38.559    0.427    0.341    3.422
  360.000   36.285    0.416    0.344    3.329
  360.250   34.252    0.426    0.352    3.197
  360.500   32.463    0.443    0.356    3.087
  360.750   31.285    0.455    0.358    2.970
  361.000   31.985    0.446    0.359    2.889
  361.250   34.444    0.430    0.356    2.801
  361.500   35.398    0.412    0.356    2.740
  361.750   34.876    0.402    0.361    2.676
  362.000   34.123    0.392    0.374    2.613
  362.250   33.496    0.408    0.383    2.548
  362.500   32.615    0.430    0.387    2.511
  362.750   31.373    0.444    0.382    2.439
  363.000   31.590    0.440    0.378    2.413
  363.250   33.194    0.431    0.378    2.352
  363.500   35.716    0.422    0.379    2.315
  363.750   40.844    0.425    0.362    2.316
  364.000   47.734    0.439    0.327    2.331
  364.250   50.923    0.448    0.317    2.403
  364.500   45.435    0.442    0.328    2.502
  364.750   40.312    0.430    0.349    2.565
  365.000   37.555    0.421    0.361    2.557
  365.250   36.677    0.431    0.358    2.488
  365.500   34.468    0.434    0.358    2.435
  365.750   31.830    0.416    0.366    2.382
  366.000   29.376    0.405    0.369    2.361
  366.250   28.560    0.443    0.369    2.341
  366.500   30.717    0.469    0.366    2.325
  366.750   36.453    0.449    0.366    2.322
  367.000   44.675    0.429    0.353    2.337
  367.250   51.807    0.407    0.336    2.356
  367.500   58.270    0.421    0.327    2.416
  367.750   62.008    0.420    0.329    2.501
  368.000   61.552    0.418    0.312    2.608
  368.250   55.640    0.430    0.297    2.736
  368.500   49.607    0.432    0.305    2.826
  368.750   50.007    0.422    0.319    2.898
  369.000   50.645    0.416    0.325    2.911
  369.250   46.498    0.412    0.319    2.870
  369.500   44.281    0.409    0.321    2.850
  369.750   46.984    0.397    0.330    2.879
  370.000   58.366    0.381    0.321    2.930
  370.250   61.002    0.373    0.300    2.916
  370.500   61.764    0.432    0.282    2.848
  370.750   54.093    0.450    0.301    2.719
  371.000   42.664    0.441    0.340    2.586
  371.250   34.452    0.433    0.355    2.383
  371.500   30.113    0.443    0.375    2.217
  371.750   28.813    0.458    0.391    2.089
  372.000   29.575    0.463    0.400    1.998
  372.250   30.761    0.449    0.388    1.951
  372.500   32.388    0.429    0.375    1.942
  372.750   32.886    0.419    0.357    2.010
  373.000   36.383    0.418    0.325    2.255
  373.250   47.333    0.416    0.295    2.667
  373.500   57.433    0.427    0.269    3.172
  373.750   52.312    0.429    0.221    3.559
  374.000   44.043    0.355    0.168    3.919
  374.250   40.975    0.254    0.133    4.173
  374.500   39.854    0.355    0.209    4.113
  374.750   42.072    0.408    0.279    3.862
  375.000   49.020    0.424    0.312    3.505
  375.250   66.465    0.402    0.330    3.254
  375.500   76.387    0.403    0.291    3.362
  375.750   83.822    0.423    0.266    3.844
  376.000   86.524    0.434    0.254    4.321
  376.250   85.586    0.422    0.245    4.626
  376.500   79.916    0.427    0.255    4.656
  376.750   70.181    0.455    0.274    4.437
  377.000   64.512    0.458    0.287    4.213
  377.250   67.946    0.443    0.300    4.114
  377.500   72.406    0.450    0.291    4.079
  377.750   75.049    0.439    0.282    4.183
  378.000   76.112    0.435    0.282    4.338
  378.250   75.907    0.445    0.278    4.498
  378.500   77.634    0.447    0.268    4.621
  378.750   82.043    0.435    0.252    4.694
  379.000   84.798    0.439    0.242    4.777
  379.250   86.773    0.447    0.239    4.836
  379.500   91.237    0.435    0.250    4.838
  379.750   94.487    0.426    0.258    4.833
  380.000   95.066    0.432    0.262    4.802
  380.250   91.639    0.446    0.258    4.794
  380.500   89.063    0.449    0.253    4.790
  380.750   92.927    0.451    0.253    4.783
  381.000   94.710    0.443    0.261    4.768
  381.250   93.835    0.428    0.253    4.746
  381.500   93.685    0.428    0.254    4.713
  381.750   94.757    0.477    0.265    4.612
  382.000   96.367    0.499    0.270    4.511
  382.250   97.790    0.487    0.272    4.206
  382.500   99.037    0.469    0.273    4.091
  382.750   97.858    0.495    0.272    3.957
  383.000   94.311    0.519    0.262    3.682
  383.250   93.680    0.504    0.247    3.608
  383.500   94.562    0.497    0.240    3.517
  383.750   94.597    0.524    0.253    3.428
  384.000   93.719    0.540    0.263    3.373
  384.250   91.327    0.522    0.270    3.344
  384.500   88.876    0.516    0.274    3.346
  384.750   86.673    0.510    0.280    3.452
  385.000   85.903    0.500    0.270    3.485
  385.250   84.724    0.489    0.255    3.623
  385.500   84.149    0.481    0.250    3.659
  385.750   83.222    0.474    0.263    3.702
  386.000   83.253    0.477    0.275    3.753
  386.250   83.583    0.455    0.283    3.806
  386.500   86.347    0.438    0.278    3.852
  386.750   86.743    0.467    0.265    3.891
