~VERSION INFORMATION
 VERS.                 2.0:   CWLS LOG ASCII STANDARD -VERSION 2.0
 WRAP.                  NO:   ONE LINE PER DEPTH STEP
~WELL INFORMATION BLOCK
#MNEM.UNIT           DATA                    DESCRIPTION OF MNEMONIC
#---------    -------------------            -------------------------------
# Generated from Intellog Unique Number	CW_73_75/WELL/2750
WELL.         QUINTANA CEGO BLANCHE 14-15    : Well_name    - WELL
LOC .         00/14-15-073-03W5/0            : Location     - LOCATION
UWI .         00/14-15-073-03W5/0            : Uwi          - UNIQUE WELL ID
ENTR.         JAYE                           : Entered      - ENTERED BY
SRVC.         SCHLUMBERGER                   : Scn          - SERVICE COMPANY
DATE.         31 JAN 81                      : Date         - LOG DATE
STRT.M        400                            : top_depth    - START DEPTH
STOP.M        640                            : bot_depth    - STOP DEPTH
STEP.M        0.25                           : increment    - STEP LENGTH
 NULL. -999.2500:NULL Value
~CURVE INFORMATION BLOCK
#MNEM UNIT       ERCB CURVE CODE    CURVE DESCRIPTION
#-----------   ------------------   ----------------------------------
DEPT.M        00 001 00 00         : DEPTH        - DEPTH
DPHI.V/V      00 890 00 00         : PHID         - DENSITY POROSITY (SANDSTONE)
NPHI.V/V      00 330 00 00         : PHIN         - NEUTRON POROSITY (SANDSTONE)
GR  .API      00 310 00 00         : GR           - GAMMA RAY
CALI.MM       00 280 01 00         : CAL          - CALIPER
ILD .OHMM     00 120 00 00         : RESD         - DEEP RESISTIVITY (DIL)
~PARAMETER INFORMATION
#MNEM.UNIT           DATA             DESCRIPTION OF MNEMONIC
#---------         -----------     ------------------------------
GL  .M        608.48               : gl           - GROUND LEVEL ELEVATION
EREF.M        612.88               : kb           - ELEVATION OF DEPTH REFERENCE
DATM.M        608.48               : datum        - DATUM ELEVATION
TDD .M        1585                 : tdd          - TOTAL DEPTH DRILLER
RUN .         ONE                  : Run          - RUN NUMBER
ENG .         VERKAIK              : Engineer     - RECORDING ENGINEER
WIT .         WALSH                : Witness      - WITNESSED BY
BASE.         EDM                  : Branch       - HOME BASE OF LOGGING UNIT
MUD .         GEL CHEM             : Mud_type     - MUD TYPE
MATR.         SANDSTONE            : Logunit      - NEUTRON MATRIX
TMAX.C        47.8                 : BHT          - MAXIMUM RECORDED TEMPERATURE
BHTD.M        1585                 : BHTDEP       - MAXIMUM RECORDED TEMPERATURE
RMT .C        16.7                 : MDTP         - TEMPERATURE OF MUD
MUDD.KG/M     1070                 : MWT          - MUD DENSITY
NEUT.         1                    : NEUTRON      - NEUTRON TYPE
RESI.         0                    : RESIST       - RESISTIVITY TYPE
RM  .OHMM     0.52                 : RM           - RESISTIVITY OF MUD
RMC .OHMM     0                    : RMC          - RESISTIVITY OF MUD CAKE
RMF .OHMM     0.5                  : RMF          - RESISTIVITY OF MUD FILTRATE
SUFT.C        0                    : SUFT         - SURFACE TEMPERATURE
~A  DEPTH     PHID     PHIN       GR      CAL     RESD
# ...
  619.000    0.069    0.184   67.767  256.719   10.072
  619.250    0.070    0.222   78.223  257.945    9.629
  619.500    0.102    0.251   87.312  260.211    9.171
  619.750    0.112    0.252   95.784  262.796    8.800
  620.000    0.117    0.256  101.410  264.645    8.240
  620.250    0.146    0.290  108.406  265.149    7.848
  620.500    0.163    0.323  118.173  264.849    7.446
  620.750    0.167    0.360  134.933  264.731    7.282
  621.000    0.108    0.175   71.463  264.433    7.663
  621.250    0.043    0.157   43.010  263.900    8.615
  621.500    0.029    0.165   37.316  263.897   10.077
  621.750    0.049    0.202   41.467  264.409   11.632
  622.000    0.103    0.218   44.981  264.516   12.905
  622.250    0.082    0.192   42.261  265.246   13.633
  622.500    0.086    0.177   35.149  265.736   14.294
  622.750    0.072    0.169   34.093  266.488   14.875
  623.000    0.076    0.159   37.929  267.184   15.305
  623.250    0.055    0.158   44.913  267.905   15.165
  623.500    0.043    0.158   53.694  269.344   14.663
  623.750    0.018    0.187   68.844  271.804   13.172
  624.000   -0.006    0.215   79.854  278.311   10.429
  624.250   -0.004    0.313   88.454  286.436    7.278
  624.500    0.035    0.430   97.666  309.422    5.905
  624.750    0.107    0.462  104.838  333.029    5.061
  625.000    0.159    0.472  110.527  325.406    4.730
  625.250    0.179    0.451  116.344  319.532    4.556
  625.500    0.159    0.402  123.017  315.289    4.456
  625.750    0.127    0.383  127.593  312.195    4.456
  626.000    0.116    0.373  131.861  311.054    4.542
  626.250    0.114    0.367  135.075  312.407    4.700
  626.500    0.112    0.357  134.579  313.331    4.900
  626.750    0.100    0.350  128.265  313.522    5.138
  627.000    0.085    0.338  134.329  313.317    5.286
  627.250    0.082    0.337  143.789  312.384    5.429
  627.500    0.088    0.350  138.407  311.049    5.544
  627.750    0.101    0.359  132.155  309.505    5.640
  628.000    0.112    0.370  133.582  308.557    5.716
  628.250    0.113    0.380  133.207  306.189    5.794
  628.500    0.114    0.375  130.980  304.635    5.872
  628.750    0.118    0.361  128.194  303.315    5.929
  629.000    0.122    0.341  125.407  302.678    5.987
  629.250    0.125    0.331  121.877  302.052    6.079
  629.500    0.134    0.328  121.071  301.119    6.220
  629.750    0.141    0.344  127.073  300.387    6.387
  630.000    0.131    0.345  122.304  299.359    6.523
  630.250    0.113    0.333  113.888  299.149    6.674
  630.500    0.107    0.320  113.459  299.561    6.815
  630.750    0.119    0.305  120.012  297.499    6.933
  631.000    0.125    0.335  126.319  295.842    7.054
  631.250    0.126    0.335  130.398  294.419    7.082
  631.500    0.124    0.327  121.182  293.361    7.043
  631.750    0.121    0.319  116.292  292.734    6.940
  632.000    0.117    0.319  119.693  292.218    6.824
  632.250    0.123    0.332  122.411  291.810    6.636
  632.500    0.120    0.342  126.185  291.182    6.501
  632.750    0.120    0.346  129.891  291.203    6.346
  633.000    0.122    0.343  121.603  291.185    6.287
  633.250    0.113    0.340  121.673  291.071    6.265
  633.500    0.099    0.346  123.823  290.864    6.291
  633.750    0.095    0.344  123.144  290.748    6.292
  634.000    0.111    0.333  119.306  290.760    6.246
  634.250    0.120    0.344  123.140  290.766    6.212
  634.500    0.115    0.358  123.010  290.640    6.226
  634.750    0.110    0.352  119.669  290.846    6.274
  635.000    0.109    0.333  118.186  290.845    6.323
  635.250    0.108    0.316  122.696  290.746    6.360
  635.500    0.117    0.336  126.295  290.247    6.386
  635.750    0.131    0.356  130.243  289.930    6.460
  636.000    0.140    0.369  137.175  289.586    6.547
  636.250    0.147    0.385  144.029  288.869    6.661
  636.500    0.106    0.397  156.153  287.948    6.853
  636.750    0.072    0.250  141.985  287.106    7.078
  637.000    0.058    0.159  125.281  285.760    7.506
  637.250    0.065    0.128  100.661  284.624    8.779
  637.500    0.079    0.108   53.834  280.715   11.716
  637.750    0.024    0.087   33.235  275.962   15.258
  638.000   -0.003    0.077   19.439  271.629   19.316
  638.250    0.010    0.098   17.147  269.678   22.508
  638.500    0.033    0.120   18.514  269.559   24.784
  638.750    0.040    0.115   19.127  269.146   26.332
  639.000    0.021    0.092   18.690  268.937   27.452
  639.250    0.007    0.079   16.770  268.411   28.893
  639.500   -0.000    0.067   18.873  268.720   29.784
  639.750    0.003    0.079   21.654  269.651   30.645
  640.000    0.005    0.089   24.371  270.583   31.413
