~VERSION INFORMATION
 VERS.                 2.0:   CWLS LOG ASCII STANDARD -VERSION 2.0
 WRAP.                  NO:   ONE LINE PER DEPTH STEP
~WELL INFORMATION BLOCK
#MNEM.UNIT           DATA                    DESCRIPTION OF MNEMONIC
#---------    -------------------            -------------------------------
# Generated from Intellog Unique Number	CS_67_68/WELL/862
WELL.         AEC FISH CREEK                 : Well_name    - WELL
LOC .         00/16-21-068-08W4/0            : Location     - LOCATION
UWI .         00/16-21-068-08W4/0            : Uwi          - UNIQUE WELL ID
ENTR.         SP                             : Entered      - ENTERED BY
SRVC.         SCHLUMBERGER                   : Scn          - SERVICE COMPANY
STRT.M        320                            : top_depth    - START DEPTH
STOP.M        555                            : bot_depth    - STOP DEPTH
STEP.M        0.25                           : increment    - STEP LENGTH
 NULL. -999.2500:NULL Value
~CURVE INFORMATION BLOCK
#MNEM UNIT       ERCB CURVE CODE    CURVE DESCRIPTION
#-----------   ------------------   ----------------------------------
DEPT.M        00 001 00 00         : DEPTH        - DEPTH
ILD .OHMM     00 120 00 00         : RESD         - DEEP RESISTIVITY (DIL)
DPHI.V/V      00 890 00 00         : PHID         - DENSITY POROSITY (LIMESTONE)
NPHI.V/V      00 330 00 00         : PHIN         - NEUTRON POROSITY (LIMESTONE)
GR  .API      00 310 00 00         : GR           - GAMMA RAY
~PARAMETER INFORMATION
#MNEM.UNIT           DATA             DESCRIPTION OF MNEMONIC
#---------         -----------     ------------------------------
GL  .M        646.55               : gl           - GROUND LEVEL ELEVATION
EREF.M        649.8                : kb           - ELEVATION OF DEPTH REFERENCE
DATM.M        646.55               : datum        - DATUM ELEVATION
TDD .M        561                  : tdd          - TOTAL DEPTH DRILLER
RUN .         ONE                  : Run          - RUN NUMBER
ENG .         BILL                 : Engineer     - RECORDING ENGINEER
WIT .         JIM                  : Witness      - WITNESSED BY
MUD .         GEL                  : Mud_type     - MUD TYPE
MATR.         LIMESTONE            : Logunit      - NEUTRON MATRIX
TMAX.C        25                   : BHT          - MAXIMUM RECORDED TEMPERATURE
BHTD.M        561                  : BHTDEP       - MAXIMUM RECORDED TEMPERATURE
MATR.         1                    : LOGUNIT      - NEUTRON MATRIX
RMT .C        25                   : MDTP         - TEMPERATURE OF MUD
NEUT.         1                    : NEUTRON      - NEUTRON TYPE
RESI.         0                    : RESIST       - RESISTIVITY TYPE
RMC .OHMM     0.25                 : RMC          - RESISTIVITY OF MUD CAKE
RMF .OHMM     0.25                 : RMF          - RESISTIVITY OF MUD FILTRATE
SUFT.C        15                   : SUFT         - SURFACE TEMPERATURE
~A  DEPTH     RESD     PHID     PHIN       GR
# ...
  363.500    4.551    0.261    0.420  127.404
  363.750    4.509    0.286    0.401  127.192
  364.000    4.501    0.416    0.425  118.811
  364.250    4.527    0.244    0.466  113.834
  364.500    4.553    0.225    0.452  114.243
  364.750    4.563    0.213    0.419  118.054
  365.000    4.555    0.213    0.429  122.669
  365.250    4.547    0.219    0.436  125.921
  365.500    4.496    0.231    0.432  120.140
  365.750    4.430    0.247    0.427  114.669
  366.000    4.381    0.257    0.432  118.852
  366.250    4.365    0.258    0.446  123.649
  366.500    4.357    0.245    0.432  125.603
  366.750    4.375    0.235    0.430  124.712
  367.000    4.383    0.230    0.420  121.656
  367.250    4.376    0.240    0.413  118.469
  367.500    4.360    0.246    0.416  116.591
  367.750    4.386    0.248    0.443  114.895
  368.000    4.403    0.244    0.457  112.457
  368.250    4.412    0.238    0.454  107.975
  368.500    4.412    0.236    0.457  109.804
  368.750    4.438    0.245    0.461  106.128
  369.000    4.497    0.252    0.450   98.057
  369.250    4.859    0.246    0.433   93.391
  369.500    5.075    0.246    0.428   97.015
  369.750    5.162    0.253    0.423  103.427
  370.000    5.242    0.261    0.417  106.059
  370.250    5.183    0.270    0.418  100.095
  370.500    5.049    0.274    0.424   98.643
  370.750    4.919    0.269    0.428   99.918
  371.000    4.846    0.259    0.409   88.878
  371.250    4.838    0.250    0.409   82.479
  371.500    4.847    0.280    0.429   84.431
  371.750    4.885    0.311    0.437   87.315
  372.000    4.904    0.343    0.418   79.184
  372.250    4.905    0.351    0.413   70.927
  372.500    4.915    0.346    0.413   64.032
  372.750    4.934    0.351    0.417   59.737
  373.000    4.935    0.357    0.417   59.896
  373.250    4.954    0.357    0.411   59.871
  373.500    4.946    0.350    0.422   63.867
  373.750    4.937    0.351    0.432   65.636
  374.000    4.919    0.352    0.440   66.228
  374.250    4.920    0.352    0.450   70.530
  374.500    4.911    0.350    0.455   72.302
  374.750    4.884    0.349    0.424   69.490
  375.000    4.894    0.345    0.406   67.114
  375.250    4.923    0.341    0.410   65.726
  375.500    4.970    0.337    0.418   66.073
  375.750    5.065    0.333    0.423   70.007
  376.000    5.133    0.332    0.423   64.717
  376.250    5.183    0.332    0.409   62.035
  376.500    5.232    0.324    0.397   64.855
  376.750    5.313    0.313    0.398   66.498
  377.000    5.374    0.310    0.428   63.563
  377.250    5.415    0.318    0.440   63.477
  377.500    5.416    0.328    0.426   68.834
  377.750    5.356    0.336    0.418   74.190
  378.000    5.287    0.341    0.432   77.693
  378.250    5.218    0.353    0.423   74.760
  378.500    5.102    0.328    0.399   66.936
  378.750    4.980    0.300    0.397   76.190
  379.000    4.915    0.284    0.413   85.941
  379.250    4.907    0.273    0.421   92.905
  379.500    4.972    0.265    0.426   97.152
  379.750    5.087    0.272    0.429   98.178
  380.000    5.175    0.282    0.411   90.666
  380.250    5.294    0.287    0.395   89.402
  380.500    5.385    0.280    0.388   95.007
  380.750    5.467    0.270    0.381  104.510
  381.000    5.520    0.265    0.390  112.404
  381.250    5.531    0.261    0.392  115.966
  381.500    5.522    0.273    0.398  113.961
  381.750    5.502    0.274    0.414  114.183
  382.000    5.503    0.262    0.412  109.083
  382.250    5.503    0.255    0.387  100.512
  382.500    5.504    0.260    0.376   97.213
  382.750    5.536    0.270    0.379   99.600
  383.000    5.547    0.272    0.382   95.180
  383.250    5.548    0.276    0.384   83.458
  383.500    5.549    0.288    0.397   75.512
  383.750    5.560    0.310    0.392   72.516
  384.000    5.540    0.330    0.387   72.677
  384.250    5.458    0.326    0.377   75.620
  384.500    5.277    0.316    0.370   74.479
  384.750    5.083    0.306    0.374   72.348
  385.000    4.896    0.296    0.384   69.971
  385.250    4.869    0.290    0.390   75.084
  385.500    4.916    0.286    0.388   79.450
  385.750    5.038    0.301    0.375   82.577
  386.000    5.125    0.301    0.364   83.544
  386.250    5.273    0.293    0.358   80.240
  386.500    5.343    0.286    0.364   77.305
  386.750    5.425    0.282    0.371   84.820
  387.000    5.457    0.290    0.385   87.894
  387.250    5.448    0.296    0.395   89.603
  387.500    5.438    0.298    0.383   85.984
  387.750    5.439    0.292    0.373   85.404
  388.000    5.429    0.287    0.363   85.376
  388.250    5.441    0.281    0.352   84.671
  388.500    5.431    0.277    0.354   83.532
  388.750    5.442    0.278    0.380   82.888
  389.000    5.443    0.271    0.376   87.868
  389.250    5.444    0.257    0.367   91.437
  389.500    5.424    0.246    0.363   95.184
  389.750    5.425    0.235    0.354  100.791
  390.000    5.395    0.227    0.349  105.467
  390.250    5.396    0.235    0.358  107.049
  390.500    5.397    0.259    0.366  105.167
  390.750    5.408    0.276    0.365  101.488
  391.000    5.429    0.292    0.354   96.639
  391.250    5.460    0.275    0.348   91.594
  391.500    5.513    0.263    0.347   88.972
  391.750    5.619    0.258    0.354   87.587
  392.000    5.694    0.256    0.380   90.714
  392.250    5.727    0.254    0.392   92.734
  392.500    5.717    0.250    0.396   92.585
  392.750    5.675    0.258    0.391   89.956
  393.000    5.570    0.255    0.388   89.810
  393.250    5.446    0.250    0.390   96.960
  393.500    5.246    0.251    0.401   95.575
  393.750    5.081    0.256    0.391   88.864
  394.000    4.950    0.262    0.381   86.489
  394.250    4.923    0.268    0.377   91.101
  394.500    4.914    0.272    0.396   93.800
  394.750    4.887    0.276    0.400   94.888
  395.000    4.851    0.281    0.388   93.933
  395.250    4.816    0.281    0.385   89.944
  395.500    4.753    0.279    0.396   86.639
  395.750    4.727    0.279    0.397   86.554
  396.000    4.710    0.280    0.393   89.746
  396.250    4.684    0.280    0.400   90.707
  396.500    4.641    0.284    0.406   90.866
  396.750    4.616    0.287    0.402   90.348
  397.000    4.573    0.278    0.404   89.270
  397.250    4.540    0.267    0.413   88.004
  397.500    4.481    0.263    0.415   91.073
  397.750    4.390    0.267    0.407   94.881
  398.000    4.284    0.274    0.405   97.149
  398.250    4.181    0.280    0.408   91.863
  398.500    4.050    0.276    0.415   93.011
  398.750    3.960    0.271    0.415   99.113
  399.000    3.836    0.271    0.408  103.666
  399.250    3.723    0.273    0.407   99.424
  399.500    3.620    0.275    0.411   98.103
  399.750    3.559    0.276    0.411   96.222
  400.000    3.553    0.278    0.406   93.352
  400.250    3.567    0.288    0.410   88.500
  400.500    3.615    0.294    0.415   86.556
  400.750    3.670    0.298    0.415   86.340
  401.000    3.699    0.302    0.399   86.810
  401.250    3.699    0.304    0.395   85.547
  401.500    3.679    0.301    0.410   83.481
  401.750    3.631    0.296    0.405   86.979
  402.000    3.578    0.290    0.392   91.411
  402.250    3.498    0.285    0.394   95.221
  402.500    3.433    0.282    0.398   95.567
  402.750    3.376    0.281    0.405   90.839
  403.000    3.326    0.288    0.408   91.059
  403.250    3.314    0.307    0.415   90.847
  403.500    3.321    0.321    0.419   84.634
  403.750    3.347    0.325    0.405   79.221
  404.000    3.391    0.315    0.395   75.920
  404.250    3.489    0.320    0.390   74.345
  404.500    3.630    0.322    0.386   75.432
  404.750    3.827    0.319    0.383   80.108
  405.000    4.073    0.314    0.390   83.984
  405.250    4.319    0.316    0.403   83.152
  405.500    4.494    0.322    0.413   78.918
  405.750    4.711    0.324    0.397   73.324
  406.000    4.783    0.322    0.374   75.462
  406.250    4.775    0.316    0.340   77.047
  406.500    4.722    0.076    0.302   75.224
  406.750    4.696    0.044    0.161   73.469
