~VERSION INFORMATION
 VERS.                 2.0:   CWLS LOG ASCII STANDARD -VERSION 2.0
 WRAP.                  NO:   ONE LINE PER DEPTH STEP
~WELL INFORMATION BLOCK
#MNEM.UNIT           DATA                    DESCRIPTION OF MNEMONIC
#---------    -------------------            -------------------------------
# Generated from Intellog Unique Number	CS_71_72/WELL/867
WELL.         PEX PHILLIPS AEC GRIST         : Well_name    - WELL
LOC .         00/10-23-071-08W4/0            : Location     - LOCATION
UWI .         00/10-23-071-08W4/0            : Uwi          - UNIQUE WELL ID
ENTR.         SP                             : Entered      - ENTERED BY
SRVC.         SCHLUMBERGER                   : Scn          - SERVICE COMPANY
STRT.M        310                            : top_depth    - START DEPTH
STOP.M        530                            : bot_depth    - STOP DEPTH
STEP.M        0.25                           : increment    - STEP LENGTH
 NULL. -999.2500:NULL Value
~CURVE INFORMATION BLOCK
#MNEM UNIT       ERCB CURVE CODE    CURVE DESCRIPTION
#-----------   ------------------   ----------------------------------
DEPT.M        00 001 00 00         : DEPTH        - DEPTH
ILD .OHMM     00 120 00 00         : RESD         - DEEP RESISTIVITY (DIL)
DPHI.V/V      00 890 00 00         : PHID         - DENSITY POROSITY (LIMESTONE)
NPHI.V/V      00 330 00 00         : PHIN         - NEUTRON POROSITY (LIMESTONE)
GR  .API      00 310 00 00         : GR           - GAMMA RAY
~PARAMETER INFORMATION
#MNEM.UNIT           DATA             DESCRIPTION OF MNEMONIC
#---------         -----------     ------------------------------
GL  .M        670.2                : gl           - GROUND LEVEL ELEVATION
EREF.M        674                  : kb           - ELEVATION OF DEPTH REFERENCE
DATM.M        670.2                : datum        - DATUM ELEVATION
TDD .M        540                  : tdd          - TOTAL DEPTH DRILLER
RUN .         ONE                  : Run          - RUN NUMBER
ENG .         BILL                 : Engineer     - RECORDING ENGINEER
WIT .         JIM                  : Witness      - WITNESSED BY
MUD .         GEL                  : Mud_type     - MUD TYPE
MATR.         LIMESTONE            : Logunit      - NEUTRON MATRIX
TMAX.C        23                   : BHT          - MAXIMUM RECORDED TEMPERATURE
BHTD.M        540                  : BHTDEP       - MAXIMUM RECORDED TEMPERATURE
MATR.         1                    : LOGUNIT      - NEUTRON MATRIX
RMT .C        25                   : MDTP         - TEMPERATURE OF MUD
NEUT.         1                    : NEUTRON      - NEUTRON TYPE
RESI.         0                    : RESIST       - RESISTIVITY TYPE
RMC .OHMM     0.25                 : RMC          - RESISTIVITY OF MUD CAKE
RMF .OHMM     0.25                 : RMF          - RESISTIVITY OF MUD FILTRATE
SUFT.C        15                   : SUFT         - SURFACE TEMPERATURE
~A  DEPTH     RESD     PHID     PHIN       GR
# ...
  440.500    1.887    0.302    0.575   87.722
  440.750    1.815    0.288    0.602   84.493
  441.000    1.795    0.282    0.623   83.151
  441.250    1.805    0.295    0.606   82.357
  441.500    1.840    0.318    0.594   82.414
  441.750    1.889    0.319    0.586   82.350
  442.000    1.968    0.313    0.566   82.284
  442.250    2.166    0.304    0.562   81.917
  442.500    2.487    0.303    0.570   80.392
  442.750    2.856    0.314    0.528   78.382
  443.000    3.219    0.312    0.506   75.762
  443.250    3.476    0.297    0.481   73.933
  443.500    3.775    0.283    0.484   75.269
  443.750    4.083    0.256    0.494   75.935
  444.000    4.426    0.235    0.473   74.228
  444.250    4.770    0.220    0.457   72.703
  444.500    5.046    0.205    0.432   72.700
  444.750    5.318    0.200    0.442   73.609
  445.000    5.429    0.215    0.459   75.004
  445.250    5.390    0.224    0.462   76.583
  445.500    5.184    0.218    0.447   78.101
  445.750    4.948    0.226    0.454   79.559
  446.000    4.786    0.242    0.468   80.955
  446.250    4.672    0.235    0.486   83.082
  446.500    4.629    0.202    0.473   84.781
  446.750    4.587    0.201    0.462   81.067
  447.000    4.579    0.211    0.458   80.820
  447.250    4.623    0.222    0.452   81.121
  447.500    4.668    0.229    0.444   81.482
  447.750    4.686    0.234    0.438   81.357
  448.000    4.678    0.239    0.439   81.354
  448.250    4.662    0.241    0.458   82.082
  448.500    4.636    0.239    0.449   86.033
  448.750    4.552    0.231    0.444   91.993
  449.000    4.527    0.226    0.442   97.588
  449.250    4.486    0.231    0.452  102.757
  449.500    4.437    0.329    0.475   95.634
  449.750    4.405    0.342    0.490   89.789
  450.000    4.373    0.319    0.460   85.770
  450.250    4.349    0.267    0.449   80.534
  450.500    4.318    0.279    0.438   73.350
  450.750    4.286    0.274    0.428   76.085
  451.000    4.247    0.266    0.423   74.317
  451.250    4.209    0.276    0.428   71.393
  451.500    4.155    0.284    0.437   68.408
  451.750    4.094    0.265    0.440   65.910
  452.000    4.042    0.264    0.400   68.097
  452.250    3.990    0.285    0.410   71.075
  452.500    3.888    0.305    0.454   73.080
  452.750    3.711    0.278    0.476   74.903
  453.000    3.425    0.265    0.456   76.664
  453.250    3.012    0.288    0.444   78.243
  453.500    2.658    0.314    0.468   78.422
  453.750    2.377    0.336    0.509   77.749
  454.000    2.149    0.341    0.534   76.041
  454.250    2.002    0.333    0.568   74.760
  454.500    1.897    0.328    0.560   73.723
  454.750    1.891    0.315    0.539   72.988
  455.000    1.919    0.304    0.526   73.169
  455.250    2.027    0.306    0.523   74.261
  455.500    2.225    0.309    0.527   75.171
  455.750    2.648    0.270    0.506   72.672
  456.000    2.881    0.247    0.451   70.843
  456.250    3.235    0.236    0.440   73.700
  456.500    3.552    0.225    0.425   75.826
  456.750    3.850    0.232    0.416   75.397
  457.000    3.894    0.262    0.427   74.907
  457.250    3.642    0.277    0.449   74.904
  457.500    3.444    0.279    0.479   75.812
  457.750    3.464    0.268    0.483   76.540
  458.000    3.603    0.277    0.472   78.178
  458.250    3.748    0.282    0.467   78.055
  458.500    3.928    0.286    0.486   75.131
  458.750    4.041    0.181    0.509   72.511
  459.000    4.141    0.148    0.411   70.986
  459.250    4.212    0.197    0.423   68.123
  459.500    4.300    0.283    0.474   63.069
  459.750    4.531    0.308    0.508   57.467
  460.000    4.857    0.306    0.470   54.178
  460.250    5.284    0.292    0.448   50.342
  460.500    5.694    0.282    0.438   46.991
  460.750    6.046    0.270    0.412   45.893
  461.000    6.196    0.252    0.365   46.437
  461.250    6.071    0.205    0.333   50.450
  461.500    5.688    0.220    0.329   54.889
  461.750    5.163    0.255    0.362   59.084
  462.000    4.748    0.292    0.389   61.454
  462.250    4.532    0.287    0.412   62.728
  462.500    4.367    0.280    0.415   61.873
  462.750    4.335    0.274    0.413   62.357
  463.000    4.369    0.275    0.406   64.544
  463.250    4.418    0.272    0.410   64.845
  463.500    4.486    0.264    0.420   65.024
  463.750    4.487    0.257    0.419   67.029
  464.000    4.396    0.254    0.403   71.103
  464.250    4.212    0.249    0.389   75.541
  464.500    3.838    0.237    0.399   79.250
  464.750    3.483    0.239    0.430   80.707
  465.000    3.109    0.243    0.461   77.539
  465.250    2.891    0.240    0.483   74.981
  465.500    2.796    0.236    0.506   73.638
  465.750    2.776    0.236    0.486   78.016
  466.000    2.771    0.243    0.473   83.063
  466.250    2.834    0.248    0.485   85.981
  466.500    2.981    0.276    0.508   79.893
  466.750    3.463    0.296    0.533   72.161
  467.000    4.190    0.301    0.450   66.986
  467.250    5.070    0.243    0.414   62.419
  467.500    6.022    0.203    0.401   60.225
  467.750    6.687    0.130    0.365   62.838
  468.000    6.840    0.134    0.363   66.121
  468.250    6.652    0.190    0.385   69.342
  468.500    6.049    0.236    0.405   71.956
  468.750    5.491    0.217    0.394   73.413
  469.000    4.993    0.226    0.419   70.184
  469.250    4.532    0.253    0.450   70.607
  469.500    4.098    0.281    0.481   73.464
  469.750    3.919    0.261    0.439   76.260
  470.000    3.890    0.274    0.464   78.204
  470.250    4.131    0.293    0.488   70.289
  470.500    4.709    0.278    0.469   66.027
  470.750    5.397    0.265    0.423   63.224
  471.000    6.580    0.254    0.388   60.544
  471.250    7.253    0.255    0.370   58.410
  471.500    7.687    0.259    0.366   59.442
  471.750    7.996    0.260    0.366   61.203
  472.000    8.133    0.250    0.364   62.051
  472.250    8.180    0.241    0.362   62.109
  472.500    8.060    0.239    0.365   61.558
  472.750    8.002    0.233    0.370   60.581
  473.000    8.836    0.209    0.369   57.839
  473.250    9.886    0.004    0.380   54.246
  473.500   10.131    0.003    0.332   51.444
  473.750   10.114    0.084    0.306   56.552
  474.000    9.800    0.141    0.331   66.893
  474.250    8.928    0.184    0.387   79.668
  474.500    8.716    0.218    0.410   84.655
  474.750    9.117    0.245    0.431   83.130
  475.000    9.483    0.278    0.430   78.868
  475.250    9.773    0.293    0.410   76.126
  475.500    9.702    0.281    0.405   82.329
  475.750    9.331    0.261    0.416   87.681
  476.000    8.083    0.231    0.398   90.233
  476.250    7.629    0.237    0.381   88.161
  476.500    7.907    0.240    0.382   83.655
  476.750    9.321    0.261    0.388   77.079
  477.000   11.996    0.282    0.386   70.930
  477.250   14.570    0.288    0.374   66.607
  477.500   16.546    0.278    0.374   66.846
  477.750   16.956    0.275    0.380   68.852
  478.000   14.203    0.273    0.383   68.483
  478.250   11.206    0.264    0.376   71.644
  478.500    9.527    0.247    0.371   77.482
  478.750    8.487    0.226    0.375   81.556
  479.000    7.937    0.213    0.379   84.048
  479.250    7.792    0.214    0.386   81.549
  479.500    8.150    0.250    0.411   79.477
  479.750    8.834    0.266    0.433   78.379
  480.000    9.450    0.262    0.415   80.201
  480.250    9.959    0.262    0.402   81.232
  480.500   10.340    0.267    0.397   80.802
  480.750   10.518    0.270    0.402   81.165
  481.000   10.598    0.273    0.408   87.185
  481.250   10.269    0.261    0.407   90.711
  481.500    9.730    0.237    0.376   91.925
  481.750    8.981    0.210    0.349   86.445
  482.000    8.016    0.205    0.378   82.425
  482.250    7.357    0.248    0.409   80.658
  482.500    6.880    0.233    0.390   78.585
  482.750    6.729    0.178    0.394   76.757
  483.000    6.730    0.183    0.396   75.780
  483.250    6.694    0.187    0.378   78.028
  483.500    6.498    0.177    0.374   80.763
  483.750    6.099    0.167    0.386   83.254
