~VERSION INFORMATION
 VERS.                 2.0:   CWLS LOG ASCII STANDARD -VERSION 2.0
 WRAP.                  NO:   ONE LINE PER DEPTH STEP
~WELL INFORMATION BLOCK
#MNEM.UNIT           DATA                    DESCRIPTION OF MNEMONIC
#---------    -------------------            -------------------------------
# Generated from Intellog Unique Number	CS_73_76/WELL/856
WELL.         SULPETRO LIMITED               : Well_name    - WELL
LOC .         00/14-25-073-11W4/0            : Location     - LOCATION
UWI .         00/14-25-073-11W4/0            : Uwi          - UNIQUE WELL ID
ENTR.         SP                             : Entered      - ENTERED BY
SRVC.         SCHLUMBERGER                   : Scn          - SERVICE COMPANY
STRT.M        300                            : top_depth    - START DEPTH
STOP.M        525                            : bot_depth    - STOP DEPTH
STEP.M        0.25                           : increment    - STEP LENGTH
 NULL. -999.2500:NULL Value
~CURVE INFORMATION BLOCK
#MNEM UNIT       ERCB CURVE CODE    CURVE DESCRIPTION
#-----------   ------------------   ----------------------------------
DEPT.M        00 001 00 00         : DEPTH        - DEPTH
ILD .OHMM     00 120 00 00         : RESD         - DEEP RESISTIVITY (DIL)
DPHI.V/V      00 890 00 00         : PHID         - DENSITY POROSITY (LIMESTONE)
NPHI.V/V      00 330 00 00         : PHIN         - NEUTRON POROSITY (LIMESTONE)
GR  .API      00 310 00 00         : GR           - GAMMA RAY
~PARAMETER INFORMATION
#MNEM.UNIT           DATA             DESCRIPTION OF MNEMONIC
#---------         -----------     ------------------------------
GL  .M        654.38               : gl           - GROUND LEVEL ELEVATION
EREF.M        657.23               : kb           - ELEVATION OF DEPTH REFERENCE
DATM.M        654.38               : datum        - DATUM ELEVATION
TDD .M        535                  : tdd          - TOTAL DEPTH DRILLER
RUN .         ONE                  : Run          - RUN NUMBER
ENG .         BILL                 : Engineer     - RECORDING ENGINEER
WIT .         JIM                  : Witness      - WITNESSED BY
MUD .         GEL                  : Mud_type     - MUD TYPE
MATR.         LIMESTONE            : Logunit      - NEUTRON MATRIX
TMAX.C        22                   : BHT          - MAXIMUM RECORDED TEMPERATURE
BHTD.M        535                  : BHTDEP       - MAXIMUM RECORDED TEMPERATURE
MATR.         1                    : LOGUNIT      - NEUTRON MATRIX
RMT .C        25                   : MDTP         - TEMPERATURE OF MUD
NEUT.         1                    : NEUTRON      - NEUTRON TYPE
RESI.         0                    : RESIST       - RESISTIVITY TYPE
RMC .OHMM     0.25                 : RMC          - RESISTIVITY OF MUD CAKE
RMF .OHMM     0.25                 : RMF          - RESISTIVITY OF MUD FILTRATE
SUFT.C        15                   : SUFT         - SURFACE TEMPERATURE
~A  DEPTH     RESD     PHID     PHIN       GR
  300.000    3.336    0.232    0.520  103.646
  300.250    3.339    0.224    0.499  103.655
  300.500    3.404    0.220    0.473   96.334
  300.750    3.472    0.209    0.448   98.769
  301.000    3.608    0.200    0.438   99.986
  301.250    3.894    0.184    0.455   96.324
  301.500    4.046    0.155    0.464   91.442
  301.750    4.126    0.159    0.444   92.659
  302.000    4.288    0.183    0.458   95.702
  302.250    4.292    0.187    0.475   97.528
  302.500    4.136    0.205    0.483   99.355
  302.750    3.912    0.226    0.494  100.572
  303.000    3.770    0.231    0.512  101.788
  303.250    3.567    0.215    0.534  101.175
  303.500    3.504    0.222    0.527  102.391
  303.750    3.505    0.235    0.532   98.728
  304.000    3.643    0.226    0.547   96.897
  304.250    3.858    0.214    0.505   92.625
  304.500    4.010    0.216    0.489   95.670
  304.750    4.166    0.219    0.489   98.716
  305.000    4.248    0.223    0.494   98.103
  305.250    4.252    0.214    0.476   96.879
  305.500    4.022    0.211    0.471   96.876
  305.750    3.949    0.189    0.492   88.945
  306.000    4.028    0.139    0.519   81.015
  306.250    4.429    0.105    0.401   76.134
  306.500    5.057    0.156    0.384   73.082
  306.750    5.883    0.178    0.380   74.298
  307.000    7.381    0.196    0.392   80.391
  307.250    7.961    0.190    0.399   81.609
  307.500    9.263    0.200    0.399   79.166
  307.750   10.381    0.214    0.392   76.114
  308.000   10.583    0.231    0.377   79.159
  308.250   11.210    0.230    0.370   83.424
  308.500   11.430    0.224    0.369   74.884
  308.750   11.439    0.229    0.391   71.832
  309.000   11.665    0.216    0.396   73.658
  309.250   12.122    0.207    0.393   69.995
  309.500   12.364    0.224    0.401   67.554
  309.750   12.849    0.240    0.416   62.671
  310.000   12.860    0.258    0.391   61.450
  310.250   12.867    0.253    0.374   68.153
  310.500   12.404    0.202    0.381   74.857
  310.750   11.956    0.188    0.395   79.122
  311.000   11.744    0.207    0.393   77.290
  311.250   11.530    0.208    0.385   80.335
  311.500   11.759    0.202    0.387   78.502
  311.750   12.693    0.225    0.385   68.743
  312.000   13.188    0.242    0.375   61.423
  312.250   14.233    0.256    0.376   62.029
  312.500   14.510    0.268    0.367   65.684
  312.750   14.796    0.258    0.356   70.558
  313.000   14.808    0.236    0.346   72.994
  313.250   14.547    0.245    0.381   74.210
  313.500   14.288    0.257    0.384   72.988
  313.750   14.030    0.246    0.374   71.765
  314.000   13.779    0.236    0.380   71.761
  314.250   13.284    0.238    0.398   76.634
  314.500   13.042    0.232    0.402   78.461
  314.750   12.339    0.219    0.408   80.288
  315.000   12.115    0.213    0.393   79.674
  315.250   11.460    0.223    0.393   77.232
  315.500   11.258    0.232    0.421   73.570
  315.750   11.264    0.246    0.403   74.786
  316.000   11.491    0.244    0.396   76.002
  316.250   11.717    0.230    0.387   72.950
  316.500   11.947    0.219    0.379   75.385
  316.750   12.653    0.204    0.380   77.821
  317.000   12.902    0.200    0.389   79.647
  317.250   13.160    0.200    0.400   77.205
  317.500   13.169    0.212    0.397   73.543
  317.750   12.932    0.211    0.370   75.978
  318.000   12.704    0.207    0.373   74.755
  318.250   12.245    0.210    0.394   72.312
  318.500   12.251    0.204    0.404   71.700
  318.750   12.262    0.195    0.385   72.915
  319.000   12.043    0.187    0.373   75.962
  319.250   11.828    0.200    0.379   79.617
  319.500   11.400    0.209    0.394   82.662
  319.750   10.988    0.213    0.404   84.488
  320.000   10.592    0.206    0.383   82.045
  320.250   10.602    0.196    0.363   81.433
  320.500   10.808    0.200    0.379   82.039
  320.750   11.024    0.199    0.375   81.426
  321.000   11.240    0.195    0.383   76.543
  321.250   11.248    0.196    0.385   76.541
  321.500   11.472    0.201    0.389   77.148
  321.750   11.701    0.198    0.395   78.362
  322.000   11.710    0.200    0.403   79.580
  322.250   11.720    0.207    0.386   82.625
  322.500   11.512    0.198    0.380   83.841
  322.750   11.302    0.187    0.378   82.009
  323.000   11.314    0.201    0.384   83.834
  323.250   11.321    0.205    0.375   78.953
  323.500   11.334    0.204    0.373   78.948
  323.750   11.340    0.200    0.372   79.556
  324.000   11.351    0.195    0.374   79.553
  324.250   11.357    0.190    0.379   77.720
  324.500   11.366    0.192    0.383   78.935
  324.750   11.163    0.199    0.381   81.981
  325.000   10.965    0.194    0.389   84.417
  325.250   10.771    0.189    0.392   86.243
  325.500   10.779    0.194    0.402   86.240
  325.750   10.585    0.220    0.408   83.187
  326.000   10.592    0.234    0.400   76.477
  326.250   10.606    0.245    0.384   75.864
  326.500   10.611    0.218    0.390   78.298
  326.750   10.617    0.207    0.402   80.126
  327.000   10.428    0.190    0.408   88.048
  327.250    9.864    0.177    0.408   92.922
  327.500    9.330    0.165    0.412   99.017
  327.750    8.500    0.159    0.425  102.673
  328.000    8.039    0.161    0.430  101.448
  328.250    7.748    0.167    0.438  101.446
  328.500    7.469    0.175    0.428  100.224
  328.750    7.473    0.166    0.421   98.391
  329.000    7.480    0.155    0.430   98.387
  329.250    7.628    0.158    0.433  100.823
  329.500    7.632    0.165    0.424  102.039
  329.750    7.640    0.169    0.418  103.864
  330.000    7.501    0.172    0.402  105.081
  330.250    7.369    0.167    0.390  106.907
  330.500    7.102    0.173    0.412  111.782
  330.750    6.593    0.169    0.442  119.095
  331.000    6.235    0.160    0.478  120.921
  331.250    6.009    0.177    0.508  119.088
  331.500    5.684    0.197    0.491  119.694
  331.750    5.582    0.198    0.472  119.081
  332.000    6.025    0.199    0.442  118.469
  332.250    6.750    0.211    0.421  116.636
  332.500    7.563    0.221    0.417  113.584
  332.750    8.472    0.234    0.412  109.922
  333.000   10.047    0.248    0.411  105.650
  333.250   11.471    0.267    0.416  101.989
  333.500   12.376    0.282    0.419   92.839
  333.750   13.352    0.305    0.435   86.128
  334.000   14.140    0.328    0.444   81.856
  334.250   14.420    0.270    0.427   86.731
  334.500   14.163    0.237    0.408   96.483
  334.750   12.665    0.223    0.408  101.968
  335.000   12.203    0.231    0.412  104.404
  335.250   11.117    0.244    0.417  106.230
  335.500   10.512    0.232    0.432  105.616
  335.750    9.945    0.206    0.436   99.516
  336.000   11.144    0.197    0.408   75.732
  336.250   12.022    0.261    0.395   64.753
  336.500   12.971    0.287    0.385   58.652
  336.750   13.997    0.299    0.377   55.599
  337.000   14.824    0.297    0.366   56.206
  337.250   14.558    0.270    0.367   62.909
  337.500   13.770    0.250    0.384   72.663
  337.750   12.783    0.236    0.377   89.123
  338.000   11.863    0.213    0.365   97.046
  338.250   11.012    0.203    0.389   98.871
  338.500   10.615    0.210    0.417   99.479
  338.750   10.825    0.216    0.427  100.085
  339.000   11.467    0.235    0.424   96.422
  339.250   11.914    0.253    0.440   90.321
  339.500   12.148    0.245    0.465   86.660
  339.750   12.622    0.244    0.484   87.875
  340.000   13.368    0.250    0.472   88.482
  340.250   14.157    0.241    0.484   88.479
  340.500   15.570    0.131    0.404   76.280
  340.750   16.485    0.039    0.192   68.960
  341.000   17.127    0.026    0.182   63.469
  341.250   18.136    0.059    0.239   64.686
  341.500   16.838    0.160    0.338   76.266
  341.750   14.771    0.222    0.446   82.360
  342.000   13.967    0.244    0.477   84.797
  342.250   12.257    0.247    0.487   89.672
  342.500   11.592    0.243    0.465   92.106
  342.750   11.170    0.248    0.452   92.104
  343.000   10.766    0.239    0.449   92.101
  343.250   10.575    0.236    0.451   90.877
