~VERSION INFORMATION
 VERS.                 2.0:   CWLS LOG ASCII STANDARD -VERSION 2.0
 WRAP.                  NO:   ONE LINE PER DEPTH STEP
~WELL INFORMATION BLOCK
#MNEM.UNIT           DATA                    DESCRIPTION OF MNEMONIC
#---------    -------------------            -------------------------------
# Generated from Intellog Unique Number	CW_70_72/WELL/1072
NULL.         -999.25                        : NULL_VALUE
WELL.         CABRE ET AL MITSUE 16-07       : Well_name    - WELL              
LOC .         16-07-072-03W5                 : Location     - LOCATION          
UWI .         00/16-07-072-03W5/0            : Uwi          - UNIQUE WELL ID    
ENTR.         JAYE                           : Entered      - ENTERED BY        
SRVC.         COMPUTALOG                     : Scn          - SERVICE COMPANY   
DATE.         21 DEC 84                      : Date         - LOG DATE          
STRT.M        500                            : top_depth    - START DEPTH       
STOP.M        710                            : bot_depth    - STOP DEPTH        
STEP.M        0.25                           : increment    - STEP LENGTH       
~CURVE INFORMATION BLOCK
#MNEM UNIT       ERCB CURVE CODE    CURVE DESCRIPTION
#-----------   ------------------   ----------------------------------
DEPT.M        00 001 00 00         : DEPTH        - DEPTH                       
DPHI.V/V      00 890 00 00         : PHID         - DENSITY POROSITY (SANDSTONE)
NPHI.V/V      00 330 00 00         : PHIN         - NEUTRON POROSITY (SANDSTONE)
GR  .API      00 310 00 00         : GR           - GAMMA RAY                   
CALI.MM       00 280 01 00         : CAL          - CALIPER                     
ILD .OHMM     00 120 00 00         : RESD         - DEEP RESISTIVITY (DIL)      
~PARAMETER INFORMATION       
#MNEM.UNIT           DATA             DESCRIPTION OF MNEMONIC
#---------         -----------     ------------------------------
GL  .M        694.7                : gl           - GROUND LEVEL ELEVATION      
EREF.M        699.4                : kb           - ELEVATION OF DEPTH REFERENCE
DATM.M        694.7                : datum        - DATUM ELEVATION             
TDD .M        724                  : tdd          - TOTAL DEPTH DRILLER         
RUN .         ONE                  : Run          - RUN NUMBER                  
BASE.         EDM                  : Branch       - HOME BASE OF LOGGING UNIT   
MUD .         GEL CHEN             : Mud_type     - MUD TYPE                    
MATR.         SANDSTONE            : Logunit      - NEUTRON MATRIX              
TMAX.C        32                   : BHT          - MAXIMUM RECORDED TEMPERATURE
BHTD.M        720.7                : BHTDEP       - MAXIMUM RECORDED TEMPERATURE
RMT .C        20                   : MDTP         - TEMPERATURE OF MUD          
MUDD.KG/M     1100                 : MWT          - MUD DENSITY                 
NEUT.         1                    : NEUTRON      - NEUTRON TYPE                
RESI.         0                    : RESIST       - RESISTIVITY TYPE            
RM  .OHMM     5                    : RM           - RESISTIVITY OF MUD          
RMC .OHMM     3.4                  : RMC          - RESISTIVITY OF MUD CAKE     
RMF .OHMM     6.7                  : RMF          - RESISTIVITY OF MUD FILTRATE 
SUFT.C        0                    : SUFT         - SURFACE TEMPERATURE         
~A  DEPTH     PHID     PHIN       GR      CAL     RESD
# ...
  646.000    0.198    0.350   92.701  156.283    5.431
  646.250    0.168    0.312   87.125  156.101    5.803
  646.500    0.089    0.292   90.217  156.435    6.154
  646.750    0.101    0.319   95.886  157.195    6.403
  647.000    0.131    0.358   94.894  157.531    6.486
  647.250    0.124    0.354   90.951  158.392    6.276
  647.500    0.105    0.325   92.600  159.254    5.500
  647.750    0.119    0.353   96.570  159.907    4.875
  648.000    0.140    0.380  100.919  160.033    4.497
  648.250    0.151    0.396  104.639  160.061    4.294
  648.500    0.153    0.359  107.605  160.080    3.894
  648.750    0.149    0.338  110.385  160.003    3.893
  649.000    0.145    0.363  111.339  159.816    3.951
  649.250    0.149    0.386  110.600  159.738    3.772
  649.500    0.152    0.392  110.175  159.450    3.507
  649.750    0.147    0.375  110.880  159.370    3.446
  650.000    0.148    0.382  112.154  159.497    3.524
  650.250    0.157    0.409  112.479  159.936    3.723
  650.500    0.169    0.430  112.745  160.169    3.978
  650.750    0.180    0.449  109.555  160.299    4.301
  651.000    0.169    0.433  100.587  160.214    4.482
  651.250    0.173    0.379   96.895  160.238    4.497
  651.500    0.184    0.365  106.018  160.368    4.181
  651.750    0.197    0.396  114.324  160.390    3.842
  652.000    0.187    0.390  113.899  160.628    3.620
  652.250    0.178    0.367  112.280  160.651    3.497
  652.500    0.167    0.342  110.911  160.674    3.423
  652.750    0.155    0.371  107.031  160.698    3.375
  653.000    0.148    0.407  108.114  160.718    3.342
  653.250    0.161    0.437  112.776  160.637    3.392
  653.500    0.172    0.451  111.410  160.562    3.562
  653.750    0.176    0.425  107.528  160.583    3.771
  654.000    0.174    0.401  108.108  160.503    4.053
  654.250    0.167    0.394  107.369  160.316    4.281
  654.500    0.153    0.386  103.237  159.606    4.540
  654.750    0.144    0.378   93.201  159.210    4.768
  655.000    0.133    0.365   88.190  158.919    4.906
  655.250    0.125    0.348   94.862  158.630    4.997
  655.500    0.138    0.356  100.656  158.133    5.171
  655.750    0.152    0.368  101.612  157.212    5.378
  656.000    0.170    0.349   93.587  155.038    5.824
  656.250    0.195    0.323   86.190  153.180    6.429
  656.500    0.239    0.303   78.728  151.839    7.016
  656.750    0.259    0.292   70.891  150.398    7.299
  657.000    0.264    0.281   71.912  149.583    7.284
  657.250    0.260    0.325   74.313  149.087    7.157
  657.500    0.265    0.341   76.525  148.694    7.070
  657.750    0.279    0.339   77.229  148.505    6.987
  658.000    0.293    0.324   74.104  148.317    6.945
  658.250    0.289    0.314   70.474  147.817    6.955
  658.500    0.290    0.309   72.376  147.739    6.913
  658.750    0.289    0.330   73.895  147.657    6.934
  659.000    0.282    0.329   75.166  147.998    6.985
  659.250    0.272    0.326   74.928  148.336    7.008
  659.500    0.261    0.339   75.571  148.879    7.141
  659.750    0.248    0.364   73.575  150.372    7.302
  660.000    0.229    0.327   75.787  152.068    7.922
  660.250    0.198    0.220   73.479  154.502    8.914
  660.500    0.112    0.180   68.278  156.199   10.049
  660.750    0.048    0.164   58.809  158.003   11.029
  661.000    0.023    0.151   53.860  159.282   11.450
  661.250    0.031    0.164   57.897  159.830   10.443
  661.500    0.056    0.198   61.993  159.855    8.177
  661.750    0.087    0.219   66.026  159.562    6.639
  662.000    0.118    0.235   71.192  156.972    5.411
  662.250    0.217    0.275   74.786  155.108    4.538
  662.500    0.251    0.385   76.558  153.249    4.146
  662.750    0.261    0.387   75.065  151.810    3.937
  663.000    0.258    0.375   72.190  151.203    3.913
  663.250    0.253    0.358   70.634  150.600    3.942
  663.500    0.251    0.356   70.774  149.994    3.939
  663.750    0.251    0.370   73.992  149.286    3.953
  664.000    0.249    0.373   78.842  148.680    3.929
  664.250    0.248    0.383   76.973  148.496    3.935
  664.500    0.263    0.392   73.093  148.518    3.955
  664.750    0.276    0.380   75.119  148.963    4.021
  665.000    0.273    0.362   77.078  149.195    4.137
  665.250    0.253    0.335   82.181  152.902    4.329
  665.500    0.256    0.364   85.335  152.800    4.599
  665.750    0.256    0.385   80.138  153.351    4.849
  666.000    0.245    0.387   76.319  154.735    5.016
  666.250    0.232    0.395   74.890  155.909    5.120
  666.500    0.222    0.387   74.840  156.670    5.179
  666.750    0.218    0.371   75.987  156.897    5.196
  667.000    0.221    0.375   76.753  154.412    5.202
  667.250    0.223    0.389   77.585  151.818    5.209
  667.500    0.219    0.386   77.787  150.269    5.218
  667.750    0.220    0.376   77.740  149.457    5.176
  668.000    0.222    0.360   78.067  148.336    5.124
  668.250    0.224    0.345   80.154  147.833    5.063
  668.500    0.229    0.379   81.550  147.857    5.003
  668.750    0.237    0.392   79.492  148.295    4.955
  669.000    0.241    0.379   77.811  150.100    4.989
  669.250    0.237    0.367   76.506  152.953    5.191
  669.500    0.226    0.356   75.326  155.381    5.654
  669.750    0.215    0.350   74.272  158.024    6.042
  670.000    0.205    0.344   73.784  159.196    6.238
  670.250    0.185    0.339   73.988  159.852    6.188
  670.500    0.148    0.329   75.068  159.558    5.688
  670.750    0.177    0.347   76.778  159.058    5.358
  671.000    0.209    0.371   80.938  158.036    5.049
  671.250    0.224    0.365   83.027  156.279    4.783
  671.500    0.233    0.350   80.590  153.895    4.524
  671.750    0.234    0.343   81.611  152.872    4.436
  672.000    0.227    0.353   83.886  152.687    4.546
  672.250    0.211    0.344   85.219  154.180    5.046
  672.500    0.158    0.296   76.943  155.144    5.548
  672.750    0.126    0.260   65.084  156.424    6.008
  673.000    0.112    0.272   73.390  157.497    6.159
  673.250    0.148    0.312   82.386  158.566    5.925
  673.500    0.187    0.350   86.609  159.845    5.582
  673.750    0.204    0.349   84.175  160.288    5.189
  674.000    0.193    0.344   82.744  160.107    4.935
  674.250    0.183    0.334   83.009  159.708    4.914
  674.500    0.176    0.325   82.897  158.996    5.113
  674.750    0.171    0.323   81.593  158.499    5.422
  675.000    0.164    0.323   83.493  158.104    5.838
  675.250    0.159    0.321   87.589  157.812    6.250
  675.500    0.155    0.312   91.811  158.259    6.705
  675.750    0.151    0.298   96.223  157.860    6.897
  676.000    0.146    0.295  100.823  157.679    6.776
  676.250    0.149    0.304  103.413  157.384    6.251
  676.500    0.149    0.326  105.311  157.304    5.758
  676.750    0.143    0.363  107.211  157.329    5.655
  677.000    0.130    0.347  108.982  157.456    5.664
  677.250    0.118    0.326  110.629  158.003    5.894
  677.500    0.104    0.315  105.870  158.028    6.213
  677.750    0.096    0.303  100.357  157.946    6.514
  678.000    0.091    0.291   99.681  158.180    6.713
  678.250    0.100    0.312   97.623  158.101    6.841
  678.500    0.095    0.313   98.642  157.808    6.968
  678.750    0.101    0.305  101.295  156.994    7.140
  679.000    0.139    0.306  102.689  154.404    7.444
  679.250    0.155    0.314  101.009  153.063    7.969
  679.500    0.179    0.307   98.889  150.997    8.450
  679.750    0.202    0.296   97.833  149.344    8.529
  680.000    0.225    0.281   98.477  148.528    8.410
  680.250    0.193    0.279  101.443  147.924    7.527
  680.500    0.158    0.295  104.974  148.264    6.864
  680.750    0.135    0.314  108.758  149.333    6.418
  681.000    0.132    0.335  110.970  150.719    6.175
  681.250    0.147    0.359  110.419  152.207    6.524
  681.500    0.160    0.370  104.906  152.233    7.038
  681.750    0.168    0.334   94.115  151.628    7.739
  682.000    0.168    0.318   89.859  151.022    8.575
  682.250    0.165    0.306   86.104  150.841    9.356
