~VERSION INFORMATION
 VERS.                 2.0:   CWLS LOG ASCII STANDARD -VERSION 2.0
 WRAP.                  NO:   ONE LINE PER DEPTH STEP
~WELL INFORMATION BLOCK
#MNEM.UNIT           DATA                    DESCRIPTION OF MNEMONIC
#---------    -------------------            -------------------------------
# Generated from Intellog Unique Number	CS_67_68/WELL/2193
WELL.         10-08-067-03W4                 : Well_name    - WELL
LOC .         00/10-08-067-03W4/0            : Location     - LOCATION
UWI .         00/10-08-067-03W4/0            : Uwi          - UNIQUE WELL ID
ENTR.         SP                             : Entered      - ENTERED BY
SRVC.         SCHLUMBERGER                   : Scn          - SERVICE COMPANY
STRT.M        340                            : top_depth    - START DEPTH
STOP.M        576                            : bot_depth    - STOP DEPTH
STEP.M        0.25                           : increment    - STEP LENGTH
 NULL. -999.2500:NULL Value
~CURVE INFORMATION BLOCK
#MNEM UNIT       ERCB CURVE CODE    CURVE DESCRIPTION
#-----------   ------------------   ----------------------------------
DEPT.M        00 001 00 00         : DEPTH        - DEPTH
ILD .OHMM     00 120 00 00         : RESD         - DEEP RESISTIVITY (DIL)
DPHI.V/V      00 890 00 00         : PHID         - DENSITY POROSITY (LIMESTONE)
NPHI.V/V      00 330 00 00         : PHIN         - NEUTRON POROSITY (LIMESTONE)
GR  .API      00 310 00 00         : GR           - GAMMA RAY
CALI.MM       00 280 01 00         : CAL          - CALIPER
~PARAMETER INFORMATION
#MNEM.UNIT           DATA             DESCRIPTION OF MNEMONIC
#---------         -----------     ------------------------------
GL  .M        673.54               : gl           - GROUND LEVEL ELEVATION
EREF.M        678.04               : kb           - ELEVATION OF DEPTH REFERENCE
DATM.M        678.04               : datum        - DATUM ELEVATION
TDD .M        584                  : tdd          - TOTAL DEPTH DRILLER
RUN .         ONE                  : Run          - RUN NUMBER
ENG .         BILL                 : Engineer     - RECORDING ENGINEER
WIT .         JIM                  : Witness      - WITNESSED BY
MUD .         GEL                  : Mud_type     - MUD TYPE
MATR.         LIMESTONE            : Logunit      - NEUTRON MATRIX
TMAX.C        18.3                 : BHT          - MAXIMUM RECORDED TEMPERATURE
BHTD.M        584.5                : BHTDEP       - MAXIMUM RECORDED TEMPERATURE
MATR.         1                    : LOGUNIT      - NEUTRON MATRIX
RMT .C        25                   : MDTP         - TEMPERATURE OF MUD
NEUT.         1                    : NEUTRON      - NEUTRON TYPE
RESI.         0                    : RESIST       - RESISTIVITY TYPE
RMC .OHMM     0.25                 : RMC          - RESISTIVITY OF MUD CAKE
RMF .OHMM     0.25                 : RMF          - RESISTIVITY OF MUD FILTRATE
SUFT.C        15                   : SUFT         - SURFACE TEMPERATURE
~A  DEPTH     RESD     PHID     PHIN       GR      CAL
# ...
  522.500    5.694    0.323    0.342   18.893  157.909
  522.750    5.675    0.315    0.346   18.153  157.695
  523.000    5.678    0.310    0.350   16.987  157.682
  523.250    5.669    0.310    0.350   18.198  157.872
  523.500    5.672    0.308    0.345   20.020  158.263
  523.750    5.675    0.301    0.355   22.513  158.556
  524.000    5.688    0.312    0.352   23.786  158.746
  524.250    5.712    0.301    0.344   23.168  158.939
  524.500    5.736    0.292    0.347   21.393  159.130
  524.750    5.760    0.306    0.349   20.593  158.914
  525.000    5.763    0.316    0.335   21.133  158.697
  525.250    5.755    0.321    0.363   22.955  158.582
  525.500    5.747    0.325    0.401   24.655  158.469
  525.750    5.739    0.325    0.399   25.501  158.658
  526.000    5.731    0.321    0.381   23.542  158.646
  526.250    5.701    0.319    0.365   23.840  158.737
  526.500    5.661    0.322    0.350   24.135  158.621
  526.750    5.643    0.319    0.345   25.652  158.304
  527.000    5.635    0.321    0.364   27.962  157.986
  527.250    5.627    0.324    0.360   26.797  157.975
  527.500    5.619    0.322    0.354   24.472  157.961
  527.750    5.600    0.320    0.352   23.794  157.948
  528.000    5.624    0.318    0.354   23.359  157.934
  528.250    5.637    0.317    0.357   22.986  157.923
  528.500    5.682    0.315    0.348   22.124  157.910
  528.750    5.760    0.313    0.341   21.690  157.692
  529.000    5.817    0.317    0.339   22.048  157.478
  529.250    5.820    0.309    0.334   22.711  157.466
  529.500    5.823    0.299    0.329   21.789  157.657
  529.750    5.761    0.301    0.324   20.318  157.846
  530.000    5.742    0.303    0.321   19.820  158.138
  530.250    5.744    0.296    0.325   19.814  158.125
  530.500    5.704    0.297    0.339   20.050  158.114
  530.750    5.675    0.301    0.347   20.348  157.796
  531.000    5.657    0.308    0.338   21.195  157.681
  531.250    5.628    0.319    0.332   21.492  157.365
  531.500    5.620    0.321    0.328   23.679  157.045
  531.750    5.602    0.316    0.338   24.709  157.134
  532.000    5.604    0.313    0.341   23.420  157.121
  532.250    5.585    0.312    0.342   24.328  157.212
  532.500    5.587    0.313    0.344   24.015  157.299
  532.750    5.579    0.311    0.346   23.214  157.288
  533.000    5.582    0.305    0.353   23.268  157.275
  533.250    5.543    0.299    0.358   24.236  157.262
  533.500    5.525    0.296    0.359   25.448  157.555
  533.750    5.475    0.297    0.345   27.634  157.949
  534.000    5.448    0.307    0.333   29.396  158.038
  534.250    5.449    0.315    0.327   33.779  158.124
  534.500    5.442    0.301    0.381   41.027  158.213
  534.750    5.424    0.288    0.416   53.093  158.305
  535.000    5.387    0.292    0.455   48.084  158.291
  535.250    5.348    0.310    0.442   35.639  158.482
  535.500    5.340    0.324    0.412   23.619  158.567
  535.750    5.293    0.314    0.381   21.416  158.660
  536.000    5.266    0.307    0.348   20.859  158.851
  536.250    5.219    0.306    0.336   20.608  158.938
  536.500    5.182    0.306    0.329   21.027  159.332
  536.750    5.165    0.304    0.342   21.568  159.317
  537.000    5.187    0.321    0.358   21.561  159.613
  537.250    5.190    0.334    0.363   20.638  159.804
  537.500    5.211    0.337    0.364   20.021  160.299
  537.750    5.234    0.333    0.359   19.770  160.389
  538.000    5.276    0.325    0.348   20.310  160.680
  538.250    5.328    0.312    0.335   22.925  160.766
  538.500    5.361    0.303    0.327   27.491  160.655
  538.750    5.404    0.295    0.343   31.630  160.337
  539.000    5.427    0.305    0.358   34.182  159.919
  539.250    5.440    0.318    0.373   36.065  159.093
  539.500    5.442    0.323    0.387   37.095  158.368
  539.750    5.444    0.318    0.394   37.148  158.051
  540.000    5.427    0.315    0.390   37.689  158.240
  540.250    5.399    0.306    0.373   33.168  158.428
  540.500    5.361    0.308    0.359   29.076  158.416
  540.750    5.333    0.318    0.352   24.129  158.710
  541.000    5.335    0.317    0.346   20.341  158.899
  541.250    5.368    0.313    0.336   27.407  158.889
  541.500    5.381    0.300    0.362   37.338  158.978
  541.750    5.403    0.291    0.382   41.842  158.660
  542.000    5.437    0.305    0.380   37.384  158.343
  542.250    5.470    0.320    0.370   32.681  158.127
  542.500    5.462    0.317    0.365   28.223  157.910
  542.750    5.455    0.321    0.362   25.837  157.896
  543.000    5.386    0.330    0.361   27.110  157.885
  543.250    5.349    0.336    0.368   29.480  158.077
  543.500    5.331    0.332    0.384   32.642  158.572
  543.750    5.343    0.322    0.391   33.367  159.270
  544.000    5.396    0.312    0.393   32.689  159.970
  544.250    5.450    0.315    0.387   33.230  160.361
  544.500    5.514    0.315    0.374   33.893  160.755
  544.750    5.621    0.310    0.360   33.642  160.947
  545.000    5.752    0.294    0.354   31.927  161.137
  545.250    5.853    0.282    0.346   28.443  161.227
  545.500    5.945    0.293    0.332   24.046  161.113
  545.750    5.981    0.299    0.319   22.513  161.098
  546.000    5.950    0.294    0.307   24.456  161.391
  546.250    5.897    0.291    0.310   27.071  161.378
  546.500    5.845    0.291    0.325   28.345  161.367
  546.750    5.771    0.303    0.336   26.385  161.352
  547.000    5.688    0.314    0.342   24.305  161.342
  547.250    5.616    0.309    0.346   22.834  161.531
  547.500    5.555    0.303    0.339   22.460  161.824
  547.750    5.475    0.310    0.332   22.513  162.115
  548.000    5.406    0.313    0.340   22.445  162.406
  548.250    5.358    0.316    0.344   25.365  162.396
  548.500    5.310    0.314    0.347   29.747  162.585
  548.750    5.303    0.309    0.352   34.008  162.371
  549.000    5.305    0.304    0.342   40.525  161.748
  549.250    5.338    0.288    0.342   48.749  161.430
  549.500    5.351    0.285    0.381   54.045  160.910
  549.750    5.384    0.292    0.402   51.721  160.693
  550.000    5.798    0.281    0.355   42.435  164.438
  550.250    5.724    0.292    0.361   38.685  163.715
  550.500    5.620    0.313    0.369   26.127  162.891
  550.750    5.385    0.321    0.352   21.398  162.171
  551.000    5.217    0.312    0.342   22.602  160.841
  551.250    5.113    0.303    0.340   30.834  159.716
  551.500    5.153    0.299    0.343   36.133  158.589
  551.750    5.372    0.278    0.346   44.307  157.665
  552.000    5.612    0.258    0.364   54.069  158.358
  552.250    5.995    0.247    0.375   62.365  158.850
  552.500    6.309    0.242    0.384   68.764  156.608
  552.750    6.578    0.237    0.377   71.067  155.483
  553.000    6.755    0.228    0.374   70.250  154.861
  553.250    6.822    0.258    0.389   62.586  154.946
  553.500    6.685    0.286    0.401   52.109  155.136
  553.750    6.501    0.293    0.391   46.279  155.022
  554.000    6.371    0.258    0.374   53.528  155.007
  554.250    6.243    0.243    0.378   57.121  154.689
  554.500    6.072    0.289    0.398   61.871  154.370
  554.750    5.828    0.325    0.413   47.175  154.456
  555.000    5.574    0.342    0.394   33.762  154.643
  555.250    5.400    0.350    0.383   27.076  155.035
  555.500    5.262    0.348    0.377   25.282  155.425
  555.750    5.186    0.343    0.377   24.955  155.715
  556.000    5.120    0.340    0.376   25.664  156.407
  556.250    5.094    0.341    0.373   26.320  156.796
  556.500    5.124    0.346    0.368   27.393  156.986
  556.750    5.165    0.350    0.369   27.927  156.668
  557.000    5.235    0.353    0.394   26.869  155.642
  557.250    5.256    0.347    0.410   24.829  155.023
  557.500    5.229    0.335    0.386   23.035  154.703
  557.750    5.202    0.327    0.364   22.217  154.488
  558.000    5.184    0.332    0.355   21.888  154.472
  558.250    5.186    0.331    0.354   21.683  154.561
  558.500    5.178    0.327    0.359   21.913  154.848
  558.750    5.170    0.322    0.363   23.176  155.037
