~VERSION INFORMATION
 VERS.                 2.0:   CWLS LOG ASCII STANDARD -VERSION 2.0
 WRAP.                  NO:   ONE LINE PER DEPTH STEP
~WELL INFORMATION BLOCK
#MNEM.UNIT           DATA                    DESCRIPTION OF MNEMONIC
#---------    -------------------            -------------------------------
# Generated from Intellog Unique Number	CW_82_90/WELL/3455
WELL.         NUMAC LIEGE                    : Well_name    - WELL
LOC .         00/11-25-088-21W4/0            : Location     - LOCATION
UWI .         00/11-25-088-21W4/0            : Uwi          - UNIQUE WELL ID
ENTR.         MAX                            : Entered      - ENTERED BY
SRVC.         WESTERN ATLAS                  : Scn          - SERVICE COMPANY
STRT.M        125                            : top_depth    - START DEPTH
STOP.M        281                            : bot_depth    - STOP DEPTH
STEP.M        0.25                           : increment    - STEP LENGTH
 NULL. -999.2500:NULL Value
~CURVE INFORMATION BLOCK
#MNEM UNIT       ERCB CURVE CODE    CURVE DESCRIPTION
#-----------   ------------------   ----------------------------------
DEPT.M        00 001 00 00         : DEPTH        - DEPTH
ILD .OHMM     00 120 00 00         : RESD         - DEEP RESISTIVITY (DIL)
NPHI.V/V      00 330 00 00         : PHIN         - NEUTRON POROSITY (SANDSTONE)
DPHI.V/V      00 890 00 00         : PHID         - DENSITY POROSITY (SANDSTONE)
CALI.MM       00 280 01 00         : CAL          - CALIPER
GR  .API      00 310 00 00         : GR           - GAMMA RAY
~PARAMETER INFORMATION
#MNEM.UNIT           DATA             DESCRIPTION OF MNEMONIC
#---------         -----------     ------------------------------
GL  .M        530.14               : gl           - GROUND LEVEL ELEVATION
EREF.M        533.79               : kb           - ELEVATION OF DEPTH REFERENCE
DATM.M        530.14               : datum        - DATUM ELEVATION
TDD .M        285.8                : tdd          - TOTAL DEPTH DRILLER
RUN .         ONE                  : Run          - RUN NUMBER
ENG .         BILL                 : Engineer     - RECORDING ENGINEER
WIT .         JIM                  : Witness      - WITNESSED BY
MUD .         GEL                  : Mud_type     - MUD TYPE
MATR.         SANDSTONE            : Logunit      - NEUTRON MATRIX
TMAX.C        25                   : BHT          - MAXIMUM RECORDED TEMPERATURE
BHTD.M        285.8                : BHTDEP       - MAXIMUM RECORDED TEMPERATURE
MATR.         1                    : LOGUNIT      - NEUTRON MATRIX
RMT .C        16                   : MDTP         - TEMPERATURE OF MUD
NEUT.         1                    : NEUTRON      - NEUTRON TYPE
RESI.         0                    : RESIST       - RESISTIVITY TYPE
RMC .OHMM     4                    : RMC          - RESISTIVITY OF MUD CAKE
RMF .OHMM     2.7                  : RMF          - RESISTIVITY OF MUD FILTRATE
SUFT.C        -5                   : SUFT         - SURFACE TEMPERATURE
~A  DEPTH     RESD     PHIN     PHID      CAL       GR
# ...
  161.500    3.888    0.457    0.330  222.580   97.944
  161.750    3.647    0.476    0.335  224.089   98.851
  162.000    3.389    0.458    0.349  230.082  100.058
  162.250    3.149    0.485    0.361  226.611   98.572
  162.500    2.953    0.511    0.366  225.132  100.376
  162.750    2.874    0.462    0.367  224.650   98.889
  163.000    3.041    0.456    0.368  225.662   94.416
  163.250    3.307    0.464    0.368  225.678   92.333
  163.500    3.837    0.467    0.362  225.696   88.756
  163.750    4.371    0.464    0.344  225.712   90.859
  164.000    4.799    0.469    0.305  226.724   89.373
  164.250    5.268    0.459    0.310  227.240   88.187
  164.500    5.676    0.462    0.309  226.758   89.094
  164.750    6.289    0.440    0.294  225.775   83.722
  165.000    6.652    0.419    0.306  225.293   87.319
  165.250    7.037    0.407    0.319  225.313   90.917
  165.500    7.583    0.404    0.325  224.831   87.638
  165.750    8.480    0.381    0.309  224.844   84.062
  166.000    9.308    0.365    0.286  223.866   81.979
  166.250   10.218    0.354    0.269  223.882   77.504
  166.500   10.416    0.370    0.248  223.398   74.527
  166.750   10.423    0.384    0.226  223.411   76.329
  167.000   10.239    0.378    0.200  222.433   72.153
  167.250    9.782    0.366    0.200  220.460   73.658
  167.500    8.922    0.369    0.273  220.474   77.850
  167.750    7.917    0.405    0.298  219.494   79.654
  168.000    7.425    0.428    0.290  218.017   80.858
  168.250    6.649    0.417    0.276  218.031   92.227
  168.500    6.066    0.414    0.270  218.045   99.409
  168.750    5.794    0.425    0.267  220.055   96.730
  169.000    5.640    0.445    0.264  221.565   89.864
  169.250    5.802    0.420    0.273  220.583   81.506
  169.500    6.312    0.427    0.281  218.608   81.813
  169.750    6.676    0.428    0.286  218.624   82.719
  170.000    7.396    0.413    0.291  218.642   80.637
  170.250    8.119    0.403    0.299  217.660   72.278
  170.500    8.912    0.414    0.297  216.681   73.781
  170.750   10.634    0.429    0.270  219.686   70.204
  171.000   11.782    0.405    0.286  215.715   62.144
  171.250   13.054    0.368    0.330  214.238   60.959
  171.500   13.307    0.352    0.340  214.750   58.278
  171.750   13.316    0.376    0.326  215.264   63.069
  172.000   13.827    0.405    0.255  215.780   65.769
  172.250   13.837    0.374    0.244  215.296   60.996
  172.500   13.718    0.409    0.309  214.815   59.511
  172.750   13.600    0.422    0.326  216.324   60.121
  173.000   13.118    0.397    0.308  218.830   60.728
  173.250   12.647    0.363    0.278  221.339   71.795
  173.500   11.431    0.361    0.241  219.862   80.173
  173.750    9.505    0.384    0.294  224.858   85.862
  174.000    7.831    0.402    0.290  227.366   91.551
  174.250    6.884    0.406    0.274  227.382   90.663
  174.500    5.940    0.400    0.274  227.396   86.788
  174.750    5.571    0.422    0.269  224.923   89.189
  175.000    5.473    0.436    0.243  220.954   94.877
  175.250    5.326    0.428    0.233  220.972   95.486
  175.500    5.042    0.446    0.238  221.482   93.999
  175.750    4.863    0.453    0.239  221.499   96.102
  176.000    4.957    0.457    0.246  222.015   98.801
  176.250    5.341    0.433    0.244  222.031  102.098
  176.500    5.809    0.425    0.239  222.045   91.049
  176.750    6.556    0.437    0.246  222.063   82.092
  177.000    7.538    0.411    0.233  222.077   69.847
  177.250    8.666    0.364    0.188  221.596   71.950
  177.500   10.436    0.366    0.184  221.612   72.258
  177.750   10.064    0.409    0.290  223.123   74.060
  178.000    9.352    0.426    0.292  220.650   75.566
  178.250    9.103    0.442    0.289  218.171   80.058
  178.500    8.697    0.446    0.282  217.191   84.550
  178.750    8.232    0.432    0.287  220.197   81.870
  179.000    8.012    0.432    0.297  222.208   82.478
  179.250    7.943    0.445    0.299  219.233   78.601
  179.500    8.639    0.446    0.256  219.248   69.943
  179.750    9.571    0.431    0.233  222.751   64.872
  180.000   10.804    0.400    0.262  219.780   64.582
  180.250   11.859    0.376    0.289  217.802   72.960
  180.500   12.779    0.405    0.314  215.327   72.671
  180.750   11.986    0.409    0.324  215.343   64.014
  181.000   10.438    0.446    0.327  215.861   86.739
  181.250    8.365    0.473    0.327  217.367   96.910
  181.500    5.518    0.436    0.344  220.372  101.104
  181.750    5.472    0.412    0.316  220.890   89.756
  182.000    6.062    0.434    0.290  220.901   66.154
  182.250    7.300    0.424    0.215  219.921   57.197
  182.500    9.823    0.395    0.265  217.450   60.195
  182.750   11.400    0.383    0.303  217.466   60.803
  183.000   10.399    0.403    0.297  218.476   61.411
  183.250    8.647    0.378    0.300  218.492   65.305
  183.500    7.124    0.460    0.292  218.510   72.189
  183.750    6.148    0.439    0.284  218.524   75.487
  184.000    5.556    0.399    0.280  218.542   76.096
  184.250    5.408    0.418    0.283  219.057   77.299
  184.500    5.513    0.415    0.296  219.071   82.092
  184.750    6.052    0.419    0.295  219.089   84.792
  185.000    6.957    0.446    0.266  219.101   78.822
  185.250    8.614    0.444    0.215  219.117   72.257
  185.500   10.277    0.407    0.221  219.633   72.864
  185.750   11.706    0.384    0.246  219.649   77.655
  186.000   13.585    0.375    0.273  218.170   83.942
  186.250   16.208    0.369    0.234  219.182   79.169
  186.500   21.810    0.360    0.162  222.685   65.729
  186.750   27.765    0.309    0.123  220.710   56.174
  187.000   32.221    0.267    0.074  222.717   56.482
  187.250   32.542    0.256    0.060  224.227   61.573
  187.500   32.564    0.264    0.084  224.243   63.376
  187.750   31.986    0.278    0.091  224.259   60.994
  188.000   30.281    0.296    0.103  224.775   58.614
  188.250   28.662    0.318    0.119  224.791   57.728
  188.500   26.391    0.332    0.141  224.805   57.737
  188.750   21.741    0.318    0.165  225.323   59.839
  189.000   19.469    0.341    0.203  224.342   63.435
  189.250   15.893    0.371    0.236  222.864   73.605
  189.500   13.588    0.408    0.243  229.353   84.375
  189.750   12.056    0.384    0.235  230.866   90.064
  190.000   11.626    0.371    0.167  230.383   75.727
  190.250   12.186    0.388    0.195  225.914   66.769
  190.500   12.537    0.404    0.242  222.443   76.941
  190.750   12.088    0.402    0.245  222.957   89.803
  191.000   10.335    0.369    0.237  222.973   91.309
  191.250    8.918    0.357    0.257  221.000   92.215
  191.500    7.767    0.373    0.266  219.517   93.420
  191.750    7.086    0.390    0.251  217.543   94.027
  192.000    6.585    0.438    0.245  218.057   94.634
  192.250    6.350    0.416    0.248  219.569   92.252
  192.500    6.353    0.399    0.263  219.585   81.800
  192.750    6.722    0.395    0.270  219.602   81.810
  193.000    7.447    0.403    0.281  219.118   76.439
  193.250    9.392    0.418    0.250  218.636   72.862
  193.500   10.600    0.413    0.204  217.155   64.503
  193.750   12.301    0.394    0.269  216.175   56.741
  194.000   14.011    0.333    0.345  215.196   50.475
  194.250   18.857    0.359    0.358  214.216   49.587
  194.500   20.701    0.386    0.358  213.734   52.287
  194.750   21.296    0.399    0.354  213.250   51.401
  195.000   21.911    0.409    0.349  213.265   49.617
  195.250   22.335    0.416    0.334  213.283   52.914
  195.500   22.560    0.388    0.320  212.805   57.108
  195.750   22.363    0.360    0.295  213.317   54.727
  196.000   21.765    0.391    0.270  214.331   48.758
  196.250   21.382    0.364    0.331  214.841   51.757
  196.500   21.798    0.368    0.345  214.857   53.559
  196.750   22.425    0.403    0.353  215.869   55.661
  197.000   23.288    0.409    0.356  215.389   51.190
  197.250   24.406    0.381    0.356  215.405   52.095
  197.500   26.303    0.366    0.338  215.420   52.703
  197.750   28.081    0.347    0.300  215.436   52.113
