~VERSION INFORMATION
 VERS.                 2.0:   CWLS LOG ASCII STANDARD -VERSION 2.0
 WRAP.                  NO:   ONE LINE PER DEPTH STEP
~WELL INFORMATION BLOCK
#MNEM.UNIT           DATA                    DESCRIPTION OF MNEMONIC
#---------    -------------------            -------------------------------
# Generated from Intellog Unique Number	CW_79_81/WELL/2476
WELL.         10-32-080-20W4                 : Well_name    - WELL
LOC .         00/10-32-080-20W4/0            : Location     - LOCATION
UWI .         00/10-32-080-20W4/0            : Uwi          - UNIQUE WELL ID
ENTR.         MAX                            : Entered      - ENTERED BY
SRVC.         SCHLUMBERGER                   : Scn          - SERVICE COMPANY
STRT.M        149.602                        : top_depth    - START DEPTH
STOP.M        396.102                        : bot_depth    - STOP DEPTH
STEP.M        0.25                           : increment    - STEP LENGTH
 NULL. -999.2500:NULL Value
~CURVE INFORMATION BLOCK
#MNEM UNIT       ERCB CURVE CODE    CURVE DESCRIPTION
#-----------   ------------------   ----------------------------------
DEPT.M        00 001 00 00         : DEPTH        - DEPTH
ILD .OHMM     00 120 00 00         : RESD         - DEEP RESISTIVITY (DIL)
NPHI.V/V      00 330 00 00         : PHIN         - NEUTRON POROSITY (SANDSTONE)
DPHI.V/V      00 890 00 00         : PHID         - DENSITY POROSITY (SANDSTONE)
GR  .API      00 310 00 00         : GR           - GAMMA RAY
CALI.MM       00 280 01 00         : CAL          - CALIPER
~PARAMETER INFORMATION
#MNEM.UNIT           DATA             DESCRIPTION OF MNEMONIC
#---------         -----------     ------------------------------
GL  .M        578.815              : gl           - GROUND LEVEL ELEVATION
EREF.M        581.254              : kb           - ELEVATION OF DEPTH REFERENCE
DATM.M        578.815              : datum        - DATUM ELEVATION
TDD .M        403.25               : tdd          - TOTAL DEPTH DRILLER
RUN .         ONE                  : Run          - RUN NUMBER
ENG .         BILL                 : Engineer     - RECORDING ENGINEER
WIT .         JIM                  : Witness      - WITNESSED BY
MUD .         GEL                  : Mud_type     - MUD TYPE
MATR.         SANDSTONE            : Logunit      - NEUTRON MATRIX
TMAX.C        21.1111              : BHT          - MAXIMUM RECORDED TEMPERATURE
BHTD.M        403.25               : BHTDEP       - MAXIMUM RECORDED TEMPERATURE
MATR.         1                    : LOGUNIT      - NEUTRON MATRIX
RMT .C        13.3333              : MDTP         - TEMPERATURE OF MUD
NEUT.         1                    : NEUTRON      - NEUTRON TYPE
RESI.         0                    : RESIST       - RESISTIVITY TYPE
RMC .OHMM     8                    : RMC          - RESISTIVITY OF MUD CAKE
RMF .OHMM     4.46                 : RMF          - RESISTIVITY OF MUD FILTRATE
SUFT.C        -20.5556             : SUFT         - SURFACE TEMPERATURE
~A  DEPTH     RESD     PHIN     PHID       GR      CAL
# ...
  259.102   15.425    0.503    0.334   47.234  213.576
  259.352   15.406    0.506    0.332   50.208  210.817
  259.602   15.331    0.506    0.329   54.659  207.560
  259.852   15.229    0.506    0.323   59.876  205.210
  260.102   15.204    0.517    0.304   64.747  204.340
  260.352   15.182    0.534    0.298   65.691  204.280
  260.602   15.164    0.522    0.297   61.411  202.624
  260.852   15.148    0.509    0.302   58.370  202.466
  261.102   15.020    0.502    0.309   56.800  203.010
  261.352   14.811    0.500    0.316   56.587  202.757
  261.602   14.683    0.497    0.321   57.355  198.407
  261.852   14.661    0.497    0.331   57.810  192.926
  262.102   14.646    0.497    0.336   59.666  194.071
  262.352   14.630    0.498    0.331   59.749  194.922
  262.602   14.612    0.503    0.325   59.359  195.266
  262.852   14.619    0.508    0.322   59.030  195.603
  263.102   14.704    0.505    0.314   58.518  196.550
  263.352   14.683    0.507    0.320   58.489  193.583
  263.602   14.350    0.503    0.317   58.923  189.918
  263.852   14.023    0.498    0.310   59.716  190.456
  264.102   13.804    0.502    0.309   59.917  193.399
  264.352   13.688    0.517    0.314   59.409  197.940
  264.602   13.510    0.536    0.318   58.896  205.090
  264.852   13.188    0.533    0.315   58.860  209.202
  265.102   13.078    0.523    0.327   60.480  207.541
  265.352   12.968    0.512    0.342   62.807  201.396
  265.602   12.951    0.508    0.348   65.250  193.746
  265.852   13.145    0.507    0.347   67.454  189.185
  266.102   13.797    0.498    0.351   68.960  193.916
  266.352   14.203    0.509    0.344   67.204  193.861
  266.602   14.292    0.514    0.331   61.742  191.801
  266.852   14.300    0.522    0.339   59.642  188.251
  267.102   14.230    0.530    0.345   59.609  184.002
  267.352   14.111    0.531    0.338   60.402  179.648
  267.602   13.986    0.519    0.323   60.781  175.157
  267.852   13.968    0.517    0.315   60.503  173.029
  268.102   13.953    0.519    0.328   60.469  168.577
  268.352   13.935    0.521    0.335   60.611  166.821
  268.602   13.868    0.522    0.335   60.579  161.763
  268.852   13.778    0.524    0.334   60.252  154.504
  269.102   13.778    0.529    0.345   60.033  152.832
  269.352   13.863    0.517    0.358   61.468  150.691
  269.602   13.947    0.503    0.356   62.380  149.429
  269.852   14.569    0.507    0.341   63.282  150.271
  270.102   15.637    0.504    0.325   63.484  152.216
  270.352   17.219    0.485    0.307   62.574  154.057
  270.602   20.147    0.455    0.275   59.427  154.377
  270.852   23.097    0.404    0.234   54.477  154.328
  271.102   22.079    0.244    0.146   54.671  156.660
  271.352   20.293    0.237    0.110   58.236  156.007
  271.602   18.007    0.349    0.129   62.921  152.357
  271.852   15.748    0.485    0.199   67.013  149.001
  272.102   13.773    0.485    0.319   69.578  152.439
  272.352   13.049    0.471    0.326   70.764  151.968
  272.602   12.749    0.487    0.314   70.504  154.711
  272.852   12.666    0.496    0.309   69.352  157.450
  273.102   12.926    0.499    0.303   68.962  159.789
  273.352   13.416    0.501    0.296   69.456  160.428
  273.602   13.694    0.506    0.290   69.414  155.991
  273.852   13.677    0.498    0.278   69.379  150.100
  274.102   13.168    0.440    0.256   69.348  150.452
  274.352   12.681    0.439    0.235   69.137  152.589
  274.602   12.396    0.468    0.250   69.812  155.121
  274.852   12.270    0.499    0.295   71.018  157.257
  275.102   12.075    0.501    0.323   71.268  158.792
  275.352   12.057    0.488    0.318   72.706  158.737
  275.602   12.307    0.484    0.316   72.439  157.886
  275.852   12.902    0.505    0.315   71.463  157.925
  276.102   13.706    0.523    0.312   70.131  158.662
  276.352   14.957    0.519    0.300   68.385  159.804
  276.602   18.025    0.463    0.257   65.300  161.187
  276.852   19.733    0.355    0.226   63.057  162.375
  277.102   18.450    0.284    0.107   66.328  162.311
  277.352   16.102    0.302    0.101   70.129  159.556
  277.602   14.194    0.378    0.164   75.050  155.507
  277.852   12.916    0.461    0.246   79.674  152.156
  278.102   11.981    0.486    0.300   80.229  152.497
  278.352   11.875    0.493    0.323   78.477  154.523
  278.602   11.690    0.501    0.313   80.569  156.861
  278.852   11.381    0.513    0.308   82.127  158.001
  279.102   10.877    0.531    0.306   83.625  156.945
  279.352   10.212    0.542    0.303   85.122  153.691
  279.602    9.324    0.519    0.293   86.509  148.645
  279.852    8.573    0.500    0.281   87.701  145.672
  280.102    8.134    0.493    0.266   89.315  150.412
  280.352    7.939    0.488    0.255   90.405  153.047
  280.602    7.815    0.491    0.250   90.964  154.980
  280.852    7.721    0.500    0.250   90.930  157.118
  281.102    7.722    0.503    0.250   90.082  159.273
  281.352    7.771    0.498    0.251   89.555  156.300
  281.602    7.988    0.495    0.245   89.750  152.647
  281.852    8.213    0.498    0.249   89.245  152.289
  282.102    8.476    0.501    0.255   87.681  152.633
  282.352    8.811    0.502    0.261   85.525  152.877
  282.602    9.316    0.503    0.270   84.507  154.084
  282.852    9.592    0.506    0.253   86.687  154.446
  283.102    9.578    0.504    0.250   87.360  157.177
  283.352    9.514    0.499    0.253   87.149  156.324
  283.602    9.399    0.500    0.261   88.060  152.871
  283.852    9.217    0.507    0.268   88.795  149.912
  284.102    8.803    0.510    0.263   85.329  153.221
  284.352    8.155    0.498    0.263   88.245  156.079
  284.602    7.909    0.496    0.264   93.161  159.610
  284.852    7.758    0.495    0.254   97.730  162.255
  285.102    7.666    0.497    0.245  100.884  161.002
  285.352    7.617    0.501    0.238  102.028  157.344
  285.602    7.594    0.500    0.229  101.138  158.104
  285.852    7.527    0.503    0.242  101.594  162.198
  286.102    7.518    0.504    0.243  101.563  163.350
  286.352    7.673    0.502    0.226   99.053  163.886
  286.602    8.112    0.494    0.222   95.363  161.432
  286.852    8.739    0.482    0.233   91.200  158.186
  287.102    9.105    0.468    0.241   86.379  161.162
  287.352    9.376    0.468    0.246   84.873  162.349
  287.602    9.568    0.481    0.256   84.595  154.698
  287.852    9.610    0.480    0.250   84.682  156.633
  288.102    9.600    0.482    0.245   83.117  159.175
  288.352    9.622    0.492    0.243   80.898  158.724
  288.602    9.805    0.509    0.240   82.281  157.060
  288.852   10.097    0.511    0.238   83.474  156.993
  289.102   10.306    0.495    0.261   83.911  158.532
  289.352   10.293    0.490    0.270   84.175  157.381
  289.602    9.957    0.494    0.275   84.522  154.196
  289.852    9.495    0.498    0.278   85.537  150.753
  290.102    9.157    0.492    0.268   88.712  150.523
  290.352    8.556    0.484    0.250   91.653  153.425
  290.602    8.009    0.482    0.238   93.531  154.611
  290.852    7.583    0.497    0.239   95.943  154.001
  291.102    7.500    0.522    0.253   95.938  153.989
  291.352    7.535    0.541    0.271   92.513  154.875
  291.602    6.939    0.533    0.277   85.283  154.364
  291.852    6.387    0.547    0.289   78.644  151.856
  292.102    6.958    0.569    0.331   72.978  151.444
  292.352    7.862    0.586    0.341   71.378  152.831
  292.602    8.480    0.565    0.323   72.668  153.220
  292.852    8.523    0.517    0.296   75.373  152.509
  293.102    8.519    0.491    0.293   78.165  153.792
  293.352    8.516    0.493    0.290   80.368  156.276
  293.602    8.450    0.505    0.284   81.070  158.260
  293.852    8.386    0.514    0.283   82.654  156.053
  294.102    8.353    0.518    0.286   83.473  153.048
  294.352    8.335    0.517    0.288   83.585  151.838
  294.602    8.246    0.511    0.279   84.608  154.137
  294.852    8.119    0.514    0.268   83.863  153.710
  295.102    7.940    0.530    0.262   84.800  157.690
  295.352    7.809    0.540    0.258   85.736  158.977
