~VERSION INFORMATION
 VERS.                 2.0:   CWLS LOG ASCII STANDARD -VERSION 2.0
 WRAP.                  NO:   ONE LINE PER DEPTH STEP
~WELL INFORMATION BLOCK
#MNEM.UNIT           DATA                    DESCRIPTION OF MNEMONIC
#---------    -------------------            -------------------------------
# Generated from Intellog Unique Number	CS_73_76/WELL/854
WELL.         HOUSTON OILS LIMITED           : Well_name    - WELL
LOC .         00/11-35-073-15W4/0            : Location     - LOCATION
UWI .         00/11-35-073-15W4/0            : Uwi          - UNIQUE WELL ID
ENTR.         SP                             : Entered      - ENTERED BY
SRVC.         SCHLUMBERGER                   : Scn          - SERVICE COMPANY
STRT.M        320.04                         : top_depth    - START DEPTH
STOP.M        536.29                         : bot_depth    - STOP DEPTH
STEP.M        0.25                           : increment    - STEP LENGTH
 NULL. -999.2500:NULL Value
~CURVE INFORMATION BLOCK
#MNEM UNIT       ERCB CURVE CODE    CURVE DESCRIPTION
#-----------   ------------------   ----------------------------------
DEPT.M        00 001 00 00         : DEPTH        - DEPTH
GR  .API      00 310 00 00         : GR           - GAMMA RAY
DPHI.V/V      00 890 00 00         : PHID         - DENSITY POROSITY (SANDSTONE)
NPHI.V/V      00 330 00 00         : PHIN         - NEUTRON POROSITY (SANDSTONE)
ILD .OHMM     00 120 00 00         : RESD         - DEEP RESISTIVITY (DIL)
~PARAMETER INFORMATION
#MNEM.UNIT           DATA             DESCRIPTION OF MNEMONIC
#---------         -----------     ------------------------------
GL  .M        657.758              : gl           - GROUND LEVEL ELEVATION
EREF.M        660.806              : kb           - ELEVATION OF DEPTH REFERENCE
DATM.M        657.758              : datum        - DATUM ELEVATION
TDD .M        539.496              : tdd          - TOTAL DEPTH DRILLER
RUN .         ONE                  : Run          - RUN NUMBER
ENG .         BILL                 : Engineer     - RECORDING ENGINEER
WIT .         JIM                  : Witness      - WITNESSED BY
MUD .         GEL                  : Mud_type     - MUD TYPE
MATR.         SANDSTONE            : Logunit      - NEUTRON MATRIX
TMAX.C        23.8889              : BHT          - MAXIMUM RECORDED TEMPERATURE
BHTD.M        539.496              : BHTDEP       - MAXIMUM RECORDED TEMPERATURE
MATR.         1                    : LOGUNIT      - NEUTRON MATRIX
RMT .C        25                   : MDTP         - TEMPERATURE OF MUD
NEUT.         1                    : NEUTRON      - NEUTRON TYPE
RESI.         0                    : RESIST       - RESISTIVITY TYPE
RMC .OHMM     0.25                 : RMC          - RESISTIVITY OF MUD CAKE
RMF .OHMM     0.25                 : RMF          - RESISTIVITY OF MUD FILTRATE
SUFT.C        15                   : SUFT         - SURFACE TEMPERATURE
~A  DEPTH       GR     PHID     PHIN     RESD
  320.040  107.228    0.234    0.598    3.330
  320.290  105.806    0.222    0.604    3.438
  320.540  105.798    0.214    0.634    3.456
  320.790  105.590    0.213    0.661    3.398
  321.040  103.292    0.217    0.655    3.297
  321.290  100.771    0.219    0.613    3.199
  321.540  102.389    0.204    0.640    3.153
  321.790  105.819    0.206    0.641    3.150
  322.040  102.781    0.215    0.610    3.220
  322.290   98.633    0.217    0.631    3.363
  322.540   97.163    0.242    0.654    3.573
  322.790   92.729    0.244    0.621    3.794
  323.040   90.934    0.253    0.622    3.995
  323.290   89.279    0.309    0.628    3.913
  323.540   87.406    0.331    0.570    3.658
  323.790   89.364    0.338    0.532    3.519
  324.040   94.486    0.284    0.566    3.326
  324.290   94.739    0.260    0.585    3.385
  324.540   92.627    0.267    0.621    3.719
  324.790   91.956    0.289    0.652    4.408
  325.040   89.108    0.264    0.559    5.462
  325.290   90.520    0.236    0.492    6.424
  325.540   86.585    0.233    0.461    7.065
  325.790   84.327    0.256    0.435    7.425
  326.040   86.751    0.245    0.433    7.442
  326.290   88.631    0.228    0.447    7.445
  326.540   88.933    0.247    0.455    7.449
  326.790   86.944    0.249    0.502    7.475
  327.040   83.939    0.288    0.526    7.714
  327.290   80.900    0.312    0.537    7.950
  327.540   77.577    0.306    0.493    8.191
  327.790   72.301    0.259    0.474    8.441
  328.040   66.912    0.259    0.462    8.710
  328.290   70.022    0.267    0.451    8.776
  328.540   73.663    0.263    0.441    8.797
  328.790   78.917    0.256    0.429    8.618
  329.040   83.446    0.242    0.424    8.460
  329.290   88.930    0.255    0.437    8.097
  329.540   92.240    0.249    0.437    7.740
  329.790   95.798    0.227    0.465    7.328
  330.040   97.893    0.239    0.502    6.845
  330.290  100.976    0.240    0.540    6.521
  330.540  100.155    0.239    0.534    6.339
  330.790   98.141    0.259    0.553    6.376
  331.040   87.518    0.273    0.574    6.727
  331.290   79.813    0.301    0.576    7.258
  331.540   73.115    0.327    0.530    7.734
  331.790   68.028    0.305    0.479    8.039
  332.040   68.055    0.305    0.461    8.283
  332.290   67.996    0.299    0.449    8.496
  332.540   67.623    0.303    0.457    8.483
  332.790   69.586    0.296    0.465    8.632
  333.040   71.223    0.282    0.461    8.814
  333.290   70.515    0.283    0.456    8.799
  333.540   75.741    0.300    0.450    8.895
  333.790   79.319    0.272    0.457    8.958
  334.040   80.712    0.255    0.483    8.963
  334.290   81.516    0.262    0.493    8.964
  334.540   81.506    0.267    0.470    8.964
  334.790   80.992    0.279    0.459    8.965
  335.040   80.847    0.292    0.450    8.965
  335.290   81.505    0.278    0.450    8.965
  335.540   82.287    0.281    0.443    9.090
  335.790   83.047    0.265    0.428    9.130
  336.040   79.773    0.236    0.392    9.135
  336.290   73.375    0.227    0.382    9.030
  336.540   78.872    0.231    0.395    8.981
  336.790   83.167    0.284    0.432    8.837
  337.040   80.736    0.242    0.443    8.395
  337.290   75.897    0.220    0.453    8.152
  337.540   67.350    0.230    0.475    8.276
  337.790   59.478    0.251    0.444    8.740
  338.040   55.709    0.273    0.399    8.997
  338.290   60.602    0.255    0.404    9.164
  338.540   64.062    0.269    0.413    8.913
  338.790   70.797    0.258    0.411    8.655
  339.040   76.235    0.236    0.409    8.418
  339.290   80.240    0.220    0.430    7.998
  339.540   83.102    0.225    0.440    7.640
  339.790   91.780    0.198    0.435    7.184
  340.040   99.319    0.159    0.464    6.917
  340.290  103.649    0.164    0.530    6.493
  340.540  106.846    0.186    0.560    6.184
  340.790  110.852    0.168    0.587    5.893
  341.040  108.823    0.194    0.568    5.436
  341.290  108.341    0.187    0.582    5.336
  341.540  111.708    0.199    0.607    5.004
  341.790  110.641    0.187    0.589    4.764
  342.040  109.811    0.204    0.598    4.748
  342.290  109.889    0.219    0.616    4.839
  342.540  107.558    0.208    0.583    4.993
  342.790  103.360    0.186    0.556    5.014
  343.040  104.237    0.155    0.540    4.613
  343.290  107.868    0.182    0.573    4.212
  343.540  112.708    0.197    0.593    3.837
  343.790  114.195    0.236    0.617    3.503
  344.040  112.991    0.248    0.611    3.455
  344.290  111.796    0.252    0.607    3.935
  344.540  113.090    0.281    0.606    4.888
  344.790  111.387    0.296    0.608    5.540
  345.040  111.137    0.312    0.589    6.747
  345.290  111.895    0.234    0.554    7.812
  345.540  109.107    0.204    0.505    8.635
  345.790  106.890    0.221    0.465    9.002
  346.040  108.371    0.227    0.464    8.750
  346.290  105.828    0.222    0.492    7.981
  346.540  103.894    0.226    0.493    7.167
  346.790  104.485    0.240    0.500    6.546
  347.040  100.304    0.258    0.513    5.982
  347.290   98.570    0.268    0.493    5.538
  347.540  102.749    0.246    0.531    5.356
  347.790  105.240    0.244    0.613    5.422
  348.040  105.121    0.218    0.629    5.927
  348.290  101.072    0.196    0.624    6.355
  348.540  100.317    0.258    0.616    7.115
  348.790  100.755    0.329    0.611    7.679
  349.040   99.861    0.404    0.623    8.583
  349.290   96.899    0.364    0.609    9.681
  349.540   92.345    0.319    0.540   10.088
  349.790   87.754    0.288    0.490   10.486
  350.040   86.444    0.274    0.455   10.481
  350.290   88.265    0.274    0.475   10.176
  350.540   90.201    0.271    0.483    9.653
  350.790   91.797    0.273    0.464    9.373
  351.040   94.241    0.276    0.457    8.888
  351.290   97.953    0.284    0.484    8.383
  351.540   96.867    0.276    0.507    8.127
  351.790   96.987    0.295    0.536    8.065
  352.040   99.713    0.312    0.525    7.807
  352.290  103.083    0.319    0.537    7.720
  352.540  107.515    0.349    0.557    7.665
  352.790  112.096    0.272    0.550    7.787
  353.040  116.025    0.254    0.516    7.949
  353.290  115.952    0.269    0.537    8.122
  353.540  109.865    0.293    0.576    8.502
  353.790   98.067    0.331    0.621    8.777
  354.040   87.607    0.313    0.592    9.042
  354.290   77.346    0.281    0.459    9.164
  354.540   69.388    0.276    0.433    9.201
  354.790   72.712    0.271    0.437    9.208
  355.040   75.844    0.270    0.424    9.208
  355.290   81.171    0.279    0.428    9.210
  355.540   87.479    0.267    0.414    9.210
  355.790   91.868    0.252    0.415    9.207
  356.040   95.259    0.250    0.421    9.189
  356.290   97.126    0.243    0.415    8.907
  356.540  100.402    0.236    0.410    8.659
  356.790  102.804    0.225    0.425    8.226
  357.040  101.529    0.184    0.444    7.527
  357.290  103.048    0.192    0.469    6.826
  357.540  107.133    0.208    0.498    5.920
  357.790  109.069    0.222    0.522    5.307
  358.040  110.950    0.221    0.559    4.862
  358.290  111.269    0.215    0.585    5.048
  358.540  110.985    0.234    0.628    5.415
  358.790  109.100    0.260    0.609    5.564
  359.040  104.956    0.274    0.613    5.731
  359.290   99.023    0.289    0.586    5.860
  359.540   92.307    0.297    0.529    5.866
  359.790   88.683    0.292    0.548    5.953
  360.040   92.721    0.288    0.575    6.101
  360.290   96.970    0.287    0.624    6.552
  360.540   97.675    0.294    0.528    6.721
  360.790   96.566    0.261    0.468    7.074
  361.040   96.231    0.241    0.445    7.422
  361.290   95.944    0.235    0.467    7.665
  361.540   96.919    0.257    0.487    7.771
  361.790   95.788    0.283    0.501    7.981
  362.040   91.847    0.274    0.512    8.219
  362.290   89.315    0.285    0.559    8.459
  362.540   90.028    0.276    0.582    8.869
  362.790   91.805    0.267    0.589    9.174
  363.040   91.927    0.209    0.533    9.274
  363.290   89.936    0.187    0.523    9.612
