~VERSION INFORMATION
 VERS.                 2.0:   CWLS LOG ASCII STANDARD -VERSION 2.0
 WRAP.                  NO:   ONE LINE PER DEPTH STEP
~WELL INFORMATION BLOCK
#MNEM.UNIT           DATA                    DESCRIPTION OF MNEMONIC
#---------    -------------------            -------------------------------
# Generated from Intellog Unique Number	CX_WELLS/WELL/4035
WELL.         PACIFIC AMADOU                 : Well_name    - WELL
LOC .         00/10-06-076-20W4/0            : Location     - LOCATION
UWI .         00/10-06-076-20W4/0            : Uwi          - UNIQUE WELL ID
ENTR.         T                              : Entered      - ENTERED BY
SRVC.         SCHLUMBERGER                   : Scn          - SERVICE COMPANY
STRT.F        1000                           : top_depth    - START DEPTH
STOP.F        1749.67                        : bot_depth    - STOP DEPTH
STEP.F        0.82                           : increment    - STEP LENGTH
 NULL. -999.2500:NULL Value
~CURVE INFORMATION BLOCK
#MNEM UNIT       ERCB CURVE CODE    CURVE DESCRIPTION
#-----------   ------------------   ----------------------------------
DEPT.F        00 001 00 00         : DEPTH        - DEPTH
GR  .API      00 310 00 00         : GR           - GAMMA RAY
NPHI.V/V      00 330 00 00         : PHIN         - NEUTRON POROSITY (SANDSTONE)
DPHI.V/V      00 890 00 00         : PHID         - DENSITY POROSITY (SANDSTONE)
ILD .OHMM     00 120 00 00         : RESD         - DEEP RESISTIVITY (DIL)
~PARAMETER INFORMATION
#MNEM.UNIT           DATA             DESCRIPTION OF MNEMONIC
#---------         -----------     ------------------------------
GL  .F        2101.6               : gl           - GROUND LEVEL ELEVATION
EREF.F        2109.8               : kb           - ELEVATION OF DEPTH REFERENCE
DATM.F        2109.8               : datum        - DATUM ELEVATION
TDD .F        1942                 : tdd          - TOTAL DEPTH DRILLER
RUN .         ONE                  : Run          - RUN NUMBER
ENG .         BILL                 : Engineer     - RECORDING ENGINEER
WIT .         JIM                  : Witness      - WITNESSED BY
MUD .         GEL                  : Mud_type     - MUD TYPE
MATR.         SANDSTONE            : Logunit      - NEUTRON MATRIX
TMAX.F        76                   : BHT          - MAXIMUM RECORDED TEMPERATURE
BHTD.F        1947                 : BHTDEP       - MAXIMUM RECORDED TEMPERATURE
MATR.         1                    : LOGUNIT      - NEUTRON MATRIX
RMT .F        77                   : MDTP         - TEMPERATURE OF MUD
NEUT.         1                    : NEUTRON      - NEUTRON TYPE
RESI.         4.42                 : RESIST       - RESISTIVITY TYPE
RMC .OHMM     4.3                  : RMC          - RESISTIVITY OF MUD CAKE
RMF .OHMM     3                    : RMF          - RESISTIVITY OF MUD FILTRATE
SUFT.F        39.2                 : SUFT         - SURFACE TEMPERATURE
~A  DEPTH       GR     PHIN     PHID     RESD
# ...
 1570.870   98.895    0.354    0.146    7.148
 1571.690   98.906    0.357    0.145    7.274
 1572.510   98.919    0.359    0.143    7.272
 1573.330   98.356    0.354    0.137    7.401
 1574.150   97.784    0.341    0.132    7.532
 1574.970   93.166    0.327    0.121    8.092
 1575.790   89.700    0.304    0.097    8.852
 1576.610   84.499    0.276    0.074   10.039
 1577.430   79.305    0.253    0.060   10.982
 1578.250   78.160    0.255    0.049   13.147
 1579.070   75.856    0.256    0.049   14.382
 1579.890   73.552    0.267    0.057   13.865
 1580.710   74.144    0.286    0.070   13.614
 1581.530   77.051    0.305    0.084   12.890
 1582.350   81.699    0.333    0.108   11.989
 1583.170   86.930    0.340    0.116   10.188
 1583.990   92.737    0.352    0.127    8.816
 1584.810   96.230    0.361    0.137    8.349
 1585.630   99.140    0.370    0.148    7.765
 1586.450   99.150    0.371    0.155    7.091
 1587.270   98.008    0.368    0.156    6.837
 1588.090   97.446    0.350    0.150    6.712
 1588.910   97.463    0.335    0.133    6.591
 1589.730   97.473    0.331    0.121    6.587
 1590.550   97.483    0.344    0.122    6.585
 1591.370   99.817    0.346    0.141    6.582
 1592.190  100.989    0.337    0.134    6.579
 1593.010  100.423    0.332    0.136    6.577
 1593.830   99.857    0.344    0.141    6.573
 1594.650   99.871    0.349    0.142    6.571
 1595.470  100.463    0.339    0.135    6.568
 1596.290  100.480    0.325    0.126    6.566
 1597.110   99.911    0.321    0.111    6.562
 1597.930   98.186    0.318    0.098    6.559
 1598.750   94.724    0.311    0.084    6.441
 1599.570   94.740    0.301    0.071    6.209
 1600.390   97.074    0.288    0.084    6.096
 1601.210   98.243    0.283    0.112    6.205
 1602.030   99.995    0.314    0.127    6.203
 1602.850  100.591    0.326    0.143    6.199
 1603.670  100.608    0.349    0.154    5.561
 1604.490  100.038    0.366    0.164    4.900
 1605.310   99.472    0.418    0.180    4.240
 1606.140   99.489    0.427    0.213    3.669
 1606.960   99.506    0.442    0.229    3.007
 1607.780   99.513    0.448    0.245    2.848
 1608.600  100.105    0.448    0.256    2.796
 1609.420  101.281    0.447    0.261    2.846
 1610.240  103.032    0.446    0.264    2.949
 1611.060  102.466    0.436    0.261    3.056
 1611.880  100.742    0.408    0.231    3.225
 1612.700   99.596    0.386    0.170    3.723
 1613.520   98.454    0.366    0.157    4.378
 1614.340   97.885    0.359    0.153    4.965
 1615.160   97.899    0.353    0.149    5.530
 1615.980   97.912    0.340    0.138    6.049
 1616.800   96.767    0.326    0.114    6.157
 1617.620   96.787    0.305    0.101    6.154
 1618.440   97.962    0.302    0.121    6.264
 1619.260   98.548    0.346    0.142    6.149
 1620.080  100.303    0.355    0.156    5.616
 1620.900  100.317    0.363    0.159    5.223
 1621.720  100.327    0.358    0.154    5.128
 1622.540   99.185    0.353    0.156    5.218
 1623.360   98.619    0.358    0.155    5.312
 1624.180   96.894    0.361    0.154    5.505
 1625.000   95.169    0.364    0.151    5.808
 1625.820   92.872    0.363    0.149    6.239
 1626.640   91.727    0.358    0.148    6.126
 1627.460   90.575    0.347    0.146    6.014
 1628.280   89.430    0.334    0.141    5.798
 1629.100   88.288    0.341    0.135    5.797
 1629.920   86.567    0.349    0.129    6.115
 1630.740   83.683    0.343    0.127    6.225
 1631.560   79.638    0.324    0.117    7.058
 1632.380   76.175    0.295    0.089    7.721
 1633.200   77.347    0.287    0.071    8.757
 1634.020   93.003    0.294    0.089    9.074
 1634.840   99.393    0.304    0.098    8.290
 1635.660  102.882    0.319    0.122    7.437
 1636.480  106.372    0.338    0.128    6.671
 1637.300  110.441    0.343    0.135    6.092
 1638.120  110.457    0.348    0.143    6.091
 1638.940  109.891    0.354    0.148    6.088
 1639.760  109.326    0.350    0.145    6.085
 1640.580  108.184    0.343    0.143    6.194
 1641.400  108.197    0.337    0.139    6.535
 1642.220  108.214    0.331    0.133    6.772
 1643.040  107.641    0.318    0.125    7.018
 1643.860  106.496    0.318    0.112    7.143
 1644.690  104.192    0.321    0.108    7.140
 1645.510  103.626    0.326    0.112    7.010
 1646.330  103.646    0.331    0.121    6.758
 1647.150  104.818    0.336    0.132    6.635
 1647.970  105.408    0.342    0.140    6.396
 1648.790  106.580    0.350    0.148    6.395
 1649.610  106.596    0.358    0.152    6.278
 1650.430  106.027    0.370    0.160    6.275
 1651.250  104.885    0.374    0.163    6.273
 1652.070  104.899    0.373    0.171    6.271
 1652.890  108.967    0.367    0.168    6.267
 1653.710  115.354    0.345    0.156    6.265
 1654.530  122.899    0.326    0.132    6.263
 1655.350  125.809    0.322    0.125    6.260
 1656.170  125.822    0.329    0.125    6.256
 1656.990  126.422    0.337    0.129    6.255
 1657.810  125.859    0.341    0.134    6.252
 1658.630  125.290    0.338    0.139    6.250
 1659.450  124.145    0.340    0.143    6.247
 1660.270  124.158    0.341    0.138    6.243
 1661.090  123.589    0.340    0.133    6.242
 1661.910  123.026    0.336    0.133    6.353
 1662.730  121.881    0.335    0.133    6.466
 1663.550  121.318    0.335    0.130    6.462
 1664.370  119.014    0.333    0.123    6.577
 1665.190  115.552    0.332    0.121    6.575
 1666.010  114.982    0.330    0.120    6.572
 1666.830  117.317    0.329    0.118    6.569
 1667.650  119.065    0.325    0.115    6.568
 1668.470  120.816    0.319    0.106    6.447
 1669.290  119.674    0.315    0.098    6.329
 1670.110  106.945    0.306    0.093    6.326
 1670.930  106.376    0.313    0.122    6.211
 1671.750  104.072    0.359    0.147    6.097
 1672.570  100.609    0.366    0.177    5.986
 1673.390   96.567    0.386    0.185    5.772
 1674.210   92.525    0.399    0.200    5.271
 1675.030   87.328    0.409    0.218    5.082
 1675.850   82.703    0.423    0.247    4.990
 1676.670   75.764    0.444    0.253    4.641
 1677.490   65.353    0.454    0.263    4.395
 1678.310   61.890    0.466    0.262    4.162
 1679.130   57.851    0.465    0.259    4.013
 1679.950   61.337    0.460    0.259    3.869
 1680.770   66.565    0.462    0.259    3.867
 1681.590   74.689    0.462    0.258    3.865
 1682.410   82.814    0.456    0.250    4.078
 1683.230   91.521    0.451    0.240    4.152
 1684.060   98.486    0.442    0.227    4.302
 1684.880  101.976    0.438    0.215    4.458
 1685.700  103.727    0.411    0.203    4.537
 1686.520  103.744    0.402    0.190    4.618
 1687.340  104.334    0.399    0.186    4.700
 1688.160  104.930    0.392    0.174    4.697
 1688.980  106.105    0.375    0.170    4.696
 1689.800  107.277    0.397    0.184    4.695
 1690.620  106.711    0.412    0.194    4.692
 1691.440  103.249    0.431    0.211    4.606
 1692.260  100.365    0.446    0.229    4.605
 1693.080   99.799    0.444    0.223    4.520
 1693.900  105.027    0.435    0.217    4.519
 1694.720  110.254    0.423    0.206    4.436
 1695.540  114.903    0.412    0.201    4.434
 1696.360  116.075    0.407    0.200    4.353
 1697.180  113.774    0.405    0.199    4.352
 1698.000  112.050    0.416    0.207    4.195
 1698.820  112.642    0.431    0.217    4.045
 1699.640  112.656    0.431    0.225    3.972
 1700.460  110.352    0.430    0.235    3.899
 1701.280  106.889    0.473    0.250    3.897
 1702.100  101.112    0.493    0.292    3.895
 1702.920   98.805    0.510    0.296    3.894
 1703.740   98.822    0.505    0.289    3.755
 1704.560  102.315    0.493    0.279    3.555
 1705.380  105.225    0.480    0.265    3.491
 1706.200  109.290    0.464    0.255    3.427
 1707.020  106.986    0.452    0.250    3.425
 1707.840  102.944    0.462    0.262    3.549
 1708.660   98.902    0.475    0.272    3.612
 1709.480   95.443    0.486    0.274    3.677
 1710.300   94.880    0.489    0.276    3.879
 1711.120   94.887    0.485    0.278    3.878
 1711.940   97.225    0.461    0.270    4.092
 1712.760  103.607    0.456    0.264    4.240
