~VERSION INFORMATION
 VERS.                 2.0:   CWLS LOG ASCII STANDARD -VERSION 2.0
 WRAP.                  NO:   ONE LINE PER DEPTH STEP
~WELL INFORMATION BLOCK
#MNEM.UNIT           DATA                    DESCRIPTION OF MNEMONIC
#---------    -------------------            -------------------------------
# Generated from Intellog Unique Number	CS_71_72/WELL/885
WELL.         TEE PEE PETROLEUMS             : Well_name    - WELL
LOC .         00/11-04-071-18W4/0            : Location     - LOCATION
UWI .         00/11-04-071-18W4/0            : Uwi          - UNIQUE WELL ID
ENTR.         SP                             : Entered      - ENTERED BY
SRVC.         SCHLUMBERGER                   : Scn          - SERVICE COMPANY
STRT.M        295.656                        : top_depth    - START DEPTH
STOP.M        520.906                        : bot_depth    - STOP DEPTH
STEP.M        0.25                           : increment    - STEP LENGTH
 NULL. -999.2500:NULL Value
~CURVE INFORMATION BLOCK
#MNEM UNIT       ERCB CURVE CODE    CURVE DESCRIPTION
#-----------   ------------------   ----------------------------------
DEPT.M        00 001 00 00         : DEPTH        - DEPTH
GR  .API      00 310 00 00         : GR           - GAMMA RAY
DPHI.V/V      00 890 00 00         : PHID         - DENSITY POROSITY (SANDSTONE)
NPHI.V/V      00 330 00 00         : PHIN         - NEUTRON POROSITY (SANDSTONE)
ILD .OHMM     00 120 00 00         : RESD         - DEEP RESISTIVITY (DIL)
~PARAMETER INFORMATION
#MNEM.UNIT           DATA             DESCRIPTION OF MNEMONIC
#---------         -----------     ------------------------------
GL  .M        575.462              : gl           - GROUND LEVEL ELEVATION
EREF.M        579.12               : kb           - ELEVATION OF DEPTH REFERENCE
DATM.M        575.462              : datum        - DATUM ELEVATION
TDD .M        543.154              : tdd          - TOTAL DEPTH DRILLER
RUN .         ONE                  : Run          - RUN NUMBER
ENG .         BILL                 : Engineer     - RECORDING ENGINEER
WIT .         JIM                  : Witness      - WITNESSED BY
MUD .         GEL                  : Mud_type     - MUD TYPE
MATR.         SANDSTONE            : Logunit      - NEUTRON MATRIX
TMAX.C        24.4444              : BHT          - MAXIMUM RECORDED TEMPERATURE
BHTD.M        543.154              : BHTDEP       - MAXIMUM RECORDED TEMPERATURE
MATR.         1                    : LOGUNIT      - NEUTRON MATRIX
RMT .C        25                   : MDTP         - TEMPERATURE OF MUD
NEUT.         1                    : NEUTRON      - NEUTRON TYPE
RESI.         0                    : RESIST       - RESISTIVITY TYPE
RMC .OHMM     0.25                 : RMC          - RESISTIVITY OF MUD CAKE
RMF .OHMM     0.25                 : RMF          - RESISTIVITY OF MUD FILTRATE
SUFT.C        15                   : SUFT         - SURFACE TEMPERATURE
~A  DEPTH       GR     PHID     PHIN     RESD
# ...
  469.656  132.044    0.200    0.365    3.202
  469.906  130.996    0.209    0.394    3.450
  470.156  129.043    0.208    0.419    3.639
  470.406  126.931    0.200    0.428    3.739
  470.656  125.834    0.195    0.420    3.818
  470.906  128.698    0.228    0.420    3.884
  471.156  132.635    0.231    0.422    3.943
  471.406  134.376    0.230    0.417    3.964
  471.656  128.459    0.232    0.418    3.997
  471.906  118.935    0.227    0.430    4.018
  472.156  112.178    0.212    0.424    4.012
  472.406  101.137    0.198    0.408    3.989
  472.656   89.595    0.189    0.399    3.953
  472.906   78.395    0.182    0.391    3.925
  473.156   67.839    0.186    0.381    3.911
  473.406   58.296    0.246    0.371    3.903
  473.656   50.731    0.260    0.359    3.891
  473.906   43.754    0.260    0.350    3.859
  474.156   37.925    0.242    0.338    3.781
  474.406   32.840    0.261    0.330    3.714
  474.656   30.108    0.286    0.323    3.614
  474.906   29.141    0.287    0.316    3.532
  475.156   29.628    0.278    0.316    3.403
  475.406   31.411    0.275    0.320    3.270
  475.656   35.247    0.289    0.319    3.150
  475.906   38.468    0.295    0.313    3.107
  476.156   43.455    0.290    0.312    3.115
  476.406   53.202    0.257    0.323    3.178
  476.656   69.837    0.237    0.332    3.230
  476.906   71.353    0.222    0.348    3.299
  477.156   65.741    0.219    0.368    3.408
  477.406   57.559    0.235    0.371    3.486
  477.656   50.390    0.244    0.356    3.554
  477.906   46.683    0.242    0.342    3.591
  478.156   42.642    0.225    0.331    3.609
  478.406   39.077    0.235    0.332    3.579
  478.656   34.533    0.243    0.333    3.406
  478.906   30.268    0.257    0.332    3.301
  479.156   28.178    0.272    0.329    3.197
  479.406   29.685    0.286    0.328    3.134
  479.656   33.985    0.273    0.327    3.148
  479.906   40.885    0.206    0.332    3.214
  480.156   50.139    0.188    0.336    3.341
  480.406   61.683    0.173    0.338    3.495
  480.656   68.810    0.170    0.347    3.674
  480.906   70.584    0.177    0.366    3.347
  481.156   68.777    0.193    0.383    3.530
  481.406   66.657    0.208    0.380    3.667
  481.656   65.827    0.201    0.371    3.806
  481.906   66.290    0.176    0.358    3.983
  482.156   66.572    0.179    0.355    4.139
  482.406   66.640    0.187    0.357    4.276
  482.656   65.067    0.177    0.347    4.408
  482.906   61.948    0.175    0.334    4.496
  483.156   59.407    0.183    0.328    4.533
  483.406   57.951    0.190    0.338    4.609
  483.656   58.703    0.192    0.346    4.631
  483.906   58.294    0.199    0.354    4.627
  484.156   56.048    0.216    0.356    4.574
  484.406   55.589    0.227    0.348    4.548
  484.656   58.561    0.234    0.339    4.491
  484.906   62.629    0.239    0.332    4.409
  485.156   66.925    0.200    0.329    4.328
  485.406   70.095    0.197    0.345    4.182
  485.656   72.324    0.212    0.362    4.067
  485.906   74.003    0.232    0.374    3.952
  486.156   78.130    0.230    0.381    3.884
  486.406   85.179    0.237    0.366    3.842
  486.656  105.126    0.247    0.346    3.815
  486.906  131.512    0.225    0.369    3.866
  487.156  137.617    0.236    0.392    3.925
  487.406  120.822    0.242    0.412    3.985
  487.656  106.036    0.252    0.431    4.006
  487.906   86.657    0.268    0.438    3.811
  488.156   81.177    0.274    0.430    3.616
  488.406   84.172    0.279    0.422    3.488
  488.656   86.511    0.236    0.429    3.453
  488.906   88.771    0.215    0.448    3.546
  489.156   90.214    0.217    0.423    3.702
  489.406   81.578    0.223    0.405    3.933
  489.656   68.106    0.238    0.384    4.239
  489.906   66.525    0.267    0.367    4.552
  490.156   76.213    0.283    0.363    4.860
  490.406   81.694    0.294    0.381    5.080
  490.656   86.433    0.280    0.398    5.135
  490.906   92.781    0.267    0.413    5.075
  491.156   99.256    0.252    0.421    4.947
  491.406  104.564    0.216    0.438    4.781
  491.656  103.792    0.230    0.468    4.642
  491.906  101.309    0.231    0.499    4.547
  492.156  107.019    0.216    0.531    4.532
  492.406  116.508    0.204    0.471    4.574
  492.656  120.059    0.192    0.409    4.657
  492.906  117.001    0.182    0.423    4.706
  493.156  111.915    0.173    0.441    4.739
  493.406  105.869    0.168    0.449    4.756
  493.656   99.568    0.163    0.448    4.761
  493.906   89.750    0.161    0.444    4.733
  494.156   83.374    0.192    0.441    4.672
  494.406   82.376    0.224    0.470    4.601
  494.656   83.234    0.229    0.504    4.549
  494.906   85.533    0.213    0.500    4.476
  495.156   86.276    0.198    0.480    4.393
  495.406   80.509    0.182    0.461    4.349
  495.656   74.119    0.176    0.441    4.296
  495.906   71.910    0.188    0.418    4.266
  496.156   70.718    0.198    0.411    4.227
  496.406   69.485    0.212    0.413    4.177
  496.656   67.397    0.196    0.445    4.085
  496.906   63.467    0.178    0.464    3.997
  497.156   55.676    0.166    0.421    3.872
  497.406   47.049    0.190    0.367    3.726
  497.656   42.567    0.189    0.341    3.557
  497.906   42.439    0.200    0.329    3.375
  498.156   41.577    0.234    0.321    3.187
  498.406   37.753    0.237    0.317    3.083
  498.656   34.859    0.237    0.316    2.924
  498.906   34.312    0.274    0.317    2.822
  499.156   35.000    0.288    0.320    2.678
  499.406   35.980    0.284    0.335    2.568
  499.656   36.375    0.290    0.353    2.421
  499.906   29.979    0.308    0.356    2.314
  500.156   25.571    0.315    0.357    2.182
  500.406   23.023    0.315    0.361    2.114
  500.656   22.767    0.330    0.360    2.062
  500.906   22.945    0.328    0.356    2.019
  501.156   23.752    0.322    0.351    2.005
  501.406   25.501    0.315    0.343    2.011
  501.656   25.904    0.300    0.339    2.024
  501.906   24.141    0.294    0.336    2.043
  502.156   21.886    0.310    0.334    2.086
  502.406   21.201    0.305    0.338    2.093
  502.656   21.748    0.314    0.343    2.365
  502.906   23.787    0.299    0.336    2.369
  503.156   27.058    0.292    0.335    2.405
  503.406   30.759    0.290    0.333    2.470
  503.656   35.010    0.290    0.329    2.541
  503.906   40.389    0.302    0.328    2.640
  504.156   49.375    0.291    0.335    2.873
  504.406   60.566    0.248    0.355    3.011
  504.656   69.471    0.218    0.367    3.360
  504.906   69.913    0.214    0.402    3.587
  505.156   63.946    0.236    0.399    3.881
  505.406   65.537    0.233    0.360    4.041
  505.656   66.672    0.220    0.325    4.025
  505.906   67.995    0.176    0.318    3.994
  506.156   62.750    0.174    0.328    3.911
  506.406   54.204    0.190    0.337    3.678
  506.656   48.903    0.232    0.330    3.369
  506.906   46.892    0.259    0.321    3.091
  507.156   52.055    0.273    0.327    2.915
  507.406   60.211    0.247    0.336    2.845
  507.656   67.464    0.245    0.343    2.896
  507.906   75.749    0.238    0.352    2.969
  508.156   82.054    0.229    0.361    3.017
  508.406  142.765    0.219    0.369    3.035
  508.656  151.522    0.219    0.373    3.017
  508.906  154.364    0.224    0.392    2.972
  509.156  153.898    0.227    0.453    2.946
  509.406  151.907    0.222    0.478    2.937
  509.656  144.537    0.230    0.524    3.034
  509.906  129.836    0.228    0.546    3.190
  510.156  112.099    0.233    0.552    3.170
  510.406  105.749    0.233    0.555    3.147
  510.656  115.214    0.201    0.520    3.295
  510.906  126.450    0.166    0.473    3.474
  511.156  113.690    0.169    0.445    3.872
  511.406   96.806    0.168    0.455    4.233
  511.656   78.284    0.144    0.469    4.786
  511.906   69.180    0.113    0.478    5.335
  512.156   56.108    0.060    0.450    5.908
  512.406   46.842    0.014    0.276    6.315
  512.656   45.411    0.004    0.290    6.511
  512.906   50.323    0.009    0.265    6.360
