~VERSION INFORMATION
 VERS.                 2.0:   CWLS LOG ASCII STANDARD -VERSION 2.0
 WRAP.                  NO:   ONE LINE PER DEPTH STEP
~WELL INFORMATION BLOCK
#MNEM.UNIT           DATA                    DESCRIPTION OF MNEMONIC
#---------    -------------------            -------------------------------
# Generated from Intellog Unique Number	CW_70_72/WELL/3028
NULL.         -999.25                        : NULL_VALUE
WELL.         SULPETRO ET AL MITSUE 11-10    : Well_name    - WELL              
LOC .         11-10-070-05W5                 : Location     - LOCATION          
UWI .         00/11-10-070-05W5/0            : Uwi          - UNIQUE WELL ID    
ENTR.         JAYE                           : Entered      - ENTERED BY        
SRVC.         SCHLUMBERGER                   : Scn          - SERVICE COMPANY   
DATE.         4 FEB 79                       : Date         - LOG DATE          
STRT.M        680                            : top_depth    - START DEPTH       
STOP.M        905                            : bot_depth    - STOP DEPTH        
STEP.M        0.25                           : increment    - STEP LENGTH       
~CURVE INFORMATION BLOCK
#MNEM UNIT       ERCB CURVE CODE    CURVE DESCRIPTION
#-----------   ------------------   ----------------------------------
DEPT.M        00 001 00 00         : DEPTH        - DEPTH                       
CALI.MM       00 280 01 00         : CAL          - CALIPER                     
ILD .OHMM     00 120 00 00         : RESD         - DEEP RESISTIVITY (DIL)      
GR  .API      00 310 00 00         : GR           - GAMMA RAY                   
NPHI.V/V      00 330 00 00         : PHIN         - NEUTRON POROSITY (SANDSTONE)
DPHI.V/V      00 890 00 00         : PHID         - DENSITY POROSITY (SANDSTONE)
~PARAMETER INFORMATION       
#MNEM.UNIT           DATA             DESCRIPTION OF MNEMONIC
#---------         -----------     ------------------------------
GL  .M        785.2                : gl           - GROUND LEVEL ELEVATION      
EREF.M        788.2                : kb           - ELEVATION OF DEPTH REFERENCE
DATM.M        785.2                : datum        - DATUM ELEVATION             
TDD .M        931                  : tdd          - TOTAL DEPTH DRILLER         
RUN .         ONE                  : Run          - RUN NUMBER                  
ENG .         RIVOLLIER            : Engineer     - RECORDING ENGINEER          
WIT .         TRUNK                : Witness      - WITNESSED BY                
BASE.         EDM                  : Branch       - HOME BASE OF LOGGING UNIT   
MUD .         GEL                  : Mud_type     - MUD TYPE                    
MATR.         SANDSTONE            : Logunit      - NEUTRON MATRIX              
TMAX.C        0                    : BHT          - MAXIMUM RECORDED TEMPERATURE
BHTD.M        931                  : BHTDEP       - MAXIMUM RECORDED TEMPERATURE
RMT .C        11                   : MDTP         - TEMPERATURE OF MUD          
MUDD.KG/M     1102                 : MWT          - MUD DENSITY                 
NEUT.         1                    : NEUTRON      - NEUTRON TYPE                
RESI.         0                    : RESIST       - RESISTIVITY TYPE            
RM  .OHMM     5.96                 : RM           - RESISTIVITY OF MUD          
RMC .OHMM     0.25                 : RMC          - RESISTIVITY OF MUD CAKE     
RMF .OHMM     7.48                 : RMF          - RESISTIVITY OF MUD FILTRATE 
SUFT.C        0                    : SUFT         - SURFACE TEMPERATURE         
~A  DEPTH      CAL     RESD       GR     PHIN     PHID
# ...
  826.000  150.995    1.146   51.373    0.394    0.321
  826.250  151.114    1.284   50.398    0.399    0.317
  826.500  149.699    1.527   49.175    0.400    0.294
  826.750  146.335    1.979   46.410    0.311    0.221
  827.000  150.044    2.255   45.682    0.248    0.168
  827.250  153.648    2.244   47.052    0.257    0.185
  827.500  153.359    2.000   47.557    0.308    0.213
  827.750  152.252    1.759   47.260    0.392    0.265
  828.000  152.063    1.562   47.087    0.397    0.311
  828.250  151.984    1.410   46.853    0.382    0.330
  828.500  151.486    1.320   47.297    0.377    0.324
  828.750  150.481    1.306   47.492    0.387    0.315
  829.000  147.937    1.317   48.183    0.396    0.304
  829.250  144.983    1.331   50.417    0.389    0.297
  829.500  144.389    1.335   50.366    0.387    0.298
  829.750  144.204    1.339   49.885    0.378    0.301
  830.000  144.531    1.342   50.513    0.380    0.313
  830.250  145.059    1.361   52.131    0.391    0.321
  830.500  145.999    1.378   51.585    0.386    0.302
  830.750  147.248    1.406   48.760    0.372    0.296
  831.000  148.803    1.425   47.413    0.362    0.309
  831.250  149.334    1.432   47.487    0.364    0.320
  831.500  146.689    1.442   47.252    0.366    0.321
  831.750  139.739    1.449   46.276    0.359    0.311
  832.000  145.597    1.439   45.733    0.345    0.342
  832.250  152.893    1.414   47.904    0.335    0.304
  832.500  153.217    1.399   49.581    0.366    0.269
  832.750  152.519    1.411   51.260    0.390    0.256
  833.000  151.820    1.439   52.752    0.399    0.285
  833.250  151.021    1.499   55.047    0.405    0.301
  833.500  150.733    1.572   56.417    0.416    0.306
  833.750  150.851    1.624   54.084    0.425    0.309
  834.000  151.076    1.654   53.725    0.427    0.315
  834.250  151.605    1.661   55.896    0.408    0.316
  834.500  152.342    1.651   58.810    0.399    0.320
  834.750  152.770    1.615   59.993    0.396    0.321
  835.000  153.095    1.520   58.893    0.411    0.318
  835.250  153.116    1.404   57.302    0.411    0.302
  835.500  152.827    1.304   57.251    0.415    0.297
  835.750  152.743    1.229   58.435    0.423    0.315
  836.000  152.453    1.170   61.100    0.417    0.329
  836.250  152.471    1.162   64.506    0.415    0.337
  836.500  152.489    1.311   69.578    0.412    0.334
  836.750  151.791    1.662   76.377    0.433    0.325
  837.000  151.604    2.014   82.067    0.460    0.312
  837.250  153.263    2.386   84.978    0.460    0.312
  837.500  155.538    2.643   85.113    0.442    0.306
  837.750  156.990    2.830   83.767    0.428    0.278
  838.000  157.727    3.008   80.817    0.416    0.223
  838.250  157.948    3.257   77.496    0.407    0.203
  838.500  157.969    3.435   76.831    0.413    0.199
  838.750  157.369    3.510   78.323    0.390    0.216
  839.000  155.753    3.461   79.507    0.403    0.231
  839.250  154.742    3.319   81.495    0.414    0.244
  839.500  152.918    3.100   83.356    0.402    0.255
  839.750  151.399    2.933   85.404    0.417    0.254
  840.000  149.880    2.822   82.515    0.419    0.248
  840.250  148.363    2.732   75.616    0.407    0.255
  840.500  147.561    2.629   74.519    0.411    0.245
  840.750  147.066    2.530   75.702    0.406    0.234
  841.000  146.676    2.457   77.195    0.398    0.223
  841.250  145.978    2.414   78.070    0.405    0.247
  841.500  146.001    2.385   78.453    0.407    0.246
  841.750  146.120    2.326   78.219    0.406    0.249
  842.000  146.240    2.259   78.044    0.401    0.257
  842.250  146.255    2.198   76.638    0.403    0.254
  842.500  146.275    2.184   74.180    0.401    0.249
  842.750  146.600    2.166   72.279    0.406    0.238
  843.000  146.721    2.148   72.722    0.407    0.246
  843.250  146.842    2.134   74.031    0.394    0.275
  843.500  147.477    2.124   74.597    0.388    0.270
  843.750  147.905    2.114   74.486    0.388    0.252
  844.000  148.644    2.104   74.067    0.393    0.247
  844.250  149.584    2.130   74.017    0.394    0.253
  844.500  149.499    2.180   73.904    0.394    0.236
  844.750  149.825    2.224   74.410    0.402    0.242
  845.000  150.148    2.281   75.902    0.393    0.254
  845.250  150.167    2.326   78.135    0.390    0.247
  845.500  150.289    2.364   79.012    0.394    0.240
  845.750  150.306    2.420   78.776    0.384    0.242
  846.000  150.534    2.478   77.986    0.391    0.248
  846.250  150.650    2.513   77.752    0.400    0.251
  846.500  150.876    2.544   77.948    0.398    0.234
  846.750  150.894    2.575   78.330    0.390    0.230
  847.000  150.913    2.582   78.712    0.383    0.233
  847.250  150.523    2.585   78.787    0.384    0.240
  847.500  150.439    2.568   78.550    0.381    0.241
  847.750  150.659    2.532   77.946    0.384    0.229
  848.000  150.679    2.492   78.268    0.394    0.248
  848.250  150.699    2.462   79.080    0.384    0.240
  848.500  150.408    2.460   81.066    0.373    0.242
  848.750  150.223    2.504   83.299    0.366    0.225
  849.000  149.832    2.559   85.100    0.384    0.216
  849.250  149.541    2.674   86.716    0.379    0.218
  849.500  150.482    2.779   88.395    0.373    0.202
  849.750  153.883    2.861   89.271    0.392    0.194
  850.000  157.896    2.929   90.145    0.399    0.204
  850.250  157.916    2.981   92.255    0.396    0.215
  850.500  156.294    3.029   95.043    0.390    0.188
  850.750  156.313    3.060   97.091    0.379    0.148
  851.000  159.918    3.093   98.522    0.369    0.151
  851.250  162.089    3.166   99.583    0.372    0.157
  851.500  161.902    3.241   99.657    0.384    0.168
  851.750  161.000    3.419   98.064    0.376    0.168
  852.000  159.996    3.640   97.583    0.361    0.153
  852.250  158.680    3.797   97.101    0.347    0.139
  852.500  157.059    3.946   95.570    0.331    0.155
  852.750  155.540    4.108   92.434    0.336    0.168
  853.000  155.150    4.253   91.831    0.342    0.144
  853.250  155.375    4.387   90.730    0.329    0.132
  853.500  155.595    4.542   86.793    0.314    0.122
  853.750  155.821    4.676   82.732    0.299    0.109
  854.000  155.326    4.786   79.350    0.305    0.108
  854.250  155.245    4.837   82.138    0.311    0.104
  854.500  155.259    4.786   89.617    0.311    0.087
  854.750  155.482    4.720   93.578    0.321    0.113
  855.000  155.606    4.585   95.872    0.337    0.133
  855.250  155.826    4.421   94.342    0.346    0.147
  855.500  156.154    4.215   93.304    0.360    0.164
  855.750  156.480    3.922   92.020    0.375    0.182
  856.000  156.293    3.697   89.564    0.392    0.199
  856.250  155.902    3.466   84.763    0.403    0.211
  856.500  154.075    3.329   80.147    0.406    0.208
  856.750  152.659    3.320   74.481    0.387    0.175
  857.000  151.550    3.392   69.805    0.349    0.166
  857.250  151.571    3.585   70.495    0.309    0.157
  857.500  152.615    3.789   76.307    0.307    0.149
  857.750  153.758    3.960   82.305    0.328    0.147
  858.000  155.723    3.993   89.165    0.344    0.140
  858.250  157.280    3.915   94.854    0.363    0.157
  858.500  158.527    3.825   94.803    0.384    0.166
  858.750  159.262    3.730   96.234    0.393    0.168
  859.000  159.999    3.657   97.974    0.373    0.164
  859.250  159.403    3.599   96.382    0.354    0.166
  859.500  157.986    3.583   97.012    0.341    0.165
  859.750  156.981    3.573   99.058    0.345    0.157
  860.000  157.409    3.577  101.538    0.351    0.169
  860.250  159.784    3.586  103.402    0.356    0.158
  860.500  163.287    3.617  104.771    0.364    0.156
  860.750  164.740    3.634  104.782    0.385    0.144
  861.000  165.167    3.631   97.883    0.399    0.150
  861.250  165.393    3.574   98.512    0.410    0.165
  861.500  165.309    3.478  101.116    0.413    0.177
  861.750  165.941    3.341  100.820    0.416    0.178
  862.000  166.780    2.977   99.349    0.411    0.183
  862.250  166.593    2.551  101.336    0.415    0.171
