~VERSION INFORMATION
 VERS.                 2.0:   CWLS LOG ASCII STANDARD -VERSION 2.0
 WRAP.                  NO:   ONE LINE PER DEPTH STEP
~WELL INFORMATION BLOCK
#MNEM.UNIT           DATA                    DESCRIPTION OF MNEMONIC
#---------    -------------------            -------------------------------
# Generated from Intellog Unique Number	CW_70_72/WELL/1036
NULL.         -999.25                        : NULL_VALUE
WELL.         JOFFRE ET AL CALLW 10-15       : Well_name    - WELL              
LOC .         10-15-071-20W4                 : Location     - LOCATION          
UWI .         00/10-15-071-20W4/0            : Uwi          - UNIQUE WELL ID    
ENTR.         JAYE                           : Entered      - ENTERED BY        
SRVC.         SCHLUMBERGER                   : Scn          - SERVICE COMPANY   
DATE.         13 JAN 79                      : Date         - LOG DATE          
STRT.M        315                            : top_depth    - START DEPTH       
STOP.M        500                            : bot_depth    - STOP DEPTH        
STEP.M        0.25                           : increment    - STEP LENGTH       
~CURVE INFORMATION BLOCK
#MNEM UNIT       ERCB CURVE CODE    CURVE DESCRIPTION
#-----------   ------------------   ----------------------------------
DEPT.M        00 001 00 00         : DEPTH        - DEPTH                       
DPHI.V/V      00 890 00 00         : PHID         - DENSITY POROSITY (SANDSTONE)
NPHI.V/V      00 330 00 00         : PHIN         - NEUTRON POROSITY (SANDSTONE)
GR  .API      00 310 00 00         : GR           - GAMMA RAY                   
CALI.MM       00 280 01 00         : CAL          - CALIPER                     
ILD .OHMM     00 120 00 00         : RESD         - DEEP RESISTIVITY (DIL)      
~PARAMETER INFORMATION       
#MNEM.UNIT           DATA             DESCRIPTION OF MNEMONIC
#---------         -----------     ------------------------------
GL  .M        584.3                : gl           - GROUND LEVEL ELEVATION      
EREF.M        587.6                : kb           - ELEVATION OF DEPTH REFERENCE
DATM.M        584.3                : datum        - DATUM ELEVATION             
TDD .M        530                  : tdd          - TOTAL DEPTH DRILLER         
RUN .         ONE                  : Run          - RUN NUMBER                  
ENG .         MOORE                : Engineer     - RECORDING ENGINEER          
WIT .         O'REILLY             : Witness      - WITNESSED BY                
BASE.         EDM                  : Branch       - HOME BASE OF LOGGING UNIT   
MUD .         FGM                  : Mud_type     - MUD TYPE                    
MATR.         SANDSTONE            : Logunit      - NEUTRON MATRIX              
TMAX.C        26                   : BHT          - MAXIMUM RECORDED TEMPERATURE
BHTD.M        531                  : BHTDEP       - MAXIMUM RECORDED TEMPERATURE
RMT .C        48.9                 : MDTP         - TEMPERATURE OF MUD          
MUDD.KG/M     1090                 : MWT          - MUD DENSITY                 
NEUT.         1                    : NEUTRON      - NEUTRON TYPE                
RESI.         0                    : RESIST       - RESISTIVITY TYPE            
RM  .OHMM     2.79                 : RM           - RESISTIVITY OF MUD          
RMC .OHMM     0                    : RMC          - RESISTIVITY OF MUD CAKE     
RMF .OHMM     4.18                 : RMF          - RESISTIVITY OF MUD FILTRATE 
SUFT.C        0                    : SUFT         - SURFACE TEMPERATURE         
~A  DEPTH     PHID     PHIN       GR      CAL     RESD
# ...
  424.500    0.169    0.429   96.047  172.646    4.911
  424.750    0.162    0.424   96.288  171.511    5.006
  425.000    0.176    0.424   94.991  172.222    5.122
  425.250    0.155    0.428   95.171  173.341    5.202
  425.500    0.125    0.426   93.505  173.745    5.244
  425.750    0.094    0.406   95.839  174.148    5.286
  426.000    0.145    0.393   98.235  174.140    5.289
  426.250    0.145    0.392   95.953  174.131    5.282
  426.500    0.143    0.411   95.825  174.124    5.265
  426.750    0.166    0.429   96.683  174.117    5.239
  427.000    0.189    0.425   97.109  173.698    5.212
  427.250    0.170    0.412   94.088  173.692    5.186
  427.500    0.154    0.402   92.730  173.580    5.169
  427.750    0.166    0.398   94.755  173.676    5.152
  428.000    0.162    0.412   96.229  173.565    5.136
  428.250    0.174    0.422   94.316  173.249    5.110
  428.500    0.172    0.424   91.419  173.139    5.084
  428.750    0.164    0.418   90.491  172.723    5.068
  429.000    0.175    0.420   90.670  172.303    5.033
  429.250    0.157    0.429   90.912  172.092    4.998
  429.500    0.151    0.418   91.093  171.469    4.982
  429.750    0.156    0.416   91.396  171.152    4.957
  430.000    0.137    0.425   91.699  171.043    4.932
  430.250    0.153    0.428   91.572  171.036    4.870
  430.500    0.165    0.426   88.736  170.617    4.827
  430.750    0.141    0.424   84.730  170.200    4.776
  431.000    0.130    0.421   83.003  170.089    4.699
  431.250    0.144    0.417   84.044  170.184    4.623
  431.500    0.195    0.422   85.763  170.279    4.566
  431.750    0.189    0.430   88.036  170.271    4.551
  432.000    0.176    0.427   87.477  170.161    4.665
  432.250    0.182    0.412   84.949  170.257    4.918
  432.500    0.186    0.413   79.221  170.249    5.682
  432.750    0.198    0.405   73.799  170.137    6.503
  433.000    0.192    0.388   69.117  170.335    6.946
  433.250    0.258    0.378   64.804  170.534    7.054
  433.500    0.247    0.386   63.569  170.936    7.046
  433.750    0.231    0.402   67.195  171.032    6.997
  434.000    0.232    0.394   70.822  171.230    7.000
  434.250    0.246    0.375   71.249  171.221    7.043
  434.500    0.246    0.365   70.382  170.905    7.207
  434.750    0.227    0.368   68.531  170.385    7.527
  435.000    0.207    0.376   66.311  172.531    8.222
  435.250    0.187    0.371   64.891  170.883    8.831
  435.500    0.147    0.361   64.640  169.235    8.308
  435.750    0.130    0.338   60.696  168.304    7.903
  436.000    0.116    0.318   62.661  168.193    7.109
  436.250    0.119    0.305   66.965  168.698    6.300
  436.500    0.211    0.376   68.376  168.998    5.408
  436.750    0.212    0.392   69.049  169.505    4.819
  437.000    0.208    0.392   70.275  170.111    4.795
  437.250    0.223    0.400   72.055  171.130    4.934
  437.500    0.245    0.423   74.082  172.045    5.086
  437.750    0.240    0.420   69.646  172.960    5.253
  438.000    0.206    0.414   66.564  173.364    5.425
  438.250    0.175    0.395   61.328  173.562    5.448
  438.500    0.168    0.381   58.984  173.656    5.242
  438.750    0.181    0.384   61.688  174.059    4.822
  439.000    0.211    0.392   65.499  174.051    4.337
  439.250    0.228    0.390   68.511  173.940    4.227
  439.500    0.220    0.394   71.399  173.318    4.399
  439.750    0.200    0.412   74.841  172.182    4.551
  440.000    0.227    0.443   74.344  171.047    4.871
  440.250    0.217    0.431   69.108  172.167    5.125
  440.500    0.081    0.316   69.596  173.391    5.042
  440.750    0.104    0.338   71.437  172.870    5.017
  441.000    0.165    0.391   74.449  171.836    4.667
  441.250    0.212    0.440   71.490  170.700    4.523
  441.500    0.222    0.432   68.346  170.282    4.271
  441.750    0.191    0.419   66.741  170.171    4.003
  442.000    0.195    0.408   65.444  169.959    3.858
  442.250    0.222    0.406   64.701  169.540    3.825
  442.500    0.232    0.422   64.820  169.226    3.813
  442.750    0.246    0.426   65.861  168.602    3.930
  443.000    0.236    0.414   67.641  168.185    4.261
  443.250    0.216    0.404   68.622  168.280    4.509
  443.500    0.229    0.414   67.141  168.375    4.631
  443.750    0.234    0.408   65.904  168.571    4.677
  444.000    0.223    0.395   65.408  168.462    4.627
  444.250    0.203    0.395   65.342  168.352    4.337
  444.500    0.213    0.400   65.830  168.036    4.180
  444.750    0.228    0.401   66.748  167.617    4.105
  445.000    0.228    0.405   67.358  167.610    4.130
  445.250    0.218    0.409   67.662  167.500    4.187
  445.500    0.203    0.414   68.027  167.288    4.228
  445.750    0.230    0.420   65.130  166.767    4.238
  446.000    0.234    0.429   60.324  166.657    4.232
  446.250    0.220    0.424   57.673  166.547    4.180
  446.500    0.153    0.339   64.439  167.052    4.051
  446.750    0.138    0.349   73.113  167.969    3.912
  447.000    0.147    0.370   88.004  171.654    3.756
  447.250    0.127    0.410   98.770  175.134    3.601
  447.500    0.148    0.461  102.027  178.101    3.477
  447.750    0.183    0.492  104.792  179.837    3.383
  448.000    0.201    0.517  107.004  180.549    3.297
  448.250    0.203    0.531  109.215  181.770    3.208
  448.500    0.207    0.528  111.057  182.893    3.126
  448.750    0.200    0.519  108.713  185.449    3.116
  449.000    0.201    0.498  107.724  187.699    3.147
  449.250    0.188    0.479  108.027  185.434    3.226
  449.500    0.188    0.466  107.530  182.349    3.401
  449.750    0.184    0.478  107.464  184.393    3.709
  450.000    0.196    0.517  107.398  189.002    4.043
  450.250    0.186    0.516  106.655  189.814    4.384
  450.500    0.169    0.489  105.604  186.627    4.674
  450.750    0.167    0.466  103.876  180.976    4.900
  451.000    0.167    0.445  102.641  180.047    5.098
  451.250    0.150    0.411  101.097  179.218    5.295
  451.500    0.135    0.422   98.507  179.106    5.449
  451.750    0.114    0.415   95.302  178.997    5.523
  452.000    0.084    0.399   95.667  178.887    5.588
  452.250    0.085    0.388   98.186  178.778    5.612
  452.500    0.132    0.397  101.443  178.564    5.636
  452.750    0.148    0.404  103.224  178.351    5.660
  453.000    0.125    0.415  105.004  178.241    5.685
  453.250    0.113    0.421  107.277  177.823    5.698
  453.500    0.138    0.407  104.995  177.199    5.744
  453.750    0.155    0.389  103.021  176.885    5.769
  454.000    0.150    0.381  102.216  176.672    5.728
  454.250    0.154    0.386  102.889  176.767    5.594
  454.500    0.142    0.397  104.115  176.964    5.432
  454.750    0.129    0.407  106.142  177.264    5.355
  455.000    0.139    0.418  110.015  177.563    5.348
  455.250    0.145    0.432  112.903  178.069    5.513
  455.500    0.133    0.450  107.359  178.472    5.822
  455.750    0.150    0.437  103.908  178.465    6.432
  456.000    0.146    0.411   97.994  177.945    7.104
  456.250    0.137    0.392   93.066  176.090    8.086
  456.500    0.159    0.381   87.276  175.160    9.625
  456.750    0.124    0.359   81.916  174.947   10.893
  457.000    0.090    0.339   77.480  175.041   11.063
  457.250    0.131    0.325   78.091  175.240    9.748
  457.500    0.141    0.315   81.533  175.231    8.447
  457.750    0.114    0.317   85.776  176.455    7.655
  458.000    0.089    0.353   90.449  177.473    7.531
  458.250    0.104    0.397   93.337  177.159    7.735
  458.500    0.091    0.410   91.609  175.304    7.915
  458.750    0.097    0.387   86.065  177.142    8.084
  459.000    0.073    0.365   81.013  179.391    8.072
  459.250    0.059    0.352   78.486  180.411    7.898
  459.500    0.045    0.321   80.019  180.814    7.584
  459.750    0.033    0.316   88.201  180.805    7.148
  460.000    0.082    0.343   96.321  180.695    6.699
  460.250    0.106    0.394  101.179  180.687    6.255
  460.500    0.114    0.401   99.327  180.988    5.984
  460.750    0.125    0.398   98.461  181.083    5.976
