~VERSION INFORMATION
 VERS.                 2.0:   CWLS LOG ASCII STANDARD -VERSION 2.0
 WRAP.                  NO:   ONE LINE PER DEPTH STEP
~WELL INFORMATION BLOCK
#MNEM.UNIT           DATA                    DESCRIPTION OF MNEMONIC
#---------    -------------------            -------------------------------
# Generated from Intellog Unique Number	CS_77_79/WELL/976
WELL.         HOME OIL COMPANY               : Well_name    - WELL
LOC .         00/10-29-077-07W4/0            : Location     - LOCATION
UWI .         00/10-29-077-07W4/0            : Uwi          - UNIQUE WELL ID
ENTR.         SP                             : Entered      - ENTERED BY
SRVC.         SCHLUMBERGER                   : Scn          - SERVICE COMPANY
STRT.M        124.968                        : top_depth    - START DEPTH
STOP.M        350.218                        : bot_depth    - STOP DEPTH
STEP.M        0.25                           : increment    - STEP LENGTH
 NULL. -999.2500:NULL Value
~CURVE INFORMATION BLOCK
#MNEM UNIT       ERCB CURVE CODE    CURVE DESCRIPTION
#-----------   ------------------   ----------------------------------
DEPT.M        00 001 00 00         : DEPTH        - DEPTH
GR  .API      00 310 00 00         : GR           - GAMMA RAY
DPHI.V/V      00 890 00 00         : PHID         - DENSITY POROSITY (SANDSTONE)
NPHI.V/V      00 330 00 00         : PHIN         - NEUTRON POROSITY (SANDSTONE)
ILD .OHMM     00 120 00 00         : RESD         - DEEP RESISTIVITY (DIL)
~PARAMETER INFORMATION
#MNEM.UNIT           DATA             DESCRIPTION OF MNEMONIC
#---------         -----------     ------------------------------
GL  .M        552.054              : gl           - GROUND LEVEL ELEVATION
EREF.M        555.315              : kb           - ELEVATION OF DEPTH REFERENCE
DATM.M        552.054              : datum        - DATUM ELEVATION
TDD .M        377.038              : tdd          - TOTAL DEPTH DRILLER
RUN .         ONE                  : Run          - RUN NUMBER
ENG .         BILL                 : Engineer     - RECORDING ENGINEER
WIT .         JIM                  : Witness      - WITNESSED BY
MUD .         GEL                  : Mud_type     - MUD TYPE
MATR.         SANDSTONE            : Logunit      - NEUTRON MATRIX
TMAX.C        12.2222              : BHT          - MAXIMUM RECORDED TEMPERATURE
BHTD.M        377.038              : BHTDEP       - MAXIMUM RECORDED TEMPERATURE
MATR.         1                    : LOGUNIT      - NEUTRON MATRIX
RMT .C        25                   : MDTP         - TEMPERATURE OF MUD
NEUT.         1                    : NEUTRON      - NEUTRON TYPE
RESI.         0                    : RESIST       - RESISTIVITY TYPE
RMC .OHMM     0.25                 : RMC          - RESISTIVITY OF MUD CAKE
RMF .OHMM     0.25                 : RMF          - RESISTIVITY OF MUD FILTRATE
SUFT.C        15                   : SUFT         - SURFACE TEMPERATURE
~A  DEPTH       GR     PHID     PHIN     RESD
# ...
  255.468   88.159    0.294    0.459    7.240
  255.718   85.917    0.298    0.468    6.568
  255.968   80.089    0.312    0.478    6.305
  256.218   75.142    0.319    0.473    6.017
  256.468   70.115    0.320    0.460    5.767
  256.718   69.104    0.322    0.462    5.517
  256.968   73.185    0.306    0.468    5.546
  257.218   80.295    0.294    0.467    6.005
  257.468   81.828    0.283    0.478    6.414
  257.718   82.890    0.281    0.479    6.686
  257.968   79.526    0.294    0.488    6.894
  258.218   74.639    0.303    0.493    7.082
  258.468   70.300    0.317    0.474    7.074
  258.718   65.958    0.327    0.465    7.086
  258.968   65.247    0.327    0.465    6.908
  259.218   72.101    0.319    0.467    6.826
  259.468   78.127    0.310    0.466    6.694
  259.718   82.484    0.293    0.462    6.549
  259.968   85.975    0.282    0.459    6.462
  260.218   89.142    0.284    0.460    6.324
  260.468   90.021    0.291    0.448    6.338
  260.718   89.093    0.288    0.444    6.354
  260.968   87.350    0.284    0.443    6.215
  261.218   85.131    0.295    0.455    6.228
  261.468   83.454    0.305    0.462    6.154
  261.718   82.431    0.318    0.457    6.123
  261.968   79.749    0.317    0.461    6.112
  262.218   78.727    0.322    0.462    6.168
  262.468   77.779    0.329    0.460    6.250
  262.718   77.296    0.335    0.460    6.250
  262.968   76.324    0.336    0.471    6.170
  263.218   74.586    0.336    0.473    6.242
  263.468   72.019    0.333    0.476    6.247
  263.718   70.398    0.334    0.480    6.250
  263.968   68.628    0.337    0.481    6.253
  264.218   68.620    0.339    0.440    6.152
  264.468   68.602    0.338    0.445    7.441
  264.718   68.581    0.331    0.448    7.822
  264.968   68.308    0.322    0.451    8.235
  265.218   66.501    0.310    0.448    8.476
  265.468   63.298    0.296    0.421    8.171
  265.718   62.007    0.280    0.328    7.862
  265.968   59.266    0.106    0.261    7.205
  266.218   61.146    0.163    0.342    6.681
  266.468   68.596    0.240    0.392    6.381
  266.718   71.497    0.290    0.430    6.267
  266.968   71.922    0.330    0.464    6.279
  267.218   72.058    0.347    0.467    6.279
  267.468   71.418    0.358    0.461    6.280
  267.718   68.306    0.358    0.457    6.283
  267.968   67.052    0.349    0.462    6.292
  268.218   66.417    0.348    0.469    6.175
  268.468   72.899    0.347    0.462    6.188
  268.718   78.366    0.337    0.454    6.055
  268.968   81.784    0.331    0.447    5.961
  269.218   86.135    0.326    0.440    5.902
  269.468   84.948    0.310    0.435    5.697
  269.718   83.907    0.300    0.457    5.416
  269.968   86.230    0.297    0.473    5.280
  270.218   91.949    0.308    0.489    5.128
  270.468   93.439    0.302    0.464    5.129
  270.718   94.462    0.282    0.451    5.302
  270.968   94.787    0.278    0.456    5.528
  271.218   92.226    0.275    0.459    5.930
  271.468   82.497    0.271    0.461    6.237
  271.718   75.782    0.274    0.461    6.429
  271.968   72.413    0.276    0.458    6.502
  272.218   73.614    0.268    0.443    6.562
  272.468   75.217    0.206    0.437    6.471
  272.718   75.803    0.213    0.451    6.009
  272.968   77.156    0.248    0.462    5.426
  273.218   77.008    0.284    0.454    5.031
  273.468   80.128    0.291    0.457    4.692
  273.718   86.833    0.300    0.452    4.271
  273.968   89.949    0.279    0.446    4.150
  274.218   92.633    0.265    0.456    4.049
  274.468   93.939    0.261    0.471    4.205
  274.718   94.796    0.275    0.491    4.196
  274.968   92.503    0.278    0.528    4.655
  275.218   91.079    0.268    0.504    4.948
  275.468   90.505    0.275    0.490    5.230
  275.718   91.533    0.289    0.487    5.262
  275.968   93.090    0.275    0.475    5.342
  276.218   93.469    0.263    0.461    5.520
  276.468   93.826    0.256    0.475    5.573
  276.718   92.636    0.261    0.496    5.656
  276.968   94.115    0.252    0.481    5.688
  277.218   95.003    0.253    0.463    5.583
  277.468   94.257    0.255    0.447    5.415
  277.718   91.849    0.256    0.439    5.242
  277.968   87.833    0.259    0.429    4.758
  278.218   86.110    0.261    0.422    4.100
  278.468   85.136    0.275    0.426    3.772
  278.718   84.138    0.281    0.447    3.158
  278.968   83.180    0.258    0.472    2.883
  279.218   81.462    0.280    0.474    2.632
  279.468   80.985    0.291    0.472    2.517
  279.718   81.574    0.283    0.520    2.389
  279.968   83.356    0.294    0.576    2.323
  280.218   84.049    0.305    0.592    2.249
  280.468   83.326    0.300    0.582    2.240
  280.718   82.144    0.291    0.571    2.241
  280.968   81.144    0.280    0.558    2.267
  281.218   80.234    0.302    0.539    2.282
  281.468   79.652    0.314    0.523    2.322
  281.718   80.480    0.327    0.563    2.397
  281.968   83.008    0.301    0.573    2.477
  282.218   88.523    0.280    0.554    2.595
  282.468   90.263    0.282    0.539    2.745
  282.718   86.678    0.286    0.559    3.046
  282.968   84.317    0.280    0.568    3.321
  283.218   87.305    0.268    0.522    3.792
  283.468   90.376    0.260    0.471    4.092
  283.718   92.668    0.254    0.477    4.482
  283.968   87.821    0.248    0.475    4.880
  284.218   85.059    0.241    0.460    5.122
  284.468   82.239    0.227    0.435    4.979
  284.718   81.832    0.198    0.423    4.836
  284.968   85.436    0.169    0.419    4.626
  285.218   90.831    0.218    0.438    4.252
  285.468   94.589    0.246    0.445    4.001
  285.718   93.047    0.247    0.441    3.805
  285.968   93.090    0.246    0.453    3.709
  286.218   95.114    0.233    0.457    3.601
  286.468   97.315    0.220    0.460    3.541
  286.718   98.070    0.223    0.465    3.455
  286.968   98.592    0.227    0.466    3.289
  287.218  100.603    0.240    0.467    3.186
  287.468  101.751    0.252    0.471    3.171
  287.718  102.765    0.259    0.485    3.114
  287.968  102.562    0.269    0.524    3.117
  288.218  100.732    0.273    0.513    3.048
  288.468   99.691    0.263    0.502    3.060
  288.718   99.436    0.256    0.495    2.993
  288.968   99.061    0.252    0.499    2.999
  289.218   96.882    0.248    0.501    3.001
  289.468   96.583    0.246    0.505    3.001
  289.718   97.854    0.241    0.511    3.002
  289.968   96.055    0.244    0.494    3.059
  290.218   93.964    0.248    0.489    3.555
  290.468   90.151    0.249    0.507    4.264
  290.718   83.769    0.239    0.519    5.067
  290.968   77.669    0.209    0.501    6.116
  291.218   71.127    0.155    0.456    6.912
  291.468   66.922    0.123    0.405    7.530
  291.718   71.374    0.194    0.378    7.988
  291.968   69.894    0.226    0.351    8.493
  292.218   66.903    0.245    0.334    8.811
  292.468   65.611    0.264    0.320    9.097
  292.718   66.092    0.280    0.305    9.217
  292.968   65.292    0.301    0.302    9.254
  293.218   66.108    0.309    0.307    9.449
  293.468   70.855    0.318    0.315    9.567
  293.718   73.289    0.297    0.327    9.664
  293.968   74.134    0.289    0.333    9.984
  294.218   72.090    0.297    0.353   10.190
  294.468   70.887    0.309    0.368   10.391
  294.718   71.814    0.320    0.374   10.044
  294.968   76.176    0.317    0.377    9.629
  295.218   84.566    0.277    0.380    8.564
  295.468   90.112    0.200    0.382    7.864
  295.718   97.271    0.185    0.382    7.813
  295.968   97.413    0.187    0.376    7.720
  296.218   88.628    0.205    0.367    7.721
  296.468   83.763    0.232    0.360    7.715
  296.718   82.959    0.252    0.356    7.868
  296.968   80.927    0.233    0.360    7.944
  297.218   78.764    0.217    0.371    8.190
  297.468   75.677    0.223    0.372    8.185
  297.718   75.937    0.247    0.372    8.263
  297.968   76.346    0.260    0.373    8.343
  298.218   80.893    0.244    0.374    8.235
  298.468   85.399    0.236    0.372    8.042
  298.718   83.728    0.248    0.376    7.886
