~VERSION INFORMATION
 VERS.                 2.0:   CWLS LOG ASCII STANDARD -VERSION 2.0
 WRAP.                  NO:   ONE LINE PER DEPTH STEP
~WELL INFORMATION BLOCK
#MNEM.UNIT           DATA                    DESCRIPTION OF MNEMONIC
#---------    -------------------            -------------------------------
# Generated from Intellog Unique Number	CN_94_101/WELL/3801
WELL.         16-23-096-16W4                 : Well_name    - WELL
LOC .         00/16-23-096-16W4/0            : Location     - LOCATION
UWI .         00/16-23-096-16W400            : Uwi          - UNIQUE WELL ID
ENTR.         T                              : Entered      - ENTERED BY
SRVC.         SCHLUMBERGER                   : Scn          - SERVICE COMPANY
DATE.         07/20/92                       : Date         - LOG DATE
STRT.M        210                            : top_depth    - START DEPTH
STOP.M        399.75                         : bot_depth    - STOP DEPTH
STEP.M        0.25                           : increment    - STEP LENGTH
 NULL. -999.2500:NULL Value
~CURVE INFORMATION BLOCK
#MNEM UNIT       ERCB CURVE CODE    CURVE DESCRIPTION
#-----------   ------------------   ----------------------------------
DEPT.M        00 001 00 00         : DEPTH        - DEPTH
GR  .API      00 310 00 00         : GR           - GAMMA RAY
CALI.MM       00 280 01 00         : CAL          - CALIPER
NPHI.V/V      00 330 00 00         : PHIN         - NEUTRON POROSITY (SANDSTONE)
DPHI.V/V      00 890 00 00         : PHID         - DENSITY POROSITY (SANDSTONE)
ILD .OHMM     00 120 00 00         : RESD         - DEEP RESISTIVITY (DIL)
~PARAMETER INFORMATION
#MNEM.UNIT           DATA             DESCRIPTION OF MNEMONIC
#---------         -----------     ------------------------------
GL  .M        658                  : gl           - GROUND LEVEL ELEVATION
EREF.M        661.2                : kb           - ELEVATION OF DEPTH REFERENCE
DATM.M        661.2                : datum        - DATUM ELEVATION
TDD .M        400                  : tdd          - TOTAL DEPTH DRILLER
RUN .         0.000000             : Run          - RUN NUMBER
MUD .         GEL                  : Mud_type     - MUD TYPE
MATR.         SANDSTONE            : Logunit      - NEUTRON MATRIX
TMAX.C        0                    : BHT          - MAXIMUM RECORDED TEMPERATURE
BHTD.M        45                   : BHTDEP       - MAXIMUM RECORDED TEMPERATURE
RMT .C        5                    : MDTP         - TEMPERATURE OF MUD
MUDD.KG/M     1                    : MWT          - MUD DENSITY
NEUT.         1                    : NEUTRON      - NEUTRON TYPE
RESI.         0                    : RESIST       - RESISTIVITY TYPE
RM  .OHMM     7.8                  : RM           - RESISTIVITY OF MUD
RMC .OHMM     7.8                  : RMC          - RESISTIVITY OF MUD CAKE
RMF .OHMM     0                    : RMF          - RESISTIVITY OF MUD FILTRATE
SUFT.C        4                    : SUFT         - SURFACE TEMPERATURE
BTZC.MM       0                    : BITZC        - BIT SIZE CONSTANT
MDW .KG/M     0                    : MDW          - MUD WEIGHT
~A  DEPTH       GR      CAL     PHIN     PHID     RESD
# ...
  246.500   84.677  155.242    0.475    0.255    6.841
  246.750   84.073  155.242    0.469    0.279    7.102
  247.000   86.492  153.226    0.480    0.298    6.715
  247.250   81.048  153.226    0.475    0.298    6.715
  247.500   78.629  153.226    0.440    0.285    7.235
  247.750   81.653  153.226    0.443    0.268    6.349
  248.000   84.073  154.234    0.445    0.275    6.003
  248.250   89.516  154.234    0.463    0.272    5.676
  248.500   92.540  154.234    0.460    0.260    5.170
  248.750   91.935  154.234    0.475    0.255    5.075
  249.000   92.540  154.234    0.468    0.282    4.798
  249.250   96.774  154.234    0.477    0.315    4.798
  249.500   99.194  155.242    0.496    0.313    5.075
  249.750   96.169  155.242    0.499    0.309    4.798
  250.000   91.093  155.242    0.505    0.314    4.453
  250.250   91.093  155.242    0.502    0.292    4.537
  250.500   98.988  155.242    0.504    0.262    4.981
  250.750   92.308  155.242    0.487    0.214    5.468
  251.000   83.198  155.242    0.462    0.216    7.511
  251.250   90.486  155.242    0.464    0.242    7.235
  251.500   94.737  155.242    0.468    0.286    6.003
  251.750   95.951  155.242    0.462    0.318    5.571
  252.000   97.773  155.242    0.468    0.317    6.003
  252.250   99.595  155.242    0.479    0.301    6.116
  252.500   98.381  155.242    0.493    0.281    5.892
  252.750  103.239  155.242    0.504    0.281    6.349
  253.000  112.348  155.242    0.504    0.281    5.170
  253.250  111.134  155.242    0.504    0.280    4.537
  253.500  109.312  155.242    0.537    0.278    5.075
  253.750  108.097  156.250    0.523    0.283    5.170
  254.000  109.312  156.250    0.514    0.279    5.367
  254.250  108.097  156.250    0.539    0.279    5.268
  254.500  106.275  155.242    0.574    0.306    5.268
  254.750  112.348  155.242    0.570    0.327    5.170
  255.000  114.777  155.242    0.544    0.326    4.622
  255.250  108.097  155.242    0.517    0.302    4.453
  255.500  105.668  155.242    0.503    0.296    4.290
  255.750  108.704  154.234    0.513    0.273    4.981
  256.000  111.134  154.234    0.548    0.269    4.056
  256.250  110.526  154.234    0.558    0.272    4.133
  256.500  105.668  154.234    0.519    0.273    4.133
  256.750   98.988  155.242    0.510    0.274    4.210
  257.000   98.381  156.250    0.548    0.267    4.537
  257.250   98.988  157.258    0.556    0.275    4.709
  257.500   96.559  157.258    0.530    0.272    5.075
  257.750   93.522  158.266    0.495    0.258    4.798
  258.000  100.202  159.274    0.480    0.232    5.075
  258.250  101.417  160.282    0.471    0.206    5.268
  258.500   97.166  160.282    0.480    0.195    5.367
  258.750   95.951  161.290    0.468    0.202    5.571
  259.000   95.344  162.298    0.454    0.225    5.892
  259.250   94.737  162.298    0.433    0.243    6.232
  259.500   98.381  162.298    0.428    0.249    6.232
  259.750  100.810  162.298    0.447    0.249    6.232
  260.000  103.239  162.298    0.477    0.247    5.892
  260.250   93.522  162.298    0.512    0.250    5.268
  260.500   81.984  161.290    0.502    0.254    5.783
  260.750   72.874  161.290    0.467    0.253    6.841
  261.000   69.231  161.290    0.442    0.243    6.469
  261.250   71.053  161.290    0.443    0.226    6.591
  261.500   72.874  161.290    0.449    0.221    6.715
  261.750   58.907  161.290    0.431    0.218    8.245
  262.000   51.619  161.290    0.420    0.192    8.245
  262.250   52.834  161.290    0.402    0.171    8.401
  262.500   63.158  160.282    0.400    0.177    8.353
  262.750   81.377  160.282    0.440    0.208    7.470
  263.000  109.312  160.282    0.508    0.238    5.244
  263.250  111.134  160.282    0.535    0.240    4.273
  263.500  105.668  160.282    0.518    0.244    4.868
  263.750   95.951  160.282    0.482    0.253    5.343
  264.000   87.449  160.282    0.452    0.263    6.436
  264.250   86.842  160.282    0.450    0.264    5.864
  264.500   85.628  159.274    0.470    0.260    6.201
  264.750   82.591  159.274    0.460    0.254    6.680
  265.000   84.413  159.274    0.430    0.237    7.753
  265.250   90.486  159.274    0.447    0.226    8.510
  265.500   92.915  158.266    0.450    0.229    7.332
  265.750   91.700  159.274    0.455    0.253    6.317
  266.000   94.130  160.282    0.460    0.253    5.756
  266.250   97.166  161.290    0.447    0.249    5.343
  266.500  102.632  161.290    0.476    0.245    4.959
  266.750  106.275  158.266    0.477    0.244    4.778
  267.000  111.134  158.266    0.486    0.243    4.194
  267.250  116.599  158.266    0.516    0.249    4.273
  267.500  115.385  157.258    0.518    0.244    4.273
  267.750  112.955  157.258    0.482    0.234    4.603
  268.000  112.348  157.258    0.487    0.228    5.147
  268.250  114.170  158.266    0.504    0.217    4.518
  268.500  114.170  159.274    0.559    0.212    4.273
  268.750  114.777  159.274    0.595    0.205    3.354
  269.000  116.599  162.298    0.580    0.205    4.690
  269.250  119.636  165.323    0.507    0.216    3.893
  269.500  120.243  175.403    0.535    0.232    3.893
  269.750  115.385  175.403    0.528    0.232    3.893
  270.000  115.992  175.403    0.544    0.239    3.893
  270.250  123.279  174.395    0.517    0.239    3.821
  270.500  119.636  175.403    0.540    0.239    3.821
  270.750  115.992  176.411    0.534    0.235    3.821
  271.000  114.777  173.387    0.522    0.235    3.893
  271.250  114.777  168.347    0.543    0.239    3.821
  271.500  111.134  171.371    0.555    0.237    4.959
  271.750  103.846  162.298    0.523    0.230    4.603
  272.000   98.988  158.266    0.513    0.230    4.353
  272.250   99.595  158.266    0.484    0.242    4.194
  272.500  105.668  158.266    0.511    0.256    4.273
  272.750  107.490  158.266    0.517    0.271    4.778
  273.000  104.453  159.274    0.494    0.279    4.868
  273.250   99.595  159.274    0.483    0.264    4.690
  273.500   97.773  159.274    0.492    0.235    4.868
  273.750  100.810  159.274    0.497    0.222    5.343
  274.000  102.024  156.250    0.499    0.224    6.086
  274.250  104.453  155.242    0.466    0.217    6.086
  274.500  102.024  157.258    0.462    0.205    7.197
  274.750  100.202  158.266    0.462    0.204    7.197
  275.000  102.823  156.250    0.495    0.212    7.372
  275.250  108.266  155.242    0.518    0.237    5.571
  275.500  112.500  156.250    0.558    0.260    4.290
  275.750  119.758  157.258    0.573    0.258    4.056
  276.000  120.363  150.202    0.549    0.258    3.626
  276.250  120.363  150.202    0.544    0.258    4.210
  276.500  118.548  151.210    0.551    0.257    3.365
  276.750  112.500  153.226    0.505    0.257    3.123
  277.000  111.290  155.242    0.509    0.256    3.907
  277.250  115.524  156.250    0.519    0.248    3.065
  277.500  119.758  156.250    0.556    0.247    3.009
  277.750  119.758  157.258    0.538    0.243    3.626
  278.000  118.548  155.242    0.534    0.242    3.303
  278.250  114.315  158.266    0.523    0.235    2.953
  278.500  110.685  158.266    0.533    0.227    2.898
  278.750  107.056  158.266    0.535    0.225    3.182
  279.000  105.242  158.266    0.535    0.230    3.493
  279.250  105.847  157.258    0.539    0.247    3.065
  279.500  108.266  156.250    0.541    0.254    3.242
  279.750  112.500  156.250    0.559    0.236    3.559
  280.000  113.105  154.234    0.564    0.231    3.065
  280.250  108.871  156.250    0.555    0.200    3.429
  280.500  105.242  148.185    0.531    0.191    3.559
  280.750  110.685  149.194    0.519    0.206    3.065
  281.000  113.105  149.194    0.506    0.227    3.695
  281.250  107.056  148.185    0.506    0.247    3.907
  281.500   97.379  156.250    0.485    0.263    4.981
  281.750   94.960  155.242    0.476    0.267    5.268
  282.000   89.516  153.226    0.480    0.261    6.003
  282.250   73.790  150.202    0.453    0.220    8.559
  282.500   58.669  154.234    0.415    0.178   11.539
  282.750   59.879  156.250    0.321    0.166    9.574
