~VERSION INFORMATION
 VERS.                 2.0:   CWLS LOG ASCII STANDARD -VERSION 2.0
 WRAP.                  NO:   ONE LINE PER DEPTH STEP
~WELL INFORMATION BLOCK
#MNEM.UNIT           DATA                    DESCRIPTION OF MNEMONIC
#---------    -------------------            -------------------------------
# Generated from Intellog Unique Number	CS_73_76/WELL/4786
WELL.         AMOCO                          : Well_name    - WELL
LOC .         00/11-05-074-04W4/0            : Location     - LOCATION
UWI .         00/11-05-074-04W4/0            : Uwi          - UNIQUE WELL ID
ENTR.         T                              : Entered      - ENTERED BY
SRVC.         SCHLUMBERGER                   : Scn          - SERVICE COMPANY
STRT.M        225                            : top_depth    - START DEPTH
STOP.M        440                            : bot_depth    - STOP DEPTH
STEP.M        0.25                           : increment    - STEP LENGTH
 NULL. -999.2500:NULL Value
~CURVE INFORMATION BLOCK
#MNEM UNIT       ERCB CURVE CODE    CURVE DESCRIPTION
#-----------   ------------------   ----------------------------------
DEPT.M        00 001 00 00         : DEPTH        - DEPTH
GR  .API      00 310 00 00         : GR           - GAMMA RAY
NPHI.V/V      00 330 00 00         : PHIN         - NEUTRON POROSITY (SANDSTONE)
DPHI.V/V      00 890 00 00         : PHID         - DENSITY POROSITY (SANDSTONE)
ILD .OHMM     00 120 00 00         : RESD         - DEEP RESISTIVITY (DIL)
~PARAMETER INFORMATION
#MNEM.UNIT           DATA             DESCRIPTION OF MNEMONIC
#---------         -----------     ------------------------------
GL  .M        630.2                : gl           - GROUND LEVEL ELEVATION
EREF.M        634.4                : kb           - ELEVATION OF DEPTH REFERENCE
DATM.M        634.4                : datum        - DATUM ELEVATION
TDD .M        445                  : tdd          - TOTAL DEPTH DRILLER
RUN .         ONE                  : Run          - RUN NUMBER
ENG .         BILL                 : Engineer     - RECORDING ENGINEER
WIT .         JIM                  : Witness      - WITNESSED BY
MUD .         GEL                  : Mud_type     - MUD TYPE
MATR.         SANDSTONE            : Logunit      - NEUTRON MATRIX
TMAX.C        21                   : BHT          - MAXIMUM RECORDED TEMPERATURE
BHTD.M        445                  : BHTDEP       - MAXIMUM RECORDED TEMPERATURE
MATR.         1                    : LOGUNIT      - NEUTRON MATRIX
RMT .C        25                   : MDTP         - TEMPERATURE OF MUD
NEUT.         1                    : NEUTRON      - NEUTRON TYPE
RESI.         0                    : RESIST       - RESISTIVITY TYPE
RMC .OHMM     5.6                  : RMC          - RESISTIVITY OF MUD CAKE
RMF .OHMM     5.4                  : RMF          - RESISTIVITY OF MUD FILTRATE
SUFT.C        15                   : SUFT         - SURFACE TEMPERATURE
~A  DEPTH       GR     PHIN     PHID     RESD
# ...
  399.000   71.461    0.424    0.266    3.859
  399.250   65.911    0.422    0.275    3.672
  399.500   64.073    0.408    0.281    3.436
  399.750   65.954    0.394    0.258    3.382
  400.000   68.449    0.397    0.252    3.501
  400.250   70.955    0.395    0.243    3.447
  400.500   73.455    0.389    0.245    3.335
  400.750   74.710    0.378    0.240    3.019
  401.000   92.095    0.382    0.228    2.871
  401.250   89.632    0.392    0.221    2.779
  401.500   82.217    0.419    0.249    2.877
  401.750   77.900    0.425    0.257    2.979
  402.000   76.063    0.412    0.278    3.084
  402.250   78.563    0.407    0.274    3.088
  402.500   84.787    0.427    0.266    3.039
  402.750   90.381    0.434    0.261    2.892
  403.000   96.599    0.440    0.262    2.662
  403.250  103.438    0.457    0.262    2.575
  403.500  107.178    0.490    0.257    2.578
  403.750  111.542    0.481    0.251    2.808
  404.000  111.559    0.466    0.223    3.058
  404.250  109.101    0.447    0.218    3.275
  404.500  103.545    0.431    0.212    3.391
  404.750   97.370    0.412    0.199    3.395
  405.000   91.819    0.398    0.196    3.341
  405.250   88.747    0.385    0.204    3.234
  405.500   88.763    0.377    0.207    3.130
  405.750   88.790    0.376    0.205    3.081
  406.000   89.432    0.376    0.202    2.983
  406.250   90.687    0.377    0.196    2.984
  406.500   93.193    0.375    0.183    2.938
  406.750   95.068    0.373    0.167    2.940
  407.000   96.943    0.369    0.158    2.944
  407.250  103.167    0.368    0.146    3.102
  407.500  110.006    0.368    0.138    3.156
  407.750  114.985    0.369    0.165    3.214
  408.000  119.344    0.369    0.171    3.271
  408.250  123.704    0.369    0.173    3.330
  408.500  125.585    0.368    0.176    3.391
  408.750  126.226    0.370    0.179    3.338
  409.000  128.107    0.371    0.194    3.341
  409.250  129.987    0.374    0.212    3.401
  409.500  131.868    0.378    0.215    3.463
  409.750  135.608    0.379    0.212    3.525
  410.000  139.347    0.381    0.209    3.529
  410.250  143.093    0.382    0.205    3.475
  410.500  146.832    0.384    0.201    3.478
  410.750  144.989    0.385    0.207    3.540
  411.000  140.058    0.386    0.210    3.667
  411.250  134.497    0.387    0.212    3.732
  411.500  120.885    0.392    0.216    3.863
  411.750  106.653    0.396    0.219    4.001
  412.000   96.139    0.402    0.224    4.144
  412.250   83.767    0.410    0.228    4.148
  412.500   76.977    0.419    0.233    4.151
  412.750   74.514    0.416    0.235    4.088
  413.000   78.873    0.409    0.239    4.090
  413.250   85.712    0.401    0.239    4.164
  413.500   94.409    0.410    0.230    4.385
  413.750   98.160    0.426    0.218    4.542
  414.000   93.833    0.441    0.221    4.469
  414.250   67.826    0.452    0.241    4.325
  414.500   61.650    0.444    0.272    4.116
  414.750   57.334    0.412    0.297    3.983
  415.000   66.656    0.399    0.283    3.727
  415.250   66.683    0.395    0.269    4.129
  415.500   67.314    0.391    0.274    4.976
  415.750   72.293    0.390    0.271    6.865
  416.000   82.855    0.388    0.258    8.005
  416.250   85.975    0.389    0.235    7.362
  416.500   87.236    0.423    0.235    5.533
  416.750   86.638    0.434    0.241    5.443
  417.000   86.040    0.433    0.248    5.269
  417.250   83.577    0.407    0.250    5.099
  417.500   64.387    0.394    0.247    4.934
  417.750   70.611    0.390    0.237    5.196
  418.000   75.585    0.396    0.232    5.755
  418.250   81.189    0.406    0.228    6.164
  418.500   83.065    0.420    0.237    5.968
  418.750   79.373    0.428    0.262    5.875
  419.000   75.052    0.431    0.286    5.878
  419.250   66.397    0.432    0.288    6.087
  419.500   45.348    0.431    0.295    6.632
  419.750   39.172    0.405    0.304    7.472
  420.000   33.617    0.394    0.314    8.559
  420.250   31.779    0.392    0.322   11.416
  420.500   31.181    0.393    0.328   14.972
  420.750   32.442    0.400    0.336   20.315
  421.000   31.849    0.407    0.328   24.083
  421.250   31.870    0.414    0.327   24.936
  421.500   36.224    0.424    0.322   24.537
  421.750   53.598    0.428    0.317   23.356
  422.000   64.160    0.433    0.310   22.983
  422.250   67.900    0.433    0.299   21.870
  422.500   66.687    0.430    0.288   19.794
  422.750   64.225    0.426    0.277   18.511
  423.000   60.528    0.422    0.283   14.630
  423.250   55.586    0.416    0.312   10.623
  423.500   48.171    0.407    0.318    8.832
  423.750   41.376    0.399    0.325    9.461
  424.000   40.158    0.394    0.320   10.838
  424.250   42.658    0.390    0.318   16.001
  424.500   44.539    0.391    0.322   20.294
  424.750   44.560    0.391    0.323   22.098
  425.000   43.342    0.390    0.323   24.070
  425.250   50.806    0.390    0.322   26.224
  425.500   60.748    0.394    0.321   23.716
  425.750   61.384    0.396    0.320   20.741
  426.000   63.265    0.403    0.314   17.248
  426.250   65.151    0.405    0.307   15.599
  426.500   63.308    0.397    0.314   14.351
  426.750   56.512    0.400    0.321   15.635
  427.000   50.337    0.412    0.326   17.026
  427.250   45.406    0.425    0.327   19.186
  427.500   42.943    0.446    0.327   20.204
  427.750   41.111    0.448    0.333   20.569
  428.000   42.366    0.424    0.330   20.585
  428.250   46.111    0.412    0.320   18.944
  428.500   46.128    0.409    0.314   17.720
  428.750   44.910    0.419    0.309   16.303
  429.000   43.692    0.429    0.320   14.999
  429.250   41.240    0.423    0.330   13.799
  429.500   40.647    0.412    0.337   12.482
  429.750   40.658    0.393    0.337   12.708
  430.000   43.158    0.382    0.331   12.512
  430.250   45.658    0.384    0.320   11.704
  430.500   50.638    0.417    0.306    9.407
  430.750   61.194    0.428    0.289    6.833
  431.000   63.700    0.443    0.266    6.286
  431.250   62.482    0.403    0.293    6.291
  431.500   56.921    0.352    0.305    6.854
  431.750   43.309    0.365    0.318    7.216
  432.000   40.851    0.390    0.322    8.132
  432.250   40.873    0.404    0.325    9.161
  432.500   42.134    0.417    0.328   10.857
  432.750   42.160    0.393    0.330   13.536
  433.000   40.943    0.388    0.327   12.453
  433.250   40.339    0.377    0.307    9.045
  433.500   39.746    0.372    0.302    6.680
  433.750   41.013    0.371    0.292    3.641
  434.000   42.263    0.364    0.275    2.272
  434.250   44.143    0.361    0.257    1.857
  434.500   45.404    0.361    0.233    1.570
  434.750   46.051    0.364    0.161    1.495
  435.000   37.391    0.356    0.052    1.547
  435.250   26.883    0.342    0.020    1.685
  435.500   24.420    0.320    0.014    1.867
  435.750   20.109    0.160    0.021    7.851
  436.000   17.646    0.140    0.026   10.472
  436.250   17.668    0.130    0.031   12.622
  436.500   18.309    0.123    0.030   14.220
  436.750   18.330    0.131    0.026   15.489
  437.000   18.971    0.147    0.019   16.597
  437.250   17.754    0.146    0.014   17.189
  437.500   16.536    0.141    0.015   17.495
  437.750   14.698    0.136    0.017   17.811
  438.000   12.241    0.135    0.022   18.129
  438.250   11.028    0.135    0.025   18.471
  438.500   10.425    0.131    0.025   18.800
  438.750    9.212    0.129    0.026   19.135
  439.000    8.614    0.123    0.028   19.476
  439.250    8.010    0.121    0.032   19.833
  439.500    8.032    0.124    0.036   19.859
  439.750    8.053    0.124    0.036   19.869
  440.000    8.705    0.121    0.034   19.900
