~VERSION INFORMATION
 VERS.                 2.0:   CWLS LOG ASCII STANDARD -VERSION 2.0
 WRAP.                  NO:   ONE LINE PER DEPTH STEP
~WELL INFORMATION BLOCK
#MNEM.UNIT           DATA                    DESCRIPTION OF MNEMONIC
#---------    -------------------            -------------------------------
# Generated from Intellog Unique Number	CX_WELLS/WELL/3890
WELL.         PARA ET AL SANESKI             : Well_name    - WELL
LOC .         00/10-17-087-18W4/0            : Location     - LOCATION
UWI .         00/10-17-087-18W400            : Uwi          - UNIQUE WELL ID
ENTR.         TIM                            : Entered      - ENTERED BY
SRVC.         SCHLUMBERGER                   : Scn          - SERVICE COMPANY
STRT.M        100                            : top_depth    - START DEPTH
STOP.M        230                            : bot_depth    - STOP DEPTH
STEP.M        0.25                           : increment    - STEP LENGTH
 NULL. -999.2500:NULL Value
~CURVE INFORMATION BLOCK
#MNEM UNIT       ERCB CURVE CODE    CURVE DESCRIPTION
#-----------   ------------------   ----------------------------------
DEPT.M        00 001 00 00         : DEPTH        - DEPTH
GR  .API      00 310 00 00         : GR           - GAMMA RAY
NPHI.V/V      00 330 00 00         : PHIN         - NEUTRON POROSITY (SANDSTONE)
DPHI.V/V      00 890 00 00         : PHID         - DENSITY POROSITY (SANDSTONE)
ILD .OHMM     00 120 00 00         : RESD         - DEEP RESISTIVITY (DIL)
~PARAMETER INFORMATION
#MNEM.UNIT           DATA             DESCRIPTION OF MNEMONIC
#---------         -----------     ------------------------------
GL  .M        518                  : gl           - GROUND LEVEL ELEVATION
EREF.M        520.7                : kb           - ELEVATION OF DEPTH REFERENCE
DATM.M        520.7                : datum        - DATUM ELEVATION
TDD .M        230                  : tdd          - TOTAL DEPTH DRILLER
RUN .         ONE                  : Run          - RUN NUMBER
ENG .         BILL                 : Engineer     - RECORDING ENGINEER
WIT .         JIM                  : Witness      - WITNESSED BY
MUD .         GEL                  : Mud_type     - MUD TYPE
MATR.         SANDSTONE            : Logunit      - NEUTRON MATRIX
TMAX.C        15.6                 : BHT          - MAXIMUM RECORDED TEMPERATURE
BHTD.M        230                  : BHTDEP       - MAXIMUM RECORDED TEMPERATURE
MATR.         1                    : LOGUNIT      - NEUTRON MATRIX
RMT .C        22                   : MDTP         - TEMPERATURE OF MUD
NEUT.         1                    : NEUTRON      - NEUTRON TYPE
RESI.         5.5                  : RESIST       - RESISTIVITY TYPE
RMC .OHMM     0.25                 : RMC          - RESISTIVITY OF MUD CAKE
RMF .OHMM     5                    : RMF          - RESISTIVITY OF MUD FILTRATE
SUFT.C        4                    : SUFT         - SURFACE TEMPERATURE
~A  DEPTH       GR     PHIN     PHID     RESD
# ...
  187.000   96.017    0.385    0.160   23.174
  187.250   98.526    0.436    0.172   21.353
  187.500   99.777    0.448    0.165   20.924
  187.750   99.773    0.438    0.160   19.280
  188.000   99.768    0.410    0.163   18.507
  188.250   99.767    0.406    0.165   18.139
  188.500   99.762    0.439    0.165   18.161
  188.750   99.130    0.460    0.169   18.174
  189.000   97.871    0.466    0.174   18.195
  189.250   97.868    0.464    0.185   18.217
  189.500   97.864    0.456    0.189   18.230
  189.750   99.115    0.422    0.162   18.243
  190.000  100.368    0.411    0.155   18.269
  190.250   98.480    0.427    0.174   17.901
  190.500   95.335    0.434    0.181   18.299
  190.750   94.076    0.412    0.171   19.095
  191.000   92.817    0.396    0.148   19.510
  191.250   93.441    0.386    0.154   20.368
  191.500   95.949    0.360    0.178   20.811
  191.750   97.200    0.353    0.181   20.826
  192.000   97.826    0.398    0.181   21.284
  192.250   98.449    0.425    0.177   20.875
  192.500   98.446    0.438    0.174   20.044
  192.750   98.443    0.435    0.169   19.645
  193.000   98.438    0.387    0.164   18.478
  193.250   98.436    0.371    0.175   18.495
  193.500   95.920    0.344    0.186   20.125
  193.750   94.033    0.329    0.193   21.436
  194.000   95.285    0.359    0.201   23.319
  194.250   98.421    0.367    0.202   24.844
  194.500  102.812    0.371    0.196   25.397
  194.750  100.924    0.359    0.170   25.943
  195.000   95.269    0.297    0.109   29.427
  195.250   91.499    0.232    0.054   33.364
  195.500   86.471    0.260    0.077   39.444
  195.750   91.491    0.304    0.150   43.821
  196.000   99.650    0.354    0.177   36.363
  196.250  105.297    0.388    0.177   31.464
  196.500  104.665    0.410    0.176   28.389
  196.750  102.778    0.435    0.180   27.258
  197.000  102.146    0.403    0.183   25.633
  197.250  102.142    0.354    0.188   25.123
  197.500  103.394    0.345    0.191   24.127
  197.750  104.647    0.346    0.186   24.150
  198.000  106.526    0.361    0.172   24.173
  198.250  107.778    0.362    0.144   24.202
  198.500  106.518    0.354    0.138   24.225
  198.750  105.888    0.325    0.133   23.265
  199.000  104.626    0.319    0.144   22.333
  199.250  104.625    0.316    0.157   20.996
  199.500  106.505    0.325    0.171   19.744
  199.750  110.267    0.326    0.176   17.810
  200.000  113.403    0.332    0.179   16.073
  200.250  115.912    0.447    0.181   15.108
  200.500  113.397    0.471    0.187   14.506
  200.750  110.253    0.471    0.188   15.137
  201.000  106.482    0.466    0.157   18.655
  201.250  102.710    0.392    0.121   24.473
  201.500   98.311    0.353    0.081   30.177
  201.750   94.539    0.324    0.103   31.474
  202.000   95.164    0.431    0.182   33.533
  202.250   98.300    0.442    0.183   30.248
  202.500  102.692    0.411    0.172   25.107
  202.750  106.455    0.382    0.144   22.181
  203.000  107.080    0.356    0.120   19.198
  203.250  105.818    0.358    0.113   17.681
  203.500  105.816    0.414    0.113   16.973
  203.750  105.185    0.417    0.166   16.296
  204.000  105.809    0.407    0.176   16.316
  204.250  108.944    0.414    0.184   16.335
  204.500  111.453    0.465    0.187   16.343
  204.750  115.844    0.479    0.188   16.025
  205.000  116.467    0.469    0.187   16.040
  205.250  115.209    0.428    0.182   16.056
  205.500  114.577    0.396    0.179   16.071
  205.750  113.946    0.394    0.177   16.424
  206.000  115.198    0.497    0.175   17.147
  206.250  116.450    0.529    0.168   17.884
  206.500  115.190    0.538    0.163   20.281
  206.750  109.535    0.465    0.099   25.002
  207.000  103.881    0.352    0.069   28.360
  207.250  107.016    0.331    0.114   27.802
  207.500  110.779    0.338    0.170   27.249
  207.750  111.403    0.337    0.167   26.707
  208.000  112.656    0.348    0.159   26.188
  208.250  115.791    0.363    0.163   26.206
  208.500  118.299    0.376    0.165   26.238
  208.750  116.412    0.384    0.169   26.815
  209.000  108.245    0.382    0.173   27.987
  209.250  103.218    0.375    0.170   29.190
  209.500  100.074    0.350    0.144   33.807
  209.750   97.559    0.318    0.094   39.977
  210.000   93.788    0.269    0.041   45.325
  210.250   90.017    0.191    0.028   57.037
  210.500   87.502    0.187    0.027   63.350
  210.750   85.615    0.220    0.075   58.346
  211.000   88.122    0.268    0.121   52.631
  211.250   90.003    0.348    0.178   47.487
  211.500   94.394    0.348    0.181   45.584
  211.750   98.157    0.347    0.169   41.119
  212.000  100.666    0.343    0.143   37.871
  212.250  101.289    0.344    0.139   34.889
  212.500  101.285    0.351    0.160   32.801
  212.750  101.282    0.363    0.170   31.509
  213.000  101.905    0.367    0.173   30.882
  213.250  101.900    0.369    0.176   30.911
  213.500  101.271    0.374    0.179   30.933
  213.750  100.010    0.382    0.177   30.970
  214.000   98.123    0.355    0.170   30.361
  214.250   96.236    0.324    0.135   29.764
  214.500   94.349    0.316    0.108   29.186
  214.750   96.857    0.366    0.085   29.199
  215.000  100.620    0.392    0.134   27.465
  215.250  105.011    0.403    0.160   25.821
  215.500  108.775    0.413    0.171   23.782
  215.750  111.912    0.425    0.172   20.159
  216.000  115.675    0.433    0.171   18.562
  216.250  116.926    0.441    0.167   16.069
  216.500  114.412    0.450    0.167   14.797
  216.750  104.990    0.459    0.170   15.118
  217.000   85.521    0.466    0.172   17.873
  217.250   60.402    0.454    0.181   28.878
  217.500   48.468    0.435    0.228   41.171
  217.750   39.045    0.413    0.238   65.133
  218.000   37.157    0.398    0.267   83.686
  218.250   37.153    0.408    0.276  135.209
  218.500   37.149    0.415    0.275  200.959
  218.750   38.401    0.400    0.273  298.683
  219.000   38.398    0.389    0.273  305.252
  219.250   39.650    0.384    0.278  325.222
  219.500   40.901    0.388    0.287  361.222
  219.750   42.154    0.389    0.292  401.302
  220.000   42.779    0.395    0.284  369.605
  220.250   47.169    0.418    0.278  333.402
  220.500   49.678    0.432    0.278  306.995
  220.750   52.814    0.434    0.276  260.167
  221.000   57.206    0.440    0.268  194.606
  221.250   62.853    0.446    0.240  125.836
  221.500   66.617    0.445    0.194   88.430
  221.750   69.751    0.452    0.184   71.886
  222.000   71.004    0.448    0.153   57.235
  222.250   72.883    0.351    0.108   45.569
  222.500   76.020    0.332    0.092   39.430
  222.750   83.551    0.305    0.097   32.054
  223.000   91.710    0.347    0.142   27.158
  223.250   99.869    0.382    0.150   20.314
  223.500  106.145    0.409    0.162   12.603
  223.750  114.304    0.414    0.168   10.903
  224.000  119.950    0.467    0.174    7.987
  224.250  120.573    0.474    0.172    6.496
  224.500  119.942    0.509    0.168    6.636
  224.750  120.566    0.523    0.163    7.370
  225.000  120.562    0.543    0.152    8.714
  225.250  121.187    0.560    0.117    9.882
  225.500  121.183    0.484    0.137   11.206
  225.750  121.179    0.404    0.167   11.693
  226.000  121.803    0.421    0.183   10.550
  226.250  122.427    0.464    0.195    9.515
  226.500  121.167    0.481    0.206    9.524
  226.750  119.909    0.480    0.206   11.499
  227.000  118.022    0.478    0.201   14.774
  227.250  114.250    0.480    0.207   19.381
  227.500  112.363    0.474    0.232   21.084
  227.750  109.848    0.467    0.198   21.552
  228.000  106.077    0.463    0.164   21.573
  228.250  100.421    0.454    0.140   21.144
  228.500   96.651    0.443    0.169   19.893
  228.750   91.624    0.442    0.194   19.095
  229.000   89.108    0.449    0.221   18.715
  229.250   88.476    0.454    0.246   17.604
  229.500   86.588    0.459    0.271   17.620
  229.750   85.329    0.465    0.292   17.641
  230.000   82.812    0.469    0.339   17.650
