~VERSION INFORMATION
 VERS.                 2.0:   CWLS LOG ASCII STANDARD -VERSION 2.0
 WRAP.                  NO:   ONE LINE PER DEPTH STEP
~WELL INFORMATION BLOCK
#MNEM.UNIT           DATA                    DESCRIPTION OF MNEMONIC
#---------    -------------------            -------------------------------
# Generated from Intellog Unique Number	CW_79_81/WELL/2902
WELL.         11-18-079-03W5                 : Well_name    - WELL
LOC .         00/11-18-079-03W5/0M           : Location     - LOCATION
UWI .         00/11-18-079-03W5/0            : Uwi          - UNIQUE WELL ID
ENTR.         JJ                             : Entered      - ENTERED BY
SRVC.         SCHLUMBERGER                   : Scn          - SERVICE COMPANY
DATE.         4 MAR 68                       : Date         - LOG DATE
STRT.M        484.632                        : top_depth    - START DEPTH
STOP.M        612.632                        : bot_depth    - STOP DEPTH
STEP.M        0.25                           : increment    - STEP LENGTH
 NULL. -999.2500:NULL Value
~CURVE INFORMATION BLOCK
#MNEM UNIT       ERCB CURVE CODE    CURVE DESCRIPTION
#-----------   ------------------   ----------------------------------
DEPT.M        00 001 00 00         : DEPTH        - DEPTH
DELT.US/F     00 520 00 00         : DELT         - SONIC TRAVEL TIME
GR  .API      00 310 00 00         : GR           - GAMMA RAY
ILD .OHMM     00 120 00 00         : RESD         - DEEP RESISTIVITY (DIL)
~PARAMETER INFORMATION
#MNEM.UNIT           DATA             DESCRIPTION OF MNEMONIC
#---------         -----------     ------------------------------
GL  .M        654                  : gl           - GROUND LEVEL ELEVATION
EREF.M        657.454              : kb           - ELEVATION OF DEPTH REFERENCE
DATM.M        657.454              : datum        - DATUM ELEVATION
TDD .M        620.268              : tdd          - TOTAL DEPTH DRILLER
RUN .         ONE                  : Run          - RUN NUMBER
ENG .         EDGSON               : Engineer     - RECORDING ENGINEER
WIT .         DONALD & SANDERSON   : Witness      - WITNESSED BY
BASE.         EDMONTON             : Branch       - HOME BASE OF LOGGING UNIT
MUD .         GEL                  : Mud_type     - MUD TYPE
MATR.         SANDSTONE            : Logunit      - NEUTRON MATRIX
TMAX.C        27.7778              : BHT          - MAXIMUM RECORDED TEMPERATURE
BHTD.M        620.268              : BHTDEP       - MAXIMUM RECORDED TEMPERATURE
RMT .C        18.8889              : MDTP         - TEMPERATURE OF MUD
MUDD.KG/M     1236                 : MWT          - MUD DENSITY
NEUT.         1                    : NEUTRON      - NEUTRON TYPE
RESI.         0                    : RESIST       - RESISTIVITY TYPE
RM  .OHMM     5.6                  : RM           - RESISTIVITY OF MUD
RMC .OHMM     3.39                 : RMC          - RESISTIVITY OF MUD CAKE
RMF .OHMM     5.35                 : RMF          - RESISTIVITY OF MUD FILTRATE
SUFT.C        5                    : SUFT         - SURFACE TEMPERATURE
~A  DEPTH     DELT       GR     RESD
# ...
  538.882  349.978   76.444    7.402
  539.132  348.053   74.489    8.461
  539.382  346.130   69.188    9.560
  539.632  339.840   66.425   10.968
  539.882  338.116   69.042   12.252
  540.132  339.692   68.613   13.475
  540.382  341.804   66.920   14.677
  540.632  342.167   66.336   14.996
  540.882  342.116   65.150   14.389
  541.132  341.954   64.110   13.640
  541.382  341.432   63.072   13.136
  541.632  340.259   62.087   13.042
  541.882  335.041   61.402   13.875
  542.132  325.727   59.303   15.345
  542.382  281.456   57.905   16.938
  542.632  253.251   55.395   18.447
  542.882  271.493   53.493   18.273
  543.132  284.962   56.367   16.843
  543.382  303.949   63.252   14.244
  543.632  333.417   66.988   12.075
  543.882  357.779   70.319    9.928
  544.132  346.578   72.685    8.704
  544.382  350.302   70.781    8.447
  544.632  338.567   69.490    8.849
  544.882  318.561   67.793    9.249
  545.132  309.110   66.908    8.849
  545.382  310.210   67.292    8.529
  545.632  325.233   69.152    8.130
  545.882  336.278   73.344    7.851
  546.132  339.264   75.201    7.306
  546.382  342.924   72.335    7.050
  546.632  344.969   72.719    7.285
  546.882  341.703   74.374    7.666
  547.132  336.017   72.983    8.148
  547.382  322.530   66.461    8.652
  547.632  308.643   58.769    9.011
  547.882  317.410   61.185    8.631
  548.132  329.128   68.577    8.005
  548.382  338.163   71.758    7.563
  548.632  343.298   74.425    7.018
  548.882  346.758   79.788    6.616
  549.132  347.458   77.784    6.297
  549.382  343.586   72.279    6.081
  549.632  337.226   70.176    5.949
  549.882  333.155   73.808    5.753
  550.132  345.748   79.728    5.598
  550.382  355.857   83.719    5.526
  550.632  367.039   87.151    5.437
  550.882  372.519   89.314    5.402
  551.132  374.023   90.719    5.393
  551.382  370.759   91.097    5.381
  551.632  362.988   91.329    5.436
  551.882  357.300   91.410    5.425
  552.132  354.639   89.867    5.434
  552.382  360.107   85.677    5.465
  552.632  365.376   89.111    5.309
  552.882  369.305   91.881    5.483
  553.132  372.360   90.690    5.617
  553.382  352.018   83.256    5.649
  553.632  333.285   82.321    5.843
  553.882  326.995   86.467    6.141
  554.132  332.472   90.607    6.604
  554.382  331.958   94.594    7.086
  554.632  324.257   91.524    7.466
  554.882  320.587   85.922    7.600
  555.132  316.845   81.888    7.385
  555.382  312.509   74.397    7.270
  555.632  313.540   71.638    7.303
  555.882  317.799   76.282    7.373
  556.132  321.389   77.737    7.445
  556.382  324.714   76.902    7.517
  556.632  325.479   79.365    7.630
  556.882  317.911   82.650    7.762
  557.132  308.261   82.776    7.979
  557.382  313.731   83.059    8.194
  557.632  320.818   89.537    7.835
  557.882  322.527   95.813    7.083
  558.132  329.406   96.249    5.678
  558.382  340.930  101.361    5.049
  558.632  368.921  102.607    4.628
  558.882  380.107  102.329    4.783
  559.132  384.296   99.564    5.059
  559.382  365.978   92.689    5.728
  559.632  349.134   85.809    6.600
  559.882  340.757   81.422    7.330
  560.132  342.063   78.504    7.444
  560.382  352.979   83.203    7.473
  560.632  342.518   79.632    7.649
  560.882  335.283   75.290    8.543
  561.132  329.937   69.987    9.846
  561.382  324.115   63.362   11.851
  561.632  330.051   54.250   13.690
  561.882  336.000   48.034   14.934
  562.132  341.134   48.212   15.519
  562.382  340.757   49.410   14.852
  562.632  338.296   52.841   13.505
  562.882  339.669   57.596   11.685
  563.132  347.159   62.650    9.908
  563.382  357.874   66.034   10.206
  563.632  358.706   68.501   12.518
  563.882  348.647   69.492   15.816
  564.132  340.475   63.122   19.382
  564.382  332.234   53.249   23.050
  564.632  334.617   48.506   26.163
  564.882  338.205   52.496   25.805
  565.132  339.441   53.945   25.239
  565.382  334.832   54.431   25.392
  565.632  330.287   54.412   26.759
  565.882  331.256   54.696   29.626
  566.132  311.589   53.707   33.705
  566.382  248.228   49.519   36.922
  566.632  218.072   45.434   38.762
  566.882  208.956   40.994   38.895
  567.132  242.929   41.026   37.014
  567.382  307.961   47.964   33.304
  567.632  328.154   51.951   29.616
  567.882  340.344   54.518   26.913
  568.132  343.062   49.983   25.340
  568.382  341.473   52.444   24.096
  568.632  339.283   52.879   22.277
  568.882  340.585   51.894   20.171
  569.132  342.431   53.346   18.556
  569.382  340.639   56.520   16.820
  569.632  338.249   55.540   15.473
  569.882  335.990   52.822   14.272
  570.132  334.608   52.041   13.336
  570.382  338.735   50.999   12.544
  570.632  340.175   51.231   11.568
  570.882  322.320   54.207   11.106
  571.132  302.787   53.423   11.568
  571.382  302.944   54.271   11.598
  571.632  313.796   56.784   11.117
  571.882  321.217   58.489   10.611
  572.132  326.625   59.481    9.965
  572.382  336.999   61.338    9.913
  572.632  337.097   57.916    9.512
  572.882  335.913   58.812    9.009
  573.132  335.270   62.544    9.019
  573.382  334.082   66.181    9.173
  573.632  332.499   65.448    9.267
  573.882  329.567   60.193    9.358
  574.132  330.203   60.935    9.411
  574.382  330.834   59.998    9.421
  574.632  326.021   61.096    9.412
  574.882  323.559   64.273    9.337
  575.132  328.831   66.330    9.285
  575.382  330.603   63.772    9.152
  575.632  328.144   60.194    8.997
  575.882  325.880   61.140    8.925
  576.132  323.958   64.319    8.935
  576.382  322.177   68.101    9.172
  576.632  321.797   73.365    9.634
  576.882  321.623   76.236   10.404
  577.132  320.101   75.145   10.887
  577.382  312.941   72.281   10.219
  577.632  300.399   71.599    7.598
  577.882  301.299   76.045    5.902
  578.132  316.720   86.181    4.495
  578.382  360.508   94.844    3.889
  578.632  395.290  100.868    3.897
  578.882  401.229   96.424    4.155
  579.132  385.728   88.942    4.433
  579.382  355.239   84.094    4.956
  579.632  348.946   83.105    5.479
  579.882  361.342   85.981    5.490
  580.132  370.040   91.136    4.863
  580.382  379.140   97.263    4.401
  580.632  384.885   96.987    3.918
  580.882  391.156   93.562    3.660
  581.132  394.818   90.139    3.446
  581.382  387.924   87.930    3.290
  581.632  379.076   82.779    3.301
  581.882  380.852   78.745    3.311
  582.132  388.206   81.770    3.443
  582.382  381.444   82.263    3.764
  582.632  373.671   80.204    4.185
  582.882  386.675   74.597    4.627
  583.132  405.117   75.791    4.985
  583.382  387.198   78.565    5.652
  583.632  363.363   76.663    6.280
  583.882  344.566   72.171    7.113
  584.132  340.826   73.167    8.171
  584.382  344.752   75.328    8.735
  584.632  342.766   74.649    7.431
  584.882  341.451   77.112    6.104
  585.132  375.893   78.872    4.491
  585.382  412.085   84.586    4.090
  585.632  422.802   93.959    3.813
  585.882  397.549   89.929    3.679
  586.132  390.119   85.995    3.524
  586.382  391.346   85.311    3.660
  586.632  387.481   89.200    3.856
  586.882  383.409   90.957    4.009
  587.132  389.688   92.102    4.326
  587.382  394.623   97.770    4.684
  587.632  385.640   92.160    5.436
  587.882  354.144   79.848    6.432
  588.132  343.079   65.050    8.065
  588.382  335.645   64.219   10.603
  588.632  336.538   66.939   11.846
  588.882  336.170   68.187   10.357
  589.132  337.070   67.960    8.969
  589.382  343.954   70.070    7.295
  589.632  356.144   76.956    6.010
  589.882  362.829   81.401    5.402
  590.132  370.789   90.825    5.023
  590.382  377.335   93.547    5.095
  590.632  373.598   89.156    5.619
  590.882  368.787   85.785    6.471
  591.132  356.109   79.668    7.406
  591.382  344.708   72.638    8.834
  591.632  319.461   76.272   10.223
  591.882  306.849   77.472   11.362
  592.132  304.455   73.131   12.770
  592.382  297.021   68.742   14.075
  592.632  288.109   63.897   15.277
  592.882  281.750   61.995   15.555
