~VERSION INFORMATION
 VERS.                 2.0:   CWLS LOG ASCII STANDARD -VERSION 2.0
 WRAP.                  NO:   ONE LINE PER DEPTH STEP
~WELL INFORMATION BLOCK
#MNEM.UNIT           DATA                    DESCRIPTION OF MNEMONIC
#---------    -------------------            -------------------------------
# Generated from Intellog Unique Number	CX_WELLS/WELL/2984
WELL.         ULSTER HANDST                  : Well_name    - WELL
LOC .         00/11-25-082-11W4/0            : Location     - LOCATION
UWI .         00/11-25-082-11W400            : Uwi          - UNIQUE WELL ID
ENTR.         T                              : Entered      - ENTERED BY
SRVC.         SCHLUMBERGER                   : Scn          - SERVICE COMPANY
STRT.M        265                            : top_depth    - START DEPTH
STOP.M        487                            : bot_depth    - STOP DEPTH
STEP.M        0.25                           : increment    - STEP LENGTH
 NULL. -999.2500:NULL Value
~CURVE INFORMATION BLOCK
#MNEM UNIT       ERCB CURVE CODE    CURVE DESCRIPTION
#-----------   ------------------   ----------------------------------
DEPT.M        00 001 00 00         : DEPTH        - DEPTH
GR  .API      00 310 00 00         : GR           - GAMMA RAY
NPHI.V/V      00 330 00 00         : PHIN         - NEUTRON POROSITY (SANDSTONE)
DPHI.V/V      00 890 00 00         : PHID         - DENSITY POROSITY (SANDSTONE)
ILD .OHMM     00 120 00 00         : RESD         - DEEP RESISTIVITY (OTHER)
~PARAMETER INFORMATION
#MNEM.UNIT           DATA             DESCRIPTION OF MNEMONIC
#---------         -----------     ------------------------------
GL  .M        716                  : gl           - GROUND LEVEL ELEVATION
EREF.M        719.1                : kb           - ELEVATION OF DEPTH REFERENCE
DATM.M        719.1                : datum        - DATUM ELEVATION
TDD .M        492                  : tdd          - TOTAL DEPTH DRILLER
RUN .         ONE                  : Run          - RUN NUMBER
ENG .         BILL                 : Engineer     - RECORDING ENGINEER
WIT .         JIM                  : Witness      - WITNESSED BY
MUD .         GEL                  : Mud_type     - MUD TYPE
MATR.         SANDSTONE            : Logunit      - NEUTRON MATRIX
TMAX.C        16                   : BHT          - MAXIMUM RECORDED TEMPERATURE
BHTD.M        492                  : BHTDEP       - MAXIMUM RECORDED TEMPERATURE
MATR.         1                    : LOGUNIT      - NEUTRON MATRIX
RMT .C        20                   : MDTP         - TEMPERATURE OF MUD
NEUT.         1                    : NEUTRON      - NEUTRON TYPE
RESI.         6.3                  : RESIST       - RESISTIVITY TYPE
RMC .OHMM     7.17                 : RMC          - RESISTIVITY OF MUD CAKE
RMF .OHMM     7.17                 : RMF          - RESISTIVITY OF MUD FILTRATE
SUFT.C        4                    : SUFT         - SURFACE TEMPERATURE
~A  DEPTH       GR     PHIN     PHID     RESD
# ...
  352.000  121.486    0.417    0.248    4.906
  352.250  118.987    0.417    0.246    4.817
  352.500  116.488    0.420    0.243    4.819
  352.750  114.614    0.426    0.246    4.822
  353.000  115.864    0.436    0.253    4.734
  353.250  115.865    0.448    0.258    4.646
  353.500  115.866    0.451    0.263    4.477
  353.750  116.491    0.460    0.268    4.232
  354.000  118.992    0.483    0.269    4.000
  354.250  118.992    0.499    0.269    3.781
  354.500  116.493    0.501    0.270    3.315
  354.750  113.994    0.490    0.274    3.193
  355.000  112.121    0.479    0.279    3.018
  355.250  111.497    0.471    0.285    3.019
  355.500  110.247    0.467    0.290    3.259
  355.750  107.749    0.460    0.304    3.450
  356.000  105.875    0.457    0.311    3.794
  356.250  102.751    0.453    0.320    4.501
  356.500   97.127    0.448    0.330    5.441
  356.750   89.004    0.443    0.338    6.454
  357.000   80.256    0.437    0.338    7.233
  357.250   76.508    0.432    0.336    7.661
  357.500   79.633    0.429    0.333    7.663
  357.750   77.759    0.427    0.333    7.667
  358.000   75.260    0.425    0.332    7.673
  358.250   71.511    0.427    0.330    7.675
  358.500   69.638    0.433    0.323    7.678
  358.750   76.512    0.441    0.316    7.538
  359.000   84.012    0.450    0.307    7.400
  359.250   89.637    0.458    0.305    7.129
  359.500   89.012    0.459    0.312    6.868
  359.750   85.888    0.438    0.320    6.616
  360.000   81.515    0.439    0.344    6.620
  360.250   77.766    0.439    0.345    7.420
  360.500   72.768    0.433    0.357    8.315
  360.750   69.644    0.413    0.376    9.678
  361.000   70.895    0.411    0.374   11.265
  361.250   67.146    0.415    0.371   12.628
  361.500   63.397    0.423    0.371   12.874
  361.750   62.148    0.437    0.373   12.878
  362.000   64.024    0.452    0.378   13.130
  362.250   64.649    0.454    0.380   13.138
  362.500   64.650    0.433    0.381   13.146
  362.750   64.026    0.417    0.381   13.151
  363.000   63.401    0.416    0.384   13.159
  363.250   62.777    0.414    0.385   13.164
  363.500   62.153    0.410    0.386   12.925
  363.750   62.154    0.402    0.385   12.932
  364.000   60.905    0.400    0.385   12.935
  364.250   60.906    0.398    0.381   12.942
  364.500   60.906    0.398    0.380   12.953
  364.750   60.906    0.400    0.377   12.957
  365.000   60.908    0.407    0.377   12.963
  365.250   60.909    0.413    0.377   12.970
  365.500   62.784    0.422    0.377   13.225
  365.750   64.034    0.428    0.379   13.228
  366.000   65.910    0.432    0.380   13.236
  366.250   66.536    0.432    0.382   13.243
  366.500   66.536    0.430    0.386   13.247
  366.750   64.662    0.430    0.387   13.258
  367.000   62.164    0.428    0.385   13.262
  367.250   60.914    0.423    0.380   13.268
  367.500   60.915    0.418    0.377   13.274
  367.750   60.916    0.418    0.377   13.281
  368.000   60.916    0.422    0.377   13.287
  368.250   60.292    0.423    0.377   13.551
  368.500   60.918    0.424    0.377   13.554
  368.750   61.544    0.419    0.379   13.562
  369.000   61.545    0.417    0.380   13.569
  369.250   62.170    0.418    0.382   13.577
  369.500   64.046    0.418    0.385   13.582
  369.750   65.296    0.419    0.386   13.588
  370.000   67.796    0.420    0.386   13.857
  370.250   68.422    0.427    0.385   13.863
  370.500   65.298    0.432    0.385   13.867
  370.750   62.174    0.433    0.383   13.877
  371.000   59.050    0.432    0.382   13.882
  371.250   60.301    0.429    0.382   13.892
  371.500   60.302    0.424    0.382   13.896
  371.750   59.053    0.419    0.382   13.902
  372.000   57.803    0.409    0.382   13.912
  372.250   60.304    0.406    0.382   13.917
  372.500   62.804    0.409    0.383   13.922
  372.750   64.055    0.414    0.383   13.671
  373.000   64.680    0.425    0.385   13.676
  373.250   66.556    0.428    0.385   13.681
  373.500   67.807    0.430    0.382   13.691
  373.750   64.058    0.427    0.381   13.959
  374.000   61.559    0.423    0.375   13.966
  374.250   57.185    0.419    0.362   14.241
  374.500   52.812    0.422    0.216   14.517
  374.750   47.188    0.333    0.150   15.375
  375.000   47.814    0.181    0.081   15.673
  375.250   60.313    0.202    0.087   16.596
  375.500   66.562    0.235    0.223   18.604
  375.750   67.188    0.328    0.283   19.331
  376.000   66.564    0.370    0.341   18.978
  376.250   64.690    0.385    0.371   18.280
  376.500   63.441    0.399    0.375   16.642
  376.750   63.442    0.417    0.378   16.334
  377.000   64.068    0.428    0.380   15.735
  377.250   64.693    0.409    0.383   15.158
  377.500   65.319    0.398    0.384   14.602
  377.750   66.569    0.394    0.384   14.068
  378.000   68.444    0.410    0.382   13.552
  378.250   69.070    0.431    0.381   13.306
  378.500   65.946    0.434    0.378   13.313
  378.750   62.822    0.428    0.376   13.071
  379.000   63.448    0.418    0.376   13.076
  379.250   62.199    0.412    0.375   13.081
  379.500   60.325    0.413    0.375   13.088
  379.750   59.076    0.430    0.373   13.093
  380.000   60.952    0.436    0.377   13.353
  380.250   65.327    0.442    0.379   13.357
  380.500   67.202    0.447    0.376   13.366
  380.750   65.953    0.419    0.372   13.372
  381.000   62.204    0.400    0.371   13.378
  381.250   59.705    0.399    0.372   13.385
  381.500   58.456    0.407    0.374   13.389
  381.750   57.832    0.425    0.376   13.399
  382.000   57.208    0.439    0.376   13.402
  382.250   57.209    0.450    0.376   13.412
  382.500   57.209    0.451    0.376   13.673
  382.750   57.835    0.455    0.377   13.680
  383.000   58.461    0.451    0.374   13.688
  383.250   60.336    0.447    0.371   13.694
  383.500   60.962    0.442    0.368   13.701
  383.750   62.837    0.440    0.360   13.706
  384.000   65.963    0.440    0.350   13.207
  384.250   69.713    0.445    0.341   12.721
  384.500   74.088    0.445    0.328   11.798
  384.750   79.712    0.448    0.316   10.538
  385.000   90.962    0.456    0.299    9.592
  385.250   90.962    0.471    0.300    8.567
  385.500   90.963    0.463    0.319    7.368
  385.750   90.339    0.442    0.327    6.706
  386.000   87.840    0.424    0.324    5.877
  386.250   84.091    0.415    0.323    5.349
  386.500   87.216    0.408    0.325    5.664
  386.750   89.092    0.400    0.332    5.997
  387.000   87.218    0.397    0.337    6.850
  387.250   82.844    0.403    0.324    7.824
  387.500   80.970    0.422    0.290    8.443
  387.750   79.721    0.424    0.266    9.111
  388.000   80.972    0.432    0.260    9.468
  388.250   83.472    0.441    0.264    9.295
  388.500   84.723    0.445    0.267    9.125
  388.750   86.598    0.440    0.271    8.465
  389.000   89.724    0.422    0.273    8.309
  389.250   91.599    0.410    0.276    7.855
  389.500   94.724    0.411    0.278    7.859
  389.750   97.225    0.417    0.279    7.863
  390.000   98.475    0.426    0.279    7.721
  390.250   99.101    0.435    0.280    7.723
  390.500  100.976    0.436    0.280    7.728
  390.750  104.101    0.435    0.280    7.730
  391.000  104.102    0.437    0.280    7.590
  391.250  105.978    0.448    0.284    7.450
  391.500  109.728    0.454    0.287    7.044
  391.750  112.228    0.452    0.288    6.659
  392.000  116.603    0.461    0.288    5.948
  392.250  115.354    0.472    0.288    5.728
  392.500  112.230    0.490    0.288    5.116
  392.750  110.981    0.483    0.288    4.484
  393.000  109.732    0.469    0.288    4.081
  393.250  104.733    0.469    0.288    3.932
  393.500   92.236    0.465    0.288    4.085
  393.750   85.363    0.464    0.284    4.579
  394.000   88.488    0.465    0.278    4.848
  394.250   98.487    0.459    0.275    5.538
  394.500  105.987    0.444    0.275    6.206
  394.750  109.737    0.438    0.275    6.825
  395.000  102.864    0.439    0.274    7.365
  395.250   99.115    0.435    0.269    7.799
