~VERSION INFORMATION
 VERS.                 2.0:   CWLS LOG ASCII STANDARD -VERSION 2.0
 WRAP.                  NO:   ONE LINE PER DEPTH STEP
~WELL INFORMATION BLOCK
#MNEM.UNIT           DATA                    DESCRIPTION OF MNEMONIC
#---------    -------------------            -------------------------------
# Generated from Intellog Unique Number	CW_73_75/WELL/2753
WELL.         COBRA ET AL MITSUE 16-29       : Well_name    - WELL
LOC .         00/16-29-073-05W5/0            : Location     - LOCATION
UWI .         00/16-29-073-05W5/0            : Uwi          - UNIQUE WELL ID
ENTR.         JAYE                           : Entered      - ENTERED BY
SRVC.         SCHLUMBERGER                   : Scn          - SERVICE COMPANY
DATE.         6 MAR 81                       : Date         - LOG DATE
STRT.M        360                            : top_depth    - START DEPTH
STOP.M        595                            : bot_depth    - STOP DEPTH
STEP.M        0.25                           : increment    - STEP LENGTH
 NULL. -999.2500:NULL Value
~CURVE INFORMATION BLOCK
#MNEM UNIT       ERCB CURVE CODE    CURVE DESCRIPTION
#-----------   ------------------   ----------------------------------
DEPT.M        00 001 00 00         : DEPTH        - DEPTH
DPHI.V/V      00 890 00 00         : PHID         - DENSITY POROSITY (SANDSTONE)
NPHI.V/V      00 330 00 00         : PHIN         - NEUTRON POROSITY (SANDSTONE)
GR  .API      00 310 00 00         : GR           - GAMMA RAY
CALI.MM       00 280 01 00         : CAL          - CALIPER
ILD .OHMM     00 120 00 00         : RESD         - DEEP RESISTIVITY (DIL)
~PARAMETER INFORMATION
#MNEM.UNIT           DATA             DESCRIPTION OF MNEMONIC
#---------         -----------     ------------------------------
GL  .M        581.61               : gl           - GROUND LEVEL ELEVATION
EREF.M        586.26               : kb           - ELEVATION OF DEPTH REFERENCE
DATM.M        581.61               : datum        - DATUM ELEVATION
TDD .M        1686                 : tdd          - TOTAL DEPTH DRILLER
RUN .         ONE                  : Run          - RUN NUMBER
ENG .         ADLAKHA              : Engineer     - RECORDING ENGINEER
WIT .         HEATHER              : Witness      - WITNESSED BY
BASE.         EDMONTON             : Branch       - HOME BASE OF LOGGING UNIT
MUD .         GEL CHEN             : Mud_type     - MUD TYPE
MATR.         SANDSTONE            : Logunit      - NEUTRON MATRIX
TMAX.C        54                   : BHT          - MAXIMUM RECORDED TEMPERATURE
BHTD.M        1686.3               : BHTDEP       - MAXIMUM RECORDED TEMPERATURE
RMT .C        15.5                 : MDTP         - TEMPERATURE OF MUD
MUDD.KG/M     1080                 : MWT          - MUD DENSITY
NEUT.         1                    : NEUTRON      - NEUTRON TYPE
RESI.         0                    : RESIST       - RESISTIVITY TYPE
RM  .OHMM     0.85                 : RM           - RESISTIVITY OF MUD
RMC .OHMM     0                    : RMC          - RESISTIVITY OF MUD CAKE
RMF .OHMM     0.77                 : RMF          - RESISTIVITY OF MUD FILTRATE
SUFT.C        0                    : SUFT         - SURFACE TEMPERATURE
~A  DEPTH     PHID     PHIN       GR      CAL     RESD
# ...
  506.000    0.282    0.402   58.603  240.092    6.733
  506.250    0.281    0.398   55.306  239.021    6.785
  506.500    0.281    0.396   50.945  237.782    6.772
  506.750    0.281    0.411   51.746  237.132    6.722
  507.000    0.284    0.422   55.716  235.688    6.671
  507.250    0.288    0.421   57.138  234.631    6.621
  507.500    0.285    0.403   55.456  233.495    6.584
  507.750    0.278    0.402   55.696  233.046    6.486
  508.000    0.278    0.405   57.738  232.106    6.307
  508.250    0.289    0.408   59.531  230.745    6.051
  508.500    0.298    0.423   60.149  228.977    5.698
  508.750    0.305    0.439   60.384  227.816    5.376
  509.000    0.310    0.421   60.561  226.561    5.109
  509.250    0.311    0.438   60.304  225.511    4.875
  509.500    0.307    0.458   59.805  224.585    4.766
  509.750    0.293    0.454   59.740  223.836    4.693
  510.000    0.291    0.434   59.847  223.818    4.687
  510.250    0.290    0.458   60.026  224.325    4.731
  510.500    0.289    0.477   60.639  225.143    4.796
  510.750    0.285    0.451   61.314  225.956    4.858
  511.000    0.279    0.437   62.924  226.564    4.931
  511.250    0.270    0.423   60.492  226.336    5.015
  511.500    0.275    0.421   61.415  225.812    5.120
  511.750    0.279    0.428   63.458  226.105    5.199
  512.000    0.282    0.419   62.396  226.504    5.239
  512.250    0.288    0.404   60.773  226.496    5.261
  512.500    0.292    0.395   60.587  226.998    5.300
  512.750    0.291    0.408   61.009  227.503    5.352
  513.000    0.282    0.429   61.930  227.598    5.434
  513.250    0.277    0.417   62.978  228.830    5.515
  513.500    0.271    0.407   64.278  230.365    5.597
  513.750    0.272    0.414   65.829  232.938    5.694
  514.000    0.277    0.423   66.933  234.283    5.781
  514.250    0.281    0.425   66.121  234.574    5.835
  514.500    0.286    0.430   63.870  236.318    5.848
  514.750    0.292    0.436   63.000  240.044    5.825
  515.000    0.287    0.426   63.301  243.346    5.729
  515.250    0.261    0.415   63.973  247.571    5.642
  515.500    0.239    0.389   64.653  256.467    5.505
  515.750    0.228    0.393   65.267  263.190    5.324
  516.000    0.243    0.406   66.000  257.578    5.175
  516.250    0.240    0.418   68.046  258.810    5.050
  516.500    0.236    0.423   71.577  262.119    4.938
  516.750    0.247    0.427   76.294  265.732    4.839
  517.000    0.246    0.433   74.855  269.031    4.775
  517.250    0.236    0.440   72.051  272.329    4.721
  517.500    0.208    0.429   70.924  278.219    4.685
  517.750    0.194    0.402   69.613  287.015    4.633
  518.000    0.198    0.412   70.414  290.726    4.608
  518.250    0.214    0.432   73.821  293.005    4.591
  518.500    0.226    0.454   77.108  294.837    4.608
  518.750    0.232    0.460   79.342  297.313    4.660
  519.000    0.217    0.437   79.951  298.761    4.722
  519.250    0.203    0.423   78.826  299.774    4.821
  519.500    0.208    0.395   76.393  301.319    4.894
  519.750    0.217    0.417   73.282  304.407    4.867
  520.000    0.214    0.438   73.337  306.987    4.815
  520.250    0.201    0.443   74.145  308.318    4.762
  520.500    0.202    0.431   75.806  307.585    4.725
  520.750    0.221    0.417   76.791  304.874    4.715
  521.000    0.242    0.423   76.409  302.595    4.724
  521.250    0.235    0.440   75.904  301.947    4.744
  521.500    0.227    0.468   74.969  301.311    4.798
  521.750    0.232    0.485   73.345  299.855    4.916
  522.000    0.238    0.440   71.720  298.906    5.183
  522.250    0.245    0.443   71.404  297.858    5.483
  522.500    0.259    0.447   69.222  295.980    5.835
  522.750    0.267    0.416   69.024  294.930    5.837
  523.000    0.252    0.397   72.622  298.245    5.632
  523.250    0.240    0.383   75.099  301.955    5.342
  523.500    0.241    0.397   74.346  309.083    5.011
  523.750    0.246    0.416   70.802  319.636    4.790
  524.000    0.250    0.433   68.868  385.904    4.613
  524.250    0.262    0.441   68.480  490.088    4.657
  524.500    0.275    0.418   70.710  495.663    4.755
  524.750    0.295    0.431   74.118  372.196    4.764
  525.000    0.272    0.450   71.070  343.699    4.810
  525.250    0.242    0.465   69.755  303.196    4.838
  525.500    0.245    0.484   71.615  288.060    4.828
  525.750    0.283    0.482   75.335  282.869    4.793
  526.000    0.234    0.470   77.813  283.911    4.721
  526.250    0.219    0.465   79.172  284.186    4.659
  526.500    0.219    0.476   79.347  283.557    4.627
  526.750    0.218    0.475   79.843  282.916    4.714
  527.000    0.201    0.447   80.393  281.456    4.903
  527.250    0.187    0.437   78.889  280.309    5.249
  527.500    0.201    0.438   74.914  277.393    5.543
  527.750    0.225    0.442   72.051  272.513    6.103
  528.000    0.242    0.438   69.858  266.188    6.654
  528.250    0.255    0.431   65.872  259.743    7.284
  528.500    0.255    0.424   62.820  256.735    7.707
  528.750    0.247    0.412   63.556  257.460    7.958
  529.000    0.254    0.399   67.652  258.579    8.049
  529.250    0.249    0.385   71.556  261.154    8.006
  529.500    0.226    0.353   75.650  266.115    7.568
  529.750    0.225    0.361   78.688  271.064    6.914
  530.000    0.229    0.385   79.244  275.915    6.209
  530.250    0.214    0.388   77.993  280.043    5.485
  530.500    0.197    0.396   74.945  286.977    4.982
  530.750    0.188    0.413   73.065  293.489    4.578
  531.000    0.193    0.433   71.630  296.892    4.377
  531.250    0.201    0.429   72.180  298.745    4.271
  531.500    0.194    0.428   74.781  300.494    4.214
  531.750    0.186    0.444   80.118  301.825    4.183
  532.000    0.170    0.452   78.813  302.330    4.136
  532.250    0.170    0.450   73.887  302.013    4.022
  532.500    0.182    0.433   72.204  301.474    3.866
  532.750    0.213    0.432   76.979  300.945    3.641
  533.000    0.272    0.519   80.078  302.177    3.480
  533.250    0.280    0.532   76.660  306.508    3.384
  533.500    0.249    0.500   75.340  315.816    3.334
  533.750    0.232    0.475   76.512  310.940    3.320
  534.000    0.221    0.450   78.994  305.848    3.315
  534.250    0.209    0.432   81.162  305.633    3.352
  534.500    0.186    0.428   81.342  307.069    3.481
  534.750    0.205    0.443   77.359  307.466    3.642
  535.000    0.228    0.497   73.182  308.079    3.818
  535.250    0.261    0.507   68.511  309.000    4.039
  535.500    0.271    0.479   68.136  309.601    4.307
  535.750    0.267    0.443   72.478  310.525    4.422
  536.000    0.244    0.442   73.898  311.561    4.439
  536.250    0.216    0.438   76.249  312.576    4.149
  536.500    0.205    0.433   79.354  312.764    3.562
  536.750    0.200    0.447   82.264  311.842    3.052
  537.000    0.194    0.470   84.433  310.778    2.586
  537.250    0.189    0.483   84.422  309.314    2.324
  537.500    0.185    0.446   80.874  307.019    2.363
  537.750    0.192    0.432   77.134  304.006    2.816
  538.000    0.222    0.434   72.715  301.092    3.355
  538.250    0.217    0.430   72.770  299.315    3.736
  538.500    0.209    0.410   74.628  297.540    3.983
  538.750    0.202    0.414   73.627  296.076    4.037
  539.000    0.195    0.423   72.689  296.171    3.990
  539.250    0.184    0.436   72.801  296.676    3.850
  539.500    0.173    0.444   73.482  296.980    3.681
  539.750    0.177    0.456   74.035  297.265    3.695
  540.000    0.184    0.443   75.641  297.160    3.737
  540.250    0.183    0.408   77.059  297.149    3.779
  540.500    0.182    0.415   77.360  296.729    3.837
  540.750    0.187    0.429   76.983  295.674    3.932
  541.000    0.183    0.437   75.302  294.095    4.069
  541.250    0.181    0.438   73.424  290.873    4.202
  541.500    0.200    0.441   71.621  286.303    4.314
  541.750    0.237    0.458   70.426  280.803    4.530
  542.000    0.253    0.466   71.661  274.264    4.884
  542.250    0.233    0.427   73.083  270.727    5.336
