~VERSION INFORMATION
 VERS.                 2.0:   CWLS LOG ASCII STANDARD -VERSION 2.0
 WRAP.                  NO:   ONE LINE PER DEPTH STEP
~WELL INFORMATION BLOCK
#MNEM.UNIT           DATA                    DESCRIPTION OF MNEMONIC
#---------    -------------------            -------------------------------
# Generated from Intellog Unique Number	CC_80_83/WELL/2378
NULL.         -999.25                        : NULL_VALUE
WELL.         PACIFIC STONY RAPIDS           : Well_name    - WELL
LOC .         10-27-080-18W4                 : Location     - LOCATION          
UWI .         00/10-27-080-18W4/0            : Uwi          - UNIQUE WELL ID    
ENTR.         DW                             : Entered      - ENTERED BY        
SRVC.         SCHLUMBERGER                   : Scn          - SERVICE COMPANY   
DATE.         04 FEB 77                      : Date         - LOG DATE
STRT.M        149.352                        : top_depth    - START DEPTH       
STOP.M        356.617                        : bot_depth    - STOP DEPTH        
STEP.M        0.305                          : increment    - STEP LENGTH       
~CURVE INFORMATION BLOCK
#MNEM UNIT       ERCB CURVE CODE    CURVE DESCRIPTION
#-----------   ------------------   ----------------------------------
DEPT.M        00 001 00 00         : DEPTH        - DEPTH                       
DPHI.V/V      00 890 00 00         : PHID         - DENSITY POROSITY (LIMESTONE)
NPHI.V/V      00 330 00 00         : PHIN         - NEUTRON POROSITY (LIMESTONE)
GR  .API      00 310 00 00         : GR           - GAMMA RAY                   
ILD .OHMM     00 120 00 00         : RESD         - DEEP RESISTIVITY (DIL)      
~PARAMETER INFORMATION       
#MNEM.UNIT           DATA             DESCRIPTION OF MNEMONIC
#---------         -----------     ------------------------------
GL  .M        554.126              : gl           - GROUND LEVEL ELEVATION      
EREF.M        557.327              : kb           - ELEVATION OF DEPTH REFERENCE
DATM.M        557.327              : datum        - DATUM ELEVATION             
TDD .M        387.401              : tdd          - TOTAL DEPTH DRILLER         
RUN .         ONE                  : Run          - RUN NUMBER                  
ENG .         BILL                 : Engineer     - RECORDING ENGINEER          
WIT .         JIM                  : Witness      - WITNESSED BY                
MUD .         GEL                  : Mud_type     - MUD TYPE                    
MATR.         LIMESTONE            : Logunit      - NEUTRON MATRIX              
TMAX.C        19.4444              : BHT          - MAXIMUM RECORDED TEMPERATURE
BHTD.M        387.096              : BHTDEP       - MAXIMUM RECORDED TEMPERATURE
MATR.         1                    : LOGUNIT      - NEUTRON MATRIX              
RMT .C        25                   : MDTP         - TEMPERATURE OF MUD          
NEUT.         1                    : NEUTRON      - NEUTRON TYPE                
RESI.         0                    : RESIST       - RESISTIVITY TYPE            
RMC .OHMM     0.25                 : RMC          - RESISTIVITY OF MUD CAKE     
RMF .OHMM     0.25                 : RMF          - RESISTIVITY OF MUD FILTRATE 
SUFT.C        15                   : SUFT         - SURFACE TEMPERATURE         
~A  DEPTH     PHID     PHIN       GR     RESD
# ...
  202.386    0.283    0.324   94.266   16.406
  202.691    0.280    0.326  105.470   15.388
  202.996    0.311    0.372  104.226   13.355
  203.301    0.333    0.382  112.941   11.728
  203.605    0.329    0.362  126.634   10.913
  203.910    0.333    0.368  118.544   10.708
  204.215    0.329    0.386  115.433   10.707
  204.520    0.330    0.390  109.210   10.502
  204.825    0.358    0.400  104.854   10.298
  205.129    0.421    0.424   89.918   10.499
  205.434    0.533    0.464   69.380   11.920
  205.739    0.536    0.455   68.136   12.732
  206.044    0.357    0.424   67.514   14.356
  206.349    0.333    0.331   65.026   15.777
  206.653    0.351    0.327   62.538   16.385
  206.958    0.368    0.301   64.406   16.994
  207.263    0.374    0.299   72.498   17.601
  207.568    0.369    0.312   78.100   17.803
  207.873    0.369    0.309   84.325   18.208
  208.177    0.368    0.290   81.214   18.410
  208.482    0.364    0.296   84.949   18.205
  208.787    0.366    0.289   88.062   18.203
  209.092    0.367    0.278   86.195   17.999
  209.396    0.363    0.286   74.371   17.590
  209.701    0.361    0.299   81.218   17.386
  210.006    0.361    0.301   88.688   17.384
  210.311    0.361    0.294   91.178   17.586
  210.616    0.362    0.285   93.669   17.179
  210.920    0.367    0.274   93.047   17.380
  211.225    0.369    0.289   93.048   17.175
  211.530    0.372    0.310   92.427   17.173
  211.835    0.373    0.312   94.295   17.376
  212.140    0.374    0.302   94.296   17.375
  212.444    0.376    0.290   94.296   17.170
  212.749    0.376    0.285   94.298   17.169
  213.054    0.374    0.311   91.809   16.963
  213.359    0.362    0.329   84.341   16.962
  213.664    0.330    0.319   89.944   17.164
  213.968    0.294    0.224   89.945   18.382
  214.273    0.217    0.022   88.701   20.209
  214.578    0.130    0.066   88.702   22.037
  214.883    0.249    0.200   82.478   23.051
  215.188    0.301    0.301   86.836   22.643
  215.492    0.326    0.332   95.551   21.220
  215.797    0.367    0.341  103.020   18.983
  216.102    0.372    0.342  126.672   17.559
  216.407    0.374    0.341  131.030   16.744
  216.712    0.376    0.341  126.674   16.540
  217.016    0.373    0.341   82.485   16.538
  217.321    0.364    0.341   84.353   16.740
  217.626    0.364    0.343   86.844   16.738
  217.931    0.378    0.350   84.978   16.737
  218.236    0.374    0.337   81.244   16.939
  218.540    0.376    0.325   80.000   17.140
  218.845    0.389    0.316   77.512   17.342
  219.150    0.393    0.305   80.624   17.340
  219.455    0.381    0.304   81.248   17.339
  219.759    0.376    0.304   77.514   17.135
  220.064    0.371    0.304   80.627   16.930
  220.369    0.363    0.310   85.607   16.521
  220.674    0.360    0.320   86.853   16.317
  220.979    0.361    0.336   81.875   16.316
  221.283    0.374    0.355   80.631   16.517
  221.588    0.377    0.362   86.856   16.719
  221.893    0.374    0.327   87.479   17.125
  222.198    0.374    0.289   84.990   17.732
  222.503    0.373    0.239   84.369   18.747
  222.807    0.356    0.197   83.748   20.574
  223.112    0.329    0.057   82.504   22.808
  223.417    0.302    0.000   78.148   26.261
  223.722    0.094    0.000   78.148   30.121
  224.027    0.125    0.069   88.108   39.670
  224.331    0.245    0.183   97.444   43.530
  224.636    0.305    0.294  108.026   43.122
  224.941    0.348    0.340  116.740   29.709
  225.246    0.350    0.340  149.728   22.189
  225.551    0.347    0.324  155.953   17.919
  225.855    0.346    0.331  144.750   16.292
  226.160    0.345    0.345   98.072   15.884
  226.465    0.340    0.341   86.248   15.477
  226.770    0.336    0.331   83.759   15.677
  227.075    0.333    0.327   83.138   15.879
  227.379    0.337    0.346   89.363   16.081
  227.684    0.337    0.358   91.231   16.282
  227.989    0.326    0.341   93.099   16.281
  228.294    0.306    0.301   90.610   16.483
  228.599    0.281    0.243   85.010   16.482
  228.903    0.157    0.167   80.654   18.106
  229.208    0.182    0.172   91.858   18.918
  229.513    0.271    0.232   93.104   19.729
  229.818    0.326    0.275   94.349   19.931
  230.122    0.333    0.325   94.350   18.100
  230.427    0.330    0.332  106.176   16.270
  230.732    0.329    0.330  110.534   15.049
  231.037    0.329    0.327  104.933   14.641
  231.342    0.332    0.326   96.843   14.640
  231.646    0.336    0.321   88.753   14.435
  231.951    0.337    0.309   96.223   14.434
  232.256    0.337    0.305   98.714   14.635
  232.561    0.342    0.301   98.714   14.634
  232.866    0.347    0.296   94.358   14.428
  233.170    0.347    0.296   91.870   14.427
  233.475    0.342    0.320   91.248   14.426
  233.780    0.338    0.342   96.228   14.425
  234.085    0.342    0.366   96.229   14.424
  234.390    0.350    0.383   98.720   14.219
  234.694    0.345    0.386  101.210   14.421
  234.999    0.335    0.379  103.078   14.419
  235.304    0.327    0.363   98.722   14.418
  235.609    0.327    0.351   95.611   14.416
  235.914    0.342    0.341   99.969   14.211
  236.218    0.347    0.338   99.348   14.210
  236.523    0.341    0.342   97.481   14.208
  236.828    0.333    0.347  102.461   14.207
  237.133    0.329    0.355  101.217   13.799
  237.438    0.320    0.367   98.729   13.391
  237.742    0.309    0.364  104.954   12.780
  238.047    0.306    0.360  104.332   12.373
  238.352    0.312    0.333  100.599   11.558
  238.657    0.312    0.327   96.865   10.947
  238.962    0.300    0.336   98.111   10.742
  239.266    0.291    0.373  100.601   11.146
  239.571    0.283    0.381  103.092   11.348
  239.876    0.274    0.379  111.184   11.347
  240.181    0.269    0.379  119.898   10.939
  240.486    0.274    0.379  117.410   10.124
  240.790    0.263    0.371  111.187    9.920
  241.095    0.254    0.356  104.964    9.106
  241.400    0.274    0.348  101.230    8.902
  241.705    0.290    0.342  101.231    9.103
  242.009    0.283    0.311  105.589    9.305
  242.314    0.289    0.325  111.191    9.506
  242.619    0.299    0.333  109.325    9.912
  242.924    0.300    0.346  101.235   10.113
  243.229    0.286    0.352  104.971    9.909
  243.533    0.280    0.342  108.083    9.704
  243.838    0.284    0.322  106.839    9.499
  244.143    0.285    0.320  103.728    9.701
  244.448    0.285    0.322  108.086   10.106
  244.753    0.281    0.336  100.618   10.510
  245.057    0.252    0.358  104.353   10.509
  245.362    0.239    0.382  114.935   10.508
  245.667    0.288    0.393  113.069    9.897
  245.972    0.295    0.345  106.223    9.082
  246.277    0.290    0.326   97.511    9.284
  246.581    0.265    0.307   88.176   10.095
  246.886    0.131    0.182   80.708   10.704
  247.191    0.131    0.264   88.178   12.531
  247.496    0.290    0.309  108.717   12.530
  247.801    0.283    0.372  126.768   10.902
  248.105    0.279    0.382  134.860    9.682
  248.410    0.288    0.366  136.105    8.867
  248.715    0.296    0.363  117.435    8.663
  249.020    0.299    0.381  103.120    9.067
  249.325    0.294    0.386  110.590    9.269
  249.629    0.271    0.386  113.080    9.471
  249.934    0.259    0.392  112.459    9.063
  250.239    0.267    0.382  110.593    8.249
  250.544    0.296    0.382  108.104    7.638
  250.849    0.302    0.374  100.014    7.433
  251.153    0.301    0.371   95.658    7.635
  251.458    0.295    0.362  103.128    8.039
  251.763    0.293    0.360  104.996    8.648
  252.068    0.291    0.364  104.997    9.459
  252.372    0.290    0.364  103.753    9.254
  252.677    0.291    0.376  106.243    9.050
  252.982    0.293    0.387  106.867    8.235
  253.287    0.293    0.372  113.092    8.030
  253.592    0.293    0.367  116.827    8.029
  253.896    0.288    0.366  117.450    8.434
  254.201    0.263    0.358  115.584    8.636
  254.506    0.271    0.364  111.228    8.838
  254.811    0.271    0.379  109.984    8.836
  255.116    0.269    0.376  109.363    8.632
