~VERSION INFORMATION
 VERS.                 2.0:   CWLS LOG ASCII STANDARD -VERSION 2.0
 WRAP.                  NO:   ONE LINE PER DEPTH STEP
~WELL INFORMATION BLOCK
#MNEM.UNIT           DATA                    DESCRIPTION OF MNEMONIC
#---------    -------------------            -------------------------------
# Generated from Intellog Unique Number	CX_WELLS/WELL/4017
WELL.         HOMESTEAD LOCHIEL              : Well_name    - WELL
LOC .         00/10-05-079-04W4/0            : Location     - LOCATION
UWI .         00/10-05-079-04W4/0            : Uwi          - UNIQUE WELL ID
ENTR.         T                              : Entered      - ENTERED BY
SRVC.         SCHLUMBERGER                   : Scn          - SERVICE COMPANY
STRT.F        390                            : top_depth    - START DEPTH
STOP.F        1250.4                         : bot_depth    - STOP DEPTH
STEP.F        0.82                           : increment    - STEP LENGTH
 NULL. -999.2500:NULL Value
~CURVE INFORMATION BLOCK
#MNEM UNIT       ERCB CURVE CODE    CURVE DESCRIPTION
#-----------   ------------------   ----------------------------------
DEPT.F        00 001 00 00         : DEPTH        - DEPTH
GR  .API      00 310 00 00         : GR           - GAMMA RAY
NPHI.V/V      00 330 00 00         : PHIN         - NEUTRON POROSITY (SANDSTONE)
DPHI.V/V      00 890 00 00         : PHID         - DENSITY POROSITY (SANDSTONE)
ILD .OHMM     00 120 00 00         : RESD         - DEEP RESISTIVITY (DIL)
~PARAMETER INFORMATION
#MNEM.UNIT           DATA             DESCRIPTION OF MNEMONIC
#---------         -----------     ------------------------------
GL  .F        1695                 : gl           - GROUND LEVEL ELEVATION
EREF.F        1707                 : kb           - ELEVATION OF DEPTH REFERENCE
DATM.F        1707                 : datum        - DATUM ELEVATION
TDD .F        1290                 : tdd          - TOTAL DEPTH DRILLER
RUN .         ONE                  : Run          - RUN NUMBER
ENG .         BILL                 : Engineer     - RECORDING ENGINEER
WIT .         JIM                  : Witness      - WITNESSED BY
MUD .         GEL                  : Mud_type     - MUD TYPE
MATR.         SANDSTONE            : Logunit      - NEUTRON MATRIX
TMAX.F        69                   : BHT          - MAXIMUM RECORDED TEMPERATURE
BHTD.F        1290                 : BHTDEP       - MAXIMUM RECORDED TEMPERATURE
MATR.         1                    : LOGUNIT      - NEUTRON MATRIX
RMT .F        77                   : MDTP         - TEMPERATURE OF MUD
NEUT.         1                    : NEUTRON      - NEUTRON TYPE
RESI.         4.5                  : RESIST       - RESISTIVITY TYPE
RMC .OHMM     4.5                  : RMC          - RESISTIVITY OF MUD CAKE
RMF .OHMM     4.5                  : RMF          - RESISTIVITY OF MUD FILTRATE
SUFT.F        59                   : SUFT         - SURFACE TEMPERATURE
~A  DEPTH       GR     PHIN     PHID     RESD
# ...
 1103.580   26.452    0.370    0.333    2.026
 1104.400   25.865    0.365    0.337    2.027
 1105.220   25.888    0.360    0.339    2.029
 1106.040   25.927    0.357    0.332    2.108
 1106.860   25.958    0.357    0.309    2.149
 1107.680   26.600    0.358    0.308    2.276
 1108.500   27.234    0.362    0.311    2.410
 1109.320   29.113    0.367    0.316    2.459
 1110.140   31.587    0.375    0.322    2.460
 1110.960   34.061    0.381    0.320    2.461
 1111.780   36.527    0.387    0.321    2.464
 1112.600   40.833    0.388    0.321    2.421
 1113.430   43.306    0.391    0.322    2.423
 1114.250   43.337    0.394    0.323    2.425
 1115.070   43.979    0.396    0.323    2.428
 1115.890   45.858    0.394    0.323    2.429
 1116.710   44.057    0.390    0.325    2.431
 1117.530   40.432    0.383    0.325    2.389
 1118.350   38.624    0.382    0.313    2.392
 1119.170   36.815    0.383    0.304    2.349
 1119.990   33.182    0.383    0.308    2.307
 1120.810   32.000    0.383    0.315    2.267
 1121.630   33.245    0.383    0.325    2.227
 1122.450   35.718    0.381    0.326    2.188
 1123.270   39.429    0.379    0.317    2.189
 1124.090   40.666    0.376    0.310    2.151
 1124.910   42.529    0.373    0.307    2.153
 1125.730   43.789    0.368    0.305    2.196
 1126.550   45.042    0.365    0.304    2.239
 1127.370   45.692    0.368    0.302    2.284
 1128.190   45.723    0.368    0.302    2.329
 1129.010   45.136    0.365    0.300    2.420
 1129.830   42.732    0.363    0.294    2.515
 1130.650   39.710    0.358    0.277    2.663
 1131.470   38.520    0.346    0.256    2.765
 1132.290   39.161    0.327    0.265    2.873
 1133.110   40.414    0.327    0.288    2.823
 1133.930   42.277    0.338    0.302    2.773
 1134.750   42.316    0.349    0.324    2.724
 1135.570   42.332    0.357    0.328    2.628
 1136.390   39.309    0.366    0.323    2.580
 1137.210   35.074    0.363    0.300    2.535
 1138.030   35.723    0.352    0.298    2.490
 1138.850   37.587    0.350    0.312    2.446
 1139.670   38.831    0.364    0.324    2.403
 1140.490   41.313    0.375    0.300    2.361
 1141.310   43.176    0.381    0.295    2.320
 1142.130   40.162    0.371    0.305    2.322
 1142.950   38.956    0.369    0.311    2.324
 1143.770   35.949    0.363    0.314    2.326
 1144.590   35.965    0.361    0.307    2.329
 1145.410   36.614    0.358    0.301    2.330
 1146.230   36.646    0.356    0.301    2.332
 1147.050   36.066    0.355    0.303    2.291
 1147.870   35.487    0.356    0.301    2.293
 1148.690   34.297    0.362    0.300    2.252
 1149.510   33.709    0.372    0.304    2.254
 1150.330   32.527    0.373    0.305    2.257
 1151.150   31.337    0.372    0.303    2.260
 1151.980   30.765    0.368    0.300    2.262
 1152.800   30.796    0.366    0.300    2.264
 1153.620   31.430    0.362    0.300    2.266
 1154.440   30.859    0.362    0.298    2.267
 1155.260   30.271    0.364    0.298    2.270
 1156.080   27.868    0.365    0.299    2.272
 1156.900   25.456    0.365    0.306    2.273
 1157.720   24.877    0.366    0.319    2.275
 1158.540   24.297    0.368    0.325    2.278
 1159.360   23.107    0.369    0.326    2.280
 1160.180   21.924    0.369    0.326    2.282
 1161.000   21.940    0.367    0.323    2.242
 1161.820   22.582    0.367    0.317    2.202
 1162.640   25.079    0.362    0.312    2.205
 1163.460   26.935    0.359    0.302    2.206
 1164.280   28.179    0.363    0.292    2.209
 1165.100   31.279    0.367    0.297    2.211
 1165.920   32.516    0.371    0.305    2.213
 1166.740   33.777    0.374    0.313    2.214
 1167.560   33.800    0.376    0.325    2.175
 1168.380   33.831    0.380    0.334    2.177
 1169.200   33.870    0.381    0.338    2.221
 1170.020   34.512    0.382    0.334    2.182
 1170.840   35.780    0.382    0.333    2.184
 1171.660   37.033    0.382    0.333    2.186
 1172.480   38.277    0.381    0.330    2.228
 1173.300   41.370    0.380    0.320    2.316
 1174.120   41.996    0.366    0.305    2.545
 1174.940   45.088    0.358    0.226    3.071
 1175.760   47.554    0.347    0.179    3.636
 1176.580   62.249    0.352    0.143    4.641
 1177.400   83.654    0.356    0.135    5.394
 1178.220   89.792    0.356    0.145    6.271
 1179.040   92.266    0.356    0.167    7.157
 1179.860   86.190    0.343    0.185    7.296
 1180.680   79.504    0.331    0.199    7.442
 1181.500   73.428    0.333    0.193    7.041
 1182.320   69.185    0.333    0.174    6.664
 1183.140   66.773    0.330    0.164    6.670
 1183.960   66.805    0.327    0.155    6.932
 1184.780   67.454    0.323    0.154    6.935
 1185.600   70.554    0.318    0.156    7.073
 1186.420   71.791    0.323    0.159    7.079
 1187.240   76.105    0.368    0.161    6.578
 1188.060   79.181    0.390    0.162    6.460
 1188.880   82.877    0.394    0.163    6.115
 1189.700  100.641    0.405    0.168    6.006
 1190.520  104.320    0.429    0.175    5.900
 1191.350  117.175    0.434    0.184    5.690
 1192.170  122.703    0.431    0.181    5.588
 1192.990  125.810    0.423    0.169    5.388
 1193.810  125.826    0.420    0.175    5.197
 1194.630  127.102    0.426    0.185    5.009
 1195.450  127.118    0.452    0.192    4.921
 1196.270  126.538    0.460    0.197    4.745
 1197.090  125.966    0.469    0.200    4.661
 1197.910  125.982    0.479    0.202    4.666
 1198.730  126.013    0.486    0.202    4.671
 1199.550  124.823    0.477    0.200    4.674
 1200.370  121.801    0.456    0.199    4.857
 1201.190  118.794    0.451    0.199    5.048
 1202.010  117.588    0.440    0.196    5.245
 1202.830  117.017    0.441    0.192    5.553
 1203.650  117.040    0.448    0.185    5.767
 1204.470  118.919    0.453    0.133    5.992
 1205.290  120.171    0.460    0.098    6.111
 1206.110  118.981    0.464    0.036    6.117
 1206.930  116.570    0.458    0.020    6.009
 1207.750  113.548    0.453    0.007    5.903
 1208.570  110.518    0.448    0.122    5.691
 1209.390  105.663    0.441    0.136    5.489
 1210.210  102.031    0.449    0.178    5.195
 1211.030  104.504    0.470    0.193    5.102
 1211.850  118.581    0.489    0.205    4.920
 1212.670  125.337    0.501    0.230    4.833
 1213.490  127.200    0.525    0.251    4.749
 1214.310  128.469    0.534    0.278    4.753
 1215.130  128.484    0.547    0.318    4.758
 1215.950  127.905    0.563    0.347    4.850
 1216.770  126.104    0.583    0.363    5.040
 1217.590  123.082    0.579    0.312    5.237
 1218.410  120.670    0.489    0.236    5.442
 1219.230  120.701    0.416    0.203    6.208
 1220.050  121.359    0.402    0.181    6.824
 1220.870  121.993    0.391    0.167    6.829
 1221.690  122.635    0.394    0.156    6.584
 1222.510  123.276    0.399    0.159    6.231
 1223.330  123.308    0.406    0.185    5.577
 1224.150  118.446    0.425    0.191    5.275
 1224.970  111.149    0.430    0.197    4.812
 1225.790  106.905    0.436    0.204    4.638
 1226.610  102.051    0.421    0.212    4.557
 1227.430  103.319    0.408    0.218    4.734
 1228.250  106.388    0.462    0.211    5.202
 1229.070  113.763    0.497    0.172    5.716
 1229.900  111.962    0.503    0.133    7.572
 1230.720  111.375    0.474    0.070   10.418
 1231.540  107.750    0.417    0.020    9.679
 1232.360  104.728    0.401   -0.008    9.157
 1233.180  101.705    0.422   -0.009    8.829
 1234.000   99.286    0.423    0.007    8.511
 1234.820  105.424    0.430    0.036    8.519
 1235.640  114.615    0.437    0.029    9.362
 1236.460  107.929    0.431    0.020   10.680
 1237.280   95.755    0.417    0.026   15.250
 1238.100   90.893    0.357    0.029   19.462
 1238.920   83.596    0.294    0.029   26.270
 1239.740   50.032    0.158    0.030   32.296
 1240.560   32.354    0.151    0.026   36.161
 1241.380   29.340    0.146    0.021   41.262
 1242.200   28.753    0.138    0.019   43.681
 1243.020   28.791    0.126    0.016   45.386
 1243.840   29.433    0.119    0.013   47.157
 1244.660   29.457    0.116    0.008   48.090
 1245.480   30.725    0.115    0.002   49.053
