~VERSION INFORMATION
 VERS.                 2.0:   CWLS LOG ASCII STANDARD -VERSION 2.0
 WRAP.                  NO:   ONE LINE PER DEPTH STEP
~WELL INFORMATION BLOCK
#MNEM.UNIT           DATA                    DESCRIPTION OF MNEMONIC
#---------    -------------------            -------------------------------
# Generated from Intellog Unique Number	CC_80_83/WELL/2439
NULL.         -999.25                        : NULL_VALUE
WELL.         CWWE CORNER                    : Well_name    - WELL
LOC .         15-10-080-10W4                 : Location     - LOCATION          
UWI .         00/15-10-080-10W400            : Uwi          - UNIQUE WELL ID    
ENTR.         DW                             : Entered      - ENTERED BY        
SRVC.         SCHLUMBERGER                   : Scn          - SERVICE COMPANY   
DATE.         15 JAN 85                      : Date         - LOG DATE
STRT.M        260                            : top_depth    - START DEPTH       
STOP.M        494.89                         : bot_depth    - STOP DEPTH        
STEP.M        0.3                            : increment    - STEP LENGTH       
~CURVE INFORMATION BLOCK
#MNEM UNIT       ERCB CURVE CODE    CURVE DESCRIPTION
#-----------   ------------------   ----------------------------------
DEPT.M        00 001 00 00         : DEPTH        - DEPTH                       
DPHI.V/V      00 890 00 00         : PHID         - DENSITY POROSITY (LIMESTONE)
NPHI.V/V      00 330 00 00         : PHIN         - NEUTRON POROSITY (LIMESTONE)
GR  .API      00 310 00 00         : GR           - GAMMA RAY                   
ILD .OHMM     00 120 00 00         : RESD         - DEEP RESISTIVITY (DIL)      
~PARAMETER INFORMATION       
#MNEM.UNIT           DATA             DESCRIPTION OF MNEMONIC
#---------         -----------     ------------------------------
GL  .M        696                  : gl           - GROUND LEVEL ELEVATION      
EREF.M        699.2                : kb           - ELEVATION OF DEPTH REFERENCE
DATM.M        699.2                : datum        - DATUM ELEVATION             
TDD .M        504                  : tdd          - TOTAL DEPTH DRILLER         
RUN .         ONE                  : Run          - RUN NUMBER                  
ENG .         BILL                 : Engineer     - RECORDING ENGINEER          
WIT .         JIM                  : Witness      - WITNESSED BY                
MUD .         GEL                  : Mud_type     - MUD TYPE                    
MATR.         LIMESTONE            : Logunit      - NEUTRON MATRIX              
TMAX.C        22                   : BHT          - MAXIMUM RECORDED TEMPERATURE
BHTD.M        502                  : BHTDEP       - MAXIMUM RECORDED TEMPERATURE
MATR.         1                    : LOGUNIT      - NEUTRON MATRIX              
RMT .C        25                   : MDTP         - TEMPERATURE OF MUD          
NEUT.         1                    : NEUTRON      - NEUTRON TYPE                
RESI.         0                    : RESIST       - RESISTIVITY TYPE            
RMC .OHMM     0.25                 : RMC          - RESISTIVITY OF MUD CAKE     
RMF .OHMM     0.25                 : RMF          - RESISTIVITY OF MUD FILTRATE 
SUFT.C        15                   : SUFT         - SURFACE TEMPERATURE         
~A  DEPTH     PHID     PHIN       GR     RESD
  260.000    0.317    0.538   96.284    2.913
  260.300    0.327    0.542   98.135    2.801
  260.600    0.336    0.522  101.837    2.693
  260.900    0.344    0.502  104.305    2.641
  261.200    0.342    0.523   96.897    2.691
  261.500    0.334    0.568   95.045    2.797
  261.800    0.331    0.543   93.192    2.851
  262.100    0.334    0.517   89.488    2.795
  262.400    0.341    0.540   91.339    2.688
  262.700    0.360    0.579   93.190    2.584
  263.000    0.362    0.580   97.509    2.583
  263.300    0.345    0.544   92.570    2.532
  263.600    0.339    0.553   87.015    2.581
  263.900    0.334    0.544   87.631    2.631
  264.200    0.329    0.524   95.654    2.734
  264.500    0.326    0.496   96.887    2.787
  264.800    0.326    0.518   98.738    2.786
  265.100    0.334    0.571   91.948    2.785
  265.400    0.331    0.545   94.415    2.730
  265.700    0.316    0.542   90.711    2.729
  266.000    0.300    0.589   91.327    2.837
  266.300    0.290    0.578   92.561    3.125
  266.600    0.279    0.530   95.029    3.579
  266.900    0.269    0.499   96.880    3.649
  267.200    0.250    0.486   96.879    3.577
  267.500    0.162    0.519   86.385    3.576
  267.800    0.024    0.574   77.743    3.716
  268.100    0.056    0.468   66.016    3.862
  268.400    0.248    0.483   74.656    4.093
  268.700    0.260    0.491   95.022    4.171
  269.000    0.252    0.487   96.873    4.252
  269.300    0.242    0.498   97.489    4.250
  269.600    0.239    0.514   90.082    4.249
  269.900    0.247    0.514   92.550    4.165
  270.200    0.252    0.503   98.103    4.084
  270.500    0.257    0.523  100.572    4.003
  270.800    0.257    0.549  101.188    4.002
  271.100    0.270    0.534   95.632    3.924
  271.400    0.279    0.519   93.779    3.846
  271.700    0.272    0.530   96.247    3.845
  272.000    0.249    0.497   87.606    3.844
  272.299    0.262    0.483   85.753    3.995
  272.599    0.264    0.476   93.159    4.317
  272.899    0.253    0.528   98.713    4.315
  273.199    0.248    0.547   90.071    4.313
  273.499    0.235    0.498   79.577    4.396
  273.799    0.131    0.474   70.935    4.482
  274.099    0.187    0.407   62.294    5.441
  274.399    0.248    0.416   67.230   10.133
  274.699    0.355    0.430   62.909   16.152
  274.999    0.360    0.433   48.712   17.795
  275.299    0.319    0.421   45.625   16.780
  275.599    0.296    0.395   56.117   15.221
  275.899    0.267    0.392   75.249   12.527
  276.199    0.254    0.426   83.272    9.354
  276.499    0.248    0.456   85.740    7.850
  276.799    0.260    0.443   82.036    6.461
  277.099    0.278    0.414   78.332    7.693
  277.399    0.314    0.436   74.627   10.295
  277.699    0.367    0.438   65.368   14.889
  277.999    0.417    0.448   64.133   16.405
  278.299    0.608    0.563   92.523   17.049
  278.599    0.618    0.640   97.460   17.375
  278.899    0.567    0.626   79.560   18.057
  279.199    0.507    0.588   55.488   18.408
  279.499    0.344    0.497   45.612   18.762
  279.799    0.279    0.372   49.314   18.040
  280.099    0.273    0.395   68.447   15.434
  280.399    0.277    0.390   75.852   14.274
  280.699    0.270    0.375   70.913   13.726
  280.999    0.278    0.385   67.209   13.456
  281.299    0.262    0.372   65.357   13.193
  281.599    0.252    0.368   67.208   13.711
  281.899    0.251    0.409   64.120   14.815
  282.199    0.120    0.368   57.330   17.642
  282.499    0.152    0.265   53.009   22.268
  282.799    0.272    0.376   46.836   25.014
  283.099    0.333    0.396   40.663   27.557
  283.399    0.283    0.363   33.255   29.205
  283.699    0.277    0.353   36.340   31.550
  283.999    0.307    0.369   37.574   32.162
  284.299    0.339    0.371   32.635   33.425
  284.599    0.333    0.371   29.548   33.413
  284.899    0.309    0.364   38.806   30.900
  285.199    0.300    0.360   52.383   29.143
  285.499    0.300    0.376   61.023   23.983
  285.799    0.297    0.361   57.936   20.923
  286.099    0.279    0.356   65.342   20.516
  286.399    0.268    0.364   64.106   19.345
  286.699    0.293    0.392   60.402   20.104
  286.999    0.317    0.406   51.760   21.304
  287.299    0.330    0.415   43.118   23.469
  287.599    0.328    0.395   51.141   25.357
  287.899    0.313    0.394   57.312   25.850
  288.199    0.312    0.378   49.288   27.392
  288.499    0.324    0.353   44.349   27.379
  288.799    0.341    0.349   52.989   27.373
  289.099    0.340    0.406   90.638   25.812
  289.399    0.335    0.439   83.847   24.339
  289.699    0.327    0.446   86.315   22.509
  289.999    0.313    0.441   97.424   21.646
  290.299    0.303    0.431  102.361   20.409
  290.599    0.292    0.432  104.212   18.876
  290.899    0.278    0.452  103.593   18.152
  291.199    0.267    0.455   94.951   17.796
  291.499    0.267    0.365   86.310   18.139
  291.799    0.256    0.348   86.309   18.132
  292.099    0.251    0.388  100.504   18.481
  292.399    0.273    0.411   99.268   19.204
  292.699    0.300    0.411   84.454   19.199
  292.999    0.302    0.400   80.133   19.571
  293.299    0.292    0.393   73.343   19.186
  293.599    0.273    0.390   72.108   15.791
  293.899    0.198    0.395   96.795   11.124
  294.199    0.210    0.426  111.607    7.990
  294.499    0.237    0.486  114.692    6.576
  294.799    0.216    0.493  110.988    5.205
  295.099    0.226    0.501  116.542    5.006
  295.399    0.249    0.516  123.947    4.540
  295.699    0.242    0.538  126.415    4.281
  295.999    0.231    0.523  120.859    3.735
  296.299    0.256    0.530  110.983    3.662
  296.599    0.279    0.525  118.388    3.521
  296.898    0.286    0.530  120.856    3.955
  297.198    0.304    0.527  109.746    4.803
  297.498    0.347    0.461   93.697    6.813
  297.798    0.317    0.437   85.672   13.190
  298.098    0.291    0.435   84.437   16.975
  298.398    0.284    0.414   88.140   17.642
  298.698    0.287    0.418   90.608   17.982
  298.998    0.309    0.426   89.372   17.977
  299.298    0.337    0.434   85.051   17.623
  299.598    0.349    0.429   79.495   16.298
  299.898    0.318    0.414   75.791   14.220
  300.198    0.269    0.389   77.642   11.256
  300.498    0.250    0.393   88.133    8.572
  300.798    0.200    0.416  104.797    6.919
  301.098    0.133    0.449  110.968    6.399
  301.398    0.073    0.490  103.560    6.521
  301.698    0.131    0.460  108.497    7.185
  301.998    0.235    0.423  116.520    8.724
  302.298    0.266    0.436  114.050   11.228
  302.598    0.272    0.408  108.494   13.901
  302.898    0.291    0.426  100.470   15.316
  303.198    0.333    0.434   89.976   15.916
  303.498    0.330    0.408   85.038   15.305
  303.798    0.304    0.393   86.888   13.614
  304.098    0.248    0.406   99.232   11.649
  304.398    0.225    0.438  115.278   10.565
  304.698    0.255    0.449  107.253   10.563
  304.998    0.263    0.429   86.885   11.864
  305.298    0.267    0.389   81.946   12.572
  305.598    0.257    0.378   88.734   12.325
  305.898    0.238    0.390   98.609   11.853
  306.198    0.232    0.410  102.311   10.751
  306.498    0.240    0.428   99.224   10.137
  306.798    0.286    0.436   80.090   12.796
  307.098    0.297    0.439   70.831   16.793
  307.398    0.299    0.446   77.619   18.144
  307.698    0.318    0.451   78.852   19.226
  307.998    0.326    0.454   77.617   19.223
  308.298    0.318    0.472   77.616   18.126
  308.598    0.318    0.481   83.787   16.762
  308.898    0.324    0.479   88.724   15.809
  309.198    0.338    0.466   81.934   14.907
  309.498    0.321    0.457   79.464   13.521
  309.798    0.293    0.453   87.487   12.265
  310.098    0.280    0.451   99.213    9.900
  310.398    0.275    0.450  100.446    9.156
  310.698    0.281    0.444   95.507    9.332
  310.998    0.216    0.419   82.545   10.279
  311.298    0.180    0.392   81.310   10.684
  311.598    0.222    0.389   86.864   11.105
  311.898    0.260    0.438   91.800   10.885
