~VERSION INFORMATION
 VERS.                 2.0:   CWLS LOG ASCII STANDARD -VERSION 2.0
 WRAP.                  NO:   ONE LINE PER DEPTH STEP
~WELL INFORMATION BLOCK
#MNEM.UNIT           DATA                    DESCRIPTION OF MNEMONIC
#---------    -------------------            -------------------------------
# Generated from Intellog Unique Number	CS_73_76/WELL/3253
WELL.         HOME LIESMER                   : Well_name    - WELL
LOC .         00/10-34-075-07W4/0            : Location     - LOCATION
UWI .         00/10-34-075-07W4/0            : Uwi          - UNIQUE WELL ID
ENTR.         SP                             : Entered      - ENTERED BY
SRVC.         SCHLUMBERGER                   : Scn          - SERVICE COMPANY
STRT.M        222.504                        : top_depth    - START DEPTH
STOP.M        438.754                        : bot_depth    - STOP DEPTH
STEP.M        0.25                           : increment    - STEP LENGTH
 NULL. -999.2500:NULL Value
~CURVE INFORMATION BLOCK
#MNEM UNIT       ERCB CURVE CODE    CURVE DESCRIPTION
#-----------   ------------------   ----------------------------------
DEPT.M        00 001 00 00         : DEPTH        - DEPTH
GR  .API      00 310 00 00         : GR           - GAMMA RAY
DPHI.V/V      00 890 00 00         : PHID         - DENSITY POROSITY (SANDSTONE)
NPHI.V/V      00 330 00 00         : PHIN         - NEUTRON POROSITY (SANDSTONE)
ILD .OHMM     00 120 00 00         : RESD         - DEEP RESISTIVITY (DIL)
~PARAMETER INFORMATION
#MNEM.UNIT           DATA             DESCRIPTION OF MNEMONIC
#---------         -----------     ------------------------------
GL  .M        624.764              : gl           - GROUND LEVEL ELEVATION
EREF.M        628.025              : kb           - ELEVATION OF DEPTH REFERENCE
DATM.M        624.764              : datum        - DATUM ELEVATION
TDD .M        518.16               : tdd          - TOTAL DEPTH DRILLER
RUN .         ONE                  : Run          - RUN NUMBER
ENG .         BILL                 : Engineer     - RECORDING ENGINEER
WIT .         JIM                  : Witness      - WITNESSED BY
MUD .         GEL                  : Mud_type     - MUD TYPE
MATR.         SANDSTONE            : Logunit      - NEUTRON MATRIX
TMAX.C        20.5556              : BHT          - MAXIMUM RECORDED TEMPERATURE
BHTD.M        518.16               : BHTDEP       - MAXIMUM RECORDED TEMPERATURE
MATR.         1                    : LOGUNIT      - NEUTRON MATRIX
RMT .C        25                   : MDTP         - TEMPERATURE OF MUD
NEUT.         1                    : NEUTRON      - NEUTRON TYPE
RESI.         0                    : RESIST       - RESISTIVITY TYPE
RMC .OHMM     0.25                 : RMC          - RESISTIVITY OF MUD CAKE
RMF .OHMM     0.25                 : RMF          - RESISTIVITY OF MUD FILTRATE
SUFT.C        15                   : SUFT         - SURFACE TEMPERATURE
~A  DEPTH       GR     PHID     PHIN     RESD
# ...
  309.504   76.680    0.257    0.476    8.652
  309.754   79.040    0.256    0.469    9.326
  310.004   79.955    0.259    0.464    8.466
  310.254   81.401    0.217    0.461    6.913
  310.504   83.922    0.215    0.467    6.020
  310.754   87.189    0.226    0.478    5.366
  311.004   91.683    0.209    0.490    4.636
  311.254   94.118    0.217    0.479    4.314
  311.504   94.942    0.217    0.467    3.999
  311.754   94.328    0.200    0.487    3.873
  312.004   94.590    0.218    0.516    3.863
  312.254   96.074    0.231    0.529    3.981
  312.504   95.396    0.230    0.521    4.226
  312.754   90.953    0.201    0.529    4.489
  313.004   87.924    0.225    0.525    4.750
  313.254   87.187    0.256    0.502    5.223
  313.504   86.547    0.247    0.484    5.593
  313.754   86.663    0.211    0.468    5.853
  314.004   85.940    0.193    0.453    5.998
  314.254   86.015    0.204    0.437    5.987
  314.504   86.025    0.212    0.428    5.717
  314.754   86.037    0.216    0.436    5.636
  315.004   86.046    0.197    0.433    5.551
  315.254   86.051    0.232    0.437    5.590
  315.504   86.026    0.219    0.437    5.895
  315.754   87.093    0.217    0.448    6.160
  316.004   89.376    0.206    0.465    6.450
  316.254   91.618    0.171    0.491    6.429
  316.504   93.041    0.201    0.516    6.426
  316.754   93.322    0.213    0.505    6.423
  317.004   91.567    0.191    0.483    6.420
  317.254   93.049    0.188    0.484    6.511
  317.504   94.241    0.204    0.479    6.577
  317.754   94.020    0.216    0.465    6.654
  318.004   91.991    0.226    0.455    6.916
  318.254   90.751    0.201    0.448    7.070
  318.504   88.741    0.205    0.462    7.289
  318.754   89.229    0.220    0.464    7.365
  319.004   91.917    0.207    0.469    7.423
  319.254   94.522    0.186    0.481    7.433
  319.504   95.577    0.178    0.475    7.213
  319.754   95.822    0.187    0.465    6.983
  320.004   96.167    0.205    0.450    6.537
  320.254   97.346    0.184    0.466    6.167
  320.504   97.716    0.167    0.478    5.925
  320.754   96.097    0.173    0.478    5.451
  321.004   95.168    0.196    0.476    5.273
  321.254   94.176    0.205    0.486    5.107
  321.504   94.182    0.196    0.495    5.050
  321.754   94.174    0.184    0.494    5.015
  322.004   94.245    0.202    0.489    4.920
  322.254   92.228    0.230    0.506    4.837
  322.504   92.566    0.249    0.516    4.533
  322.754   94.619    0.241    0.502    3.990
  323.004   95.699    0.199    0.535    3.630
  323.254   96.718    0.202    0.581    3.128
  323.504   96.083    0.226    0.584    2.719
  323.754   92.829    0.241    0.555    2.530
  324.004   90.073    0.232    0.524    2.376
  324.254   89.026    0.218    0.512    2.321
  324.504   88.748    0.210    0.527    2.442
  324.754   88.280    0.198    0.538    2.597
  325.004   88.418    0.228    0.549    2.742
  325.254   87.994    0.246    0.555    3.164
  325.504   91.192    0.263    0.519    3.350
  325.754   93.209    0.245    0.488    3.767
  326.004   92.881    0.224    0.474    4.150
  326.254   86.679    0.227    0.462    4.559
  326.504   83.476    0.245    0.449    5.034
  326.754   79.827    0.254    0.441    5.461
  327.004   77.921    0.267    0.449    5.902
  327.254   80.216    0.250    0.452    6.374
  327.504   82.985    0.253    0.463    6.668
  327.754   78.385    0.252    0.467    7.016
  328.004   72.102    0.262    0.457    7.228
  328.254   63.025    0.273    0.443    7.324
  328.504   58.250    0.282    0.442    7.310
  328.754   55.160    0.288    0.434    7.481
  329.004   54.724    0.277    0.424    7.598
  329.254   54.588    0.280    0.415    7.649
  329.504   52.876    0.287    0.419    7.724
  329.754   52.344    0.294    0.431    7.723
  330.004   52.376    0.286    0.437    7.720
  330.254   52.386    0.280    0.424    7.718
  330.504   52.389    0.272    0.413    7.699
  330.754   52.334    0.276    0.415    7.871
  331.004   53.565    0.284    0.418    7.853
  331.254   53.901    0.287    0.423    7.850
  331.504   54.977    0.292    0.426    7.847
  331.754   55.926    0.295    0.425    7.844
  332.004   57.502    0.297    0.419    7.842
  332.254   55.980    0.299    0.422    7.842
  332.504   54.974    0.299    0.425    7.717
  332.754   56.015    0.299    0.432    7.634
  333.004   57.357    0.297    0.443    7.540
  333.254   57.978    0.297    0.431    7.407
  333.504   57.968    0.296    0.417    7.257
  333.754   57.955    0.294    0.407    7.129
  334.004   58.648    0.290    0.401    7.127
  334.254   58.719    0.285    0.396    7.121
  334.504   59.225    0.277    0.412    7.118
  334.754   59.523    0.275    0.424    7.115
  335.004   59.745    0.272    0.425    7.113
  335.254   58.808    0.282    0.421    7.109
  335.504   57.281    0.290    0.416    7.106
  335.754   58.105    0.288    0.419    7.103
  336.004   59.153    0.279    0.425    7.203
  336.254   59.281    0.281    0.408    7.230
  336.504   59.295    0.290    0.407    7.231
  336.754   60.235    0.281    0.414    7.470
  337.004   61.926    0.282    0.408    7.532
  337.254   63.467    0.288    0.411    7.635
  337.504   64.478    0.275    0.424    7.964
  337.754   65.471    0.264    0.421    8.087
  338.004   67.031    0.266    0.411    8.216
  338.254   68.084    0.278    0.441    8.135
  338.504   69.100    0.289    0.440    8.048
  338.754   70.142    0.287    0.443    7.788
  339.004   70.195    0.278    0.458    7.502
  339.254   70.198    0.288    0.467    7.193
  339.504   67.610    0.294    0.460    7.425
  339.754   66.097    0.286    0.462    7.176
  340.004   67.272    0.278    0.467    6.933
  340.254   66.885    0.281    0.468    6.865
  340.504   66.583    0.290    0.458    6.657
  340.754   66.095    0.299    0.453    6.780
  341.004   66.110    0.297    0.446    7.000
  341.254   66.112    0.294    0.437    7.062
  341.504   66.604    0.290    0.438    7.176
  341.754   67.363    0.286    0.457    7.111
  342.004   68.049    0.282    0.473    7.032
  342.254   68.554    0.276    0.450    6.795
  342.504   69.293    0.272    0.441    6.724
  342.754   69.224    0.264    0.447    6.642
  343.004   70.467    0.268    0.440    6.147
  343.254   71.275    0.273    0.442    6.048
  343.504   71.649    0.259    0.437    5.941
  343.754   71.031    0.248    0.420    6.040
  344.004   68.871    0.255    0.402    6.309
  344.254   64.188    0.283    0.402    6.602
  344.504   62.358    0.292    0.415    6.827
  344.754   61.419    0.289    0.424    6.890
  345.004   61.974    0.287    0.436    7.011
  345.254   62.065    0.284    0.426    7.003
  345.504   62.081    0.283    0.413    7.000
  345.754   61.047    0.290    0.420    6.916
  346.004   61.134    0.302    0.421    6.739
  346.254   61.527    0.302    0.427    6.614
  346.504   62.217    0.294    0.437    6.533
  346.754   62.299    0.294    0.441    6.481
  347.004   62.787    0.290    0.444    6.599
  347.254   62.950    0.282    0.436    6.740
  347.504   60.704    0.273    0.420    6.868
  347.754   58.395    0.256    0.399    7.455
  348.004   55.020    0.206    0.378    8.105
  348.254   51.740    0.096    0.351    9.488
  348.504   49.258    0.010    0.311   11.202
  348.754   48.592    0.001    0.129   13.709
  349.004   49.017   -0.000    0.126   16.087
  349.254   51.011    0.001    0.149   16.905
  349.504   53.983    0.025    0.179   12.468
  349.754   57.377    0.169    0.249   10.157
  350.004   60.081    0.219    0.338    8.802
  350.254   61.135    0.254    0.400    7.822
  350.504   61.156    0.275    0.436    7.382
  350.754   60.475    0.290    0.440    6.992
  351.004   60.551    0.279    0.423    6.775
  351.254   60.099    0.286    0.429    6.554
  351.504   59.149    0.292    0.420    6.597
  351.754   57.477    0.258    0.411    6.964
  352.004   55.071    0.224    0.399    7.766
  352.254   52.991    0.097    0.384    9.153
  352.504   50.376   -0.000    0.326   10.805
  352.754   47.687   -0.001    0.098   12.899
