~VERSION INFORMATION
 VERS.                 2.0:   CWLS LOG ASCII STANDARD -VERSION 2.0
 WRAP.                  NO:   ONE LINE PER DEPTH STEP
~WELL INFORMATION BLOCK
#MNEM.UNIT           DATA                    DESCRIPTION OF MNEMONIC
#---------    -------------------            -------------------------------
# Generated from Intellog Unique Number	CX_WELLS/WELL/2324
WELL.         11-36-088-18W4                 : Well_name    - WELL
LOC .         00/11-36-088-18W4/0            : Location     - LOCATION
UWI .         00/11-36-088-18W400            : Uwi          - UNIQUE WELL ID
ENTR.         DW                             : Entered      - ENTERED BY
SRVC.         SCHLUMBERGER                   : Scn          - SERVICE COMPANY
STRT.M        77                             : top_depth    - START DEPTH
STOP.M        197                            : bot_depth    - STOP DEPTH
STEP.M        0.25                           : increment    - STEP LENGTH
 NULL. -999.2500:NULL Value
~CURVE INFORMATION BLOCK
#MNEM UNIT       ERCB CURVE CODE    CURVE DESCRIPTION
#-----------   ------------------   ----------------------------------
DEPT.M        00 001 00 00         : DEPTH        - DEPTH
GR  .API      00 310 00 00         : GR           - GAMMA RAY
NPHI.V/V      00 330 00 00         : PHIN         - NEUTRON POROSITY (SANDSTONE)
DPHI.V/V      00 890 00 00         : PHID         - DENSITY POROSITY (SANDSTONE)
ILD .OHMM     00 120 00 00         : RESD         - DEEP RESISTIVITY (DIL)
~PARAMETER INFORMATION
#MNEM.UNIT           DATA             DESCRIPTION OF MNEMONIC
#---------         -----------     ------------------------------
GL  .M        484.3                : gl           - GROUND LEVEL ELEVATION
EREF.M        487.2                : kb           - ELEVATION OF DEPTH REFERENCE
DATM.M        487.2                : datum        - DATUM ELEVATION
TDD .M        196                  : tdd          - TOTAL DEPTH DRILLER
RUN .         ONE                  : Run          - RUN NUMBER
ENG .         BILL                 : Engineer     - RECORDING ENGINEER
WIT .         JIM                  : Witness      - WITNESSED BY
MUD .         GEL                  : Mud_type     - MUD TYPE
MATR.         SANDSTONE            : Logunit      - NEUTRON MATRIX
TMAX.C        25                   : BHT          - MAXIMUM RECORDED TEMPERATURE
BHTD.M        197                  : BHTDEP       - MAXIMUM RECORDED TEMPERATURE
MATR.         1                    : LOGUNIT      - NEUTRON MATRIX
RMT .C        25                   : MDTP         - TEMPERATURE OF MUD
NEUT.         1                    : NEUTRON      - NEUTRON TYPE
RESI.         0                    : RESIST       - RESISTIVITY TYPE
RMC .OHMM     0.25                 : RMC          - RESISTIVITY OF MUD CAKE
RMF .OHMM     0.25                 : RMF          - RESISTIVITY OF MUD FILTRATE
SUFT.C        15                   : SUFT         - SURFACE TEMPERATURE
~A  DEPTH       GR     PHIN     PHID     RESD
# ...
  164.000  110.461    0.449    0.203    9.594
  164.250  109.922    0.446    0.211    8.944
  164.500  108.776    0.441    0.208    8.652
  164.750  107.022    0.437    0.201    8.507
  165.000  105.875    0.444    0.191    8.383
  165.250  105.336    0.451    0.180    8.402
  165.500  107.227    0.446    0.176    8.428
  165.750  110.332    0.432    0.183    8.625
  166.000  114.686    0.431    0.196    8.799
  166.250  114.147    0.439    0.201    9.343
  166.500  109.322    0.446    0.205    9.539
  166.750  103.316    0.443    0.206    9.929
  167.000   96.702    0.431    0.203   10.923
  167.250   91.304    0.411    0.198   12.939
  167.500   85.905    0.406    0.175   17.456
  167.750   82.329    0.399    0.147   18.183
  168.000   87.864    0.326    0.103   16.939
  168.250   92.792    0.313    0.044   15.768
  168.500   98.327    0.388    0.076   14.156
  168.750   99.037    0.413    0.149   13.454
  169.000   97.873    0.421    0.180   13.475
  169.250   97.941    0.421    0.196   13.268
  169.500  100.439    0.415    0.201   13.557
  169.750  101.757    0.416    0.198   13.863
  170.000   99.378    0.421    0.195   14.154
  170.250   97.624    0.425    0.195   14.743
  170.500   97.068    0.423    0.195   15.333
  170.750   94.099    0.415    0.179   16.256
  171.000   92.969    0.379    0.108   17.912
  171.250   93.628    0.316    0.082   18.629
  171.500   94.304    0.346    0.111   17.354
  171.750   94.980    0.370    0.181   15.871
  172.000   95.065    0.387    0.193   14.504
  172.250   95.133    0.412    0.198   13.763
  172.500   95.201    0.421    0.200   13.061
  172.750   91.608    0.419    0.200   12.167
  173.000   85.602    0.409    0.202   11.127
  173.250   80.811    0.423    0.207   10.559
  173.500   74.180    0.437    0.212   12.508
  173.750   65.137    0.444    0.221   15.673
  174.000   49.395    0.439    0.238   23.192
  174.250   34.277    0.428    0.257   30.694
  174.500   28.288    0.417    0.285   45.420
  174.750   27.749    0.411    0.301   67.210
  175.000   27.817    0.407    0.305  111.117
  175.250   29.117    0.404    0.306  149.914
  175.500   29.151    0.401    0.304  153.177
  175.750   29.827    0.398    0.299  153.645
  176.000   29.895    0.399    0.299  148.636
  176.250   29.964    0.404    0.299  141.050
  176.500   30.032    0.407    0.295  136.243
  176.750   30.725    0.404    0.291  134.362
  177.000   31.401    0.400    0.293  134.567
  177.250   32.076    0.396    0.296  134.978
  177.500   33.967    0.392    0.300  135.391
  177.750   34.643    0.392    0.304  133.318
  178.000   37.748    0.399    0.301  131.277
  178.250   42.086    0.408    0.296  122.389
  178.500   42.744    0.415    0.289  114.016
  178.750   43.437    0.423    0.291  102.283
  179.000   44.096    0.436    0.308   91.829
  179.250   46.020    0.445    0.310   87.142
  179.500   47.286    0.454    0.309   79.694
  179.750   49.177    0.449    0.305   74.185
  180.000   51.068    0.441    0.300   67.844
  180.250   55.405    0.432    0.297   57.625
  180.500   59.725    0.433    0.297   49.857
  180.750   63.438    0.439    0.290   40.780
  181.000   65.936    0.433    0.275   32.169
  181.250   67.844    0.425    0.247   26.312
  181.500   66.714    0.417    0.239   24.063
  181.750   66.141    0.425    0.247   24.136
  182.000   66.817    0.439    0.255   22.904
  182.250   72.352    0.440    0.253   19.098
  182.500   81.549    0.428    0.224   15.621
  182.750   86.511    0.406    0.182   11.444
  183.000   88.367    0.382    0.175    9.368
  183.250   92.705    0.406    0.190    8.561
  183.500   97.650    0.448    0.198    5.934
  183.750   97.718    0.475    0.219    5.323
  184.000   97.786    0.482    0.208    4.438
  184.250   99.052    0.497    0.196    4.138
  184.500  100.943    0.488    0.192    4.003
  184.750  103.458    0.473    0.191    4.241
  185.000   96.827    0.466    0.183    4.749
  185.250   91.446    0.450    0.175    5.735
  185.500   93.927    0.440    0.161    6.198
  185.750   95.227    0.439    0.189    6.333
  186.000   91.651    0.441    0.216    6.353
  186.250   86.842    0.443    0.241    6.856
  186.500   79.621    0.437    0.265    8.433
  186.750   72.400    0.416    0.288   12.250
  187.000   65.162    0.351    0.296   12.751
  187.250   63.408    0.347    0.210   12.790
  187.500   62.869    0.377    0.193   13.068
  187.750   63.562    0.395    0.213   13.855
  188.000   63.023    0.400    0.230   15.254
  188.250   61.269    0.408    0.247   17.427
  188.500   58.907    0.415    0.263   19.158
  188.750   58.351    0.422    0.271   21.469
  189.000   55.990    0.419    0.267   25.926
  189.250   53.628    0.405    0.222   28.522
  189.500   45.800    0.411    0.228   28.609
  189.750   34.327    0.417    0.241   27.677
  190.000   28.911    0.409    0.248   24.829
  190.250   25.335    0.405    0.266   19.571
  190.500   26.010    0.415    0.230   12.359
  190.750   26.079    0.426    0.220    7.527
  191.000   25.539    0.425    0.237    7.406
  191.250   25.000    0.403    0.268   14.470
  191.500   24.461    0.367    0.291   22.219
  191.750   25.154    0.370    0.280   26.811
  192.000   25.847    0.370    0.273   34.221
  192.250   27.130    0.368    0.268   28.012
  192.500   27.806    0.366    0.257   22.911
  192.750   28.481    0.364    0.242   21.759
  193.000   29.764    0.364    0.218   22.664
  193.250   31.655    0.365    0.202   23.122
  193.500   32.938    0.366    0.197   25.010
  193.750   34.204    0.367    0.203   26.991
  194.000   35.487    0.367    0.209   31.972
  194.250   36.788    0.367    0.221   38.608
  194.500   38.678    0.368    0.236   45.733
  194.750   38.139    0.369    0.252   53.262
  195.000   36.992    0.370    0.272   51.487
  195.250   35.846    0.371    0.275   49.732
  195.500   35.307    0.376    0.262   49.884
  195.750   35.983    0.380    0.261   51.009
  196.000   37.873    0.381    0.252   52.079
  196.250   40.996    0.382    0.235   53.212
  196.500   42.886    0.382    0.218   54.371
  196.750   44.169    0.380    0.193   54.537
  197.000   46.684    0.379    0.151   53.743
