~VERSION INFORMATION
 VERS.                 2.0:   CWLS LOG ASCII STANDARD -VERSION 2.0
 WRAP.                  NO:   ONE LINE PER DEPTH STEP
~WELL INFORMATION BLOCK
#MNEM.UNIT           DATA                    DESCRIPTION OF MNEMONIC
#---------    -------------------            -------------------------------
# Generated from Intellog Unique Number	CW_70_72/WELL/3022
NULL.         -999.25                        : NULL_VALUE
WELL.         SUNDANCE CANAL 10-20           : Well_name    - WELL              
LOC .         10-20-070-23W4                 : Location     - LOCATION          
UWI .         00/10-20-070-23W4/0            : Uwi          - UNIQUE WELL ID    
ENTR.         jj                             : Entered      - ENTERED BY        
SRVC.         WESTERN ATLAS                  : Scn          - SERVICE COMPANY   
DATE.         18 FEB 77                      : Date         - LOG DATE          
STRT.M        396.24                         : top_depth    - START DEPTH       
STOP.M        579.24                         : bot_depth    - STOP DEPTH        
STEP.M        0.25                           : increment    - STEP LENGTH       
~CURVE INFORMATION BLOCK
#MNEM UNIT       ERCB CURVE CODE    CURVE DESCRIPTION
#-----------   ------------------   ----------------------------------
DEPT.M        00 001 00 00         : DEPTH        - DEPTH                       
ILD .OHMM     00 120 00 00         : RESD         - DEEP RESISTIVITY (DIL)      
CALI.MM       00 280 01 00         : CAL          - CALIPER                     
GR  .API      00 310 00 00         : GR           - GAMMA RAY                   
NPHI.V/V      00 330 00 00         : PHIN         - NEUTRON POROSITY (SANDSTONE)
DPHI.V/V      00 890 00 00         : PHID         - DENSITY POROSITY (SANDSTONE)
~PARAMETER INFORMATION       
#MNEM.UNIT           DATA             DESCRIPTION OF MNEMONIC
#---------         -----------     ------------------------------
GL  .M        626.059              : gl           - GROUND LEVEL ELEVATION      
EREF.M        629.717              : kb           - ELEVATION OF DEPTH REFERENCE
DATM.M        626.059              : datum        - DATUM ELEVATION             
TDD .M        588.264              : tdd          - TOTAL DEPTH DRILLER         
RUN .         ONE                  : Run          - RUN NUMBER                  
ENG .         DALY                 : Engineer     - RECORDING ENGINEER          
BASE.         EDM                  : Branch       - HOME BASE OF LOGGING UNIT   
MUD .         GEL BENDEX           : Mud_type     - MUD TYPE                    
MATR.         SANDSTONE            : Logunit      - NEUTRON MATRIX              
TMAX.C        23.8889              : BHT          - MAXIMUM RECORDED TEMPERATURE
BHTD.M        589.483              : BHTDEP       - MAXIMUM RECORDED TEMPERATURE
RMT .C        14.4444              : MDTP         - TEMPERATURE OF MUD          
MUDD.KG/M     1104                 : MWT          - MUD DENSITY                 
NEUT.         1                    : NEUTRON      - NEUTRON TYPE                
RESI.         0                    : RESIST       - RESISTIVITY TYPE            
RM  .OHMM     6.64                 : RM           - RESISTIVITY OF MUD          
RMC .OHMM     0.25                 : RMC          - RESISTIVITY OF MUD CAKE     
RMF .OHMM     5.99                 : RMF          - RESISTIVITY OF MUD FILTRATE 
SUFT.C        -17                  : SUFT         - SURFACE TEMPERATURE         
~A  DEPTH     RESD      CAL       GR     PHIN     PHID
# ...
  432.740    4.350  169.004  115.244    0.455    0.157
  432.990    4.324  173.142  106.930    0.473    0.165
  433.240    4.299  172.443   96.610    0.440    0.235
  433.490    4.264  164.951   94.011    0.423    0.225
  433.740    4.177  160.447  100.042    0.415    0.192
  433.990    4.083  161.292  103.942    0.439    0.179
  434.240    3.926  162.856  109.548    0.465    0.158
  434.490    3.796  166.895  110.899    0.487    0.159
  434.740    3.677  171.750  110.912    0.500    0.166
  434.990    3.595  169.203  110.558    0.500    0.180
  435.240    3.507  167.991  109.842    0.500    0.171
  435.490    3.391  168.939  105.661    0.515    0.166
  435.740    3.290  167.416   94.370    0.510    0.177
  435.990    3.187  162.292   83.017    0.484    0.204
  436.240    3.115  157.684   75.189    0.449    0.244
  436.490    3.068  155.747   70.158    0.439    0.240
  436.740    3.040  154.332   69.745    0.446    0.252
  436.990    3.060  154.659   69.941    0.448    0.259
  437.240    3.110  153.445   71.473    0.443    0.263
  437.490    3.251  150.585   74.526    0.432    0.270
  437.740    3.473  147.007   76.786    0.440    0.285
  437.990    3.725  148.673   76.679    0.452    0.282
  438.240    4.070  154.975   75.962    0.453    0.274
  438.490    4.389  156.234   79.075    0.443    0.267
  438.740    4.690  155.430   82.857    0.435    0.257
  438.990    4.984  155.148   85.909    0.423    0.237
  439.240    5.094  155.787   86.105    0.449    0.206
  439.490    5.073  156.941   85.933    0.472    0.179
  439.740    4.986  158.296   90.261    0.470    0.177
  439.990    4.671  161.717   94.164    0.462    0.186
  440.240    4.226  163.177   90.108    0.452    0.201
  440.490    3.966  162.582   89.389    0.445    0.219
  440.740    3.695  160.857   89.647    0.439    0.235
  440.990    3.410  158.103   91.058    0.430    0.235
  441.240    3.285  156.267   93.135    0.447    0.238
  441.490    3.358  153.308   96.005    0.449    0.234
  441.740    3.555  154.046  100.454    0.457    0.189
  441.990    3.877  160.965  102.109    0.460    0.204
  442.240    3.991  162.842  101.028    0.453    0.198
  442.490    4.056  162.555  101.104    0.449    0.192
  442.740    4.153  162.163  100.629    0.452    0.189
  442.990    4.191  161.261   98.272    0.477    0.178
  443.240    4.219  159.941   96.216    0.485    0.171
  443.490    4.249  156.878   97.628    0.483    0.165
  443.740    4.264  154.841   94.358    0.478    0.146
  443.990    4.254  158.979   84.768    0.473    0.155
  444.240    4.316  163.322   78.217    0.478    0.167
  444.490    4.427  165.817   74.644    0.469    0.159
  444.740    4.492  166.766   96.598    0.482    0.152
  444.990    4.499  167.714  107.064    0.492    0.143
  445.240    4.522  168.246  101.061    0.488    0.170
  445.490    4.520  168.581   98.764    0.478    0.195
  445.740    4.543  168.604   96.469    0.477    0.152
  445.990    4.549  168.312   93.745    0.456    0.168
  446.240    4.548  168.130   95.462    0.446    0.173
  446.490    4.546  167.224   95.230    0.462    0.155
  446.740    4.527  165.295   93.179    0.461    0.178
  446.990    4.509  163.978   95.924    0.454    0.181
  447.240    4.465  162.556   93.689    0.450    0.160
  447.490    4.373  160.831   93.035    0.437    0.186
  447.740    4.276  159.620   93.532    0.429    0.213
  447.990    4.164  158.509   87.164    0.437    0.209
  448.240    4.064  157.703   88.209    0.427    0.214
  448.490    3.994  156.907   89.683    0.431    0.220
  448.740    3.890  156.820   90.122    0.427    0.207
  448.990    3.748  156.742   90.133    0.433    0.218
  449.240    3.651  157.178   90.571    0.460    0.207
  449.490    3.568  158.227   89.492    0.484    0.206
  449.740    3.470  160.717   85.066    0.501    0.169
  449.990    3.398  162.802   78.213    0.485    0.206
  450.240    3.328  162.620   74.091    0.468    0.241
  450.490    3.230  162.540   73.617    0.448    0.247
  450.740    3.163  162.149   76.305    0.459    0.234
  450.990    3.092  161.450   69.815    0.465    0.223
  451.240    3.024  160.850   57.916    0.444    0.247
  451.490    2.978  159.431   45.104    0.425    0.272
  451.740    2.944  155.953   33.569    0.438    0.287
  451.990    2.894  152.681   51.209    0.451    0.268
  452.240    2.850  153.425   66.052    0.461    0.254
  452.490    2.746  157.051   71.230    0.465    0.245
  452.740    2.644  158.718   73.006    0.452    0.267
  452.990    2.567  158.429   70.709    0.448    0.285
  453.240    2.551  157.529   64.765    0.466    0.287
  453.490    2.559  157.240   63.687    0.462    0.284
  453.740    2.611  157.363   64.853    0.454    0.286
  453.990    2.669  157.592   66.141    0.444    0.278
  454.240    2.702  157.511   66.883    0.440    0.270
  454.490    2.772  156.917   66.654    0.440    0.265
  454.740    2.876  156.524   66.184    0.453    0.243
  454.990    2.956  155.825   66.315    0.469    0.251
  455.240    2.992  155.026   66.451    0.489    0.278
  455.490    2.991  154.533   66.949    0.468    0.270
  455.740    2.946  155.378   68.238    0.455    0.265
  455.990    2.885  157.766   71.350    0.445    0.264
  456.240    2.816  159.023   73.491    0.461    0.266
  456.490    2.758  159.252   73.444    0.449    0.272
  456.740    2.686  159.481   74.733    0.461    0.277
  456.990    2.621  159.092   76.994    0.486    0.264
  457.240    2.530  158.291   69.289    0.509    0.240
  457.490    2.482  156.767   64.985    0.496    0.259
  457.740    2.458  153.911   64.270    0.474    0.300
  457.990    2.536  150.743   64.342    0.435    0.294
  458.240    2.818  149.113   63.020    0.395    0.286
  458.490    3.176  151.502   60.965    0.362    0.251
  458.740    3.688  157.803   58.548    0.315    0.223
  458.990    4.587  160.911   57.466    0.225    0.055
  459.240    5.508  162.684   56.871    0.198    0.033
  459.490    6.398  163.116   57.127    0.192    0.056
  459.740    7.240  162.933   58.112    0.199    0.049
  459.990    8.042  162.851   59.463    0.208    0.025
  460.240    8.836  162.360   60.994    0.223    0.007
  460.490    9.547  161.764   63.197    0.240   -0.013
  460.740    9.975  161.171   65.944    0.229    0.018
  460.990    8.256  160.471   69.543    0.220    0.058
  461.240    6.427  159.463   73.996    0.253    0.091
  461.490    5.601  157.940   76.863    0.306    0.134
  461.740    4.882  156.420   82.287    0.365    0.195
  461.990    4.239  156.237   86.007    0.389    0.226
  462.240    3.757  157.186   90.700    0.424    0.199
  462.490    3.798  158.955   94.177    0.447    0.157
  462.740    4.021  161.653   92.125    0.462    0.173
  462.990    4.263  163.423   87.577    0.451    0.177
  463.240    4.702  165.195   87.166    0.433    0.166
  463.490    4.831  166.456   90.217    0.423    0.156
  463.740    4.544  166.268   88.831    0.437    0.150
  463.990    3.983  164.954   82.340    0.464    0.171
  464.240    3.523  162.198   74.210    0.475    0.186
  464.490    3.105  159.129   68.509    0.432    0.219
  464.740    2.797  154.520   62.687    0.422    0.248
  464.990    2.502  150.836   57.412    0.420    0.278
  465.240    2.272  153.432   55.116    0.418    0.264
  465.490    2.164  157.776   58.352    0.417    0.262
  465.740    2.073  159.240   60.248    0.419    0.278
  465.990    2.064  159.571   61.475    0.415    0.271
  466.240    2.110  159.592   62.098    0.418    0.296
  466.490    2.168  159.717   62.049    0.432    0.303
  466.740    2.229  158.709   61.333    0.424    0.283
  466.990    2.278  156.779   61.102    0.420    0.277
  467.240    2.345  154.740   65.735    0.452    0.269
  467.490    2.415  153.735   66.722    0.466    0.294
  467.740    2.459  153.240   66.002    0.475    0.280
  467.990    2.504  152.853   65.043    0.447    0.283
  468.240    2.550  153.695   67.852    0.441    0.283
  468.490    2.616  157.424   68.779    0.443    0.272
  468.740    2.649  159.090   66.662    0.455    0.271
  468.990    2.672  159.422   63.880    0.472    0.293
