~VERSION INFORMATION
 VERS.                 2.0:   CWLS LOG ASCII STANDARD -VERSION 2.0
 WRAP.                  NO:   ONE LINE PER DEPTH STEP
~WELL INFORMATION BLOCK
#MNEM.UNIT           DATA                    DESCRIPTION OF MNEMONIC
#---------    -------------------            -------------------------------
# Generated from Intellog Unique Number	CW_82_90/WELL/3451
WELL.         CDN SUP                        : Well_name    - WELL
LOC .         00/11-21-090-23W4/0            : Location     - LOCATION
UWI .         00/11-21-090-23W4/0            : Uwi          - UNIQUE WELL ID
ENTR.         MAX                            : Entered      - ENTERED BY
SRVC.         SCHLUMBERGER                   : Scn          - SERVICE COMPANY
STRT.M        167.64                         : top_depth    - START DEPTH
STOP.M        249.89                         : bot_depth    - STOP DEPTH
STEP.M        0.25                           : increment    - STEP LENGTH
 NULL. -999.2500:NULL Value
~CURVE INFORMATION BLOCK
#MNEM UNIT       ERCB CURVE CODE    CURVE DESCRIPTION
#-----------   ------------------   ----------------------------------
DEPT.M        00 001 00 00         : DEPTH        - DEPTH
ILD .OHMM     00 120 00 00         : RESD         - DEEP RESISTIVITY (DIL)
NPHI.V/V      00 330 00 00         : PHIN         - NEUTRON POROSITY (SANDSTONE)
DPHI.V/V      00 890 00 00         : PHID         - DENSITY POROSITY (SANDSTONE)
CALI.MM       00 280 01 00         : CAL          - CALIPER
GR  .API      00 310 00 00         : GR           - GAMMA RAY
~PARAMETER INFORMATION
#MNEM.UNIT           DATA             DESCRIPTION OF MNEMONIC
#---------         -----------     ------------------------------
GL  .M        519.379              : gl           - GROUND LEVEL ELEVATION
EREF.M        523.646              : kb           - ELEVATION OF DEPTH REFERENCE
DATM.M        519.379              : datum        - DATUM ELEVATION
TDD .M        268.224              : tdd          - TOTAL DEPTH DRILLER
RUN .         ONE                  : Run          - RUN NUMBER
ENG .         BILL                 : Engineer     - RECORDING ENGINEER
WIT .         JIM                  : Witness      - WITNESSED BY
MUD .         GEL                  : Mud_type     - MUD TYPE
MATR.         SANDSTONE            : Logunit      - NEUTRON MATRIX
TMAX.C        22.7778              : BHT          - MAXIMUM RECORDED TEMPERATURE
BHTD.M        268.224              : BHTDEP       - MAXIMUM RECORDED TEMPERATURE
MATR.         1                    : LOGUNIT      - NEUTRON MATRIX
RMT .C        15.5556              : MDTP         - TEMPERATURE OF MUD
NEUT.         1                    : NEUTRON      - NEUTRON TYPE
RESI.         0                    : RESIST       - RESISTIVITY TYPE
RMC .OHMM     2.55                 : RMC          - RESISTIVITY OF MUD CAKE
RMF .OHMM     2.7                  : RMF          - RESISTIVITY OF MUD FILTRATE
SUFT.C        -10                  : SUFT         - SURFACE TEMPERATURE
~A  DEPTH     RESD     PHIN     PHID      CAL       GR
# ...
  204.140   17.167    0.243   -0.019  215.505   70.522
  204.390   17.332    0.259    0.015  214.524   79.740
  204.640   16.562    0.271    0.035  213.540   88.663
  204.890   14.841    0.296    0.034  211.038   95.209
  205.140   12.361    0.306    0.035  210.058   94.930
  205.390   12.140    0.315    0.055  209.583   89.902
  205.640   12.830    0.316    0.058  207.595   86.952
  205.890   13.436    0.297    0.029  211.162   88.156
  206.140   13.942    0.293    0.039  213.722   90.548
  206.390   13.947    0.312    0.038  210.212   91.159
  206.640   13.573    0.322    0.025  209.232   92.366
  206.890   13.331    0.330    0.010  214.320   92.084
  207.140   12.622    0.328   -0.001  217.891   90.916
  207.390   12.061    0.322   -0.010  218.937   89.448
  207.640   11.631    0.315   -0.008  218.964   87.981
  207.890   11.528    0.311   -0.003  218.493   85.626
  208.140   11.964    0.309   -0.006  217.003   83.567
  208.390   12.077    0.310   -0.050  216.528   81.803
  208.640   13.000    0.308   -0.069  217.065   83.896
  208.890   13.123    0.302   -0.048  218.111   88.068
  209.140   12.312    0.304   -0.013  218.648   90.757
  209.390   11.446    0.309    0.013  221.211   91.666
  209.640   11.037    0.308    0.007  223.771   92.278
  209.890   11.142    0.305   -0.008  225.319   93.187
  210.140   11.353    0.309   -0.016  226.361   94.095
  210.390   11.461    0.316   -0.016  226.396   94.409
  210.640   11.571    0.325   -0.003  226.419   95.020
  210.890   11.680    0.335    0.003  224.427   95.332
  211.140   11.473    0.337    0.008  222.945   95.350
  211.390   10.187    0.334    0.018  220.953   95.963
  211.640    9.470    0.326    0.026  219.467   95.980
  211.890    9.917    0.320    0.036  216.969   94.808
  212.140   11.176    0.309    0.019  215.479   90.077
  212.390   11.811    0.294    0.026  213.487   87.127
  212.640   14.062    0.264    0.027  210.997   84.473
  212.890   15.992    0.227    0.031  210.009   79.742
  213.140   18.523    0.207   -0.046  212.572   74.714
  213.390   21.654    0.181   -0.068  213.610   72.951
  213.640   22.886    0.184   -0.036  214.653   76.235
  213.890   22.893    0.270    0.013  215.193   80.704
  214.140   22.484    0.293    0.045  215.726   86.061
  214.390   21.289    0.303    0.064  215.761   90.531
  214.640   19.972    0.304    0.046  213.769   95.892
  214.890   17.900    0.300    0.034  212.286  100.363
  215.140   16.793    0.299    0.043  207.260  103.940
  215.390   15.754    0.295    0.015  205.770  106.631
  215.640   15.192    0.291   -0.016  210.858  106.054
  215.890   14.785    0.299   -0.026  215.950  104.588
  216.140   14.521    0.313   -0.013  218.510  103.713
  216.390   14.794    0.317    0.005  219.552  101.952
  216.640   15.212    0.313    0.029  218.575  101.077
  216.890   15.785    0.310    0.039  218.093  100.500
  217.140   15.222    0.311    0.042  218.128   99.333
  217.390   14.413    0.316    0.049  218.664   98.754
  217.640   12.682    0.328    0.032  218.186   98.772
  217.890   11.575    0.339   -0.006  218.220   98.493
  218.140   10.959    0.336   -0.022  218.247   94.060
  218.390   11.796    0.299   -0.054  216.761   89.923
  218.640   13.416    0.248   -0.088  215.781   92.312
  218.890   13.056    0.265   -0.002  216.317   96.485
  219.140   11.700    0.315    0.026  215.842  102.143
  219.390    9.834    0.349    0.028  215.368  106.021
  219.640    7.611    0.386    0.032  215.406  105.442
  219.890    5.679    0.400    0.038  215.943  104.868
  220.140    4.601    0.406    0.046  216.476  101.322
  220.390    4.437    0.391    0.033  217.012   97.778
  220.640    5.000    0.348    0.034  216.541   95.718
  220.890    5.791    0.330    0.019  216.063   94.553
  221.140    7.420    0.327   -0.003  215.596   92.192
  221.390    9.163    0.314   -0.048  215.619   88.056
  221.640   11.632    0.297   -0.071  216.665   83.323
  221.890   13.109    0.285   -0.077  217.703   82.155
  222.140   13.233    0.292   -0.015  216.217   85.732
  222.390   13.117    0.300   -0.043  216.248   86.048
  222.640   13.121    0.298   -0.070  216.279   84.879
  222.890   13.006    0.301   -0.019  216.314   87.270
  223.140   12.657    0.312    0.005  216.345   90.849
  223.390   12.661    0.324    0.004  216.376   93.535
  223.640   12.435    0.332    0.009  217.927   96.226
  223.890   12.214    0.337    0.013  219.974   98.914
  224.140   12.106    0.329    0.016  221.020   99.822
  224.390   12.335    0.315   -0.001  221.051   98.650
  224.640   12.800    0.314    0.007  219.055   95.996
  224.890   13.281    0.306    0.031  217.063   92.156
  225.140   14.036    0.292    0.011  216.082   90.986
  225.390   14.971    0.286    0.000  215.102   93.382
  225.640   16.414    0.288    0.016  212.608   93.696
  225.890   17.188    0.280    0.000  212.133   93.714
  226.140   18.000    0.267   -0.020  212.164   92.838
  226.390   18.850    0.251   -0.018  213.206   90.185
  226.640   19.742    0.246   -0.052  213.747   85.456
  226.890   20.297    0.240   -0.073  212.257   85.177
  227.140   20.871    0.247   -0.035  212.288   87.566
  227.390   21.070    0.254    0.018  210.805   89.661
  227.640   21.665    0.230    0.015  210.327   90.274
  227.890   22.896    0.216   -0.001  209.856   87.321
  228.140   24.872    0.206   -0.022  209.883   81.700
  228.390   28.030    0.194   -0.032  209.914   77.859
  228.640   30.171    0.191   -0.059  210.956   75.504
  228.890   31.597    0.196   -0.064  211.493   75.819
  229.140   31.895    0.224   -0.015  211.524   76.131
  229.390   31.326    0.265    0.007  212.060   76.148
  229.640   29.660    0.291    0.033  212.091   76.464
  229.890   26.338    0.295    0.019  212.628   76.183
  230.140   20.199    0.283    0.001  213.164   73.529
  230.390   20.959    0.271   -0.033  213.199   69.987
  230.640   28.630    0.247   -0.122  213.736   66.443
  230.890   31.970    0.203   -0.148  214.269   67.349
  231.140   34.731    0.192   -0.099  214.303   72.115
  231.390   27.127    0.216   -0.068  213.828   84.300
  231.640   20.613    0.259   -0.041  214.369   89.367
  231.890   19.517    0.291   -0.036  214.396   91.759
  232.140   18.650    0.289   -0.027  215.944   94.445
  232.390   17.338    0.289   -0.014  218.507   97.430
  232.640   16.873    0.297   -0.024  219.044  100.418
  232.890   16.270    0.313   -0.022  219.075  101.917
  233.140   15.547    0.317   -0.018  218.596  101.934
  233.390   14.855    0.316   -0.006  219.639   99.281
  233.640   14.065    0.317   -0.021  219.164   95.145
  233.890   14.200    0.327   -0.040  219.199   92.490
  234.140   14.870    0.316   -0.057  218.218   88.948
  234.390   15.290    0.285   -0.149  217.238   91.931
  234.640   15.436    0.257   -0.129  218.280   97.884
  234.890   15.300    0.274   -0.065  218.817   98.794
  235.140   14.620    0.292   -0.060  219.349   98.514
  235.390   13.970    0.302   -0.020  218.878   98.237
  235.640   13.349    0.321   -0.026  217.898   99.442
  235.890   12.409    0.326   -0.041  218.431   98.865
  236.140   11.966    0.316   -0.057  218.477   99.177
  236.390   11.970    0.307   -0.079  217.991   98.601
  236.640   12.307    0.300   -0.105  217.516   99.509
  236.890   12.425    0.302   -0.096  217.547  104.277
  237.140   12.092    0.333   -0.032  217.581  104.886
  237.390   11.768    0.336   -0.028  217.612  101.344
  237.640   11.143    0.327   -0.029  218.153   99.875
  237.890   10.745    0.317   -0.043  218.690   99.598
  238.140   10.651    0.309   -0.035  218.717  101.097
  238.390   10.654    0.301   -0.027  217.736  102.007
  238.640   10.756    0.296   -0.040  217.261  100.837
  238.890   11.059    0.291   -0.031  217.292   99.670
  239.140   11.796    0.286   -0.044  217.829   99.386
  239.390   12.582    0.285   -0.059  217.864   99.700
  239.640   13.296    0.290   -0.073  217.891  100.014
  239.890   14.711    0.300   -0.066  217.921  100.628
  240.140   15.982    0.298   -0.048  217.454  103.021
  240.390   17.521    0.281   -0.074  217.481  108.676
