~VERSION INFORMATION
 VERS.                 2.0:   CWLS LOG ASCII STANDARD -VERSION 2.0
 WRAP.                  NO:   ONE LINE PER DEPTH STEP
~WELL INFORMATION BLOCK
#MNEM.UNIT           DATA                    DESCRIPTION OF MNEMONIC
#---------    -------------------            -------------------------------
# Generated from Intellog Unique Number	CC_84_87/WELL/1183
NULL.         -999.25                        : NULL_VALUE
WELL.         SUNCOR CHEECHAM                : Well_name    - WELL              
LOC .         10-06-085-06W4                 : Location     - LOCATION          
UWI .         00/10-06-085-06W400            : Uwi          - UNIQUE WELL ID    
ENTR.         DW                             : Entered      - ENTERED BY        
SRVC.         SCHLUMBERGER                   : Scn          - SERVICE COMPANY   
DATE.         01 FEB 81                      : Date         - LOG DATE
STRT.M        138                            : top_depth    - START DEPTH       
STOP.M        275.1                          : bot_depth    - STOP DEPTH        
STEP.M        0.3                            : increment    - STEP LENGTH       
~CURVE INFORMATION BLOCK
#MNEM UNIT       ERCB CURVE CODE    CURVE DESCRIPTION
#-----------   ------------------   ----------------------------------
DEPT.M        00 001 00 00         : DEPTH        - DEPTH                       
DPHI.V/V      00 890 00 00         : PHID         - DENSITY POROSITY (LIMESTONE)
NPHI.V/V      00 330 00 00         : PHIN         - NEUTRON POROSITY (LIMESTONE)
GR  .API      00 310 00 00         : GR           - GAMMA RAY                   
ILD .OHMM     00 120 00 00         : RESD         - DEEP RESISTIVITY (DIL)      
~PARAMETER INFORMATION       
#MNEM.UNIT           DATA             DESCRIPTION OF MNEMONIC
#---------         -----------     ------------------------------
GL  .M        482.2                : gl           - GROUND LEVEL ELEVATION      
EREF.M        485.9                : kb           - ELEVATION OF DEPTH REFERENCE
DATM.M        485.9                : datum        - DATUM ELEVATION             
TDD .M        275                  : tdd          - TOTAL DEPTH DRILLER         
RUN .         ONE                  : Run          - RUN NUMBER                  
ENG .         BILL                 : Engineer     - RECORDING ENGINEER          
WIT .         JIM                  : Witness      - WITNESSED BY                
MUD .         GEL                  : Mud_type     - MUD TYPE                    
MATR.         LIMESTONE            : Logunit      - NEUTRON MATRIX              
TMAX.C        13                   : BHT          - MAXIMUM RECORDED TEMPERATURE
BHTD.M        275                  : BHTDEP       - MAXIMUM RECORDED TEMPERATURE
MATR.         1                    : LOGUNIT      - NEUTRON MATRIX              
RMT .C        25                   : MDTP         - TEMPERATURE OF MUD          
NEUT.         1                    : NEUTRON      - NEUTRON TYPE                
RESI.         0                    : RESIST       - RESISTIVITY TYPE            
RMC .OHMM     0.25                 : RMC          - RESISTIVITY OF MUD CAKE     
RMF .OHMM     0.25                 : RMF          - RESISTIVITY OF MUD FILTRATE 
SUFT.C        4                    : SUFT         - SURFACE TEMPERATURE         
~A  DEPTH     PHID     PHIN       GR     RESD
  138.000    0.270    0.546   79.963    1.766
  138.300    0.323    0.545   80.475    1.865
  138.600    0.343    0.544   76.641    1.968
  138.900    0.300    0.436   73.456    2.040
  139.200    0.256    0.430   76.452    2.153
  139.500    0.241    0.435   80.711    2.272
  139.800    0.239    0.449   81.232    2.309
  140.100    0.255    0.459   81.752    2.347
  140.400    0.273    0.443   82.887    2.296
  140.700    0.284    0.436   80.319    2.247
  141.000    0.273    0.450   78.350    2.199
  141.300    0.282    0.467   78.254    2.112
  141.600    0.285    0.461   81.889    2.028
  141.900    0.277    0.490   83.013    1.948
  142.200    0.273    0.513   80.439    1.942
  142.500    0.268    0.495   79.709    1.900
  142.800    0.259    0.468   80.240    1.859
  143.100    0.247    0.476   81.374    1.854
  143.400    0.254    0.484   81.301    1.957
  143.700    0.266    0.471   80.579    2.106
  144.000    0.270    0.449   79.212    2.224
  144.300    0.262    0.472   78.503    2.218
  144.600    0.254    0.476   78.430    2.172
  144.900    0.250    0.459   78.291    2.291
  145.200    0.249    0.449   78.857    2.375
  145.500    0.250    0.449   81.230    2.414
  145.800    0.253    0.459   89.203    2.407
  146.100    0.257    0.468   87.224    2.354
  146.400    0.262    0.453   85.888    2.305
  146.700    0.240    0.457   87.055    2.256
  147.000    0.247    0.476   88.196    2.250
  147.300    0.257    0.489   83.752    2.284
  147.600    0.245    0.476   80.549    2.367
  147.900    0.248    0.463   84.161    2.406
  148.200    0.237    0.462   87.802    2.401
  148.500    0.233    0.467   92.656    2.305
  148.800    0.235    0.488   93.181    2.256
  149.100    0.254    0.489   88.131    2.166
  149.400    0.255    0.476   83.063    2.080
  149.700    0.263    0.494   81.114    1.960
  150.000    0.257    0.515   79.135    1.847
  150.300    0.244    0.530   76.557    1.807
  150.600    0.256    0.544   75.233    1.802
  150.900    0.241    0.531   72.642    1.866
  151.200    0.245    0.462   71.297    1.933
  151.500    0.248    0.474   71.216    2.003
  151.800    0.234    0.464   73.585    1.997
  152.100    0.253    0.471   76.600    1.918
  152.400    0.262    0.456   78.985    1.913
  152.700    0.246    0.449   78.900    1.945
  153.000    0.000    0.450   79.416    2.173
  153.300    0.000    0.437   76.842    2.670
  153.600    0.028    0.212   71.159    4.198
  153.900    0.086    0.211   59.277    5.061
  154.200    0.174    0.405   59.790    4.504
  154.500    0.211    0.443   66.522    2.905
  154.800    0.247    0.465   76.974    1.944
  155.100    0.256    0.475   84.910    1.635
  155.400    0.269    0.457   86.689    1.540
  155.700    0.274    0.458   90.316    1.536
  156.000    0.277    0.454   94.567    1.561
  156.300    0.261    0.448   98.187    1.679
  156.600    0.228    0.453   96.859    1.842
  156.900    0.212    0.475   93.635    2.263
  157.200    0.198    0.496   92.915    2.678
  157.500    0.210    0.540   94.056    2.993
  157.800    0.193    0.556   96.450    3.042
  158.100    0.184    0.515   97.575    2.974
  158.400    0.188    0.472   96.875    2.912
  158.700    0.196    0.501   96.788    2.797
  159.000    0.207    0.533   97.916    2.786
  159.300    0.206    0.558  100.318    2.728
  159.600    0.200    0.518  103.947    2.620
  159.900    0.212    0.530  101.350    2.468
  160.200    0.241    0.549  100.624    2.370
  160.500    0.228    0.521  100.544    2.362
  160.800    0.203    0.526   99.212    2.404
  161.100    0.195    0.529  102.186    2.586
  161.400    0.174    0.517  103.973    2.945
  161.700    0.198    0.513  105.745    3.227
  162.000    0.221    0.508  103.136    3.220
  162.300    0.220    0.512  104.268    3.092
  162.600    0.220    0.539  106.050    2.912
  162.900    0.233    0.562  107.805    2.692
  163.200    0.254    0.578  109.597    2.490
  163.500    0.262    0.602  111.983    2.217
  163.800    0.236    0.603  114.979    2.047
  164.100    0.225    0.601  116.120    2.044
  164.400    0.245    0.589  110.449    2.157
  164.700    0.211    0.574  101.665    2.551
  165.000    0.238    0.570   98.462    2.852
  165.300    0.253    0.562  100.207    3.437
  165.600    0.225    0.562   98.271    3.841
  165.900    0.208    0.519   91.333    4.373
  166.200    0.207    0.489   89.991    4.620
  166.500    0.201    0.486   92.389    4.780
  166.800    0.195    0.485   97.258    4.864
  167.100    0.197    0.486   99.640    5.039
  167.400    0.206    0.498   99.540    5.122
  167.700    0.208    0.501   98.824    5.207
  168.000    0.209    0.482   98.722    4.902
  168.300    0.223    0.463   98.596    4.886
  168.600    0.227    0.463   99.770    5.067
  168.900    0.210    0.473  102.774    5.663
  169.200    0.188    0.463  105.770    6.449
  169.500    0.177    0.452  108.770    6.937
  169.800    0.188    0.456  107.431    6.920
  170.100    0.198    0.466  104.867    6.642
  170.400    0.188    0.477  101.655    6.026
  170.700    0.182    0.501   99.699    5.464
  171.000    0.189    0.512   98.371    5.247
  171.300    0.193    0.481   98.271    5.234
  171.600    0.200    0.469   99.402    5.221
  171.900    0.193    0.481  104.279    5.307
  172.200    0.192    0.505  106.047    5.497
  172.500    0.191    0.501  106.567    5.914
  172.800    0.183    0.487  110.183    6.246
  173.100    0.175    0.462  109.461    6.466
  173.400    0.181    0.480  106.278    6.328
  173.700    0.191    0.485  104.314    5.852
  174.000    0.203    0.454  102.349    4.737
  174.300    0.208    0.433  101.015    4.296
  174.600    0.211    0.435  102.786    4.532
  174.900    0.207    0.447  106.390    5.168
  175.200    0.209    0.448  107.552    6.593
  175.500    0.208    0.453  107.456    6.697
  175.800    0.188    0.463  107.975    6.434
  176.100    0.191    0.480  107.873    5.618
  176.400    0.194    0.488  104.682    4.998
  176.700    0.188    0.479  105.203    4.891
  177.000    0.185    0.476  112.541    4.878
  177.300    0.197    0.480  107.471    5.054
  177.600    0.208    0.466  103.039    5.236
  177.900    0.206    0.467   98.611    5.323
  178.200    0.206    0.497   94.781    5.310
  178.500    0.226    0.497   98.412    5.099
  178.800    0.245    0.496  102.040    5.181
  179.100    0.225    0.479   96.974    5.263
  179.400    0.214    0.468   96.864    5.152
  179.700    0.209    0.483   99.885    4.676
  180.000    0.227    0.505  104.131    3.313
  180.300    0.215    0.545  107.743    3.305
  180.600    0.196    0.549  108.886    3.837
  180.900    0.202    0.543  110.019    4.805
  181.200    0.204    0.526  109.940    5.792
  181.500    0.208    0.465  107.967    6.230
  181.800    0.209    0.463  103.543    6.215
  182.100    0.217    0.488   99.106    6.315
  182.400    0.214    0.492   95.892    6.668
  182.700    0.209    0.450   95.189    6.908
  183.000    0.199    0.445   92.610    7.022
  183.300    0.206    0.445   89.404    7.137
  183.600    0.211    0.451   88.052    7.822
  183.900    0.025    0.472   86.728    8.582
  184.200    0.014    0.476   82.292   10.547
  184.500    0.075    0.258   67.927   12.476
  184.800    0.117    0.263   69.062   13.419
  185.100    0.103    0.329   81.995    9.698
  185.400    0.049    0.426   89.341    7.001
  185.700    0.130    0.438  101.646    6.724
  186.000    0.165    0.439  102.167    6.832
  186.300    0.174    0.467  107.030    7.079
  186.600    0.169    0.467  108.157    7.060
  186.900    0.153    0.444  109.934    7.312
  187.201    0.165    0.425  109.830    7.574
  187.501    0.175    0.449  104.789    7.702
  187.801    0.180    0.457  103.442    7.258
  188.101    0.185    0.476  101.484    5.145
  188.401    0.203    0.519   97.660    3.578
  188.701    0.236    0.576   93.853    2.788
  189.001    0.248    0.604   88.790    2.728
  189.301    0.223    0.592   87.454    2.936
  189.601    0.192    0.567   87.355    3.607
  189.901    0.185    0.541   89.724    4.268
