~VERSION INFORMATION
 VERS.                 2.0:   CWLS LOG ASCII STANDARD -VERSION 2.0
 WRAP.                  NO:   ONE LINE PER DEPTH STEP
~WELL INFORMATION BLOCK
#MNEM.UNIT           DATA                    DESCRIPTION OF MNEMONIC
#---------    -------------------            -------------------------------
# Generated from Intellog Unique Number	CW_79_81/WELL/913
WELL.         HOMESTEAD ET AL WEAVER         : Well_name    - WELL
LOC .         00/11-25-080-01W5/0            : Location     - LOCATION
UWI .         00/11-25-080-01W5/0            : Uwi          - UNIQUE WELL ID
ENTR.         MAX                            : Entered      - ENTERED BY
SRVC.         SCHLUMBERGER                   : Scn          - SERVICE COMPANY
STRT.M        260                            : top_depth    - START DEPTH
STOP.M        505                            : bot_depth    - STOP DEPTH
STEP.M        0.25                           : increment    - STEP LENGTH
 NULL. -999.2500:NULL Value
~CURVE INFORMATION BLOCK
#MNEM UNIT       ERCB CURVE CODE    CURVE DESCRIPTION
#-----------   ------------------   ----------------------------------
DEPT.M        00 001 00 00         : DEPTH        - DEPTH
ILD .OHMM     00 120 00 00         : RESD         - DEEP RESISTIVITY (DIL)
NPHI.V/V      00 330 00 00         : PHIN         - NEUTRON POROSITY (SANDSTONE)
DPHI.V/V      00 890 00 00         : PHID         - DENSITY POROSITY (SANDSTONE)
CALI.MM       00 280 01 00         : CAL          - CALIPER
GR  .API      00 310 00 00         : GR           - GAMMA RAY
~PARAMETER INFORMATION
#MNEM.UNIT           DATA             DESCRIPTION OF MNEMONIC
#---------         -----------     ------------------------------
GL  .M        580                  : gl           - GROUND LEVEL ELEVATION
EREF.M        583.67               : kb           - ELEVATION OF DEPTH REFERENCE
DATM.M        580                  : datum        - DATUM ELEVATION
TDD .M        515                  : tdd          - TOTAL DEPTH DRILLER
RUN .         ONE                  : Run          - RUN NUMBER
ENG .         BILL                 : Engineer     - RECORDING ENGINEER
WIT .         JIM                  : Witness      - WITNESSED BY
MUD .         GEL                  : Mud_type     - MUD TYPE
MATR.         SANDSTONE            : Logunit      - NEUTRON MATRIX
TMAX.C        24                   : BHT          - MAXIMUM RECORDED TEMPERATURE
BHTD.M        515                  : BHTDEP       - MAXIMUM RECORDED TEMPERATURE
RMT .C        16                   : MDTP         - TEMPERATURE OF MUD
MUDD.KG/M     1100                 : MWT          - MUD DENSITY
NEUT.         1                    : NEUTRON      - NEUTRON TYPE
RESI.         0                    : RESIST       - RESISTIVITY TYPE
RM  .OHMM     6.62                 : RM           - RESISTIVITY OF MUD
RMC .OHMM     0                    : RMC          - RESISTIVITY OF MUD CAKE
RMF .OHMM     4.5                  : RMF          - RESISTIVITY OF MUD FILTRATE
SUFT.C        4                    : SUFT         - SURFACE TEMPERATURE
~A  DEPTH     RESD     PHIN     PHID      CAL       GR
# ...
  442.500   11.326    0.393    0.182  164.166   87.644
  442.750   11.530    0.396    0.193  165.625   86.425
  443.000   11.847    0.391    0.191  166.085   84.001
  443.250   12.402    0.375    0.170  166.041   81.879
  443.500   13.727    0.364    0.137  166.006   76.760
  443.750   15.198    0.349    0.095  166.466   71.342
  444.000   17.792    0.333    0.082  166.422   71.618
  444.250   19.151    0.336    0.081  166.388   75.490
  444.500   18.605    0.356    0.110  166.343   78.763
  444.750   17.739    0.394    0.149  166.304   82.636
  445.000   16.300    0.413    0.166  166.269   86.206
  445.250   13.769    0.422    0.180  165.720   88.883
  445.500   12.414    0.430    0.162  164.192   88.859
  445.750   11.839    0.417    0.141  162.649   81.340
  446.000   11.607    0.385    0.103  165.107   75.918
  446.250   12.152    0.367    0.099  168.055   79.794
  446.500   12.138    0.422    0.145  168.525   86.361
  446.750   11.793    0.443    0.132  168.476   87.536
  447.000   11.245    0.429    0.132  168.441   89.613
  447.250   10.724    0.425    0.158  168.897   97.982
  447.500   10.226    0.420    0.172  168.867  102.750
  447.750    9.570    0.423    0.175  168.827  104.528
  448.000    9.127    0.425    0.167  169.283  104.504
  448.250    8.866    0.422    0.168  172.235  105.080
  448.500    8.776    0.416    0.172  172.700  105.953
  448.750    9.185    0.410    0.149  170.663  102.935
  449.000    9.616    0.397    0.104  166.123   97.516
  449.250   10.351    0.387    0.089  166.583   98.691
  449.500   10.837    0.389    0.144  168.047  101.965
  449.750   11.342    0.384    0.160  167.998  105.537
  450.000   11.437    0.380    0.162  167.968  108.208
  450.250   11.010    0.384    0.172  166.930  109.986
  450.500    9.301    0.394    0.162  168.888  112.360
  450.750    8.152    0.440    0.143  171.846  109.636
  451.000    8.071    0.456    0.146  169.304  105.416
  451.250    8.606    0.428    0.126  168.265  100.297
  451.500    9.181    0.399    0.110  164.729   90.080
  451.750   10.648    0.386    0.152  163.191   83.160
  452.000   12.464    0.404    0.181  165.640   79.840
  452.250   14.459    0.399    0.225  164.601   69.326
  452.500   17.085    0.394    0.255  161.070   51.020
  452.750   21.955    0.394    0.280  158.538   40.803
  453.000   26.936    0.398    0.294  158.998   35.085
  453.250   38.711    0.404    0.312  160.947   31.761
  453.500   51.652    0.410    0.308  161.407   31.738
  453.750   62.768    0.417    0.305  161.372   31.717
  454.000   70.785    0.426    0.304  160.833   32.592
  454.250   72.051    0.423    0.307  160.284   33.762
  454.500   72.652    0.412    0.302  160.245   33.438
  454.750   73.282    0.400    0.299  160.205   33.414
  455.000   73.901    0.388    0.303  160.171   33.091
  455.250   76.639    0.372    0.306  160.131   33.367
  455.500   78.742    0.370    0.307  161.586   34.542
  455.750   80.151    0.389    0.299  163.554   35.718
  456.000   79.334    0.402    0.289  163.999   36.290
  456.250   74.949    0.420    0.288  162.971   36.270
  456.500   67.572    0.428    0.291  160.923   37.148
  456.750   61.499    0.428    0.286  160.894   38.617
  457.000   55.440    0.420    0.276  160.854   39.795
  457.250   51.413    0.412    0.291  161.809   40.970
  457.500   47.226    0.409    0.293  162.269   41.846
  457.750   45.044    0.409    0.292  161.735   42.416
  458.000   40.995    0.411    0.293  161.686   42.095
  458.250   37.307    0.409    0.296  161.651   39.974
  458.500   34.264    0.405    0.290  161.607   39.054
  458.750   32.073    0.400    0.290  161.572   39.929
  459.000   29.744    0.401    0.288  161.533   42.600
  459.250   28.096    0.395    0.286  160.989   44.671
  459.500   27.296    0.394    0.277  160.954   45.850
  459.750   26.519    0.396    0.269  160.406   46.725
  460.000   26.008    0.398    0.258  160.376   46.701
  460.250   25.030    0.399    0.253  160.327   45.782
  460.500   24.317    0.398    0.262  160.797   41.856
  460.750   23.625    0.390    0.287  161.252   38.238
  461.000   23.164    0.377    0.284  162.706   35.817
  461.250   22.931    0.364    0.264  162.671   39.690
  461.500   23.122    0.346    0.215  162.632   44.162
  461.750   23.759    0.326    0.139  164.081   48.634
  462.000   25.573    0.287    0.087  166.539   52.803
  462.250   27.790    0.256    0.047  167.999   54.874
  462.500   28.552    0.256    0.055  168.464   57.551
  462.750   27.223    0.283    0.175  169.423   65.623
  463.000   23.214    0.359    0.208  169.883   73.691
  463.250   16.734    0.371    0.219  170.343   79.662
  463.500   12.875    0.378    0.198  172.302   87.734
  463.750   10.977    0.393    0.199  175.759   95.499
  464.000    9.715    0.427    0.199  181.219  100.274
  464.250    8.760    0.454    0.195  187.669  105.343
  464.500    7.826    0.461    0.199  187.634  106.815
  464.750    6.925    0.460    0.195  185.087  107.097
  465.000    6.421    0.457    0.184  183.055  107.070
  465.250    5.953    0.445    0.152  179.519  106.744
  465.500    5.892    0.447    0.154  183.471  107.625
  465.750    5.943    0.452    0.199  184.930  106.397
  466.000    6.162    0.454    0.186  179.900  101.578
  466.250    6.392    0.448    0.171  176.863   97.960
  466.500    6.754    0.435    0.161  175.325   94.939
  466.750    7.337    0.418    0.155  175.780   94.616
  467.000    7.972    0.417    0.181  177.734   95.186
  467.250    8.346    0.410    0.175  173.698   93.364
  467.500    8.656    0.404    0.178  170.162   89.747
  467.750    8.893    0.393    0.223  168.629   88.224
  468.000    9.395    0.388    0.238  169.589   85.503
  468.250    9.127    0.440    0.206  179.040   84.278
  468.500    8.306    0.481    0.224  187.488   84.857
  468.750    7.353    0.481    0.238  191.450   85.732
  469.000    5.658    0.483    0.233  197.899   87.204
  469.250    5.246    0.508    0.233  200.862   87.774
  469.500    5.191    0.484    0.230  192.830   86.254
  469.750    5.435    0.464    0.212  176.301   80.240
  470.000    6.304    0.421    0.174  168.269   77.518
  470.250    7.953    0.396    0.147  163.729   73.895
  470.500   10.511    0.357    0.132  162.191   70.874
  470.750   10.699    0.345    0.085  164.644   72.643
  471.000   10.587    0.414    0.205  167.602   81.017
  471.250   10.095    0.431    0.195  171.564   86.092
  471.500    9.450    0.494    0.249  171.025   91.160
  471.750    8.764    0.538    0.320  171.975   91.739
  472.000    8.279    0.564    0.338  169.437   92.309
  472.250    7.894    0.587    0.347  167.899   91.689
  472.500    7.669    0.587    0.347  167.370   87.169
  472.750    7.521    0.557    0.319  167.326   83.549
  473.000    7.375    0.480    0.285  165.788   81.727
  473.250    7.231    0.454    0.249  168.746   81.104
  473.500    7.025    0.436    0.233  169.201   80.778
  473.750    6.890    0.455    0.248  168.167   80.152
  474.000    6.756    0.482    0.247  168.128   79.531
  474.250    6.442    0.514    0.231  171.580   81.603
  474.500    5.974    0.515    0.230  171.546   84.280
  474.750    5.488    0.491    0.237  176.002   88.452
  475.000    5.184    0.476    0.224  180.453   92.624
  475.250    5.229    0.462    0.208  183.910   93.799
  475.500    5.681    0.442    0.190  174.385   88.980
  475.750    6.348    0.423    0.157  169.350   83.562
  476.000    6.833    0.433    0.172  173.806   82.633
  476.250    7.087    0.439    0.189  171.769   82.307
  476.500    7.628    0.431    0.213  170.730   83.788
  476.750    7.763    0.478    0.252  184.173   93.957
  477.000    7.544    0.525    0.254  189.633  105.023
  477.250    6.615    0.513    0.242  187.096   95.406
  477.500    5.691    0.477    0.230  176.062   86.091
  477.750    5.580    0.438    0.136  169.519   81.868
  478.000    5.788    0.408    0.211  167.487   82.147
  478.250    6.290    0.394    0.208  165.944   84.821
  478.500    6.963    0.405    0.197  166.409   86.590
  478.750    7.496    0.422    0.202  171.360   85.673
