~VERSION INFORMATION
 VERS.                 2.0:   CWLS LOG ASCII STANDARD -VERSION 2.0
 WRAP.                  NO:   ONE LINE PER DEPTH STEP
~WELL INFORMATION BLOCK
#MNEM.UNIT           DATA                    DESCRIPTION OF MNEMONIC
#---------    -------------------            -------------------------------
# Generated from Intellog Unique Number	CN_91_93/WELL/2621
WELL.         PETRO-CANADA INC.              : Well_name    - WELL
LOC .         00/11-30-091-17W4/0            : Location     - LOCATION
UWI .         00/11-30-091-17W400            : Uwi          - UNIQUE WELL ID
ENTR.         JOETTE                         : Entered      - ENTERED BY
SRVC.         SCHLUMBERGER                   : Scn          - SERVICE COMPANY
DATE.         02/05/92                       : Date         - LOG DATE
STRT.M        75                             : top_depth    - START DEPTH
STOP.M        255                            : bot_depth    - STOP DEPTH
STEP.M        0.25                           : increment    - STEP LENGTH
 NULL. -999.2500:NULL Value
~CURVE INFORMATION BLOCK
#MNEM UNIT       ERCB CURVE CODE    CURVE DESCRIPTION
#-----------   ------------------   ----------------------------------
DEPT.M        00 001 00 00         : DEPTH        - DEPTH
GR  .API      00 310 00 00         : GR           - GAMMA RAY
CALI.MM       00 280 01 00         : CAL          - CALIPER
NPHI.V/V      00 330 00 00         : PHIN         - NEUTRON POROSITY (SANDSTONE)
DPHI.V/V      00 890 00 00         : PHID         - DENSITY POROSITY (SANDSTONE)
ILD .OHMM     00 120 00 00         : RESD         - DEEP RESISTIVITY (DIL)
~PARAMETER INFORMATION
#MNEM.UNIT           DATA             DESCRIPTION OF MNEMONIC
#---------         -----------     ------------------------------
GL  .M        513.2                : gl           - GROUND LEVEL ELEVATION
EREF.M        516.6                : kb           - ELEVATION OF DEPTH REFERENCE
DATM.M        516.6                : datum        - DATUM ELEVATION
TDD .M        260.5                : tdd          - TOTAL DEPTH DRILLER
RUN .         ONE                  : Run          - RUN NUMBER
ENG .         BILL                 : Engineer     - RECORDING ENGINEER
WIT .         JIM                  : Witness      - WITNESSED BY
MUD .         GEL                  : Mud_type     - MUD TYPE
MATR.         SANDSTONE            : Logunit      - NEUTRON MATRIX
TMAX.C        28                   : BHT          - MAXIMUM RECORDED TEMPERATURE
BHTD.M        260.5                : BHTDEP       - MAXIMUM RECORDED TEMPERATURE
RMT .C        8.33333              : MDTP         - TEMPERATURE OF MUD
MUDD.KG/M     1030                 : MWT          - MUD DENSITY
NEUT.         1                    : NEUTRON      - NEUTRON TYPE
RESI.         0                    : RESIST       - RESISTIVITY TYPE
RM  .OHMM     6.97                 : RM           - RESISTIVITY OF MUD
RMC .OHMM     6.97                 : RMC          - RESISTIVITY OF MUD CAKE
RMF .OHMM     6.97                 : RMF          - RESISTIVITY OF MUD FILTRATE
SUFT.C        4                    : SUFT         - SURFACE TEMPERATURE
~A  DEPTH       GR      CAL     PHIN     PHID     RESD
# ...
  111.500  108.688  161.580    0.553    0.255    5.458
  111.750  108.121  165.686    0.543    0.249    5.468
  112.000  103.946  166.740    0.543    0.271    5.481
  112.250  104.297  167.308    0.538    0.281    5.491
  112.500  104.031  167.375    0.519    0.292    5.586
  112.750  101.969  167.458    0.522    0.296    5.639
  113.000  102.004  167.015    0.515    0.286    5.821
  113.250  102.049  167.082    0.512    0.289    6.194
  113.500  101.186  166.664    0.525    0.290    6.488
  113.750   96.705  165.718    0.547    0.289    6.899
  114.000   91.024  164.782    0.540    0.286    7.175
  114.250   87.150  163.343    0.512    0.268    7.518
  114.500   87.195  160.407    0.464    0.242    7.820
  114.750   86.929  163.493    0.472    0.175    8.133
  115.000   82.458  165.065    0.462    0.165    8.336
  115.250   80.998  166.621    0.454    0.216    8.413
  115.500   79.528  170.209    0.476    0.303    8.557
  115.750   76.261  173.295    0.508    0.318    8.641
  116.000   76.602  168.837    0.491    0.317    8.726
  116.250   79.051  160.373    0.463    0.310    8.739
  116.500   81.499  164.454    0.453    0.300    8.757
  116.750   83.351  169.046    0.452    0.288    8.584
  117.000   83.993  170.116    0.467    0.251    8.166
  117.250   83.732  166.670    0.479    0.201    7.539
  117.500   88.288  165.232    0.513    0.154    6.708
  117.750   97.060  166.804    0.529    0.184    5.923
  118.000  104.336  166.871    0.563    0.288    5.470
  118.250  106.478  163.441    0.592    0.300    5.126
  118.500   99.292  161.493    0.611    0.331    4.841
  118.750   98.128  161.066    0.587    0.340    4.642
  119.000   97.566  160.639    0.603    0.350    4.581
  119.250   96.402  161.191    0.628    0.354    4.521
  119.500   94.942  162.270    0.603    0.353    4.498
  119.750   93.782  163.340    0.579    0.344    4.509
  120.000   93.220  164.411    0.526    0.321    4.517
  120.250   93.260  164.478    0.511    0.292    4.560
  120.500   92.693  163.541    0.527    0.261    4.569
  120.750   84.905  162.604    0.593    0.276    4.647
  121.000   76.515  163.189    0.563    0.194    4.692
  121.250   78.964  162.244    0.519    0.148    4.703
  121.500   88.036  161.307    0.545    0.295    4.748
  121.750   98.323  165.890    0.582    0.304    4.792
  122.000  101.675  168.466    0.581    0.302    4.839
  122.250  100.215  165.020    0.564    0.311    4.885
  122.500   96.637  165.104    0.565    0.303    4.969
  122.750   93.972  168.190    0.542    0.288    5.091
  123.000   92.502  170.247    0.490    0.288    5.295
  123.250   89.230  172.839    0.488    0.289    5.632
  123.500   83.249  173.918    0.494    0.280    6.168
  123.750   78.772  172.981    0.495    0.243    8.201
  124.000   77.307  170.021    0.420    0.216   10.273
  124.250   79.159  165.588    0.415    0.261   11.596
  124.500   77.688  163.656    0.433    0.303   12.430
  124.750   75.626  163.196    0.471    0.272   12.360
  125.000   75.967  162.761    0.445    0.221   11.937
  125.250   79.319  160.327    0.439    0.217   11.606
  125.500   82.074  163.404    0.472    0.279   10.962
  125.750   85.421  168.999    0.484    0.271   10.348
  126.000   89.987  170.070    0.489    0.275    9.697
  126.250   88.818  171.140    0.487    0.284    9.296
  126.500   88.557  173.222    0.480    0.290    9.454
  126.750   86.790  173.281    0.470    0.291    9.833
  127.000   82.324  169.835    0.454    0.300   10.613
  127.250   80.247  167.393    0.431    0.306   11.626
  127.500   76.674  165.469    0.451    0.301   12.835
  127.750   76.112  162.508    0.431    0.249   13.751
  128.000   74.049  161.095    0.420    0.207   14.849
  128.250   74.993  162.157    0.419    0.209   15.674
  128.500   72.925  161.212    0.413    0.238   16.549
  128.750   69.056  160.777    0.407    0.316   17.335
  129.000   68.198  165.360    0.428    0.311   17.904
  129.250   68.233  168.454    0.432    0.311   18.205
  129.500   67.365  169.516    0.454    0.312   18.659
  129.750   65.298  170.595    0.473    0.303   18.973
  130.000   64.434  166.647    0.472    0.228   19.302
  130.250   64.791  165.702    0.459    0.251   19.481
  130.500   65.423  163.778    0.437    0.311   19.818
  130.750   64.264  161.846    0.429    0.313   20.003
  131.000   67.008  161.411    0.430    0.302   19.602
  131.250   70.365  162.465    0.423    0.226   18.657
  131.500   72.518  163.034    0.408    0.194   18.005
  131.750   74.364  162.599    0.374    0.202   16.755
  132.000   82.233  162.180    0.419    0.245   15.350
  132.250   94.020  159.236    0.435    0.251   13.161
  132.500   93.457  158.308    0.443    0.246   11.620
  132.750   97.412  156.852    0.447    0.243   10.337
  133.000  101.371  158.425    0.456    0.262    9.475
  133.250   99.905  162.506    0.504    0.279    8.750
  133.500   94.526  165.592    0.534    0.266    8.390
  133.750   83.421  165.667    0.572    0.209    8.470
  134.000   60.273  164.730    0.534    0.106    8.611
  134.250   63.023  164.797    0.450    0.127    8.758
  134.500   93.181  162.848    0.422    0.185    8.844
  134.750   98.655  166.938    0.513    0.267    8.667
  135.000   99.594  173.026    0.509    0.267    8.308
  135.250  101.741  174.606    0.522    0.273    8.078
  135.500  104.195  173.168    0.540    0.282    8.096
  135.750  102.424  167.715    0.549    0.278    8.672
  136.000   91.324  163.274    0.520    0.266    9.505
  136.250   86.848  161.835    0.493    0.223   10.259
  136.500   88.995  161.910    0.456    0.190   11.073
  136.750   89.337  162.462    0.427    0.206   12.041
  137.000   85.166  163.039    0.431    0.250   12.526
  137.250   82.793  162.102    0.417    0.277   12.462
  137.500   83.435  161.166    0.429    0.272   11.940
  137.750   77.153  161.241    0.444    0.268   11.526
  138.000   78.999  161.308    0.443    0.275   11.380
  138.250   82.356  160.371    0.451    0.280   12.198
  138.500   78.778  160.939    0.459    0.280   13.264
  138.750   75.812  162.511    0.463    0.287   14.858
  139.000   72.235  162.578    0.465    0.294   16.281
  139.250   62.640  161.650    0.425    0.275   16.555
  139.500   63.282  161.717    0.416    0.235   15.866
  139.750   71.758  161.775    0.419    0.270   14.543
  140.000   77.819  161.842    0.427    0.304   13.232
  140.250   89.612  162.929    0.431    0.298   12.399
  140.500   90.254  163.489    0.464    0.287   11.711
  140.750   84.869  163.564    0.490    0.283   11.559
  141.000   72.866  161.624    0.468    0.288   11.583
  141.250   65.078  160.177    0.474    0.310   12.693
  141.500   65.721  160.244    0.477    0.301   14.324
  141.750   61.852  160.336    0.463    0.288   15.580
  142.000   63.392  159.884    0.451    0.281   15.729
  142.250   75.480  160.461    0.444    0.245   15.300
  142.500   80.940  163.037    0.446    0.228   14.241
  142.750   88.211  165.621    0.448    0.260   13.541
  143.000   90.358  166.699    0.470    0.279   12.501
  143.250   88.597  166.749    0.468    0.277   11.720
  143.500   88.336  167.318    0.477    0.279   11.232
  143.750   85.977  168.388    0.496    0.279   10.845
  144.000   85.706  168.965    0.495    0.266   10.626
  144.250   83.037  168.029    0.478    0.246   10.419
  144.500   80.974  165.093    0.476    0.210   10.358
  144.750   83.418  162.642    0.477    0.206   10.459
  145.000   82.856  162.216    0.488    0.223   10.717
  145.250   86.213  163.286    0.494    0.245   11.310
  145.500   87.758  163.353    0.475    0.262   12.770
  145.750   85.691  160.409    0.462    0.234   17.101
  146.000   80.919  157.465    0.475    0.228   19.442
  146.250   82.158  159.037    0.452    0.249   22.783
  146.500   75.574  161.128    0.416    0.264   24.781
  146.750   70.195  161.688    0.402    0.192   25.772
  147.000   64.214  161.755    0.316    0.147   26.205
  147.250   64.555  162.833    0.287    0.095   26.653
  147.500   67.907  162.900    0.299    0.090   26.321
  147.750   76.086  162.457    0.320    0.108   24.481
