~VERSION INFORMATION
 VERS.                 2.0:   CWLS LOG ASCII STANDARD -VERSION 2.0
 WRAP.                  NO:   ONE LINE PER DEPTH STEP
~WELL INFORMATION BLOCK
#MNEM.UNIT           DATA                    DESCRIPTION OF MNEMONIC
#---------    -------------------            -------------------------------
# Generated from Intellog Unique Number	CX_WELLS/WELL/3051
WELL.         MLC ET AL MCADAMS              : Well_name    - WELL
LOC .         00/10-16-082-14W4/0            : Location     - LOCATION
UWI .         00/10-16-082-14W400            : Uwi          - UNIQUE WELL ID
ENTR.         TIM                            : Entered      - ENTERED BY
SRVC.         SCHLUMBERGER                   : Scn          - SERVICE COMPANY
STRT.M        135                            : top_depth    - START DEPTH
STOP.M        350                            : bot_depth    - STOP DEPTH
STEP.M        0.25                           : increment    - STEP LENGTH
 NULL. -999.2500:NULL Value
~CURVE INFORMATION BLOCK
#MNEM UNIT       ERCB CURVE CODE    CURVE DESCRIPTION
#-----------   ------------------   ----------------------------------
DEPT.M        00 001 00 00         : DEPTH        - DEPTH
GR  .API      00 310 00 00         : GR           - GAMMA RAY
NPHI.V/V      00 330 00 00         : PHIN         - NEUTRON POROSITY (SANDSTONE)
DPHI.V/V      00 890 00 00         : PHID         - DENSITY POROSITY (SANDSTONE)
ILD .OHMM     00 120 00 00         : RESD         - DEEP RESISTIVITY (OTHER)
~PARAMETER INFORMATION
#MNEM.UNIT           DATA             DESCRIPTION OF MNEMONIC
#---------         -----------     ------------------------------
GL  .M        581                  : gl           - GROUND LEVEL ELEVATION
EREF.M        584.4                : kb           - ELEVATION OF DEPTH REFERENCE
DATM.M        584.4                : datum        - DATUM ELEVATION
TDD .M        254                  : tdd          - TOTAL DEPTH DRILLER
RUN .         ONE                  : Run          - RUN NUMBER
ENG .         BILL                 : Engineer     - RECORDING ENGINEER
WIT .         JIM                  : Witness      - WITNESSED BY
MUD .         GEL                  : Mud_type     - MUD TYPE
MATR.         SANDSTONE            : Logunit      - NEUTRON MATRIX
TMAX.C        25                   : BHT          - MAXIMUM RECORDED TEMPERATURE
BHTD.M        254                  : BHTDEP       - MAXIMUM RECORDED TEMPERATURE
MATR.         1                    : LOGUNIT      - NEUTRON MATRIX
RMT .C        21                   : MDTP         - TEMPERATURE OF MUD
NEUT.         1                    : NEUTRON      - NEUTRON TYPE
RESI.         4                    : RESIST       - RESISTIVITY TYPE
RMC .OHMM     3.2                  : RMC          - RESISTIVITY OF MUD CAKE
RMF .OHMM     5                    : RMF          - RESISTIVITY OF MUD FILTRATE
SUFT.C        2                    : SUFT         - SURFACE TEMPERATURE
~A  DEPTH       GR     PHIN     PHID     RESD
  135.000   96.787    0.504    0.290    2.846
  135.250   98.011    0.527    0.294    2.845
  135.500   98.615    0.544    0.294    2.844
  135.750   99.836    0.543    0.287    2.736
  136.000   99.817    0.538    0.283    2.735
  136.250   99.188    0.536    0.283    2.787
  136.500   97.949    0.532    0.281    2.839
  136.750   95.468    0.533    0.280    2.948
  137.000   93.606    0.543    0.275    3.004
  137.250   92.974    0.537    0.267    3.060
  137.500   94.811    0.508    0.257    3.059
  137.750   97.881    0.490    0.252    3.057
  138.000  100.335    0.487    0.254    3.057
  138.250  100.939    0.494    0.259    3.174
  138.500  100.930    0.504    0.258    3.359
  138.750  100.914    0.513    0.252    3.294
  139.000  100.902    0.518    0.248    3.231
  139.250  100.889    0.524    0.246    3.230
  139.500  101.490    0.516    0.245    3.291
  139.750  101.481    0.510    0.238    3.550
  140.000  102.702    0.500    0.237    3.829
  140.250  103.306    0.494    0.238    3.901
  140.500  104.527    0.493    0.243    3.826
  140.750  104.514    0.492    0.245    3.682
  141.000  103.882    0.489    0.242    3.611
  141.250  104.486    0.488    0.238    3.409
  141.500  105.084    0.487    0.236    3.344
  141.750  105.078    0.486    0.234    3.343
  142.000  105.069    0.486    0.234    3.471
  142.250  102.587    0.491    0.235    3.816
  142.500  101.955    0.496    0.236    4.276
  142.750  101.327    0.498    0.239    4.883
  143.000   98.851    0.493    0.239    6.132
  143.250   93.907    0.482    0.239    8.153
  143.500   84.647    0.460    0.236    9.671
  143.750   75.387    0.397    0.241   11.472
  144.000   72.900    0.370    0.256   13.100
  144.250   71.660    0.335    0.298   13.347
  144.500   69.798    0.309    0.315   13.598
  144.750   70.403    0.299    0.315   13.854
  145.000   71.007    0.308    0.309   14.113
  145.250   71.611    0.323    0.314   12.828
  145.500   72.831    0.318    0.318   11.885
  145.750   75.898    0.303    0.301   11.881
  146.000   77.739    0.302    0.287   12.105
  146.250   80.192    0.341    0.285   13.056
  146.500   74.628    0.338    0.308   13.818
  146.750   67.835    0.314    0.345   14.905
  147.000   62.890    0.282    0.364   16.700
  147.250   60.409    0.264    0.363   17.674
  147.500   60.393    0.256    0.358   17.006
  147.750   61.004    0.262    0.350   16.058
  148.000   63.457    0.276    0.340   14.594
  148.250   67.757    0.295    0.334   13.781
  148.500   69.594    0.335    0.327   12.766
  148.750   71.425    0.356    0.319   12.523
  149.000   72.649    0.373    0.310   12.283
  149.250   74.489    0.396    0.302   13.502
  149.500   73.241    0.411    0.300   14.020
  149.750   65.833    0.410    0.310   14.557
  150.000   52.258    0.400    0.322   14.554
  150.250   49.777    0.391    0.332   14.547
  150.500   52.233    0.397    0.331   13.736
  150.750   55.920    0.396    0.312   11.792
  151.000   62.689    0.385    0.286   10.518
  151.250   70.072    0.386    0.252    9.030
  151.500   75.608    0.396    0.218    8.209
  151.750   78.678    0.413    0.138    8.687
  152.000   71.267    0.422    0.195   10.704
  152.250   55.843    0.414    0.312   12.459
  152.500   45.966    0.395    0.325   13.438
  152.750   45.951    0.386    0.347   13.181
  153.000   50.873    0.384    0.344   12.926
  153.250   56.407    0.379    0.338   12.678
  153.500   59.477    0.374    0.322   12.673
  153.750   62.544    0.382    0.312   12.431
  154.000   63.767    0.393    0.310   12.192
  154.250   61.906    0.408    0.315   11.511
  154.500   56.345    0.417    0.320   11.078
  154.750   50.784    0.417    0.321   10.070
  155.000   51.388    0.415    0.317    9.877
  155.250   61.856    0.410    0.308    9.504
  155.500   73.557    0.408    0.288    8.805
  155.750   82.176    0.413    0.258    8.157
  156.000   87.712    0.425    0.227    7.138
  156.250   95.097    0.426    0.204    7.000
  156.500  103.716    0.423    0.191    6.998
  156.750  106.170    0.413    0.187    7.266
  157.000  100.606    0.402    0.187    7.988
  157.250   97.511    0.386    0.192    8.616
  157.500   96.266    0.373    0.196    9.118
  157.750   95.634    0.377    0.200    9.470
  158.000   95.624    0.382    0.204   10.021
  158.250   94.376    0.382    0.208   10.407
  158.500   93.134    0.382    0.218   11.223
  158.750   91.272    0.382    0.224   12.573
  159.000   86.941    0.377    0.234   12.810
  159.250   81.996    0.351    0.257   12.808
  159.500   80.748    0.305    0.282   12.562
  159.750   86.287    0.284    0.276   11.859
  160.000   89.974    0.300    0.262   11.633
  160.250   91.811    0.339    0.194   11.196
  160.500   91.799    0.359    0.147   10.773
  160.750   91.786    0.372    0.155   10.567
  161.000   91.157    0.372    0.171    9.976
  161.250   90.528    0.375    0.192    9.419
  161.500   91.129    0.380    0.207    9.239
  161.750   92.963    0.391    0.213    9.062
  162.000   94.797    0.406    0.209    8.719
  162.250   95.408    0.411    0.202    8.717
  162.500   97.861    0.404    0.201    8.550
  162.750  100.928    0.397    0.201    8.385
  163.000  100.916    0.393    0.198    8.224
  163.250  100.904    0.391    0.196    7.914
  163.500  102.127    0.387    0.197    7.911
  163.750  102.112    0.400    0.198    7.760
  164.000  102.103    0.421    0.201    7.467
  164.250  103.317    0.426    0.199    7.324
  164.500  104.541    0.414    0.197    7.322
  164.750  106.375    0.398    0.195    7.181
  165.000  108.829    0.390    0.196    7.043
  165.250  109.433    0.389    0.197    7.041
  165.500  110.037    0.390    0.197    7.039
  165.750  109.408    0.399    0.197    6.904
  166.000  109.396    0.410    0.200    6.900
  166.250  108.764    0.431    0.205    6.768
  166.500  108.138    0.410    0.208    6.638
  166.750  107.506    0.385    0.210    6.636
  167.000  107.493    0.376    0.210    6.633
  167.250  107.484    0.383    0.208    6.630
  167.500  108.702    0.390    0.202    6.629
  167.750  110.539    0.411    0.203    6.625
  168.000  113.609    0.416    0.205    6.623
  168.250  114.830    0.425    0.202    6.747
  168.500  113.584    0.432    0.190    6.876
  168.750  113.575    0.421    0.187    7.140
  169.000  113.563    0.406    0.190    7.556
  169.250  106.766    0.372    0.226    8.792
  169.500   95.656    0.343    0.323    9.852
  169.750   75.299    0.322    0.342   11.251
  170.000   48.778    0.311    0.343   13.095
  170.250   37.052    0.311    0.342   15.533
  170.500   31.485    0.324    0.337   16.753
  170.750   33.941    0.331    0.333   16.748
  171.000   35.162    0.336    0.328   16.739
  171.250   34.533    0.331    0.326   16.736
  171.500   33.904    0.327    0.326   16.729
  171.750   32.042    0.330    0.327   16.721
  172.000   29.558    0.335    0.325   17.038
  172.250   28.935    0.334    0.325   17.033
  172.500   30.156    0.331    0.321   16.387
  172.750   36.305    0.331    0.318   16.075
  173.000   46.773    0.335    0.303   15.470
  173.250   54.776    0.340    0.272   14.607
  173.500   62.161    0.353    0.246   14.056
  173.750   66.464    0.357    0.221   13.270
  174.000   70.148    0.355    0.222   12.773
  174.250   71.985    0.351    0.227   12.059
  174.500   74.439    0.349    0.227   11.385
  174.750   76.895    0.349    0.220   10.751
  175.000   81.195    0.352    0.210   10.346
  175.250   83.035    0.397    0.203    9.402
  175.500   86.719    0.424    0.204    8.879
  175.750   89.786    0.438    0.205    8.545
  176.000   91.626    0.438    0.212    7.916
  176.250   94.083    0.430    0.218    7.619
  176.500   97.766    0.418    0.215    6.924
  176.750  102.063    0.413    0.208    6.538
  177.000  102.674    0.417    0.209    6.293
  177.250  103.278    0.427    0.215    5.829
  177.500  103.259    0.441    0.225    5.609
  177.750  103.253    0.446    0.215    5.502
  178.000  103.238    0.445    0.210    5.395
  178.250  103.842    0.440    0.204    5.394
