~VERSION INFORMATION
 VERS.                 2.0:   CWLS LOG ASCII STANDARD -VERSION 2.0
 WRAP.                  NO:   ONE LINE PER DEPTH STEP
~WELL INFORMATION BLOCK
#MNEM.UNIT           DATA                    DESCRIPTION OF MNEMONIC
#---------    -------------------            -------------------------------
# Generated from Intellog Unique Number	CS_69_70/WELL/901
WELL.         MAYNARD EXPLORATION            : Well_name    - WELL
LOC .         00/12-36-070-16W4/0            : Location     - LOCATION
UWI .         00/12-36-070-16W4/0            : Uwi          - UNIQUE WELL ID
ENTR.         SP                             : Entered      - ENTERED BY
SRVC.         SCHLUMBERGER                   : Scn          - SERVICE COMPANY
STRT.M        290                            : top_depth    - START DEPTH
STOP.M        510                            : bot_depth    - STOP DEPTH
STEP.M        0.25                           : increment    - STEP LENGTH
 NULL. -999.2500:NULL Value
~CURVE INFORMATION BLOCK
#MNEM UNIT       ERCB CURVE CODE    CURVE DESCRIPTION
#-----------   ------------------   ----------------------------------
DEPT.M        00 001 00 00         : DEPTH        - DEPTH
DPHI.V/V      00 890 00 00         : PHID         - DENSITY POROSITY (LIMESTONE)
NPHI.V/V      00 330 00 00         : PHIN         - NEUTRON POROSITY (LIMESTONE)
GR  .API      00 310 00 00         : GR           - GAMMA RAY
ILD .OHMM     00 120 00 00         : RESD         - DEEP RESISTIVITY (DIL)
~PARAMETER INFORMATION
#MNEM.UNIT           DATA             DESCRIPTION OF MNEMONIC
#---------         -----------     ------------------------------
GL  .M        589.04               : gl           - GROUND LEVEL ELEVATION
EREF.M        592.24               : kb           - ELEVATION OF DEPTH REFERENCE
DATM.M        589.04               : datum        - DATUM ELEVATION
TDD .M        509                  : tdd          - TOTAL DEPTH DRILLER
RUN .         ONE                  : Run          - RUN NUMBER
ENG .         BILL                 : Engineer     - RECORDING ENGINEER
WIT .         JIM                  : Witness      - WITNESSED BY
MUD .         GEL                  : Mud_type     - MUD TYPE
MATR.         LIMESTONE            : Logunit      - NEUTRON MATRIX
TMAX.C        21                   : BHT          - MAXIMUM RECORDED TEMPERATURE
BHTD.M        509                  : BHTDEP       - MAXIMUM RECORDED TEMPERATURE
MATR.         1                    : LOGUNIT      - NEUTRON MATRIX
RMT .C        25                   : MDTP         - TEMPERATURE OF MUD
NEUT.         1                    : NEUTRON      - NEUTRON TYPE
RESI.         0                    : RESIST       - RESISTIVITY TYPE
RMC .OHMM     0.25                 : RMC          - RESISTIVITY OF MUD CAKE
RMF .OHMM     0.25                 : RMF          - RESISTIVITY OF MUD FILTRATE
SUFT.C        15                   : SUFT         - SURFACE TEMPERATURE
~A  DEPTH     PHID     PHIN       GR     RESD
# ...
  464.000    0.111    0.344   84.699   11.745
  464.250    0.074    0.336   76.483   12.981
  464.500    0.095    0.330   71.313   13.194
  464.750    0.127    0.325   70.653   13.138
  465.000    0.167    0.321   71.211   14.806
  465.250    0.193    0.318   67.505   18.657
  465.500    0.221    0.322   64.772   20.416
  465.750    0.236    0.325   63.807   21.177
  466.000    0.242    0.328   64.305   21.734
  466.250    0.243    0.327   63.400   22.013
  466.500    0.243    0.323   61.766   22.161
  466.750    0.241    0.319   61.593   22.162
  467.000    0.236    0.314   63.430   21.877
  467.250    0.230    0.307   67.766   21.567
  467.500    0.219    0.295   72.040   21.029
  467.750    0.200    0.281   74.122   19.224
  468.000    0.138    0.270   72.609   16.470
  468.250    0.128    0.281   71.948   13.831
  468.500    0.147    0.301   73.605   12.704
  468.750    0.165    0.324   74.709   11.340
  469.000    0.183    0.327   75.694    9.846
  469.250    0.199    0.321   77.044    8.727
  469.500    0.191    0.315   82.172    8.058
  469.750    0.164    0.313   89.615    7.454
  470.000    0.147    0.326   94.682    6.932
  470.250    0.150    0.341   99.018    6.303
  470.500    0.158    0.353  104.269    5.994
  470.750    0.168    0.356  109.700    6.632
  471.000    0.158    0.352  114.888    7.753
  471.250    0.167    0.344  118.858    9.634
  471.500    0.171    0.334  120.147   11.540
  471.750    0.177    0.327  116.075   14.246
  472.000    0.197    0.320  108.896   17.076
  472.250    0.219    0.317   99.522   19.030
  472.500    0.230    0.325   88.687   20.176
  472.750    0.232    0.334   79.132   20.324
  473.000    0.221    0.339   67.565   16.124
  473.250    0.214    0.338   63.980   13.942
  473.500    0.205    0.331   64.172   11.271
  473.750    0.210    0.324   66.743   10.086
  474.000    0.205    0.318   71.627    9.483
  474.250    0.210    0.317   76.875    9.050
  474.500    0.209    0.317   83.954    8.700
  474.750    0.189    0.318   88.532    8.480
  475.000    0.178    0.322   93.661    8.285
  475.250    0.161    0.328   98.179    8.155
  475.500    0.144    0.334  101.478    8.156
  475.750    0.130    0.336  102.767    8.338
  476.000    0.127    0.331  100.523    8.567
  476.250    0.134    0.321   95.294    9.084
  476.500    0.145    0.309   91.831    9.501
  476.750    0.157    0.300   88.306    9.985
  477.000    0.164    0.299   78.384   10.517
  477.250    0.171    0.308   71.876   10.853
  477.500    0.168    0.314   72.007   11.067
  477.750    0.178    0.316   80.059   11.174
  478.000    0.182    0.310   85.127   11.101
  478.250    0.181    0.304   87.389   10.792
  478.500    0.176    0.300   85.389   10.450
  478.750    0.174    0.303   80.769    9.952
  479.000    0.173    0.308   75.234    9.111
  479.250    0.175    0.317   73.660    8.230
  479.500    0.170    0.319   78.605    7.274
  479.750    0.165    0.311   82.881    6.311
  480.000    0.185    0.302   84.474    5.789
  480.250    0.204    0.296   83.813    4.956
  480.500    0.226    0.297   64.265    4.042
  480.750    0.240    0.306   48.372    3.511
  481.000    0.273    0.312   42.715    3.578
  481.250    0.245    0.312   46.381    4.241
  481.500    0.199    0.308   52.667    5.084
  481.750    0.164    0.301   55.114    5.763
  482.000    0.165    0.303   57.805    6.320
  482.250    0.173    0.322   62.079    6.526
  482.500    0.184    0.362   66.841    6.061
  482.750    0.190    0.387   78.671    5.302
  483.000    0.169    0.407   91.780    4.763
  483.250    0.154    0.417  103.366    4.544
  483.500    0.140    0.398  110.505    4.676
  483.750    0.128    0.372  112.586    5.061
  484.000    0.142    0.348   92.611    5.610
  484.250    0.158    0.313   82.751    6.142
  484.500    0.166    0.318   77.521    6.552
  484.750    0.146    0.335   81.613    6.945
  485.000    0.134    0.348   91.249    7.216
  485.250    0.126    0.351  100.460    7.405
  485.500    0.122    0.345  103.333    7.569
  485.750    0.139    0.342  104.378    7.759
  486.000    0.151    0.338  103.903    7.874
  486.250    0.141    0.336  103.730    7.932
  486.500    0.137    0.335  103.678    7.827
  486.750    0.136    0.334  103.693    7.697
  487.000    0.147    0.336  103.757    7.584
  487.250    0.163    0.337  103.829    7.544
  487.500    0.161    0.337  104.268    7.537
  487.750    0.152    0.337  104.640    7.571
  488.000    0.154    0.336  105.321    7.613
  488.250    0.164    0.340  105.817    7.704
  488.500    0.176    0.348  104.731    7.737
  488.750    0.169    0.344  102.060    7.804
  489.000    0.165    0.333   97.438    7.813
  489.250    0.141    0.323   98.728    7.749
  489.500    0.126    0.316   99.347    7.529
  489.750    0.144    0.312   90.766    7.195
  490.000    0.167    0.313   80.540    6.845
  490.250    0.188    0.322   74.091    6.584
  490.500    0.172    0.329   67.155    6.552
  490.750    0.162    0.329   68.385    6.684
  491.000    0.162    0.321   74.608    6.792
  491.250    0.177    0.311   80.832    6.915
  491.500    0.176    0.308   85.900    6.941
  491.750    0.181    0.304   87.433    6.672
  492.000    0.211    0.303   79.278    5.864
  492.250    0.241    0.305   68.323    5.203
  492.500    0.253    0.309   62.420    4.493
  492.750    0.254    0.308   55.485    3.971
  493.000    0.249    0.315   50.133    3.637
  493.250    0.243    0.326   46.974    3.442
  493.500    0.247    0.331   45.765    3.279
  493.750    0.257    0.338   50.345    3.370
  494.000    0.237    0.343   56.143    3.535
  494.250    0.205    0.350   61.697    3.961
  494.500    0.135    0.353   68.165    4.338
  494.750    0.118    0.352   78.656    4.683
  495.000    0.112    0.347   87.499    5.035
  495.250    0.107    0.343   96.344    5.150
  495.500    0.118    0.342  103.908    5.528
  495.750    0.131    0.342  108.244    5.749
  496.000    0.138    0.349  111.788    6.061
  496.250    0.129    0.352  115.089    6.528
  496.500    0.123    0.351  117.656    7.044
  496.750    0.115    0.346  119.799    7.470
  497.000    0.125    0.340  121.149    7.700
  497.250    0.141    0.335  117.990    7.782
  497.500    0.137    0.334  115.989    7.816
  497.750    0.134    0.336  115.755    7.727
  498.000    0.140    0.339  118.447    7.401
  498.250    0.152    0.341  120.649    6.700
  498.500    0.166    0.340  117.980    5.818
  498.750    0.162    0.339  113.845    4.724
  499.000    0.127    0.340  110.261    3.907
  499.250    0.095    0.346  108.259    3.377
  499.500    0.089    0.349  107.904    3.067
  499.750    0.088    0.349  109.071    3.428
  500.000    0.099    0.348  110.604    4.549
  500.250    0.114    0.348  113.600    6.643
  500.500    0.110    0.350  116.107    7.935
  500.750    0.133    0.352  118.068    8.378
  501.000    0.142    0.354  118.990    8.558
  501.250    0.136    0.354  119.671    8.363
  501.500    0.141    0.362  122.727    7.964
  501.750    0.130    0.367  127.306    7.491
  502.000    0.117    0.366  133.105    7.018
  502.250    0.099    0.358  139.024    6.520
  502.500    0.084    0.349  143.664    6.203
  502.750    0.103    0.345  141.785    6.048
  503.000    0.136    0.348  149.106    6.736
  503.250    0.165    0.352  119.444    7.579
  503.500    0.153    0.345  110.376    8.095
  503.750    0.145    0.338  104.963    8.513
  504.000    0.139    0.331  102.536    8.743
  504.250    0.132    0.325  101.205    8.556
  504.500    0.126    0.324  100.301    7.748
  504.750    0.117    0.328  100.616    6.065
  505.000    0.091    0.333  106.049    5.396
  505.250    0.073    0.335  110.080    4.955
  505.500    0.080    0.338  112.343    4.695
  505.750    0.127    0.339  114.001    4.467
  506.000    0.117    0.340  114.191    4.199
  506.250    0.104    0.345  115.969    4.118
  506.500    0.109    0.346  117.561    4.103
  506.750    0.156    0.345  115.744    4.104
  507.000    0.211    0.343  110.879    4.121
  507.250    0.226    0.350  108.756    4.171
