~VERSION INFORMATION
 VERS.                 2.0:   CWLS LOG ASCII STANDARD -VERSION 2.0
 WRAP.                  NO:   ONE LINE PER DEPTH STEP
~WELL INFORMATION BLOCK
#MNEM.UNIT           DATA                    DESCRIPTION OF MNEMONIC
#---------    -------------------            -------------------------------
# Generated from Intellog Unique Number	CS_73_76/WELL/3233
WELL.         10-08-076-08W4                 : Well_name    - WELL
LOC .         00/10-08-076-08W4/0            : Location     - LOCATION
UWI .         00/10-08-076-08W4/0            : Uwi          - UNIQUE WELL ID
ENTR.         SP                             : Entered      - ENTERED BY
SRVC.         SCHLUMBERGER                   : Scn          - SERVICE COMPANY
STRT.M        225                            : top_depth    - START DEPTH
STOP.M        455                            : bot_depth    - STOP DEPTH
STEP.M        0.25                           : increment    - STEP LENGTH
 NULL. -999.2500:NULL Value
~CURVE INFORMATION BLOCK
#MNEM UNIT       ERCB CURVE CODE    CURVE DESCRIPTION
#-----------   ------------------   ----------------------------------
DEPT.M        00 001 00 00         : DEPTH        - DEPTH
ILD .OHMM     00 120 00 00         : RESD         - DEEP RESISTIVITY (DIL)
GR  .API      00 310 00 00         : GR           - GAMMA RAY
DPHI.V/V      00 890 00 00         : PHID         - DENSITY POROSITY (LIMESTONE)
NPHI.V/V      00 330 00 00         : PHIN         - NEUTRON POROSITY (LIMESTONE)
~PARAMETER INFORMATION
#MNEM.UNIT           DATA             DESCRIPTION OF MNEMONIC
#---------         -----------     ------------------------------
GL  .M        630.79               : gl           - GROUND LEVEL ELEVATION
EREF.M        634.29               : kb           - ELEVATION OF DEPTH REFERENCE
DATM.M        630.79               : datum        - DATUM ELEVATION
TDD .M        462                  : tdd          - TOTAL DEPTH DRILLER
RUN .         ONE                  : Run          - RUN NUMBER
ENG .         BILL                 : Engineer     - RECORDING ENGINEER
WIT .         JIM                  : Witness      - WITNESSED BY
MUD .         GEL                  : Mud_type     - MUD TYPE
MATR.         LIMESTONE            : Logunit      - NEUTRON MATRIX
TMAX.C        29                   : BHT          - MAXIMUM RECORDED TEMPERATURE
BHTD.M        462                  : BHTDEP       - MAXIMUM RECORDED TEMPERATURE
MATR.         1                    : LOGUNIT      - NEUTRON MATRIX
RMT .C        25                   : MDTP         - TEMPERATURE OF MUD
NEUT.         1                    : NEUTRON      - NEUTRON TYPE
RESI.         0                    : RESIST       - RESISTIVITY TYPE
RMC .OHMM     0.25                 : RMC          - RESISTIVITY OF MUD CAKE
RMF .OHMM     0.25                 : RMF          - RESISTIVITY OF MUD FILTRATE
SUFT.C        15                   : SUFT         - SURFACE TEMPERATURE
~A  DEPTH     RESD       GR     PHID     PHIN
  225.000    3.764  102.859    0.234    0.408
  225.250    3.694  104.699    0.235    0.447
  225.500    3.694  103.477    0.241    0.462
  225.750    3.907   93.072    0.228    0.407
  226.000    3.981   98.585    0.225    0.377
  226.250    4.210  106.547    0.222    0.360
  226.500    4.210   97.979    0.217    0.320
  226.750    4.210   92.472    0.234    0.331
  227.000    4.055   93.087    0.230    0.378
  227.250    3.980   99.213    0.228    0.433
  227.500    3.980  101.053    0.231    0.365
  227.750    3.980   99.219    0.240    0.371
  228.000    4.055   97.997    0.239    0.384
  228.250    4.131   89.429    0.224    0.382
  228.500    4.131   86.370    0.229    0.362
  228.750    4.209   86.374    0.244    0.365
  229.000    4.451   86.989    0.246    0.313
  229.250    4.451   96.176    0.231    0.348
  229.500    4.451   96.179    0.214    0.376
  229.750    4.620   84.549    0.201    0.395
  230.000    5.466   71.695    0.175    0.353
  230.250    6.967   50.269    0.094    0.353
  230.500    9.218   41.701    0.132    0.334
  230.750   11.319   44.153    0.316    0.353
  231.000   17.068   58.850    0.316    0.327
  231.250   17.389   57.628    0.302    0.307
  231.500   16.752   57.632    0.312    0.334
  231.750   16.137   67.431    0.299    0.372
  232.000   16.441   71.107    0.289    0.390
  232.250   17.066   70.498    0.302    0.397
  232.500   18.735   71.114    0.310    0.388
  232.750   19.448   74.790    0.297    0.384
  233.000   19.447   74.181    0.307    0.404
  233.250   19.813   70.510    0.314    0.382
  233.500   19.446   66.839    0.266    0.376
  233.750   19.446   65.007    0.278    0.360
  234.000   18.733   76.642    0.292    0.337
  234.250   18.386   81.544    0.280    0.356
  234.500   17.712   83.383    0.252    0.348
  234.750   16.437   87.672    0.246    0.338
  235.000   15.541   88.899    0.250    0.335
  235.250   14.422   88.290    0.232    0.352
  235.500   13.637   80.946    0.227    0.376
  235.750   14.422   65.030    0.252    0.437
  236.000   16.131   50.340    0.278    0.482
  236.250   20.949   26.464    0.297    0.464
  236.500   25.724   16.059    0.302    0.425
  236.750   29.867   16.675    0.298    0.305
  237.000   35.997   19.127    0.300    0.290
  237.250   39.518   20.354    0.302    0.283
  237.500   39.517   18.520    0.307    0.290
  237.750   39.516   16.687    0.311    0.345
  238.000   39.515   19.139    0.313    0.363
  238.250   39.514   23.428    0.311    0.385
  238.500   39.513   27.105    0.317    0.374
  238.750   39.512   24.047    0.314    0.340
  239.000   39.511   23.437    0.311    0.292
  239.250   39.511   36.910    0.307    0.284
  239.500   39.510   49.157    0.303    0.284
  239.750   38.778   42.427    0.303    0.320
  240.000   38.777   56.511    0.309    0.336
  240.250   38.059   69.984    0.312    0.346
  240.500   36.663   68.762    0.314    0.360
  240.750   35.319   60.806    0.319    0.356
  241.000   33.394   44.278    0.328    0.353
  241.250   31.574   40.607    0.318    0.304
  241.500   30.417   48.570    0.331    0.319
  241.750   27.705   52.859    0.373    0.424
  242.000   26.195   47.351    0.338    0.409
  242.250   25.710   43.069    0.325    0.385
  242.500   26.688   39.399    0.323    0.377
  242.750   28.756   41.850    0.318    0.391
  243.000   27.702   41.241    0.342    0.366
  243.250   27.189   36.959    0.350    0.349
  243.500   26.192   40.635    0.340    0.347
  243.750   26.191   46.761    0.331    0.349
  244.000   26.684   47.988    0.330    0.345
  244.250   26.683   46.767    0.326    0.341
  244.500   26.189   54.729    0.331    0.366
  244.750   25.704   60.855    0.334    0.394
  245.000   24.761   58.409    0.333    0.404
  245.250   24.761   55.962    0.336    0.405
  245.500   23.853   48.006    0.330    0.445
  245.750   22.553   58.418    0.325    0.423
  246.000   20.543   60.870    0.317    0.415
  246.250   19.423   61.486    0.312    0.345
  246.500   17.692   63.325    0.303    0.345
  246.750   15.817   74.349    0.288    0.357
  247.000   13.123   98.229    0.279    0.335
  247.250   11.732  103.130    0.257    0.299
  247.500    9.917   96.399    0.124    0.390
  247.750    7.926  100.075    0.150    0.422
  248.000    6.700  119.058    0.181    0.449
  248.250    5.879  120.286    0.204    0.427
  248.500    5.256  111.717    0.205    0.399
  248.750    4.788  105.598    0.161    0.381
  249.000    4.361  117.233    0.173    0.367
  249.250    4.123  116.012    0.187    0.368
  249.500    3.899  117.240    0.214    0.396
  249.750    4.526   95.202    0.236    0.418
  250.000    5.770   79.286    0.293    0.388
  250.250    7.634   62.758    0.314    0.361
  250.500   10.884   57.251    0.309    0.396
  250.750   17.358   61.540    0.301    0.383
  251.000   19.056   64.604    0.305    0.361
  251.250   19.414   60.934    0.308    0.332
  251.500   19.055   63.998    0.316    0.319
  251.750   18.702   56.654    0.321    0.313
  252.000   18.701   67.067    0.326    0.361
  252.250   19.053   67.069    0.325    0.381
  252.500   19.053   65.847    0.316    0.365
  252.750   19.052   72.585    0.313    0.335
  253.000   18.354   74.425    0.310    0.313
  253.250   17.681   78.101    0.304    0.331
  253.500   17.032   73.819    0.298    0.347
  253.750   16.408   70.148    0.301    0.345
  254.000   16.407   75.662    0.315    0.347
  254.250   15.806   79.951    0.304    0.357
  254.500   14.944   81.790    0.298    0.332
  254.750   13.612   84.242    0.287    0.312
  255.000   11.294   97.103    0.261    0.313
  255.250    9.727  110.575    0.232    0.376
  255.500    8.696  120.374    0.206    0.397
  255.750    7.774  115.479    0.183    0.380
  256.000    7.081   91.605    0.157    0.376
  256.250    6.450   98.955    0.134    0.390
  256.500    6.098  114.876    0.154    0.403
  256.750    5.875  110.594    0.173    0.368
  257.000    5.874  114.882    0.102    0.390
  257.250    6.098  121.620    0.114    0.397
  257.500    6.949  122.848    0.133    0.357
  257.750    8.375  114.280    0.213    0.351
  258.000   10.284  105.711    0.258    0.368
  258.250   11.941  106.326    0.272    0.395
  258.500   13.607  102.655    0.286    0.424
  258.750   14.391   92.250    0.297    0.409
  259.000   14.938   90.417    0.276    0.420
  259.250   14.938   91.644    0.267    0.418
  259.500   14.661   96.546    0.259    0.391
  259.750   13.107   94.100    0.261    0.363
  260.000   12.393   98.388    0.264    0.358
  260.250   11.718  111.249    0.258    0.337
  260.500   11.938  110.640    0.260    0.302
  260.750   11.938  100.234    0.238    0.289
  261.000   11.938  103.911    0.244    0.337
  261.250   11.500   91.056    0.288    0.436
  261.500   14.121   58.610    0.306    0.433
  261.750   18.000   53.104    0.304    0.381
  262.000   21.293   56.167    0.314    0.401
  262.250   23.375   54.334    0.317    0.461
  262.500   24.264   57.398    0.300    0.472
  262.750   24.264   61.075    0.308    0.450
  263.000   23.814   59.241    0.325    0.395
  263.250   23.373   62.306    0.322    0.377
  263.500   21.691   65.369    0.315    0.357
  263.750   20.509   70.883    0.314    0.332
  264.000   19.757   80.070    0.286    0.332
  264.250   18.335   76.400    0.256    0.338
  264.500   16.700   72.729    0.212    0.341
  264.750   14.117   81.303    0.238    0.346
  265.000   12.158   91.102    0.254    0.354
  265.250   10.668  103.963    0.234    0.364
  265.500    9.717  107.639    0.208    0.330
  265.750    8.369  111.928    0.210    0.348
  266.000    7.913  108.870    0.196    0.354
  266.250    7.482  105.811    0.163    0.364
  266.500    7.766   97.855    0.156    0.396
  266.750    8.850   91.736    0.191    0.399
  267.000   10.086   75.209    0.257    0.336
  267.250   11.493   84.396    0.234    0.316
  267.500   11.930   92.358    0.228    0.308
  267.750   11.280  100.932    0.223    0.301
  268.000   10.275  102.160    0.228    0.319
  268.250    9.715  121.142    0.207    0.342
