~VERSION INFORMATION
 VERS.                 2.0:   CWLS LOG ASCII STANDARD -VERSION 2.0
 WRAP.                  NO:   ONE LINE PER DEPTH STEP
~WELL INFORMATION BLOCK
#MNEM.UNIT           DATA                    DESCRIPTION OF MNEMONIC
#---------    -------------------            -------------------------------
# Generated from Intellog Unique Number	CS_71_72/WELL/916
WELL.         AEC IPIATIK PAPA               : Well_name    - WELL
LOC .         00/12-18-071-04W4/0            : Location     - LOCATION
UWI .         00/12-18-071-04W4/0            : Uwi          - UNIQUE WELL ID
ENTR.         SP                             : Entered      - ENTERED BY
SRVC.         SCHLUMBERGER                   : Scn          - SERVICE COMPANY
STRT.M        290                            : top_depth    - START DEPTH
STOP.M        520                            : bot_depth    - STOP DEPTH
STEP.M        0.25                           : increment    - STEP LENGTH
 NULL. -999.2500:NULL Value
~CURVE INFORMATION BLOCK
#MNEM UNIT       ERCB CURVE CODE    CURVE DESCRIPTION
#-----------   ------------------   ----------------------------------
DEPT.M        00 001 00 00         : DEPTH        - DEPTH
ILD .OHMM     00 120 00 00         : RESD         - DEEP RESISTIVITY (DIL)
DPHI.V/V      00 890 00 00         : PHID         - DENSITY POROSITY (LIMESTONE)
NPHI.V/V      00 330 00 00         : PHIN         - NEUTRON POROSITY (LIMESTONE)
GR  .API      00 310 00 00         : GR           - GAMMA RAY
~PARAMETER INFORMATION
#MNEM.UNIT           DATA             DESCRIPTION OF MNEMONIC
#---------         -----------     ------------------------------
GL  .M        669.95               : gl           - GROUND LEVEL ELEVATION
EREF.M        674.21               : kb           - ELEVATION OF DEPTH REFERENCE
DATM.M        669.95               : datum        - DATUM ELEVATION
TDD .M        545                  : tdd          - TOTAL DEPTH DRILLER
RUN .         ONE                  : Run          - RUN NUMBER
ENG .         BILL                 : Engineer     - RECORDING ENGINEER
WIT .         JIM                  : Witness      - WITNESSED BY
MUD .         GEL                  : Mud_type     - MUD TYPE
MATR.         LIMESTONE            : Logunit      - NEUTRON MATRIX
TMAX.C        22                   : BHT          - MAXIMUM RECORDED TEMPERATURE
BHTD.M        545                  : BHTDEP       - MAXIMUM RECORDED TEMPERATURE
MATR.         1                    : LOGUNIT      - NEUTRON MATRIX
RMT .C        25                   : MDTP         - TEMPERATURE OF MUD
NEUT.         1                    : NEUTRON      - NEUTRON TYPE
RESI.         0                    : RESIST       - RESISTIVITY TYPE
RMC .OHMM     0.25                 : RMC          - RESISTIVITY OF MUD CAKE
RMF .OHMM     0.25                 : RMF          - RESISTIVITY OF MUD FILTRATE
SUFT.C        15                   : SUFT         - SURFACE TEMPERATURE
~A  DEPTH     RESD     PHID     PHIN       GR
# ...
  464.000    9.592    0.163    0.438   78.800
  464.250   10.000    0.146    0.425   75.651
  464.500   10.005    0.106    0.378   70.861
  464.750    9.682    0.007    0.352   68.012
  465.000    9.264    0.058    0.370   68.766
  465.250    8.881    0.142    0.397   72.144
  465.500    8.672    0.165    0.418   74.912
  465.750    8.440    0.179    0.433   76.274
  466.000    8.399    0.175    0.438   77.394
  466.250    8.402    0.165    0.424   78.217
  466.500    8.456    0.156    0.422   78.230
  466.750    8.570    0.150    0.442   76.127
  467.000    8.852    0.161    0.450   73.883
  467.250    9.472    0.174    0.420   69.155
  467.500   10.288    0.189    0.387   66.917
  467.750   10.926    0.191    0.365   64.011
  468.000   11.583    0.200    0.363   60.072
  468.250   12.008    0.219    0.369   58.261
  468.500   11.926    0.232    0.377   59.205
  468.750   11.712    0.238    0.384   59.772
  469.000   11.312    0.217    0.395   60.159
  469.250   11.008    0.210    0.401   60.546
  469.500   11.034    0.210    0.402   60.995
  469.750   11.164    0.219    0.396   61.322
  470.000   11.404    0.228    0.386   61.595
  470.250   11.537    0.211    0.384   61.797
  470.500   11.674    0.195    0.394   62.065
  470.750   11.769    0.187    0.402   61.717
  471.000   11.932    0.196    0.407   60.829
  471.250   12.208    0.202    0.411   60.361
  471.500   12.774    0.199    0.400   59.836
  471.750   13.292    0.185    0.391   59.368
  472.000   13.756    0.200    0.407   58.291
  472.250   14.022    0.206    0.408   56.790
  472.500   14.347    0.208    0.404   55.227
  472.750   14.957    0.210    0.400   53.309
  473.000   15.975    0.227    0.396   52.104
  473.250   17.547    0.217    0.405   50.660
  473.500   19.021    0.234    0.414   48.973
  473.750   22.302    0.251    0.420   47.109
  474.000   26.194    0.236    0.424   46.456
  474.250   31.464    0.235    0.423   44.893
  474.500   35.670    0.241    0.405   40.158
  474.750   39.619    0.250    0.408   36.276
  475.000   40.239    0.279    0.408   33.616
  475.250   36.545    0.293    0.406   38.093
  475.500   30.124    0.302    0.405   42.387
  475.750   26.750    0.305    0.409   44.967
  476.000   23.187    0.292    0.414   47.245
  476.250   21.777    0.272    0.419   48.242
  476.500   21.791    0.253    0.423   48.264
  476.750   22.504    0.240    0.429   46.763
  477.000   24.261    0.238    0.432   44.344
  477.250   28.391    0.260    0.423   40.221
  477.500   37.156    0.268    0.407   36.523
  477.750   42.123    0.275    0.387   35.814
  478.000   38.397    0.283    0.394   36.567
  478.250   31.709    0.288    0.405   39.517
  478.500   31.492    0.277    0.413   42.956
  478.750   35.242    0.267    0.420   44.931
  479.000   37.289    0.259    0.429   45.388
  479.250   36.489    0.256    0.434   45.156
  479.500   32.043    0.261    0.429   44.263
  479.750   27.774    0.272    0.422   43.918
  480.000   32.992    0.264    0.418   46.807
  480.250   43.664    0.242    0.431   47.685
  480.500   60.766    0.228    0.450   43.988
  480.750   74.228    0.287    0.465   40.348
  481.000   86.706    0.302    0.439   35.736
  481.250   97.197    0.307    0.405   32.528
  481.500  106.558    0.302    0.390   30.720
  481.750  114.451    0.301    0.412   28.912
  482.000  124.784    0.305    0.401   27.350
  482.250  136.811    0.307    0.394   25.671
  482.500  145.842    0.294    0.397   24.716
  482.750  152.885    0.281    0.404   24.001
  483.000  157.886    0.289    0.402   23.478
  483.250  162.764    0.302    0.399   23.313
  483.500  167.490    0.309    0.403   23.277
  483.750  169.472    0.304    0.412   22.873
  484.000  169.276    0.302    0.406   22.470
  484.250  170.326    0.302    0.402   21.878
  484.500  173.291    0.304    0.402   22.879
  484.750  178.648    0.304    0.399   24.245
  485.000  184.850    0.300    0.402   25.119
  485.250  193.078    0.291    0.418   25.940
  485.500  201.652    0.298    0.425   25.234
  485.750  209.048    0.304    0.440   24.513
  486.000  215.909    0.307    0.444   22.400
  486.250  220.515    0.296    0.440   21.204
  486.500  220.238    0.287    0.429   21.291
  486.750  211.574    0.287    0.412   21.552
  487.000  202.468    0.295    0.403   22.307
  487.250  196.610    0.289    0.397   23.366
  487.500  193.044    0.285    0.429   24.125
  487.750  184.357    0.284    0.464   24.509
  488.000  169.956    0.297    0.483   24.837
  488.250  160.812    0.309    0.481   24.865
  488.500  155.289    0.319    0.482   25.137
  488.750  151.099    0.332    0.498   25.160
  489.000  148.412    0.311    0.511   25.119
  489.250  147.385    0.295    0.505   24.835
  489.500  144.759    0.283    0.482   24.494
  489.750  141.896    0.296    0.461   24.332
  490.000  135.536    0.305    0.445   24.109
  490.250  130.887    0.300    0.440   23.820
  490.500  124.310    0.287    0.443   23.779
  490.750  117.831    0.277    0.435   23.677
  491.000  109.032    0.267    0.423   23.890
  491.250  100.698    0.285    0.410   24.040
  491.500   94.913    0.295    0.396   24.051
  491.750   89.638    0.287    0.383   24.314
  492.000   84.183    0.282    0.394   24.648
  492.250   77.313    0.297    0.411   24.864
  492.500   69.820    0.291    0.409   24.706
  492.750   59.514    0.278    0.389   23.611
  493.000   47.346    0.281    0.377   23.510
  493.250   36.904    0.276    0.368   24.022
  493.500   27.970    0.284    0.371   24.777
  493.750   23.576    0.294    0.388   25.287
  494.000   20.705    0.302    0.398   25.615
  494.250   18.388    0.283    0.391   25.942
  494.500   16.699    0.267    0.390   26.328
  494.750   15.109    0.253    0.383   27.876
  495.000   13.697    0.274    0.366   33.447
  495.250   12.672    0.278    0.348   39.507
  495.500   11.444    0.265    0.339   44.468
  495.750   10.335    0.255    0.332   47.295
  496.000    8.859    0.241    0.351   46.280
  496.250    8.015    0.215    0.374   43.985
  496.500    7.584    0.199    0.384   35.166
  496.750    7.257    0.200    0.389   30.554
  497.000    6.943    0.281    0.383   27.588
  497.250    6.557    0.293    0.371   25.481
  497.500    6.159    0.303    0.373   24.225
  497.750    5.960    0.297    0.377   24.303
  498.000    5.896    0.282    0.382   25.727
  498.250    5.845    0.287    0.386   26.417
  498.500    5.773    0.299    0.390   26.196
  498.750    5.701    0.302    0.393   25.733
  499.000    5.568    0.308    0.391   25.510
  499.250    5.338    0.312    0.387   25.786
  499.500    5.059    0.318    0.386   25.983
  499.750    4.743    0.309    0.395   27.834
  500.000    4.446    0.311    0.395   30.050
  500.250    4.099    0.319    0.387   32.572
  500.500    3.716    0.315    0.381   35.035
  500.750    3.522    0.294    0.387   35.057
  501.000    3.295    0.278    0.401   33.005
  501.250    3.147    0.284    0.413   29.922
  501.500    3.039    0.302    0.400   27.805
  501.750    2.958    0.313    0.383   26.489
  502.000    2.932    0.315    0.381   25.777
  502.250    2.911    0.318    0.402   25.373
  502.500    2.844    0.324    0.409   25.274
  502.750    2.803    0.326    0.395   25.483
  503.000    2.769    0.332    0.384   25.990
  503.250    2.750    0.331    0.373   28.146
  503.500    2.756    0.318    0.378   30.483
  503.750    2.763    0.317    0.390   33.129
  504.000    2.780    0.311    0.398   35.417
  504.250    2.792    0.295    0.404   36.534
  504.500    2.837    0.291    0.410   36.914
  504.750    2.892    0.294    0.411   36.571
  505.000    2.936    0.299    0.415   35.267
  505.250    3.050    0.303    0.416   34.972
  505.500    3.246    0.309    0.394   36.577
  505.750    3.434    0.309    0.374   44.102
  506.000    3.641    0.283    0.364   47.598
  506.250    3.810    0.260    0.362   48.657
  506.500    3.876    0.246    0.369   43.255
  506.750    3.647    0.271    0.379   36.147
  507.000    3.368    0.290    0.373   33.053
  507.250    3.151    0.300    0.369   30.148
