~VERSION INFORMATION
 VERS.                 2.0:   CWLS LOG ASCII STANDARD -VERSION 2.0
 WRAP.                  NO:   ONE LINE PER DEPTH STEP
~WELL INFORMATION BLOCK
#MNEM.UNIT           DATA                    DESCRIPTION OF MNEMONIC
#---------    -------------------            -------------------------------
# Generated from Intellog Unique Number	CW_70_72/WELL/3020
NULL.         -999.25                        : NULL_VALUE
WELL.         SUNDANCE ET AL CALLS 10-08     : Well_name    - WELL              
LOC .         10-08-070-23W4                 : Location     - LOCATION          
UWI .         00/10-08-070-23W4/0            : Uwi          - UNIQUE WELL ID    
ENTR.         jj                             : Entered      - ENTERED BY        
SRVC.         SCHLUMBERGER                   : Scn          - SERVICE COMPANY   
DATE.         17 MAR 76                      : Date         - LOG DATE
STRT.M        396.24                         : top_depth    - START DEPTH       
STOP.M        575.99                         : bot_depth    - STOP DEPTH        
STEP.M        0.25                           : increment    - STEP LENGTH       
~CURVE INFORMATION BLOCK
#MNEM UNIT       ERCB CURVE CODE    CURVE DESCRIPTION
#-----------   ------------------   ----------------------------------
DEPT.M        00 001 00 00         : DEPTH        - DEPTH                       
ILD .OHMM     00 120 00 00         : RESD         - DEEP RESISTIVITY (DIL)      
CALI.MM       00 280 01 00         : CAL          - CALIPER                     
GR  .API      00 310 00 00         : GR           - GAMMA RAY                   
NPHI.V/V      00 330 00 00         : PHIN         - NEUTRON POROSITY (SANDSTONE)
DPHI.V/V      00 890 00 00         : PHID         - DENSITY POROSITY (SANDSTONE)
~PARAMETER INFORMATION       
#MNEM.UNIT           DATA             DESCRIPTION OF MNEMONIC
#---------         -----------     ------------------------------
GL  .M        615.391              : gl           - GROUND LEVEL ELEVATION      
EREF.M        618.744              : kb           - ELEVATION OF DEPTH REFERENCE
DATM.M        615.391              : datum        - DATUM ELEVATION             
TDD .M        586.74               : tdd          - TOTAL DEPTH DRILLER         
RUN .         ONE                  : Run          - RUN NUMBER                  
BASE.         EDM                  : Branch       - HOME BASE OF LOGGING UNIT   
MUD .         GEL CHEM             : Mud_type     - MUD TYPE                    
MATR.         SANDSTONE            : Logunit      - NEUTRON MATRIX              
TMAX.C        26.1111              : BHT          - MAXIMUM RECORDED TEMPERATURE
BHTD.M        586.74               : BHTDEP       - MAXIMUM RECORDED TEMPERATURE
RMT .C        -17.7778             : MDTP         - TEMPERATURE OF MUD          
MUDD.KG/M     1068                 : MWT          - MUD DENSITY                 
NEUT.         1                    : NEUTRON      - NEUTRON TYPE                
RESI.         0                    : RESIST       - RESISTIVITY TYPE            
RM  .OHMM     2.65                 : RM           - RESISTIVITY OF MUD          
RMC .OHMM     0.25                 : RMC          - RESISTIVITY OF MUD CAKE     
RMF .OHMM     2.72                 : RMF          - RESISTIVITY OF MUD FILTRATE 
SUFT.C        -17.7778             : SUFT         - SURFACE TEMPERATURE         
~A  DEPTH     RESD      CAL       GR     PHIN     PHID
# ...
  432.740    3.438  150.704  107.917    0.484    0.225
  432.990    3.386  150.444   99.994    0.463    0.234
  433.240    3.318  149.860   92.335    0.443    0.260
  433.490    3.246  149.589   95.871    0.460    0.278
  433.740    3.209  149.450  100.182    0.457    0.297
  433.990    3.215  149.392  100.289    0.430    0.300
  434.240    3.243  149.572   94.766    0.401    0.291
  434.490    3.332  149.547   88.533    0.418    0.266
  434.740    3.519  149.488   81.910    0.422    0.254
  434.990    3.778  149.563   76.382    0.394    0.252
  435.240    4.323  149.523   69.374    0.252    0.207
  435.490    6.038  149.265   62.035    0.195    0.115
  435.740    8.496  149.327   57.940    0.115   -0.004
  435.990   11.800  149.710   55.461    0.102   -0.009
  436.240   15.349  149.893   51.158    0.097   -0.006
  436.490   24.187  149.967   61.486    0.099   -0.003
  436.740   39.526  149.912   64.690    0.108   -0.011
  436.990   44.583  149.994   57.356    0.108   -0.014
  437.240   45.579  149.833   51.513    0.100   -0.014
  437.490   45.301  149.789   55.049    0.092   -0.014
  437.740   43.110  149.634   59.040    0.096   -0.014
  437.990   37.037  149.485   60.621    0.109   -0.011
  438.240   29.143  149.548   65.586    0.144    0.007
  438.490   19.419  149.399   72.739    0.174    0.039
  438.740   13.252  149.361   82.729    0.222    0.075
  438.990    8.149  149.199   95.904    0.318    0.171
  439.240    5.972  148.954  102.345    0.364    0.193
  439.490    4.901  149.011   98.564    0.424    0.176
  439.740    4.613  149.200   84.577    0.438    0.194
  439.990    4.845  149.254   74.658    0.431    0.166
  440.240    5.495  149.647   70.031    0.350    0.130
  440.490    6.243  149.399   78.609    0.231    0.064
  440.740    6.582  149.572   90.618    0.256    0.165
  440.990    6.016  149.846   97.644    0.366    0.197
  441.240    5.302  150.138  100.010    0.387    0.225
  441.490    4.657  150.097   97.460    0.410    0.252
  441.740    4.111  149.843   98.348    0.429    0.247
  441.990    3.577  149.691  103.295    0.434    0.244
  442.240    3.282  149.534  100.881    0.432    0.259
  442.490    3.123  149.599   94.906    0.439    0.238
  442.740    3.129  149.553   97.722    0.448    0.220
  442.990    3.197  149.398  104.166    0.456    0.236
  443.240    3.309  149.365  100.390    0.452    0.232
  443.490    3.437  149.531  100.179    0.439    0.210
  443.740    3.577  149.060  102.083    0.432    0.184
  443.990    3.683  148.689  106.006    0.453    0.202
  444.240    3.743  148.870  108.251    0.442    0.206
  444.490    3.728  148.604  109.065    0.455    0.208
  444.740    3.660  148.232  108.912    0.450    0.231
  444.990    3.546  147.982  107.326    0.441    0.224
  445.240    3.399  147.857  103.490    0.432    0.224
  445.490    3.184  147.890   90.725    0.469    0.233
  445.740    2.996  147.615   82.939    0.452    0.279
  445.990    2.799  147.048   77.417    0.427    0.284
  446.240    2.591  147.095   73.505    0.420    0.298
  446.490    2.457  146.833   69.600    0.417    0.309
  446.740    2.338  147.009   67.957    0.407    0.309
  446.990    2.266  147.292   65.801    0.420    0.303
  447.240    2.212  147.690   62.927    0.417    0.310
  447.490    2.172  147.765   59.929    0.412    0.306
  447.740    2.168  147.719   62.757    0.403    0.295
  447.990    2.187  147.905   66.605    0.426    0.317
  448.240    2.214  147.957   71.565    0.432    0.307
  448.490    2.259  147.936   75.486    0.415    0.298
  448.740    2.369  147.776   80.115    0.410    0.292
  448.990    2.488  147.725   85.387    0.412    0.255
  449.240    2.607  147.569   92.285    0.420    0.237
  449.490    2.753  147.536  102.158    0.429    0.249
  449.740    3.011  147.263   99.290    0.441    0.247
  449.990    3.174  147.335   95.575    0.450    0.241
  450.240    3.297  147.073   93.478    0.460    0.236
  450.490    3.302  146.927   93.459    0.470    0.236
  450.740    3.224  146.996   89.872    0.479    0.264
  450.990    3.090  146.518   83.062    0.454    0.299
  451.240    3.011  146.132   81.356    0.424    0.299
  451.490    2.983  145.764   81.067    0.445    0.282
  451.740    2.993  145.617   83.889    0.440    0.282
  451.990    3.065  145.901   90.271    0.416    0.273
  452.240    3.149  146.095   97.418    0.431    0.239
  452.490    3.363  145.824   95.578    0.472    0.265
  452.740    3.643  145.779   73.371    0.510    0.365
  452.990    3.792  145.625   65.713    0.563    0.415
  453.240    3.668  145.579   72.031    0.436    0.276
  453.490    3.409  145.538   76.280    0.410    0.271
  453.740    3.184  145.494   78.068    0.402    0.282
  453.990    2.890  145.788   80.046    0.397    0.312
  454.240    2.651  145.520   81.050    0.394    0.303
  454.490    2.428  144.486   79.146    0.425    0.312
  454.740    2.323  143.257   77.577    0.441    0.321
  454.990    2.400  142.445   79.416    0.446    0.309
  455.240    2.540  141.853   81.203    0.399    0.284
  455.490    2.777  141.701   75.165    0.378    0.254
  455.740    3.058  141.767   66.474    0.344    0.237
  455.990    3.513  142.264   69.495    0.327    0.193
  456.240    3.792  142.997   75.226    0.337    0.178
  456.490    3.784  143.605   81.797    0.365    0.218
  456.740    3.538  144.440   88.435    0.403    0.206
  456.990    3.347  145.721   92.480    0.451    0.244
  457.240    3.191  146.654   96.332    0.458    0.266
  457.490    3.009  147.489  100.705    0.416    0.255
  457.740    2.848  147.779   92.921    0.406    0.250
  457.990    2.700  146.854   85.076    0.416    0.244
  458.240    2.523  145.073   78.719    0.433    0.292
  458.490    2.357  143.933   75.900    0.445    0.318
  458.740    2.135  143.108   72.705    0.456    0.316
  458.990    1.981  142.308   70.413    0.468    0.309
  459.240    1.934  142.037   69.939    0.468    0.321
  459.490    1.926  141.897   70.039    0.444    0.327
  459.740    1.947  141.851   70.347    0.435    0.323
  459.990    1.961  142.243   69.020    0.433    0.330
  460.240    1.975  142.872   69.064    0.431    0.324
  460.490    1.996  143.475   71.106    0.438    0.297
  460.740    2.037  144.305   73.478    0.462    0.313
  460.990    2.061  145.134   74.484    0.481    0.329
  461.240    2.110  145.661   74.790    0.440    0.322
  461.490    2.169  146.158   73.854    0.423    0.315
  461.740    2.249  147.357   71.366    0.415    0.298
  461.990    2.341  147.814   62.353    0.412    0.286
  462.240    2.427  148.983   63.555    0.408    0.286
  462.490    2.601  149.595   67.544    0.407    0.285
  462.740    2.777  149.778   74.180    0.414    0.299
  462.990    2.975  149.622   80.296    0.428    0.276
  463.240    3.241  148.976   84.091    0.407    0.253
  463.490    3.551  148.772   75.977    0.394    0.248
  463.740    3.688  148.283   62.888    0.418    0.294
  463.990    3.557  147.474   57.819    0.432    0.323
  464.240    3.439  146.670   62.062    0.421    0.303
  464.490    3.231  146.442   67.405    0.423    0.320
  464.740    2.912  146.591   66.613    0.450    0.312
  464.990    2.740  146.875   66.642    0.433    0.293
  465.240    2.518  146.875   68.881    0.413    0.308
  465.490    2.332  147.015   62.971    0.411    0.336
  465.740    2.232  146.415   58.353    0.406    0.349
  465.990    2.151  144.940   56.720    0.399    0.318
  466.240    2.092  142.945   56.370    0.407    0.288
  466.490    2.054  142.016   56.482    0.413    0.298
  466.740    2.016  141.642   56.908    0.399    0.323
  466.990    1.986  141.931   57.525    0.405    0.334
  467.240    1.964  141.342   58.137    0.417    0.316
  467.490    1.953  140.646   61.157    0.416    0.308
  467.740    1.960  139.827   61.454    0.402    0.308
  467.990    1.948  138.095   63.884    0.392    0.316
  468.240    1.951  137.679   64.570    0.399    0.319
  468.490    1.947  137.191   62.805    0.409    0.319
  468.740    1.950  137.804   62.462    0.408    0.310
  468.990    1.971  139.065   62.491    0.407    0.313
