~VERSION INFORMATION
 VERS.                 2.0:   CWLS LOG ASCII STANDARD -VERSION 2.0
 WRAP.                  NO:   ONE LINE PER DEPTH STEP
~WELL INFORMATION BLOCK
#MNEM.UNIT           DATA                    DESCRIPTION OF MNEMONIC
#---------    -------------------            -------------------------------
# Generated from Intellog Unique Number	CS_77_79/WELL/927
WELL.         ALLIED ET AL HOUSE             : Well_name    - WELL
LOC .         00/10-01-079-16W4/0            : Location     - LOCATION
UWI .         00/10-01-079-16W4/0            : Uwi          - UNIQUE WELL ID
ENTR.         JHS                            : Entered      - ENTERED BY
SRVC.         SCHLUMBERGER                   : Scn          - SERVICE COMPANY
STRT.M        198.12                         : top_depth    - START DEPTH
STOP.M        426.37                         : bot_depth    - STOP DEPTH
STEP.M        0.25                           : increment    - STEP LENGTH
 NULL. -999.2500:NULL Value
~CURVE INFORMATION BLOCK
#MNEM UNIT       ERCB CURVE CODE    CURVE DESCRIPTION
#-----------   ------------------   ----------------------------------
DEPT.M        00 001 00 00         : DEPTH        - DEPTH
RHOB.KG/M3    00 350 00 00         : DENS         - BULK DENSITY
GR  .API      00 310 00 00         : GR           - GAMMA RAY
DPHI.V/V      00 890 00 00         : PHID         - DENSITY POROSITY (SANDSTONE)
NPHI.V/V      00 330 00 00         : PHIN         - NEUTRON POROSITY (SANDSTONE)
ILD .OHMM     00 120 00 00         : RESD         - DEEP RESISTIVITY (DIL)
~PARAMETER INFORMATION
#MNEM.UNIT           DATA             DESCRIPTION OF MNEMONIC
#---------         -----------     ------------------------------
GL  .M        603.504              : gl           - GROUND LEVEL ELEVATION
EREF.M        606.552              : kb           - ELEVATION OF DEPTH REFERENCE
DATM.M        606.552              : datum        - DATUM ELEVATION
TDD .M        466.344              : tdd          - TOTAL DEPTH DRILLER
RUN .         ONE                  : Run          - RUN NUMBER
ENG .         BILL                 : Engineer     - RECORDING ENGINEER
WIT .         JIM                  : Witness      - WITNESSED BY
MUD .         GEL                  : Mud_type     - MUD TYPE
MATR.         SANDSTONE            : Logunit      - NEUTRON MATRIX
TMAX.C        31.1111              : BHT          - MAXIMUM RECORDED TEMPERATURE
BHTD.M        466.344              : BHTDEP       - MAXIMUM RECORDED TEMPERATURE
MATR.         1                    : LOGUNIT      - NEUTRON MATRIX
RMT .C        25                   : MDTP         - TEMPERATURE OF MUD
NEUT.         1                    : NEUTRON      - NEUTRON TYPE
RESI.         0                    : RESIST       - RESISTIVITY TYPE
RMC .OHMM     0.25                 : RMC          - RESISTIVITY OF MUD CAKE
RMF .OHMM     0.25                 : RMF          - RESISTIVITY OF MUD FILTRATE
SUFT.C        15                   : SUFT         - SURFACE TEMPERATURE
~A  DEPTH     DENS       GR     PHID     PHIN     RESD
# ...
  234.620    0.000  109.106    0.207    0.481    5.741
  234.870    0.000  108.577    0.216    0.470    7.316
  235.120    0.000  110.936    0.222    0.454    8.669
  235.370    0.000  107.680    0.243    0.452    9.297
  235.620    0.000  104.748    0.225    0.469    9.394
  235.870    0.000  105.583    0.222    0.486    9.298
  236.120    0.000  108.578    0.219    0.494    8.737
  236.370    0.000  105.398    0.213    0.495    8.243
  236.620    0.000  108.077    0.234    0.487    7.517
  236.870    0.000  113.098    0.227    0.496    7.026
  237.120    0.000  115.558    0.210    0.509    6.883
  237.370    0.000  113.488    0.220    0.489    6.954
  237.620    0.000  108.929    0.240    0.470    7.561
  237.870    0.000  101.380    0.275    0.459    8.146
  238.120    0.000   98.262    0.290    0.456    9.804
  238.370    0.000  100.186    0.269    0.459   10.940
  238.620    0.000  101.934    0.259    0.450   11.277
  238.870    0.000  100.781    0.255    0.447   11.097
  239.120    0.000   99.422    0.292    0.458   10.917
  239.370    0.000   99.778    0.268    0.454   10.584
  239.620    0.000  101.895    0.279    0.445   10.547
  239.870    0.000  108.779    0.273    0.431   10.551
  240.120    0.000  114.478    0.264    0.422   10.561
  240.370    0.000  117.617    0.251    0.421   10.571
  240.620    0.000  116.430    0.250    0.427   10.587
  240.870    0.000  110.337    0.241    0.438   10.190
  241.120    0.000  101.806    0.237    0.445    9.797
  241.370    0.000   93.661    0.217    0.469    9.819
  241.620    0.000   85.697    0.251    0.456    9.909
  241.870    0.000   77.121    0.237    0.433   10.040
  242.120    0.000   75.359    0.205    0.427   10.216
  242.370    0.000   76.041    0.204    0.454   10.740
  242.620    0.000   74.333    0.240    0.474   11.053
  242.870    0.000   72.996    0.270    0.477   10.949
  243.120    0.000   73.896    0.272    0.463   10.621
  243.370    0.000   74.871    0.259    0.448   10.314
  243.620    0.000   75.537    0.241    0.459    9.776
  243.870    0.000   75.288    0.249    0.472    9.503
  244.120    0.000   73.216    0.258    0.470    9.347
  244.370    0.000   72.445    0.269    0.456    9.334
  244.620    0.000   74.029    0.249    0.461    9.340
  244.870    0.000   79.013    0.243    0.449    9.349
  245.120    0.000   83.533    0.258    0.437    9.359
  245.370    0.000   83.379    0.252    0.431    9.368
  245.620    0.000   80.022    0.238    0.423    9.383
  245.870    0.000   76.768    0.251    0.426    9.455
  246.120    0.000   76.217    0.267    0.440    9.404
  246.370    0.000   75.571    0.270    0.453    9.411
  246.620    0.000   73.391    0.273    0.465    9.416
  246.870    0.000   71.547    0.280    0.453    9.413
  247.120    0.000   69.056    0.287    0.439    9.723
  247.370    0.000   65.781    0.271    0.442   10.295
  247.620    0.000   63.416    0.277    0.461   11.151
  247.870    0.000   61.473    0.249    0.468   11.693
  248.120    0.000   61.917    0.255    0.473   12.261
  248.370    0.000   64.491    0.272    0.475   12.303
  248.620    0.000   66.606    0.297    0.465   11.287
  248.870    0.000   75.024    0.308    0.457    9.309
  249.120    0.000   88.053    0.276    0.481    7.344
  249.370    0.000   94.398    0.271    0.508    6.298
  249.620    0.000   97.813    0.256    0.527    5.555
  249.870    0.000   96.085    0.259    0.512    5.309
  250.120    0.000   91.211    0.266    0.484    5.870
  250.370    0.000   86.097    0.284    0.454    7.006
  250.620    0.000   88.902    0.292    0.444    8.899
  250.870    0.000   91.227    0.283    0.458   10.033
  251.120    0.000   88.865    0.264    0.473   10.415
  251.370    0.000   85.639    0.257    0.458   10.146
  251.620    0.000   87.194    0.234    0.450    9.391
  251.870    0.000   91.054    0.264    0.458    8.989
  252.120    0.000   93.263    0.250    0.476    8.140
  252.370    0.000   95.504    0.224    0.501    7.660
  252.620    0.000   96.591    0.227    0.514    7.125
  252.870    0.000   95.933    0.246    0.500    6.846
  253.120    0.000   92.948    0.257    0.500    7.034
  253.370    0.000   85.576    0.243    0.507    7.555
  253.620    0.000   77.333    0.275    0.515    8.636
  253.870    0.000   65.763    0.303    0.537    9.746
  254.120    0.000   48.376    0.372    0.571   11.815
  254.370    0.000   44.671    0.432    0.553   14.267
  254.620    0.000   45.574    0.402    0.495   18.353
  254.870    0.000   47.167    0.358    0.472   20.993
  255.120    0.000   50.041    0.330    0.466   23.290
  255.370    0.000   52.651    0.332    0.472   24.867
  255.620    0.000   56.444    0.332    0.479   25.942
  255.870    0.000   58.408    0.343    0.489   25.138
  256.120    0.000   57.127    0.350    0.499   24.379
  256.370    0.000   55.927    0.369    0.498   25.566
  256.620    0.000   55.456    0.364    0.500   28.869
  256.870    0.000   55.577    0.356    0.511   33.706
  257.120    0.000   54.174    0.345    0.516   36.777
  257.370    0.000   55.247    0.350    0.514   40.645
  257.620    0.000   56.676    0.338    0.483   44.511
  257.870    0.000   56.032    0.353    0.477   47.521
  258.120    0.000   53.662    0.342    0.484   47.579
  258.370    0.000   51.660    0.363    0.503   47.448
  258.620    0.000   51.300    0.359    0.499   48.660
  258.870    0.000   51.904    0.355    0.493   52.291
  259.120    0.000   52.589    0.336    0.514   60.269
  259.370    0.000   52.538    0.331    0.501   66.844
  259.620    0.000   52.819    0.342    0.497   70.330
  259.870    0.000   53.889    0.349    0.507   71.966
  260.120    0.000   53.826    0.344    0.507   72.809
  260.370    0.000   54.699    0.332    0.508   73.103
  260.620    0.000   54.936    0.351    0.501   72.862
  260.870    0.000   53.528    0.359    0.497   72.689
  261.120    0.000   51.713    0.352    0.494   72.714
  261.370    0.000   50.779    0.366    0.513   72.513
  261.620    0.000   51.197    0.356    0.512   71.754
  261.870    0.000   51.264    0.352    0.509   69.573
  262.120    0.000   50.219    0.353    0.511   62.208
  262.370    0.000   50.040    0.357    0.519   51.210
  262.620    0.000   52.262    0.348    0.516   49.041
  262.870    0.000   53.153    0.353    0.514   49.042
  263.120    0.000   53.043    0.338    0.530   49.159
  263.370    0.000   51.392    0.338    0.528   49.527
  263.620    0.000   50.539    0.348    0.519   50.233
  263.870    0.000   49.667    0.360    0.508   50.231
  264.120    0.000   49.024    0.364    0.508   49.907
  264.370    0.000   49.787    0.356    0.509   49.294
  264.620    0.000   51.203    0.347    0.504   48.840
  264.870    0.000   50.257    0.343    0.521   47.776
  265.120    0.000   52.318    0.346    0.506   45.293
  265.370    0.000   52.533    0.365    0.502   43.134
  265.620    0.000   52.055    0.361    0.497   42.049
  265.870    0.000   52.966    0.354    0.492   40.345
  266.120    0.000   54.652    0.350    0.479   32.904
  266.370    0.000   55.648    0.341    0.480   28.081
  266.620    0.000   55.970    0.343    0.482   22.738
  266.870    0.000   56.309    0.343    0.476   20.130
  267.120    0.000   56.678    0.326    0.499   17.365
  267.370    0.000   58.226    0.335    0.505   15.839
  267.620    0.000   58.130    0.345    0.488   14.784
  267.870    0.000   56.092    0.341    0.488   14.264
  268.120    0.000   55.132    0.345    0.485   13.960
  268.370    0.000   58.049    0.335    0.471   13.634
  268.620    0.000   58.819    0.332    0.465   13.520
  268.870    0.000   58.030    0.328    0.482   13.451
  269.120    0.000   57.038    0.325    0.488   13.474
  269.370    0.000   57.234    0.340    0.477   13.347
  269.620    0.000   59.085    0.334    0.468   13.469
  269.870    0.000   62.728    0.314    0.457   13.508
  270.120    0.000   62.243    0.301    0.454   13.859
  270.370    0.000   60.541    0.305    0.475   13.880
  270.620    0.000   59.784    0.315    0.484   13.942
  270.870    0.000   59.985    0.319    0.478   13.698
