~VERSION INFORMATION
 VERS.                 2.0:   CWLS LOG ASCII STANDARD -VERSION 2.0
 WRAP.                  NO:   ONE LINE PER DEPTH STEP
~WELL INFORMATION BLOCK
#MNEM.UNIT           DATA                    DESCRIPTION OF MNEMONIC
#---------    -------------------            -------------------------------
# Generated from Intellog Unique Number	CS_69_70/WELL/900
WELL.         ET AL HEART LAKE               : Well_name    - WELL
LOC .         00/12-13-069-11W4/0            : Location     - LOCATION
UWI .         00/12-13-069-11W4/0            : Uwi          - UNIQUE WELL ID
ENTR.         SP                             : Entered      - ENTERED BY
SRVC.         SCHLUMBERGER                   : Scn          - SERVICE COMPANY
STRT.M        300                            : top_depth    - START DEPTH
STOP.M        495                            : bot_depth    - STOP DEPTH
STEP.M        0.25                           : increment    - STEP LENGTH
 NULL. -999.2500:NULL Value
~CURVE INFORMATION BLOCK
#MNEM UNIT       ERCB CURVE CODE    CURVE DESCRIPTION
#-----------   ------------------   ----------------------------------
DEPT.M        00 001 00 00         : DEPTH        - DEPTH
ILD .OHMM     00 120 00 00         : RESD         - DEEP RESISTIVITY (DIL)
DPHI.V/V      00 890 00 00         : PHID         - DENSITY POROSITY (LIMESTONE)
NPHI.V/V      00 330 00 00         : PHIN         - NEUTRON POROSITY (LIMESTONE)
GR  .API      00 310 00 00         : GR           - GAMMA RAY
~PARAMETER INFORMATION
#MNEM.UNIT           DATA             DESCRIPTION OF MNEMONIC
#---------         -----------     ------------------------------
GL  .M        617.8                : gl           - GROUND LEVEL ELEVATION
EREF.M        621                  : kb           - ELEVATION OF DEPTH REFERENCE
DATM.M        617.8                : datum        - DATUM ELEVATION
TDD .M        498                  : tdd          - TOTAL DEPTH DRILLER
RUN .         ONE                  : Run          - RUN NUMBER
ENG .         BILL                 : Engineer     - RECORDING ENGINEER
WIT .         JIM                  : Witness      - WITNESSED BY
MUD .         GEL                  : Mud_type     - MUD TYPE
MATR.         LIMESTONE            : Logunit      - NEUTRON MATRIX
TMAX.C        23                   : BHT          - MAXIMUM RECORDED TEMPERATURE
BHTD.M        498                  : BHTDEP       - MAXIMUM RECORDED TEMPERATURE
MATR.         1                    : LOGUNIT      - NEUTRON MATRIX
RMT .C        25                   : MDTP         - TEMPERATURE OF MUD
NEUT.         1                    : NEUTRON      - NEUTRON TYPE
RESI.         0                    : RESIST       - RESISTIVITY TYPE
RMC .OHMM     0.25                 : RMC          - RESISTIVITY OF MUD CAKE
RMF .OHMM     0.25                 : RMF          - RESISTIVITY OF MUD FILTRATE
SUFT.C        15                   : SUFT         - SURFACE TEMPERATURE
~A  DEPTH     RESD     PHID     PHIN       GR
# ...
  343.500    6.789    0.327    0.483   75.582
  343.750    6.802    0.320    0.496   75.261
  344.000    6.739    0.322    0.517   72.251
  344.250    6.588    0.328    0.532   70.651
  344.500    6.429    0.333    0.493   73.436
  344.750    6.333    0.336    0.463   75.856
  345.000    6.298    0.333    0.456   74.312
  345.250    6.239    0.328    0.459   71.429
  345.500    6.157    0.328    0.462   71.167
  345.750    6.008    0.317    0.493   78.094
  346.000    5.841    0.300    0.510   84.353
  346.250    5.646    0.278    0.494   86.836
  346.500    5.478    0.260    0.478   89.864
  346.750    5.356    0.255    0.492   95.027
  347.000    5.336    0.256    0.516   95.188
  347.250    5.459    0.255    0.534   89.746
  347.500    5.574    0.268    0.497   88.875
  347.750    5.767    0.272    0.475   92.756
  348.000    5.866    0.279    0.462   90.422
  348.250    5.967    0.283    0.475   85.038
  348.500    6.036    0.263    0.460   88.372
  348.750    6.036    0.246    0.448   93.166
  349.000    5.957    0.237    0.447   95.831
  349.250    5.969    0.230    0.456   96.725
  349.500    6.060    0.230    0.469   92.624
  349.750    6.378    0.267    0.462   84.316
  350.000    6.699    0.286    0.436   79.361
  350.250    7.130    0.299    0.416   78.548
  350.500    7.504    0.296    0.421   78.162
  350.750    7.734    0.297    0.437   77.346
  351.000    7.838    0.304    0.428   77.272
  351.250    7.928    0.308    0.416   78.900
  351.500    7.988    0.304    0.436   80.282
  351.750    8.080    0.290    0.449   77.154
  352.000    8.096    0.275    0.447   78.782
  352.250    8.142    0.260    0.450   83.211
  352.500    8.112    0.249    0.459   85.693
  352.750    8.082    0.241    0.463   86.406
  353.000    8.083    0.236    0.470   81.816
  353.250    8.068    0.249    0.468   79.417
  353.500    8.099    0.273    0.453   77.936
  353.750    8.115    0.293    0.446   76.638
  354.000    8.146    0.305    0.439   75.703
  354.250    8.177    0.316    0.455   76.174
  354.500    8.271    0.316    0.469   77.311
  354.750    8.477    0.308    0.463   77.721
  355.000    8.888    0.312    0.453   77.032
  355.250    9.213    0.302    0.471   73.965
  355.500    9.880    0.265    0.465   67.485
  355.750   10.636    0.236    0.433   61.676
  356.000   10.963    0.249    0.443   64.884
  356.250   11.047    0.300    0.459   65.170
  356.500   10.903    0.329    0.451   64.363
  356.750   10.760    0.334    0.458   62.211
  357.000   10.700    0.336    0.468   59.994
  357.250   10.620    0.336    0.473   58.819
  357.500   10.541    0.333    0.474   58.007
  357.750   10.345    0.329    0.485   60.121
  358.000   10.133    0.325    0.491   64.371
  358.250    9.869    0.325    0.462   67.400
  358.500    9.522    0.320    0.447   64.088
  358.750    8.981    0.310    0.457   68.397
  359.000    8.471    0.294    0.466   78.558
  359.250    7.975    0.272    0.447   93.473
  359.500    7.694    0.247    0.448   93.209
  359.750    7.424    0.272    0.461   80.756
  360.000    7.410    0.311    0.475   71.533
  360.250    7.624    0.325    0.459   62.127
  360.500    7.843    0.332    0.442   56.441
  360.750    8.054    0.328    0.433   60.200
  361.000    8.070    0.328    0.437   61.095
  361.250    7.949    0.316    0.437   66.320
  361.500    7.860    0.300    0.425   75.807
  361.750    7.787    0.283    0.424   82.251
  362.000    7.787    0.273    0.450   84.610
  362.250    7.832    0.272    0.453   84.469
  362.500    7.892    0.272    0.455   83.290
  362.750    8.028    0.270    0.472   83.029
  363.000    8.104    0.271    0.483   79.474
  363.250    8.120    0.276    0.445   74.945
  363.500    8.060    0.276    0.417   73.098
  363.750    8.015    0.272    0.408   73.929
  364.000    7.925    0.272    0.420   74.521
  364.250    7.866    0.274    0.425   74.626
  364.500    7.748    0.274    0.415   74.787
  364.750    7.618    0.274    0.408   74.954
  365.000    7.491    0.274    0.421   75.484
  365.250    7.309    0.261    0.431   76.074
  365.500    7.146    0.253    0.431   75.202
  365.750    7.026    0.244    0.414   75.732
  366.000    6.869    0.237    0.406   76.990
  366.250    6.792    0.233    0.404   78.010
  366.500    6.678    0.242    0.405   79.210
  366.750    6.616    0.244    0.410   81.873
  367.000    6.567    0.247    0.421   83.500
  367.250    6.542    0.256    0.420   81.956
  367.500    6.543    0.270    0.426   74.135
  367.750    6.719    0.289    0.423   69.971
  368.000    6.964    0.298    0.407   67.516
  368.250    7.315    0.288    0.393   69.020
  368.500    7.757    0.292    0.385   69.733
  368.750    7.905    0.304    0.381   66.789
  369.000    7.981    0.303    0.401   69.330
  369.250    8.042    0.295    0.403   71.811
  369.500    8.119    0.287    0.407   71.301
  369.750    8.089    0.280    0.425   69.208
  370.000    8.028    0.276    0.445   67.974
  370.250    8.029    0.294    0.466   67.773
  370.500    7.909    0.303    0.463   71.288
  370.750    7.588    0.303    0.457   77.605
  371.000    6.724    0.299    0.457   81.914
  371.250    5.642    0.291    0.463   85.251
  371.500    4.680    0.281    0.486   90.352
  371.750    4.203    0.268    0.544   95.332
  372.000    3.994    0.256    0.599   97.019
  372.250    4.211    0.265    0.564   81.946
  372.500    4.880    0.307    0.513   73.573
  372.750    5.939    0.332    0.459   71.545
  373.000    6.961    0.338    0.424   70.487
  373.250    7.975    0.330    0.447   66.693
  373.500    8.832    0.325    0.451   61.919
  373.750    9.561    0.327    0.455   59.768
  374.000    9.763    0.337    0.460   61.454
  374.250    9.545    0.338    0.460   64.543
  374.500    9.314    0.330    0.451   67.817
  374.750    9.106    0.327    0.443   67.493
  375.000    8.987    0.324    0.435   62.352
  375.250    8.953    0.324    0.432   60.568
  375.500    8.904    0.331    0.437   60.183
  375.750    8.871    0.338    0.436   60.530
  376.000    8.838    0.329    0.451   61.303
  376.250    8.805    0.321    0.462   62.381
  376.500    8.839    0.316    0.458   64.799
  376.750    8.856    0.321    0.462   67.221
  377.000    8.890    0.322    0.460   68.117
  377.250    8.891    0.318    0.454   66.814
  377.500    8.942    0.311    0.445   66.370
  377.750    8.994    0.308    0.439   66.473
  378.000    9.011    0.310    0.453   66.273
  378.250    9.012    0.316    0.471   62.657
  378.500    9.029    0.323    0.485   65.199
  378.750    8.979    0.324    0.477   62.315
  379.000    8.946    0.326    0.464   59.490
  379.250    8.862    0.329    0.452   57.644
  379.500    8.796    0.331    0.446   55.187
  379.750    8.714    0.324    0.446   56.630
  380.000    8.665    0.315    0.436   59.234
  380.250    8.617    0.308    0.431   61.531
  380.500    8.618    0.301    0.433   61.817
  380.750    8.651    0.305    0.436   62.346
  381.000    8.668    0.315    0.437   63.543
  381.250    8.668    0.313    0.445   64.134
  381.500    8.669    0.308    0.457   63.446
  381.750    8.604    0.311    0.464   62.576
  382.000    8.572    0.328    0.456   61.460
  382.250    8.493    0.337    0.449   60.342
  382.500    8.429    0.340    0.439   59.411
  382.750    8.382    0.337    0.434   58.783
  383.000    8.367    0.333    0.431   58.459
  383.250    8.336    0.333    0.434   60.330
  383.500    8.321    0.336    0.442   60.796
  383.750    8.243    0.335    0.448   59.373
  384.000    8.181    0.333    0.449   59.053
  384.250    8.136    0.337    0.455   59.333
  384.500    8.075    0.332    0.464   60.172
  384.750    8.000    0.326    0.457   61.192
  385.000    7.970    0.321    0.449   61.659
  385.250    7.896    0.330    0.444   61.030
  385.500    7.763    0.341    0.444   63.812
  385.750    7.691    0.346    0.461   65.748
  386.000    7.706    0.340    0.457   68.650
  386.250    7.736    0.332    0.466   69.733
  386.500    7.751    0.321    0.461   70.079
  386.750    7.766    0.315    0.453   69.818
