~VERSION INFORMATION
 VERS.                 2.0:   CWLS LOG ASCII STANDARD -VERSION 2.0
 WRAP.                  NO:   ONE LINE PER DEPTH STEP
~WELL INFORMATION BLOCK
#MNEM.UNIT           DATA                    DESCRIPTION OF MNEMONIC
#---------    -------------------            -------------------------------
# Generated from Intellog Unique Number	CW_76_78/WELL/2576
WELL.         10-19-078-24W4                 : Well_name    - WELL
LOC .         00/10-19-078-24W4/0            : Location     - LOCATION
UWI .         00/10-19-078-24W4/0            : Uwi          - UNIQUE WELL ID
ENTR.         MAX                            : Entered      - ENTERED BY
SRVC.         SCHLUMBERGER                   : Scn          - SERVICE COMPANY
STRT.M        274.32                         : top_depth    - START DEPTH
STOP.M        518.07                         : bot_depth    - STOP DEPTH
STEP.M        0.25                           : increment    - STEP LENGTH
 NULL. -999.2500:NULL Value
~CURVE INFORMATION BLOCK
#MNEM UNIT       ERCB CURVE CODE    CURVE DESCRIPTION
#-----------   ------------------   ----------------------------------
DEPT.M        00 001 00 00         : DEPTH        - DEPTH
ILD .OHMM     00 120 00 00         : RESD         - DEEP RESISTIVITY (DIL)
NPHI.V/V      00 330 00 00         : PHIN         - NEUTRON POROSITY (SANDSTONE)
DPHI.V/V      00 890 00 00         : PHID         - DENSITY POROSITY (SANDSTONE)
CALI.MM       00 280 01 00         : CAL          - CALIPER
GR  .API      00 310 00 00         : GR           - GAMMA RAY
~PARAMETER INFORMATION
#MNEM.UNIT           DATA             DESCRIPTION OF MNEMONIC
#---------         -----------     ------------------------------
GL  .M        592.531              : gl           - GROUND LEVEL ELEVATION
EREF.M        596.494              : kb           - ELEVATION OF DEPTH REFERENCE
DATM.M        592.531              : datum        - DATUM ELEVATION
TDD .M        537.667              : tdd          - TOTAL DEPTH DRILLER
RUN .         ONE                  : Run          - RUN NUMBER
ENG .         BILL                 : Engineer     - RECORDING ENGINEER
WIT .         JIM                  : Witness      - WITNESSED BY
MUD .         GEL                  : Mud_type     - MUD TYPE
MATR.         SANDSTONE            : Logunit      - NEUTRON MATRIX
TMAX.C        25.5556              : BHT          - MAXIMUM RECORDED TEMPERATURE
BHTD.M        537.667              : BHTDEP       - MAXIMUM RECORDED TEMPERATURE
RMT .C        14.4444              : MDTP         - TEMPERATURE OF MUD
MUDD.KG/M     9800                 : MWT          - MUD DENSITY
NEUT.         1                    : NEUTRON      - NEUTRON TYPE
RESI.         0                    : RESIST       - RESISTIVITY TYPE
RM  .OHMM     6.42                 : RM           - RESISTIVITY OF MUD
RMC .OHMM     6.05                 : RMC          - RESISTIVITY OF MUD CAKE
RMF .OHMM     7.72                 : RMF          - RESISTIVITY OF MUD FILTRATE
SUFT.C        -6.66667             : SUFT         - SURFACE TEMPERATURE
~A  DEPTH     RESD     PHIN     PHID      CAL       GR
# ...
  493.320   10.924    0.431    0.237  210.654   90.220
  493.570   10.644    0.447    0.238  210.165   92.263
  493.820   10.457    0.448    0.241  211.157   92.266
  494.070   12.533    0.440    0.233  212.150   88.771
  494.320   15.153    0.437    0.236  213.143   83.526
  494.570   15.717    0.443    0.230  213.641   74.782
  494.820   18.330    0.405    0.213  213.647   66.039
  495.070   21.768    0.337    0.172  211.184   58.753
  495.320   23.200    0.207    0.125  210.201   60.214
  495.570   22.390    0.231    0.039  210.207   67.798
  495.820   20.471    0.277    0.088  210.212   75.089
  496.070   16.494    0.316    0.114  208.736   80.340
  496.320   11.506    0.344    0.181  206.768   85.009
  496.570    9.355    0.361    0.181  205.290   87.927
  496.820    9.355    0.367    0.185  205.790   90.262
  497.070    9.198    0.373    0.198  206.783   92.598
  497.320    9.198    0.363    0.185  208.270   88.811
  497.570    8.493    0.351    0.174  210.249   84.732
  497.820    8.119    0.347    0.169  207.292   79.779
  498.070    7.979    0.358    0.206  204.335   76.283
  498.320    7.982    0.341    0.216  201.377   70.747
  498.570    7.844    0.321    0.202  202.864   70.458
  498.820    7.708    0.342    0.175  205.338   77.459
  499.070    7.708    0.391    0.169  207.318   85.334
  499.320    7.512    0.437    0.206  209.297   90.001
  499.570    7.380    0.555    0.235  212.266   93.503
  499.820    7.384    0.559    0.254  214.739   93.506
  500.070    7.523    0.537    0.281  216.224   80.098
  500.320    7.732    0.503    0.299  213.762   71.937
  500.570    7.880    0.541    0.314  212.286   65.235
  500.820    8.395    0.515    0.318  211.797   60.865
  501.070   10.242    0.410    0.278  211.309   59.118
  501.320   12.055    0.418    0.272  211.807   60.288
  501.570   12.732    0.412    0.299  213.294   63.498
  501.820   12.398    0.391    0.293  212.806   71.081
  502.070   11.133    0.399    0.275  211.330   78.373
  502.320   10.271    0.401    0.271  211.338   81.292
  502.570    9.822    0.402    0.265  210.847   82.461
  502.820    8.900    0.398    0.255  210.851   83.047
  503.070    8.900    0.387    0.246  210.857   84.799
  503.320    8.671    0.389    0.238  211.356   87.719
  503.570    8.073    0.416    0.229  211.360   90.346
  503.820    7.932    0.454    0.229  211.859   92.972
  504.070    7.936    0.469    0.254  211.864   96.183
  504.320    7.940    0.400    0.235  212.365   96.477
  504.570    8.236    0.384    0.212  212.863   95.022
  504.820    8.466    0.363    0.183  212.863   92.985
  505.070    8.703    0.348    0.168  212.874   92.113
  505.320    8.787    0.346    0.166  212.879   92.699
  505.570    8.713    0.358    0.173  212.883   93.577
  505.820    8.408    0.360    0.173  212.888   92.997
  506.070    7.482    0.360    0.168  212.893   91.834
  506.320    6.139    0.360    0.167  212.898   91.254
  506.570    5.463    0.360    0.175  212.905   91.257
  506.820    5.224    0.370    0.179  213.403   89.803
  507.070    5.274    0.387    0.163  213.903   88.931
  507.320    5.571    0.386    0.150  214.402   89.225
  507.570    6.155    0.386    0.181  214.900   90.978
  507.820    7.114    0.382    0.203  215.399   92.730
  508.070    7.582    0.383    0.202  215.403   95.065
  508.320    7.582    0.403    0.181  215.409   97.401
  508.570    7.455    0.451    0.180  215.907   98.570
  508.820    7.065    0.485    0.164  215.913   97.699
  509.070    6.459    0.513    0.149  216.906   95.661
  509.320    6.068    0.508    0.132  216.910   92.748
  509.570    5.962    0.485    0.118  216.916   93.335
  509.820    5.859    0.503    0.108  215.935   93.337
  510.070    5.705    0.494    0.111  215.939   92.174
  510.320    5.659    0.489    0.089  216.438   94.801
  510.570    5.609    0.506    0.078  216.937  103.843
  510.820    5.562    0.553    0.196  217.930  107.053
  511.070    5.567    0.560    0.189  217.935  107.930
  511.320    5.568    0.544    0.191  217.940  108.517
  511.570    5.568    0.521    0.189  217.945  109.687
  511.820    5.575    0.514    0.189  217.951  109.980
  512.070    5.576    0.499    0.192  217.955  107.069
  512.320    5.529    0.495    0.181  218.455  106.197
  512.570    5.532    0.511    0.163  218.460  105.909
  512.820    5.485    0.486    0.155  218.465  106.203
  513.070    5.588    0.470    0.144  218.470  106.206
  513.320    5.541    0.474    0.162  218.475  106.500
  513.570    5.541    0.501    0.159  218.481  109.419
  513.820    5.549    0.489    0.146  218.486  110.005
  514.070    5.651    0.455    0.134  218.491  108.259
  514.320    5.757    0.432    0.128  218.002  106.804
  514.570    5.812    0.387    0.139  217.020   97.769
  514.820    5.815    0.379    0.146  214.556   87.277
  515.070    5.818    0.370    0.155  209.626   87.862
  515.320    5.769    0.358    0.144  207.162   90.781
  515.570    5.720    0.407    0.144  209.141  102.155
  515.820    5.674    0.460    0.149  212.109  111.488
  516.070    5.624    0.496    0.145  211.127  116.155
  516.320    5.378    0.556    0.129  207.676  119.074
  516.570    4.786    0.595    0.115  206.201  121.992
  516.820    4.337    0.630    0.107  207.686  120.538
  517.070    4.185    0.653    0.062  210.160  117.625
  517.320    4.112    0.678    0.025  212.140  115.296
  517.570    4.115    0.677   -0.006  212.640  114.425
  517.820    4.192    0.653    0.034  213.138  113.553
  518.070    4.271    0.630    0.130  213.143  111.515
