~VERSION INFORMATION
 VERS.                 2.0:   CWLS LOG ASCII STANDARD -VERSION 2.0
 WRAP.                  NO:   ONE LINE PER DEPTH STEP
~WELL INFORMATION BLOCK
#MNEM.UNIT           DATA                    DESCRIPTION OF MNEMONIC
#---------    -------------------            -------------------------------
# Generated from Intellog Unique Number	CS_73_76/WELL/3263
WELL.         BOW VALLEY EXPLORATION         : Well_name    - WELL
LOC .         00/11-12-076-13W4/0            : Location     - LOCATION
UWI .         00/11-12-076-13W4/0            : Uwi          - UNIQUE WELL ID
ENTR.         SP                             : Entered      - ENTERED BY
SRVC.         SCHLUMBERGER                   : Scn          - SERVICE COMPANY
STRT.M        350                            : top_depth    - START DEPTH
STOP.M        580                            : bot_depth    - STOP DEPTH
STEP.M        0.25                           : increment    - STEP LENGTH
 NULL. -999.2500:NULL Value
~CURVE INFORMATION BLOCK
#MNEM UNIT       ERCB CURVE CODE    CURVE DESCRIPTION
#-----------   ------------------   ----------------------------------
DEPT.M        00 001 00 00         : DEPTH        - DEPTH
ILD .OHMM     00 120 00 00         : RESD         - DEEP RESISTIVITY (DIL)
NPHI.V/V      00 330 00 00         : PHIN         - NEUTRON POROSITY (LIMESTONE)
DPHI.V/V      00 890 00 00         : PHID         - DENSITY POROSITY (LIMESTONE)
GR  .API      00 310 00 00         : GR           - GAMMA RAY
~PARAMETER INFORMATION
#MNEM.UNIT           DATA             DESCRIPTION OF MNEMONIC
#---------         -----------     ------------------------------
GL  .M        728.9                : gl           - GROUND LEVEL ELEVATION
EREF.M        731.6                : kb           - ELEVATION OF DEPTH REFERENCE
DATM.M        728.9                : datum        - DATUM ELEVATION
TDD .M        593                  : tdd          - TOTAL DEPTH DRILLER
RUN .         ONE                  : Run          - RUN NUMBER
ENG .         BILL                 : Engineer     - RECORDING ENGINEER
WIT .         JIM                  : Witness      - WITNESSED BY
MUD .         GEL                  : Mud_type     - MUD TYPE
MATR.         LIMESTONE            : Logunit      - NEUTRON MATRIX
TMAX.C        22                   : BHT          - MAXIMUM RECORDED TEMPERATURE
BHTD.M        593                  : BHTDEP       - MAXIMUM RECORDED TEMPERATURE
MATR.         1                    : LOGUNIT      - NEUTRON MATRIX
RMT .C        25                   : MDTP         - TEMPERATURE OF MUD
NEUT.         1                    : NEUTRON      - NEUTRON TYPE
RESI.         0                    : RESIST       - RESISTIVITY TYPE
RMC .OHMM     0.25                 : RMC          - RESISTIVITY OF MUD CAKE
RMF .OHMM     0.25                 : RMF          - RESISTIVITY OF MUD FILTRATE
SUFT.C        15                   : SUFT         - SURFACE TEMPERATURE
~A  DEPTH     RESD     PHIN     PHID       GR
# ...
  524.000   10.569    0.365    0.077   82.258
  524.250   10.563    0.370    0.139   85.887
  524.500   10.366    0.391    0.145   90.121
  524.750    9.985    0.405    0.131   88.911
  525.000    9.267    0.412    0.115   88.911
  525.250    9.093    0.419    0.124   91.331
  525.500    9.091    0.424    0.131   91.331
  525.750    9.258    0.424    0.133   89.516
  526.000    9.605    0.389    0.113   90.121
  526.250    9.602    0.384    0.105   90.726
  526.500    9.596    0.394    0.148   91.331
  526.750    9.243    0.399    0.148   91.331
  527.000    9.241    0.405    0.178   90.121
  527.250    9.238    0.412    0.183   91.331
  527.500    9.409    0.431    0.186   95.564
  527.750    9.944    0.438    0.193   94.355
  528.000   10.316    0.425    0.202   91.331
  528.250   10.123    0.395    0.200   98.589
  528.500    9.395    0.394    0.171  105.847
  528.750    9.050    0.395    0.165  110.685
  529.000    8.880    0.396    0.147  115.524
  529.250    9.044    0.406    0.143  116.129
  529.500    9.557    0.407    0.152  116.734
  529.750   10.291    0.406    0.156  113.105
  530.000   11.290    0.412    0.160  107.661
  530.250   13.588    0.426    0.173   94.355
  530.500   20.061    0.426    0.206   87.097
  530.750   26.495    0.415    0.224   80.444
  531.000   30.726    0.378    0.234   74.395
  531.250   31.290    0.348    0.236   72.581
  531.500   30.140    0.331    0.272   71.371
  531.750   29.032    0.346    0.294   70.766
  532.000   26.942    0.361    0.290   73.790
  532.250   25.006    0.371    0.247   82.258
  532.500   23.644    0.379    0.220   76.814
  532.750   23.635    0.384    0.197   73.790
  533.000   24.517    0.376    0.206   71.976
  533.250   24.973    0.382    0.197   72.581
  533.500   24.963    0.373    0.179   75.000
  533.750   24.492    0.368    0.166   79.234
  534.000   24.037    0.382    0.215   78.024
  534.250   22.302    0.394    0.220   78.629
  534.500   21.886    0.382    0.212   82.258
  534.750   21.479    0.361    0.200   86.492
  535.000   21.078    0.342    0.179   87.702
  535.250   21.068    0.340    0.177   90.726
  535.500   21.458    0.342    0.190   92.540
  535.750   22.677    0.353    0.208   90.121
  536.000   24.418    0.361    0.219   74.395
  536.250   28.320    0.356    0.249   70.161
  536.500   34.724    0.369    0.256   66.532
  536.750   40.271    0.385    0.267   65.323
  537.000   47.580    0.391    0.230   64.718
  537.250   53.172    0.394    0.234   57.460
  537.500   60.530    0.402    0.249   48.992
  537.750   70.198    0.413    0.254   45.968
  538.000   78.441    0.396    0.253   41.129
  538.250   79.884    0.369    0.288   44.758
  538.500   76.947    0.366    0.282   47.177
  538.750   60.425    0.367    0.276   50.202
  539.000   45.719    0.375    0.266   51.411
  539.250   37.959    0.383    0.263   55.040
  539.500   26.666    0.385    0.284   60.484
  539.750   23.845    0.388    0.265   68.347
  540.000   22.546    0.389    0.254   71.371
  540.250   22.120    0.384    0.243   70.161
  540.500   22.116    0.384    0.252   74.395
  540.750   22.944    0.391    0.257   78.629
  541.000   24.702    0.399    0.261   79.234
  541.250   26.111    0.402    0.269   78.024
  541.500   28.639    0.404    0.282   69.556
  541.750   30.838    0.397    0.287   63.508
  542.000   31.995    0.387    0.293   62.903
  542.250   30.251    0.382    0.299   69.556
  542.500   26.553    0.379    0.282   71.976
  542.750   25.106    0.377    0.284   75.605
  543.000   23.735    0.381    0.288   76.814
  543.250   23.295    0.387    0.287   79.234
  543.500   22.855    0.400    0.265   82.863
  543.750   21.610    0.405    0.253   85.282
  544.000   20.434    0.410    0.247   86.492
  544.250   19.320    0.405    0.245   84.677
  544.500   18.267    0.401    0.231   85.282
  544.750   16.034    0.401    0.210   88.911
  545.000   13.816    0.396    0.195   91.331
  545.250   11.259    0.384    0.171   91.936
  545.500   10.257    0.372    0.172   94.960
  545.750    9.881    0.377    0.149  101.613
  546.000    9.002    0.379    0.140  109.476
  546.250    8.670    0.394    0.130  114.919
  546.500    8.350    0.407    0.137  117.339
  546.750    8.194    0.411    0.142  113.710
  547.000    8.346    0.411    0.152  110.685
  547.250    8.986    0.405    0.164  113.105
  547.500    9.857    0.410    0.171  113.710
  547.750    9.853    0.412    0.173  114.919
  548.000    9.850    0.411    0.182  114.919
  548.250    9.847    0.399    0.172  113.105
  548.500   10.027    0.389    0.151  110.081
  548.750   10.210    0.377    0.149  107.661
  549.000   10.594    0.367    0.153  100.403
  549.250   10.992    0.370    0.182   93.750
  549.500   12.512    0.390    0.208   80.444
  549.750   13.724    0.407    0.233   73.790
  550.000   15.035    0.383    0.206   84.933
  550.250   15.029    0.388    0.223   83.115
  550.500   15.023    0.375    0.214   79.492
  550.750   14.471    0.361    0.200   74.661
  551.000   13.936    0.349    0.176   70.436
  551.250   12.934    0.354    0.175   72.837
  551.500   12.228    0.361    0.196   84.874
  551.750   11.348    0.365    0.169   94.499
  552.000   10.145    0.368    0.126   99.309
  552.250    9.956    0.377    0.123  107.131
  552.500   10.328    0.380    0.117  111.337
  552.750   11.117    0.382    0.106  111.931
  553.000   12.193    0.376    0.132  105.295
  553.250   13.375    0.373    0.143   96.249
  553.500   14.669    0.383    0.163   84.192
  553.750   14.127    0.385    0.186   79.363
  554.000   12.870    0.389    0.210   75.739
  554.250   12.862    0.390    0.208   76.935
  554.500   12.386    0.393    0.205   84.153
  554.750   12.384    0.393    0.186   78.119
  555.000   13.088    0.388    0.179   77.506
  555.250   15.460    0.395    0.186   76.891
  555.500   18.263    0.390    0.195   75.076
  555.750   20.408    0.383    0.186   72.656
  556.000   23.226    0.389    0.195   67.227
  556.250   24.096    0.403    0.209   58.183
  556.500   24.085    0.391    0.238   47.329
  556.750   22.771    0.382    0.256   46.115
  557.000   19.984    0.366    0.247   49.117
  557.250   19.610    0.373    0.249   56.335
  557.500   20.725    0.379    0.245   58.131
  557.750   26.369    0.383    0.247   60.530
  558.000   33.551    0.387    0.241   62.328
  558.250   39.639    0.395    0.235   52.078
  558.500   46.821    0.411    0.242   43.636
  558.750   50.410    0.423    0.293   36.398
  559.000   52.291    0.412    0.305   36.388
  559.250   50.361    0.402    0.309   39.389
  559.500   48.501    0.412    0.313   42.393
  559.750   48.487    0.410    0.302   41.175
  560.000   49.374    0.414    0.293   38.758
  560.250   51.216    0.418    0.308   37.541
  560.500   51.186    0.419    0.301   36.930
  560.750   49.302    0.422    0.291   35.715
  561.000   44.089    0.425    0.283   34.502
  561.250   35.266    0.424    0.296   35.094
  561.500   28.210    0.422    0.296   39.299
  561.750   20.950    0.423    0.277   45.314
  562.000   16.147    0.423    0.240   51.930
  562.250   12.447    0.416    0.227   58.547
  562.500    9.417    0.406    0.225   68.173
  562.750    7.817    0.413    0.229   70.573
  563.000    6.370    0.427    0.241   54.903
  563.250    5.489    0.433    0.269   47.063
  563.500    4.908    0.434    0.289   42.235
  563.750    4.727    0.424    0.293   38.608
  564.000    4.638    0.392    0.283   38.595
  564.250    4.722    0.375    0.276   39.793
  564.500    4.720    0.362    0.263   41.593
  564.750    4.717    0.356    0.250   46.402
  565.000    4.629    0.354    0.240   53.016
  565.250    4.376    0.357    0.219   57.826
  565.500    4.215    0.354    0.211   62.033
  565.750    3.912    0.360    0.219   60.819
  566.000    3.563    0.394    0.231   44.543
  566.250    3.368    0.405    0.282   39.716
  566.500    3.184    0.394    0.302   35.491
  566.750    3.125    0.392    0.309   34.876
  567.000    3.009    0.394    0.309   34.865
  567.250    3.008    0.394    0.311   34.856
