~VERSION INFORMATION
 VERS.                 2.0:   CWLS LOG ASCII STANDARD -VERSION 2.0
 WRAP.                  NO:   ONE LINE PER DEPTH STEP
~WELL INFORMATION BLOCK
#MNEM.UNIT           DATA                    DESCRIPTION OF MNEMONIC
#---------    -------------------            -------------------------------
# Generated from Intellog Unique Number	CW_70_72/WELL/3019
NULL.         -999.25                        : NULL_VALUE
WELL.         SUN BOUVIER 10-02              : Well_name    - WELL              
LOC .         10-02-070-24W4                 : Location     - LOCATION          
UWI .         00/10-02-070-24W4/0            : Uwi          - UNIQUE WELL ID    
ENTR.         jj                             : Entered      - ENTERED BY        
SRVC.         SCHLUMBERGER                   : Scn          - SERVICE COMPANY   
DATE.         28 JAN 78                      : Date         - LOG DATE          
STRT.M        426.72                         : top_depth    - START DEPTH       
STOP.M        633.97                         : bot_depth    - STOP DEPTH        
STEP.M        0.25                           : increment    - STEP LENGTH       
~CURVE INFORMATION BLOCK
#MNEM UNIT       ERCB CURVE CODE    CURVE DESCRIPTION
#-----------   ------------------   ----------------------------------
DEPT.M        00 001 00 00         : DEPTH        - DEPTH                       
ILD .OHMM     00 120 00 00         : RESD         - DEEP RESISTIVITY (DIL)      
CALI.MM       00 280 01 00         : CAL          - CALIPER                     
GR  .API      00 310 00 00         : GR           - GAMMA RAY                   
NPHI.V/V      00 330 00 00         : PHIN         - NEUTRON POROSITY (SANDSTONE)
DPHI.V/V      00 890 00 00         : PHID         - DENSITY POROSITY (SANDSTONE)
~PARAMETER INFORMATION       
#MNEM.UNIT           DATA             DESCRIPTION OF MNEMONIC
#---------         -----------     ------------------------------
GL  .M        637.184              : gl           - GROUND LEVEL ELEVATION      
EREF.M        640.324              : kb           - ELEVATION OF DEPTH REFERENCE
DATM.M        637.184              : datum        - DATUM ELEVATION             
TDD .M        656.234              : tdd          - TOTAL DEPTH DRILLER         
RUN .         ONE                  : Run          - RUN NUMBER                  
ENG .         CHMIELEWSKI          : Engineer     - RECORDING ENGINEER          
WIT .         BROWN                : Witness      - WITNESSED BY                
BASE.         EDM                  : Branch       - HOME BASE OF LOGGING UNIT   
MUD .         GEL CHEM             : Mud_type     - MUD TYPE                    
MATR.         SANDSTONE            : Logunit      - NEUTRON MATRIX              
TMAX.C        22.7778              : BHT          - MAXIMUM RECORDED TEMPERATURE
BHTD.M        656.539              : BHTDEP       - MAXIMUM RECORDED TEMPERATURE
RMT .C        20                   : MDTP         - TEMPERATURE OF MUD          
MUDD.KG/M     0                    : MWT          - MUD DENSITY                 
NEUT.         1                    : NEUTRON      - NEUTRON TYPE                
RESI.         0                    : RESIST       - RESISTIVITY TYPE            
RM  .OHMM     4.44                 : RM           - RESISTIVITY OF MUD          
RMC .OHMM     0.25                 : RMC          - RESISTIVITY OF MUD CAKE     
RMF .OHMM     3.02                 : RMF          - RESISTIVITY OF MUD FILTRATE 
SUFT.C        -17.7778             : SUFT         - SURFACE TEMPERATURE         
~A  DEPTH     RESD      CAL       GR     PHIN     PHID
# ...
  463.220    2.936  183.111  112.842    0.438    0.261
  463.470    2.952  188.913  101.237    0.457    0.245
  463.720    3.012  185.312   90.379    0.480    0.294
  463.970    3.132  173.898   83.263    0.511    0.288
  464.220    3.330  168.080   79.017    0.460    0.273
  464.470    3.801  165.853   75.832    0.438    0.307
  464.720    4.148  163.940   74.142    0.432    0.313
  464.970    4.485  162.664   75.759    0.435    0.336
  465.220    4.672  161.917   74.256    0.439    0.330
  465.470    4.450  161.485   68.700    0.440    0.321
  465.720    4.084  160.737   65.826    0.452    0.310
  465.970    3.727  159.989   66.756    0.459    0.325
  466.220    3.465  159.663   65.628    0.439    0.337
  466.470    3.918  158.809   63.190    0.416    0.298
  466.720    4.863  158.483   59.505    0.345    0.261
  466.970    5.761  159.531   57.130    0.244    0.102
  467.220    6.453  162.056   60.740    0.174    0.057
  467.470    6.193  164.159   63.980    0.199    0.058
  467.720    5.465  162.143   73.765    0.328    0.104
  467.970    4.178  159.282   81.681    0.400    0.236
  468.220    3.538  158.850   80.116    0.439    0.270
  468.470    3.408  160.320   75.496    0.447    0.286
  468.720    3.590  161.471   73.119    0.395    0.250
  468.970    4.090  162.202   72.741    0.334    0.193
  469.220    4.531  160.291   74.419    0.316    0.195
  469.470    4.381  158.383   77.221    0.335    0.259
  469.720    3.859  155.944   83.327    0.375    0.284
  469.970    3.250  155.514   84.193    0.403    0.318
  470.220    3.022  156.874   81.008    0.436    0.287
  470.470    3.072  158.663   85.556    0.424    0.252
  470.720    3.165  162.456   95.405    0.420    0.243
  470.970    3.334  164.030  100.762    0.421    0.222
  471.220    3.564  163.177   98.138    0.433    0.227
  471.470    3.459  163.177   92.582    0.435    0.258
  471.720    3.216  158.509   86.402    0.442    0.269
  471.970    3.075  157.552   83.403    0.444    0.273
  472.220    3.017  157.438   83.336    0.441    0.285
  472.470    2.972  161.754   89.504    0.447    0.281
  472.720    2.939  162.383   89.685    0.466    0.244
  472.970    2.916  160.895   87.249    0.455    0.293
  473.220    2.971  158.773   84.624    0.441    0.229
  473.470    3.043  157.603   88.609    0.436    0.221
  473.720    3.100  158.015   95.090    0.445    0.223
  473.970    3.169  158.957   95.022    0.443    0.258
  474.220    3.253  161.587   91.212    0.437    0.258
  474.470    3.301  163.901   90.335    0.448    0.245
  474.720    3.338  163.901   94.694    0.458    0.229
  474.970    3.337  163.987   95.500    0.468    0.212
  475.220    3.232  162.712   94.309    0.464    0.231
  475.470    3.005  159.957   90.499    0.444    0.251
  475.720    2.841  156.457   83.696    0.435    0.275
  475.970    2.696  156.349   78.639    0.438    0.285
  476.220    2.661  156.656   77.387    0.452    0.285
  476.470    2.621  156.656   77.816    0.448    0.307
  476.720    2.577  157.267   78.187    0.434    0.289
  476.970    2.558  157.475   77.245    0.425    0.296
  477.220    2.557  157.676   74.558    0.428    0.297
  477.470    2.590  157.457   69.875    0.440    0.299
  477.720    2.624  157.236   63.446    0.429    0.297
  477.970    2.698  157.228   59.948    0.432    0.300
  478.220    2.774  156.901   59.569    0.446    0.307
  478.470    2.805  156.575   61.559    0.440    0.325
  478.720    2.825  156.461   61.303    0.425    0.318
  478.970    2.835  158.245   60.239    0.415    0.316
  479.220    2.861  158.973   60.606    0.419    0.330
  479.470    2.920  158.435   62.473    0.427    0.327
  479.720    2.952  158.007   64.400    0.425    0.305
  479.970    2.968  157.679   64.146    0.420    0.304
  480.220    2.996  157.245   63.017    0.417    0.325
  480.470    2.995  157.345   63.574    0.441    0.319
  480.720    2.945  157.547   65.377    0.444    0.293
  480.970    2.821  157.433   65.497    0.441    0.279
  481.220    2.717  157.423   62.061    0.434    0.292
  481.470    2.583  157.520   62.554    0.425    0.301
  481.720    2.420  157.406   65.418    0.434    0.313
  481.970    2.271  156.763   66.784    0.430    0.328
  482.220    2.139  156.120   68.089    0.419    0.304
  482.470    2.107  156.429   70.016    0.413    0.317
  482.720    2.154  157.686   72.194    0.410    0.314
  482.970    2.378  158.945   74.121    0.408    0.301
  483.220    2.422  161.571   77.671    0.416    0.276
  483.470    2.333  162.200   71.430    0.461    0.263
  483.720    2.230  162.614   57.329    0.452    0.276
  483.970    2.189  161.969   50.589    0.385    0.308
  484.220    2.213  161.434   60.499    0.381    0.310
  484.470    2.331  163.915   76.709    0.384    0.266
  484.720    2.573  166.168   90.799    0.419    0.233
  484.970    3.082  165.630   88.797    0.475    0.257
  485.220    3.611  164.459   84.614    0.509    0.303
  485.470    3.825  163.921   87.913    0.493    0.301
  485.720    3.925  164.124   92.522    0.447    0.247
  485.970    3.961  165.910   96.071    0.450    0.206
  486.220    3.931  167.274   97.689    0.453    0.211
  486.470    3.865  165.575   99.678    0.453    0.220
  486.720    3.744  162.287   99.860    0.452    0.212
  486.970    3.527  161.120   97.922    0.450    0.199
  487.220    3.397  158.364   94.299    0.444    0.213
  487.470    3.230  156.880   87.621    0.439    0.278
  487.720    3.094  155.391   83.124    0.431    0.291
  487.970    3.019  154.538   84.304    0.435    0.264
  488.220    3.047  155.690   86.294    0.441    0.266
  488.470    3.110  155.690   87.537    0.442    0.281
  488.720    3.126  159.466   88.030    0.449    0.268
  488.970    2.869  159.781   84.158    0.458    0.231
  489.220    2.643  159.137   79.288    0.458    0.257
  489.470    2.439  157.649   71.112    0.421    0.284
  489.720    2.393  156.479   66.243    0.414    0.312
  489.970    2.388  156.154   63.555    0.409    0.335
  490.220    2.419  156.460   62.053    0.398    0.343
  490.470    2.419  156.663   60.239    0.375    0.345
  490.720    2.352  156.443   59.485    0.360    0.347
  490.970    2.261  156.329   61.850    0.408    0.327
  491.220    2.203  156.003   63.466    0.432    0.315
  491.470    2.194  155.885   61.027    0.437    0.321
  491.720    2.247  155.876   58.902    0.426    0.334
  491.970    2.247  155.657   57.088    0.418    0.331
  492.220    2.276  155.646   57.083    0.409    0.307
  492.470    2.371  155.534   58.573    0.402    0.322
  492.720    2.701  154.890   59.442    0.399    0.327
  492.970    3.158  153.931   59.436    0.392    0.322
  493.220    3.749  153.287   58.121    0.383    0.305
  493.470    4.223  154.863   57.431    0.363    0.272
  493.720    4.473  158.128   57.675    0.244    0.162
  493.970    4.309  159.703   56.297    0.214    0.118
  494.220    3.999  159.695   56.353    0.266    0.162
  494.470    3.431  157.574   58.282    0.333    0.246
  494.720    2.837  153.973   62.143    0.365    0.281
  494.970    2.475  152.697   63.759    0.389    0.308
  495.220    2.340  153.215   63.255    0.397    0.315
  495.470    2.318  153.840   60.504    0.398    0.330
  495.720    2.331  153.721   57.506    0.400    0.305
  495.970    2.366  153.505   53.571    0.407    0.309
  496.220    2.441  153.179   52.443    0.412    0.326
  496.470    2.496  152.536   52.812    0.429    0.345
  496.720    2.524  152.316   53.555    0.453    0.357
  496.970    2.426  151.986   53.736    0.465    0.370
  497.220    2.342  152.083   54.604    0.407    0.318
  497.470    2.268  152.182   52.229    0.360    0.237
  497.720    2.153  152.067   48.544    0.323    0.209
  497.970    2.085  152.057   47.728    0.321    0.177
  498.220    2.164  152.260   49.656    0.344    0.328
  498.470    2.241  152.780   52.332    0.366    0.327
  498.720    2.352  153.509   55.320    0.380    0.313
  498.970    2.473  154.134   57.498    0.389    0.307
  499.220    2.482  154.863   59.363    0.395    0.313
  499.470    2.422  155.170   58.547    0.382    0.262
