~VERSION INFORMATION
 VERS.                 2.0:   CWLS LOG ASCII STANDARD -VERSION 2.0
 WRAP.                  NO:   ONE LINE PER DEPTH STEP
~WELL INFORMATION BLOCK
#MNEM.UNIT           DATA                    DESCRIPTION OF MNEMONIC
#---------    -------------------            -------------------------------
# Generated from Intellog Unique Number	CS_73_76/WELL/3271
WELL.         DOME LEISMER                   : Well_name    - WELL
LOC .         00/12-13-076-10W4/0            : Location     - LOCATION
UWI .         00/12-13-076-10W4/0            : Uwi          - UNIQUE WELL ID
ENTR.         SP                             : Entered      - ENTERED BY
SRVC.         SCHLUMBERGER                   : Scn          - SERVICE COMPANY
STRT.M        250                            : top_depth    - START DEPTH
STOP.M        460                            : bot_depth    - STOP DEPTH
STEP.M        0.25                           : increment    - STEP LENGTH
 NULL. -999.2500:NULL Value
~CURVE INFORMATION BLOCK
#MNEM UNIT       ERCB CURVE CODE    CURVE DESCRIPTION
#-----------   ------------------   ----------------------------------
DEPT.M        00 001 00 00         : DEPTH        - DEPTH
DPHI.V/V      00 890 00 00         : PHID         - DENSITY POROSITY (LIMESTONE)
NPHI.V/V      00 330 00 00         : PHIN         - NEUTRON POROSITY (LIMESTONE)
GR  .API      00 310 00 00         : GR           - GAMMA RAY
ILD .OHMM     00 120 00 00         : RESD         - DEEP RESISTIVITY (DIL)
~PARAMETER INFORMATION
#MNEM.UNIT           DATA             DESCRIPTION OF MNEMONIC
#---------         -----------     ------------------------------
GL  .M        662.72               : gl           - GROUND LEVEL ELEVATION
EREF.M        667                  : kb           - ELEVATION OF DEPTH REFERENCE
DATM.M        667                  : datum        - DATUM ELEVATION
TDD .M        465                  : tdd          - TOTAL DEPTH DRILLER
RUN .         ONE                  : Run          - RUN NUMBER
ENG .         BILL                 : Engineer     - RECORDING ENGINEER
WIT .         JIM                  : Witness      - WITNESSED BY
MUD .         GEL                  : Mud_type     - MUD TYPE
MATR.         LIMESTONE            : Logunit      - NEUTRON MATRIX
TMAX.C        23                   : BHT          - MAXIMUM RECORDED TEMPERATURE
BHTD.M        465                  : BHTDEP       - MAXIMUM RECORDED TEMPERATURE
MATR.         1                    : LOGUNIT      - NEUTRON MATRIX
RMT .C        25                   : MDTP         - TEMPERATURE OF MUD
NEUT.         1                    : NEUTRON      - NEUTRON TYPE
RESI.         0                    : RESIST       - RESISTIVITY TYPE
RMC .OHMM     0.25                 : RMC          - RESISTIVITY OF MUD CAKE
RMF .OHMM     0.25                 : RMF          - RESISTIVITY OF MUD FILTRATE
SUFT.C        15                   : SUFT         - SURFACE TEMPERATURE
~A  DEPTH     PHID     PHIN       GR     RESD
# ...
  293.500    0.274    0.462   76.088   16.842
  293.750    0.313    0.442   67.524   19.203
  294.000    0.327    0.422   59.574   21.487
  294.250    0.329    0.433   59.583   21.472
  294.500    0.319    0.419   64.487   19.907
  294.750    0.312    0.401   73.680   15.874
  295.000    0.296    0.407   87.769   12.899
  295.250    0.277    0.422   94.512   10.680
  295.500    0.256    0.440  103.704    9.535
  295.750    0.251    0.474  103.712    8.512
  296.000    0.241    0.488  103.720    7.890
  296.250    0.233    0.477  104.953    7.886
  296.500    0.244    0.454   95.164    8.498
  296.750    0.256    0.438   87.214    9.689
  297.000    0.262    0.412   85.996   10.442
  297.250    0.264    0.411   87.230   10.634
  297.500    0.254    0.417   89.073    9.674
  297.750    0.236    0.430   95.206    8.967
  298.000    0.243    0.447  101.335    8.631
  298.250    0.269    0.484  100.118    8.791
  298.500    0.257    0.522   92.166    9.296
  298.750    0.276    0.525   85.441   10.403
  299.000    0.297    0.488   85.448   12.549
  299.250    0.296    0.484   86.680   14.043
  299.500    0.276    0.476   83.630   14.849
  299.750    0.271    0.463   81.801   14.293
  300.000    0.255    0.447   81.807   14.020
  300.250    0.245    0.457   84.264   13.495
  300.500    0.275    0.486   84.271   12.988
  300.750    0.280    0.471   84.892   12.739
  301.000    0.263    0.470   85.513   11.808
  301.250    0.261    0.478   87.969   11.367
  301.500    0.265    0.474   91.040   10.942
  301.750    0.266    0.475   95.946   10.336
  302.000    0.265    0.469   95.953   10.137
  302.250    0.266    0.456   93.512   10.325
  302.500    0.286    0.442   90.462   10.514
  302.750    0.294    0.432   89.241   11.120
  303.000    0.289    0.428   83.129   11.540
  303.250    0.271    0.427   79.462   11.754
  303.500    0.260    0.422   81.919   11.970
  303.750    0.275    0.426   80.702   11.964
  304.000    0.282    0.422   81.935   12.185
  304.250    0.272    0.429   85.617   11.085
  304.500    0.275    0.435   89.298   10.274
  304.750    0.272    0.437   86.245   10.269
  305.000    0.254    0.448   85.028    9.342
  305.250    0.230    0.480   86.875    8.992
  305.500    0.219    0.493   91.167    8.656
  305.750    0.223    0.501   94.848    8.815
  306.000    0.239    0.503   81.386    9.148
  306.250    0.439    0.554   56.904    9.494
  306.500    0.602    0.612   41.607   11.241
  306.750    0.576    0.628   45.290   14.347
  307.000    0.287    0.567   49.582   16.360
  307.250    0.281    0.456   49.591   18.654
  307.500    0.281    0.432   48.374   20.484
  307.750    0.283    0.424   46.545   22.494
  308.000    0.288    0.427   46.553   26.630
  308.250    0.297    0.429   47.174   27.639
  308.500    0.301    0.438   47.182   28.678
  308.750    0.307    0.438   47.800   29.768
  309.000    0.313    0.423   49.035   29.195
  309.250    0.320    0.401   48.431   29.735
  309.500    0.315    0.407   48.438   31.445
  309.750    0.319    0.422   47.834   31.429
  310.000    0.325    0.443   48.453   32.005
  310.250    0.326    0.430   48.461   33.217
  310.500    0.333    0.415   50.306   35.129
  310.750    0.333    0.418   49.702   33.813
  311.000    0.330    0.430   49.097   35.090
  311.250    0.319    0.430   50.330   37.109
  311.500    0.314    0.414   49.113   38.512
  311.750    0.320    0.405   48.509   37.774
  312.000    0.324    0.416   49.741   37.050
  312.250    0.324    0.428   49.138   35.654
  312.500    0.324    0.428   50.983   34.975
  312.750    0.323    0.403   54.664   36.988
  313.000    0.318    0.389   57.120   37.674
  313.250    0.321    0.393   55.293   37.653
  313.500    0.326    0.399   53.464   39.075
  313.750    0.325    0.410   51.022   39.056
  314.000    0.326    0.419   49.194   38.306
  314.250    0.329    0.424   48.590   39.755
  314.500    0.330    0.431   49.822   39.731
  314.750    0.329    0.436   49.830   38.970
  315.000    0.329    0.426   49.838   38.224
  315.250    0.332    0.421   49.233   38.205
  315.500    0.337    0.425   49.241   38.184
  315.750    0.341    0.424   51.088   38.163
  316.000    0.350    0.432   54.155   38.134
  316.250    0.357    0.445   56.613   37.410
  316.500    0.356    0.440   56.008   36.694
  316.750    0.351    0.431   54.180   36.674
  317.000    0.343    0.427   53.575   36.653
  317.250    0.337    0.424   54.196   36.634
  317.500    0.335    0.429   53.592   35.261
  317.750    0.335    0.421   51.764   34.587
  318.000    0.341    0.417   50.546   34.569
  318.250    0.345    0.424   51.166   33.905
  318.500    0.343    0.432   51.787   33.254
  318.750    0.343    0.441   53.631   32.617
  319.000    0.347    0.451   54.252   31.992
  319.250    0.348    0.441   52.422   31.973
  319.500    0.351    0.428   52.431   33.813
  319.750    0.352    0.419   53.663   31.345
  320.000    0.357    0.415   56.733   30.172
  320.250    0.363    0.421   59.803   29.594
  320.500    0.383    0.481   58.585   28.485
  320.750    0.404    0.514   56.145   27.414
  321.000    0.376    0.451   56.154   26.390
  321.250    0.363    0.428   56.160   25.885
  321.500    0.358    0.426   54.332   24.914
  321.750    0.354    0.428   56.178   24.437
  322.000    0.352    0.436   56.186   23.521
  322.250    0.352    0.451   54.971   23.956
  322.500    0.359    0.467   54.363   23.941
  322.750    0.360    0.478   53.147   23.930
  323.000    0.357    0.480   53.768   23.916
  323.250    0.354    0.460   55.000   23.905
  323.500    0.350    0.442   54.396   24.342
  323.750    0.345    0.444   55.628   24.328
  324.000    0.349    0.450   57.473   24.318
  324.250    0.355    0.465   56.256   24.303
  324.500    0.357    0.468   55.652   23.838
  324.750    0.350    0.471   57.497   24.281
  325.000    0.348    0.465   55.668   24.267
  325.250    0.352    0.448   53.840   23.803
  325.500    0.355    0.454   53.235   23.787
  325.750    0.350    0.455   52.631   23.776
  326.000    0.343    0.450   50.802   23.764
  326.250    0.348    0.458   50.199   23.308
  326.500    0.352    0.464   52.043   23.292
  326.750    0.351    0.461   50.826   22.849
  327.000    0.339    0.468   52.058   22.836
  327.250    0.332    0.481   52.680   22.823
  327.500    0.337    0.477   52.687   22.811
  327.750    0.342    0.460   52.084   22.373
  328.000    0.349    0.458   51.480   22.786
  328.250    0.355    0.464   51.486   22.771
  328.500    0.359    0.467   54.555   22.340
  328.750    0.359    0.453   53.952   22.751
  329.000    0.359    0.440   55.798   22.314
  329.250    0.358    0.437   55.805   22.295
  329.500    0.348    0.448   54.587   22.288
  329.750    0.346    0.459   54.596   21.454
  330.000    0.355    0.467   53.379   21.044
  330.250    0.359    0.466   53.999   21.032
  330.500    0.351    0.470   53.395   21.020
  330.750    0.359    0.475   54.627   21.011
  331.000    0.360    0.476   57.699   20.999
  331.250    0.348    0.472   55.868   20.985
  331.500    0.343    0.476   53.427   20.976
  331.750    0.346    0.478   52.823   20.962
  332.000    0.354    0.475   52.831   21.349
  332.250    0.356    0.481   51.615   21.340
  332.500    0.354    0.462   52.847   20.932
  332.750    0.347    0.460   55.917   20.921
  333.000    0.349    0.483   55.925   20.908
  333.250    0.362    0.499   54.709   20.896
  333.500    0.366    0.489   54.103   20.884
  333.750    0.359    0.489   56.561   20.485
  334.000    0.355    0.488   55.344   20.475
  334.250    0.352    0.481   54.741   20.084
  334.500    0.346    0.458   57.199   20.071
  334.750    0.347    0.463   58.429   20.441
  335.000    0.347    0.482   57.213   20.431
  335.250    0.349    0.483   59.058   20.807
  335.500    0.349    0.467   61.516   21.191
  335.750    0.345    0.462   62.747   21.581
  336.000    0.336    0.456   63.369   21.572
  336.250    0.326    0.450   62.151   21.561
  336.500    0.328    0.462   60.934   20.754
  336.750    0.334    0.483   61.555   16.239
