~Version Information
VERS.                2.00:
WRAP.                  NO:
~Well Information Block
#MNEM.UNIT       Data Type    Information
#---------    -------------   -------------------
FLD.   :FIELD
FLD.   :FIELD
FLD.   :FIELD
FLD.   :FIELD
STRT.M          1950.0000:
STOP.M          4060.0000:
STEP.M             0.8202:
NULL.           -999.2500:
COMP.  MUTUAL EXPLORATION FUNDS:COMPANY
WELL.  MUTES IOE SEAFORTH:WELL
FLD.   :FIELD
LOC.   15-20-095-20W4:LOCATION
CTRY.  CANADA:COUNTRY
PROV.  ALBERTA:PROVINCE
SRVC.  SCHLUMBERGER:SERVICE COMPANY
DATE.  01 MAR 69:LOG DATE
UWI.   00/15-20-095-20W4/0:UNIQUE WELL ID
~Curve Information Block
#MNEM.UNIT        API CODE    Curve Description
#---------    ------------    -----
DEPT.M                    :   DEPTH
CALI.in                   :   CALI
GR  .API                  :   GR
SNP .V/V                  :   SNP
~A  Depth           CALI          GR         SNP
# ...
3429.6408        14.5124     14.0457      0.0791
3430.4610        14.5132     14.4474      0.1667
3431.2812        14.4769     15.2484      0.2031
3432.1014        14.4372     15.6675      0.1699
3432.9216        14.1272     14.5299      0.1432
3433.7418        13.7947     14.1896      0.1176
3434.5620        14.2113     14.4245      0.0928
3435.3822        14.2332     15.2572      0.1265
3436.2024        14.3508     15.6907      0.1487
3437.0226        14.3573     15.3511      0.1641
3437.8428        14.2403     14.5915      0.1849
3438.6630        13.7769     13.8024      0.2015
3439.4832        13.8221     13.7416      0.1609
3440.3034        14.1946     13.7430      0.1210
3441.1236        14.4760     14.1118      0.0766
3441.9438        14.4841     14.5163      0.0601
3442.7640        14.4851     14.2091      0.0715
3443.5842        14.5181     14.1811      0.0858
3444.4044        14.5273     13.8320      0.0911
3445.2246        14.5282     13.7951      0.0837
3446.0448        14.5290     14.1457      0.0748
3446.8650        14.5298     14.1995      0.0915
3447.6852        14.5580     13.5258      0.1152
3448.5054        14.5696     13.4339      0.1315
3449.3256        14.5724     14.4487      0.1713
3450.1458        14.5403     14.9507      0.1379
3450.9660        14.5084     15.0366      0.0737
3451.7862        14.4968     14.3879      0.0586
3452.6064        14.4959     13.6205      0.0777
3453.4266        14.4960     13.1624      0.1134
3454.2468        14.4968     13.0859      0.1589
3455.0670        14.4976     12.7521      0.1963
3455.8872        14.4638     13.0190      0.1467
3456.7074        14.4246     13.0771      0.1207
3457.5276        14.4198     13.0973      0.0671
3458.3478        14.4199     13.5038      0.0542
3459.1680        14.3851     13.1203      0.0636
3459.9882        14.3815     12.7281      0.1137
3460.8084        14.3818     13.5066      0.1732
3461.6286        14.3825     13.1504      0.1429
3462.4488        14.4084     13.1442      0.1213
3463.2690        14.4231     13.1512      0.1236
3464.0892        14.4618     13.1589      0.1159
3464.9094        14.5030     13.1666      0.1003
3465.7296        14.5371     13.5497      0.0805
3466.5498        14.5467     14.1844      0.0700
3467.3700        14.5503     14.3829      0.0743
3468.1902        14.5514     13.8039      0.0753
3469.0104        14.5266     13.2616      0.0714
3469.8306        14.5162     13.5241      0.0823
3470.6508        14.5136     13.9759      0.0997
3471.4710        14.4761     14.0290      0.0841
3472.2912        14.4754     14.7574      0.0743
3473.1114        14.4755     14.8456      0.0653
3473.9316        14.4762     15.2166      0.0608
3474.7518        14.4770     15.6206      0.0692
3475.5720        14.4778     16.0285      0.0787
3476.3922        14.4786     16.0885      0.0766
3477.2124        14.4795     15.8177      0.0704
3478.0326        14.4803     15.3829      0.0692
3478.8528        14.4811     14.6439      0.0796
3479.6730        14.4820     13.8605      0.0937
3480.4932        14.4503     13.4054      0.0797
3481.3134        14.4465     13.0027      0.0750
3482.1336        14.4446     12.9400      0.1062
3482.9538        14.4450     12.6057      0.1342
3483.7740        14.4456     11.8970      0.1497
3484.5942        14.4187     11.7704      0.1635
3485.4144        14.4107     13.0507      0.1908
3486.2346        14.3745     13.5327      0.2122
3487.0548        14.3690     13.7767      0.2223
3487.8750        14.3450     13.7850      0.2320
3488.6952        14.3315     13.7929      0.2438
3489.5154        14.3301     13.8005      0.2664
3490.3356        14.3306     13.4176      0.3153
3491.1558        14.3314     14.0412      0.3642
3491.9760        14.3322     14.2193      0.3181
3492.7962        14.3330     13.8509      0.3054
3493.6164        14.3338     13.8401      0.3267
3494.4366        14.3347     14.2254      0.3106
3495.2568        14.3107     14.6325      0.3060
3496.0770        14.3001     14.6665      0.3149
3496.8972        14.2978     13.9341      0.3114
3497.7174        14.2976     13.5148      0.2667
3498.5376        14.2983     12.8977      0.2305
3499.3578        14.2991     11.9811      0.2212
3500.1780        14.2999     11.5360      0.1954
3500.9982        14.2636     12.2113      0.1770
3501.8184        14.2315     12.6495      0.1589
3502.6386        14.2221     12.3532      0.1483
3503.4588        14.2529     13.0283      0.1248
3504.2790        14.2629     13.1198      0.0770
3505.0992        14.2643     13.1385      0.0691
3505.9194        14.2652     13.1477      0.0673
3506.7396        14.3044     13.8445      0.0734
3507.5598        14.3073     14.2948      0.0888
3508.3800        14.3082     14.0281      0.1054
3509.2002        14.3091     13.3176      0.1311
3510.0204        14.3099     13.5457      0.1653
3510.8406        14.3107     13.9243      0.1686
3511.6608        14.3904     14.6613      0.0823
3512.4810        14.4330     15.1266      0.0580
3513.3012        12.2413     14.6553      0.0219
3514.1214        11.2979     13.4988      0.0158
3514.9416        10.7115     11.9926      0.0139
3515.7618        10.4010     11.0608      0.0119
3516.5820        10.2819      9.6384      0.0114
3517.4022        10.2294      8.3672      0.0136
3518.2224        10.1173      7.2528      0.0344
3519.0426         9.9961      7.6120      0.0522
3519.8628         9.8736      8.0186      0.0531
3520.6830         9.8601      9.5820      0.0562
3521.5032         9.8954     10.8108      0.0739
3522.3234        10.4566     11.6417      0.1325
3523.1436        11.3837     11.6937      0.2075
3523.9638        13.8590     12.0808      0.1967
3524.7840        14.3194     12.4122      0.1742
3525.6042        14.4275     12.4994      0.1566
3526.4244        14.4706     12.9018      0.1606
3527.2446        14.1699     13.3099      0.1371
3528.0648        13.9144     13.3521      0.1118
3528.8850        14.3078     12.6371      0.0839
3529.7052        14.3973     11.8531      0.0555
3530.5254        14.4101     11.0623      0.0462
3531.3456        14.3769     11.3346      0.0615
3532.1658        14.3735     12.0810      0.1571
3532.9860        14.3738     12.5308      0.2312
3533.8062        12.9339     13.2953      0.2523
3534.6264        12.8215     13.6703      0.2796
3535.4466        13.1521     14.1539      0.2657
3536.2668        12.5203     14.7843      0.2441
3537.0870        12.2047     14.3285      0.2204
3537.9072        12.8451     13.5869      0.1998
3538.7274        13.5848     12.4666      0.1395
3539.5476        14.1818     11.6216      0.1089
3540.3678        14.4037     10.4898      0.1296
3541.1880        14.4589     10.2973      0.1764
3542.0082        14.4638     10.5973      0.1555
3542.8284        13.2188     10.9858      0.1240
3543.6486        13.0754     11.0652      0.0961
3544.4688        13.9986     11.4102      0.1037
3545.2890        14.2168     11.5009      0.1790
3546.1092        13.5560     11.5087      0.2071
3546.9294        12.8384     11.5164      0.1919
3547.7496        12.5972     11.1301      0.1389
3548.5698        13.5936     11.1288      0.1200
3549.3900        14.2633     11.5253      0.1018
3550.2102        14.3898     12.3210      0.0867
3551.0304        14.3921     12.3598      0.0985
3551.8506        14.3929     12.3689      0.1218
3552.6708        14.3937     12.7566      0.1545
3553.4910        14.3946     13.1639      0.1334
3554.3112        14.2959     10.9570      0.1158
3555.1314        10.8774      9.9309      0.0276
3555.9516        10.0856      8.5178      0.0043
3556.7718         9.8064      8.0331      0.0034
3557.5920         9.7039      7.9929      0.0034
3558.4122         9.5832      7.9957      0.0050
3559.2324         9.4226      7.4199      0.0042
3560.0526         9.1803      7.2312      0.0034
3560.8728         9.1304      7.5675      0.0041
3561.6930         9.0107      7.0350      0.0113
3562.5132         8.9684      6.5070      0.0162
3563.3334         8.9283      6.0960      0.0202
