~VERSION INFORMATION
 VERS.                 2.0:   CWLS LOG ASCII STANDARD -VERSION 2.0
 WRAP.                  NO:   ONE LINE PER DEPTH STEP
~WELL INFORMATION BLOCK
#MNEM.UNIT           DATA                    DESCRIPTION OF MNEMONIC
#---------    -------------------            -------------------------------
# Generated from Intellog Unique Number	CW_73_75/WELL/3025
WELL.         11-21-075-26W4                 : Well_name    - WELL
LOC .         00/11-21-075-26W4/0            : Location     - LOCATION
UWI .         00/11-21-075-26W4/0            : Uwi          - UNIQUE WELL ID
ENTR.         JJ                             : Entered      - ENTERED BY
SRVC.         WESTERN ATLAS                  : Scn          - SERVICE COMPANY
DATE.         1 APR 68                       : Date         - LOG DATE
STRT.M        649.224                        : top_depth    - START DEPTH
STOP.M        777.224                        : bot_depth    - STOP DEPTH
STEP.M        0.25                           : increment    - STEP LENGTH
 NULL. -999.2500:NULL Value
~CURVE INFORMATION BLOCK
#MNEM UNIT       ERCB CURVE CODE    CURVE DESCRIPTION
#-----------   ------------------   ----------------------------------
DEPT.M        00 001 00 00         : DEPTH        - DEPTH
DELT.US/F     00 520 00 00         : DELT         - SONIC TRAVEL TIME
GR  .API      00 310 00 00         : GR           - GAMMA RAY
ILD .OHMM     00 120 00 00         : RESD         - DEEP RESISTIVITY (DIL)
~PARAMETER INFORMATION
#MNEM.UNIT           DATA             DESCRIPTION OF MNEMONIC
#---------         -----------     ------------------------------
GL  .M        870.417              : gl           - GROUND LEVEL ELEVATION
EREF.M        874.776              : kb           - ELEVATION OF DEPTH REFERENCE
DATM.M        870.417              : datum        - DATUM ELEVATION
TDD .M        776.021              : tdd          - TOTAL DEPTH DRILLER
RUN .         ONE                  : Run          - RUN NUMBER
ENG .         MOORE                : Engineer     - RECORDING ENGINEER
WIT .         SANDERSON            : Witness      - WITNESSED BY
BASE.         S.L.                 : Branch       - HOME BASE OF LOGGING UNIT
MUD .         GEL                  : Mud_type     - MUD TYPE
MATR.         SANDSTONE            : Logunit      - NEUTRON MATRIX
TMAX.C        30.5556              : BHT          - MAXIMUM RECORDED TEMPERATURE
BHTD.M        776.63               : BHTDEP       - MAXIMUM RECORDED TEMPERATURE
RMT .C        20.5556              : MDTP         - TEMPERATURE OF MUD
MUDD.KG/M     1224                 : MWT          - MUD DENSITY
NEUT.         1                    : NEUTRON      - NEUTRON TYPE
RESI.         0                    : RESIST       - RESISTIVITY TYPE
RM  .OHMM     6.1                  : RM           - RESISTIVITY OF MUD
RMC .OHMM     6.4                  : RMC          - RESISTIVITY OF MUD CAKE
RMF .OHMM     5.9                  : RMF          - RESISTIVITY OF MUD FILTRATE
SUFT.C        5                    : SUFT         - SURFACE TEMPERATURE
~A  DEPTH     DELT       GR     RESD
  649.224  382.641   75.129    4.647
  649.474  376.778   77.050    4.806
  649.724  374.668   73.946    5.110
  649.974  379.923   69.137    5.370
  650.224  382.571   69.017    5.501
  650.474  372.089   73.927    5.597
  650.724  372.383   68.678    5.761
  650.974  380.720   68.855    5.794
  651.224  376.335   73.714    5.786
  651.474  366.992   64.382    5.755
  651.724  366.759   63.814    5.645
  651.974  379.110   65.780    5.535
  652.224  374.656   68.800    5.405
  652.474  370.203   73.859    5.350
  652.724  380.348   73.489    5.301
  652.974  388.548   72.478    5.232
  653.224  388.449   74.195    5.182
  653.474  379.038   73.876    5.112
  653.724  369.090   73.457    5.024
  653.974  376.691   70.299    4.894
  654.224  383.149   74.412    4.739
  654.474  378.764   75.687    4.630
  654.724  373.172   71.829    4.560
  654.974  381.238   75.396    4.570
  655.224  385.493   72.585    4.769
  655.474  376.614   67.036    5.197
  655.724  367.873   61.780    5.723
  655.974  357.998   57.725    6.771
  656.224  349.662   54.215    7.567
  656.474  359.599   55.041    7.950
  656.724  373.431   63.291    7.757
  656.974  382.235   62.326    7.215
  657.224  376.108   63.750    6.832
  657.474  360.203   64.472    6.394
  657.724  344.629   57.928    6.363
  657.974  340.711   59.053    6.705
  658.224  360.431   61.521    6.801
  658.474  355.040   64.041    6.236
  658.724  353.599   60.632    5.529
  658.974  343.319   61.112    5.107
  659.224  350.448   65.475    4.726
  659.474  367.826   71.928    4.453
  659.724  378.637   72.656    4.279
  659.974  364.674   71.738    4.187
  660.224  376.159   81.185    4.304
  660.474  378.670   75.829    4.791
  660.724  373.274   67.739    5.092
  660.974  367.146   66.672    4.816
  661.224  371.801   71.087    4.376
  661.474  383.351   64.736    4.140
  661.724  392.824   69.099    4.012
  661.974  386.430   71.969    4.002
  662.224  379.159   69.311    3.993
  662.474  374.439   71.082    4.173
  662.724  370.925   75.396    4.333
  662.974  366.599   75.273    4.530
  663.224  361.547   72.061    4.602
  663.474  365.327   74.936    4.636
  663.724  370.784   77.201    4.797
  663.974  372.154   76.086    4.974
  664.224  364.352   69.042    5.272
  664.474  368.872   60.300    6.319
  664.724  380.218   55.000    8.149
  664.974  388.289   54.229    9.977
  665.224  349.014   55.057   12.797
  665.474  308.265   50.353   15.659
  665.724  231.221   44.652   17.364
  665.974  245.513   40.201   15.850
  666.224  265.971   43.364   13.449
  666.474  338.528   50.019   11.665
  666.724  351.482   62.056   10.335
  666.974  350.511   61.635    9.296
  667.224  334.539   54.937    8.648
  667.474  330.822   57.957    8.764
  667.724  350.608   61.774    9.790
  667.974  345.752   65.138    9.864
  668.224  332.190   58.592    9.322
  668.474  324.456   54.386    8.857
  668.724  341.696   55.062    8.107
  668.974  347.688   61.018    7.564
  669.224  353.080   64.385    7.594
  669.474  382.309   58.536    8.127
  669.724  402.966   54.628    8.590
  669.974  396.501   61.835    9.699
  670.224  390.507   64.900   10.413
  670.474  392.811   58.949   10.861
  670.724  396.396   52.852   11.247
  670.974  374.331   55.223   11.694
  671.224  363.782   53.157   12.137
  671.474  342.987   51.044   12.809
  671.724  332.573   52.020   13.834
  671.974  329.461   49.064   14.817
  672.224  328.012   52.128   15.841
  672.474  323.901   48.922   16.680
  672.724  311.472   46.408   17.497
  672.974  309.367   45.841   18.317
  673.224  319.910   48.657   18.060
  673.474  330.655   50.033   16.549
  673.724  346.557   46.324   15.715
  673.974  355.969   47.402   15.291
  674.224  360.954   51.810   15.161
  674.474  354.025   54.828   15.548
  674.724  345.818   47.634   16.471
  674.974  334.067   47.225   17.143
  675.224  316.217   49.140   17.669
  675.474  310.425   51.606   18.632
  675.724  307.368   53.230   19.450
  675.974  307.876   47.133   20.267
  676.224  311.459   45.318   21.560
  676.474  315.709   44.151   23.223
  676.724  323.306   49.709   25.612
  676.974  331.110   42.517   27.564
  677.224  342.793   39.357   29.022
  677.474  351.865   38.590   30.357
  677.724  352.094   40.315   31.691
  677.974  345.634   42.433   32.734
  678.224  337.029   47.639   34.255
  678.474  304.382   45.226   35.857
  678.724  289.886   41.122   37.107
  678.974  242.306   39.409   37.513
  679.224  255.463   39.640   35.441
  679.474  278.732   40.712   33.182
  679.724  325.903   42.982   31.031
  679.974  316.363   44.306   29.782
  680.224  305.675   41.294   29.464
  680.474  296.401   38.583   30.739
  680.724  287.125   41.152   32.113
  680.974  279.931   36.049   33.511
  681.224  275.202   39.271   34.162
  681.474  282.468   41.893   34.339
  681.724  282.435   42.165   33.154
  681.974  277.176   38.756   32.135
  682.224  284.973   39.539   29.919
  682.474  293.448   40.658   26.712
  682.724  310.021   40.586   22.719
  682.974  319.959   44.251   19.181
  683.224  326.024   45.278   16.738
  683.474  311.457   43.116   14.151
  683.724  305.595   52.512   12.345
  683.974  316.677   51.545   10.440
  684.224  336.934   52.273    9.584
  684.474  332.279   53.890    8.753
  684.724  335.590   57.014    8.454
  684.974  334.884   59.083    8.405
  685.224  329.022   56.619    8.565
  685.474  335.883   51.913    8.764
  685.724  340.611   55.432    8.819
  685.974  331.869   61.686    8.501
  686.224  332.367   61.965    8.118
  686.474  334.343   60.449    7.595
  686.724  334.839   61.424    7.136
  686.974  338.295   61.754    7.108
  687.224  331.761   64.522    7.118
  687.474  331.857   70.231    7.174
  687.724  325.600   66.526    7.228
  687.974  321.613   64.112    7.404
  688.224  315.349   63.046    7.852
  688.474  318.397   64.267    8.255
  688.724  309.122   61.506    8.683
  688.974  301.248   61.739    8.801
  689.224  300.279   64.059    8.749
  689.474  298.572   64.137    8.432
  689.724  312.197   61.921    7.768
  689.974  330.577   68.228    7.283
  690.224  341.995   69.953    6.759
  690.474  347.715   66.889    6.523
  690.724  352.169   69.511    6.929
  690.974  370.348   67.445    7.826
  691.224  384.445   58.756    9.800
  691.474  393.517   50.269   12.497
  691.724  363.611   45.663   15.730
  691.974  355.280   44.944   19.314
  692.224  346.803   44.672   22.073
  692.474  339.941   47.343   23.324
  692.724  331.197   44.189   21.543
  692.974  341.408   43.314   19.922
  693.224  354.969   46.880   17.666
  693.474  359.018   49.251   15.326
  693.724  355.971   47.835   13.500
  693.974  356.605   51.005   11.678
  694.224  359.985   51.632   10.885
  694.474  363.433   51.110   10.671
  694.724  364.335   53.729   10.849
  694.974  363.166   54.509   11.565
  695.224  359.712   51.947   12.030
  695.474  356.597   50.678   12.313
  695.724  358.296   47.070   11.827
  695.974  361.079   48.301   10.357
  696.224  363.796   49.570    9.192
  696.474  368.711   50.199    8.254
  696.724  372.499   51.570    7.875
  696.974  326.125   51.448    9.376
  697.224  285.376   49.085   10.935
  697.474  269.872   50.510   13.551
  697.724  278.073   50.938   15.688
  697.974  275.422   53.111   18.963
  698.224  267.485   51.195   20.669
  698.474  261.693   43.653   21.258
  698.724  270.965   43.081   19.354
  698.974  282.785   44.759   16.145
  699.224  295.142   47.926   13.206
  699.474  307.829   53.133   10.865
  699.724  315.832   62.429    9.105
  699.974  283.520   59.218    8.579
  700.224  264.801   51.724    9.170
  700.474  255.594   47.174   10.978
  700.724  249.997   49.447   15.182
  700.974  235.501   49.274   18.293
  701.224  214.172   49.152   21.318
  701.474  203.623   43.449   23.477
  701.724  195.955   45.227   22.543
  701.974  248.286   50.485   20.201
  702.224  286.489   57.335   15.383
  702.474  308.820   66.285   11.081
  702.724  323.517   65.416    8.885
  702.974  333.459   61.756    7.557
  703.224  320.167   65.224    6.992
