~VERSION INFORMATION
 VERS.                 2.0:   CWLS LOG ASCII STANDARD -VERSION 2.0
 WRAP.                  NO:   ONE LINE PER DEPTH STEP
~WELL INFORMATION BLOCK
#MNEM.UNIT           DATA                    DESCRIPTION OF MNEMONIC
#---------    -------------------            -------------------------------
# Generated from Intellog Unique Number	CS_73_76/WELL/3257
WELL.         CANADIAN WORLDWIDE ENERGY      : Well_name    - WELL
LOC .         00/11-07-076-03W4/0            : Location     - LOCATION
UWI .         00/11-07-076-03W4/0            : Uwi          - UNIQUE WELL ID
ENTR.         SP                             : Entered      - ENTERED BY
SRVC.         SCHLUMBERGER                   : Scn          - SERVICE COMPANY
STRT.M        225                            : top_depth    - START DEPTH
STOP.M        485                            : bot_depth    - STOP DEPTH
STEP.M        0.25                           : increment    - STEP LENGTH
 NULL. -999.2500:NULL Value
~CURVE INFORMATION BLOCK
#MNEM UNIT       ERCB CURVE CODE    CURVE DESCRIPTION
#-----------   ------------------   ----------------------------------
DEPT.M        00 001 00 00         : DEPTH        - DEPTH
DPHI.V/V      00 890 00 00         : PHID         - DENSITY POROSITY (LIMESTONE)
NPHI.V/V      00 330 00 00         : PHIN         - NEUTRON POROSITY (LIMESTONE)
GR  .API      00 310 00 00         : GR           - GAMMA RAY
ILD .OHMM     00 120 00 00         : RESD         - DEEP RESISTIVITY (DIL)
~PARAMETER INFORMATION
#MNEM.UNIT           DATA             DESCRIPTION OF MNEMONIC
#---------         -----------     ------------------------------
GL  .M        617.13               : gl           - GROUND LEVEL ELEVATION
EREF.M        620.23               : kb           - ELEVATION OF DEPTH REFERENCE
DATM.M        617.13               : datum        - DATUM ELEVATION
TDD .M        492                  : tdd          - TOTAL DEPTH DRILLER
RUN .         ONE                  : Run          - RUN NUMBER
ENG .         BILL                 : Engineer     - RECORDING ENGINEER
WIT .         JIM                  : Witness      - WITNESSED BY
MUD .         GEL                  : Mud_type     - MUD TYPE
MATR.         LIMESTONE            : Logunit      - NEUTRON MATRIX
TMAX.C        18                   : BHT          - MAXIMUM RECORDED TEMPERATURE
BHTD.M        492                  : BHTDEP       - MAXIMUM RECORDED TEMPERATURE
MATR.         1                    : LOGUNIT      - NEUTRON MATRIX
RMT .C        25                   : MDTP         - TEMPERATURE OF MUD
NEUT.         1                    : NEUTRON      - NEUTRON TYPE
RESI.         0                    : RESIST       - RESISTIVITY TYPE
RMC .OHMM     0.25                 : RMC          - RESISTIVITY OF MUD CAKE
RMF .OHMM     0.25                 : RMF          - RESISTIVITY OF MUD FILTRATE
SUFT.C        15                   : SUFT         - SURFACE TEMPERATURE
~A  DEPTH     PHID     PHIN       GR     RESD
# ...
  312.000    0.327    0.370   40.373   28.014
  312.250    0.326    0.393   44.022   31.339
  312.500    0.328    0.405   44.026   32.531
  312.750    0.327    0.379   41.601   35.056
  313.000    0.322    0.364   40.998   35.701
  313.250    0.311    0.355   39.788   35.693
  313.500    0.307    0.351   43.438   35.679
  313.750    0.316    0.360   45.264   35.663
  314.000    0.323    0.378   44.660   34.993
  314.250    0.306    0.392   41.628   34.328
  314.500    0.277    0.363   41.632   34.318
  314.750    0.271    0.354   49.531   32.427
  315.000    0.290    0.374   59.859   31.222
  315.250    0.305    0.406   76.868   30.062
  315.500    0.321    0.437   84.767   28.945
  315.750    0.318    0.434   89.629   27.869
  316.000    0.308    0.425   95.100   27.341
  316.250    0.311    0.442  100.569   27.849
  316.500    0.308    0.454  107.254   27.835
  316.750    0.301    0.464  107.866   28.355
  317.000    0.307    0.473  101.798   28.348
  317.250    0.313    0.466   93.300   28.336
  317.500    0.313    0.467   92.090   27.801
  317.750    0.307    0.433   93.915   27.788
  318.000    0.300    0.406   86.632   27.781
  318.250    0.297    0.417   72.669   27.767
  318.500    0.306    0.454   61.134   27.759
  318.750    0.323    0.448   56.888   27.746
  319.000    0.332    0.413   56.893   27.223
  319.250    0.338    0.409   58.111   27.216
  319.500    0.341    0.427   59.330   27.209
  319.750    0.334    0.442   59.942   27.194
  320.000    0.329    0.427   60.553   26.682
  320.250    0.329    0.415   61.772   26.668
  320.500    0.334    0.405   61.778   26.166
  320.750    0.335    0.401   61.173   26.159
  321.000    0.335    0.407   62.999   25.663
  321.250    0.339    0.424   63.611   25.179
  321.500    0.339    0.450   60.579   25.167
  321.750    0.330    0.450   56.332   25.160
  322.000    0.324    0.433   53.300   24.681
  322.250    0.331    0.418   49.660   24.215
  322.500    0.330    0.426   51.487   24.208
  322.750    0.330    0.432   53.313   23.749
  323.000    0.330    0.412   52.711   23.300
  323.250    0.333    0.400   50.285   22.431
  323.500    0.335    0.419   53.934   22.009
  323.750    0.339    0.450   59.403   21.592
  324.000    0.345    0.467   63.659   21.183
  324.250    0.350    0.450   59.412   20.783
  324.500    0.356    0.434   53.951   20.773
  324.750    0.359    0.439   48.489   20.766
  325.000    0.363    0.463   48.493   17.534
  325.250    0.361    0.440   53.356    9.795
  325.500    0.344    0.461   62.470    5.899
  325.750    0.300    0.490   75.835    5.075
  326.000    0.273    0.529   86.163    4.706
  326.250    0.267    0.582   84.953    4.704
  326.500    0.285    0.510   82.529    5.165
  326.750    0.295    0.460   80.104    5.888
  327.000    0.303    0.447   79.501    6.970
  327.250    0.299    0.469   80.113    7.653
  327.500    0.292    0.464   81.939    7.650
  327.750    0.276    0.444   83.764    7.505
  328.000    0.268    0.420   83.162    6.960
  328.250    0.257    0.413   84.987    6.454
  328.500    0.247    0.420   87.421    5.985
  328.750    0.253    0.429   84.390    5.346
  329.000    0.255    0.450   81.357    5.244
  329.250    0.262    0.464   77.110    5.759
  329.500    0.274    0.456   73.471    7.077
  329.750    0.287    0.452   71.046    8.862
  330.000    0.309    0.437   67.407   10.103
  330.250    0.326    0.440   64.374   11.958
  330.500    0.327    0.431   63.164   13.379
  330.750    0.309    0.426   64.990   14.149
  331.000    0.316    0.434   68.031   12.402
  331.250    0.319    0.428   80.181    9.898
  331.500    0.298    0.440   89.295    7.328
  331.750    0.263    0.528   96.587    4.250
  332.000    0.244    0.557  102.057    4.092
  332.250    0.258    0.562  103.276    4.247
  332.500    0.292    0.538   98.422    4.577
  332.750    0.320    0.461   81.422    5.624
  333.000    0.338    0.434   74.138    8.497
  333.250    0.333    0.436   71.106   10.841
  333.500    0.322    0.448   70.504   12.130
  333.750    0.318    0.448   66.864   13.317
  334.000    0.313    0.448   61.403   13.823
  334.250    0.329    0.453   58.371   14.618
  334.500    0.335    0.451   54.731   15.458
  334.750    0.331    0.443   54.129   15.748
  335.000    0.329    0.429   54.132   16.040
  335.250    0.333    0.423   51.707   16.338
  335.500    0.343    0.415   52.319   16.332
  335.750    0.348    0.408   55.360   16.325
  336.000    0.349    0.414   57.793   16.322
  336.250    0.347    0.414   56.583   16.622
  336.500    0.349    0.407   57.195   16.619
  336.750    0.352    0.404   57.199   16.928
  337.000    0.342    0.401   55.989   16.922
  337.250    0.331    0.401   57.208   16.916
  337.500    0.321    0.420   63.285   16.597
  337.750    0.315    0.442   65.112   15.978
  338.000    0.317    0.453   62.686   15.099
  338.250    0.322    0.447   63.905   14.537
  338.500    0.331    0.445   66.946   13.996
  338.750    0.346    0.449   68.773   13.476
  339.000    0.354    0.457   70.599   12.734
  339.250    0.353    0.471   71.818   11.809
  339.500    0.320    0.469   74.251   10.747
  339.750    0.303    0.460   74.863    9.599
  340.000    0.283    0.448   73.046    8.415
  340.250    0.272    0.451   74.872    6.972
  340.500    0.262    0.455   76.091    5.998
  340.750    0.260    0.474   76.702    5.064
  341.000    0.254    0.492   79.135    4.609
  341.250    0.237    0.499   82.783    4.437
  341.500    0.244    0.486   80.359    4.520
  341.750    0.276    0.480   77.934    4.962
  342.000    0.289    0.468   72.473    5.657
  342.250    0.300    0.463   70.048    6.572
  342.500    0.306    0.450   69.446    7.926
  342.750    0.312    0.458   67.628    8.868
  343.000    0.318    0.475   67.025    8.864
  343.250    0.316    0.482   68.243    8.862
  343.500    0.312    0.458   70.677    8.858
  343.750    0.316    0.450   70.074    8.855
  344.000    0.317    0.472   67.649    8.851
  344.250    0.311    0.490   68.260    9.017
  344.500    0.321    0.472   68.265    9.185
  344.750    0.329    0.477   65.840    9.355
  345.000    0.328    0.476   63.416    9.530
  345.250    0.326    0.465   63.419    9.706
  345.500    0.320    0.458   62.209    9.887
  345.750    0.261    0.443   58.569   10.262
  346.000    0.244    0.416   51.286   10.853
  346.250    0.291    0.445   53.720   11.054
  346.500    0.332    0.464   57.368   11.049
  346.750    0.337    0.442   61.623   10.840
  347.000    0.339    0.430   61.629   10.636
  347.250    0.344    0.422   57.381   10.432
  347.500    0.343    0.432   56.171   10.236
  347.750    0.344    0.426   57.389   10.042
  348.000    0.348    0.420   60.431   10.040
  348.250    0.344    0.421   61.042   10.036
  348.500    0.340    0.434   59.832   10.032
  348.750    0.343    0.442   58.622   10.028
  349.000    0.344    0.445   60.449   10.025
  349.250    0.339    0.439   61.667   10.021
  349.500    0.337    0.448   62.279   10.018
  349.750    0.335    0.454   62.283   10.014
  350.000    0.337    0.459   61.681   10.010
  350.250    0.338    0.459   59.863   10.008
  350.500    0.343    0.449   58.652   10.004
  350.750    0.335    0.453   56.834   10.191
  351.000    0.317    0.433   53.195   11.402
  351.250    0.273    0.371   51.377   13.751
  351.500    0.246    0.197   51.989   16.584
  351.750    0.109    0.208   55.031   17.213
  352.000    0.230    0.261   57.464   16.263
  352.250    0.319    0.440   58.075   15.956
  352.500    0.346    0.443   59.902   15.655
  352.750    0.349    0.438   61.727   14.518
  353.000    0.351    0.449   61.124   12.029
  353.250    0.350    0.461   61.736   10.544
  353.500    0.347    0.457   63.562    9.778
  353.750    0.346    0.451   65.996    9.959
  354.000    0.344    0.442   62.356   10.337
  354.250    0.336    0.448   62.968   10.728
  354.500    0.333    0.438   66.617   10.928
  354.750    0.336    0.434   66.014   11.342
  355.000    0.335    0.450   64.195    9.757
  355.250    0.344    0.468   60.556    9.752
