~VERSION INFORMATION
 VERS.                 2.0:   CWLS LOG ASCII STANDARD -VERSION 2.0
 WRAP.                  NO:   ONE LINE PER DEPTH STEP
~WELL INFORMATION BLOCK
#MNEM.UNIT           DATA                    DESCRIPTION OF MNEMONIC
#---------    -------------------            -------------------------------
# Generated from Intellog Unique Number	CS_69_70/WELL/901
WELL.         MAYNARD EXPLORATION            : Well_name    - WELL
LOC .         00/12-36-070-16W4/0            : Location     - LOCATION
UWI .         00/12-36-070-16W4/0            : Uwi          - UNIQUE WELL ID
ENTR.         SP                             : Entered      - ENTERED BY
SRVC.         SCHLUMBERGER                   : Scn          - SERVICE COMPANY
STRT.M        290                            : top_depth    - START DEPTH
STOP.M        510                            : bot_depth    - STOP DEPTH
STEP.M        0.25                           : increment    - STEP LENGTH
 NULL. -999.2500:NULL Value
~CURVE INFORMATION BLOCK
#MNEM UNIT       ERCB CURVE CODE    CURVE DESCRIPTION
#-----------   ------------------   ----------------------------------
DEPT.M        00 001 00 00         : DEPTH        - DEPTH
DPHI.V/V      00 890 00 00         : PHID         - DENSITY POROSITY (LIMESTONE)
NPHI.V/V      00 330 00 00         : PHIN         - NEUTRON POROSITY (LIMESTONE)
GR  .API      00 310 00 00         : GR           - GAMMA RAY
ILD .OHMM     00 120 00 00         : RESD         - DEEP RESISTIVITY (DIL)
~PARAMETER INFORMATION
#MNEM.UNIT           DATA             DESCRIPTION OF MNEMONIC
#---------         -----------     ------------------------------
GL  .M        589.04               : gl           - GROUND LEVEL ELEVATION
EREF.M        592.24               : kb           - ELEVATION OF DEPTH REFERENCE
DATM.M        589.04               : datum        - DATUM ELEVATION
TDD .M        509                  : tdd          - TOTAL DEPTH DRILLER
RUN .         ONE                  : Run          - RUN NUMBER
ENG .         BILL                 : Engineer     - RECORDING ENGINEER
WIT .         JIM                  : Witness      - WITNESSED BY
MUD .         GEL                  : Mud_type     - MUD TYPE
MATR.         LIMESTONE            : Logunit      - NEUTRON MATRIX
TMAX.C        21                   : BHT          - MAXIMUM RECORDED TEMPERATURE
BHTD.M        509                  : BHTDEP       - MAXIMUM RECORDED TEMPERATURE
MATR.         1                    : LOGUNIT      - NEUTRON MATRIX
RMT .C        25                   : MDTP         - TEMPERATURE OF MUD
NEUT.         1                    : NEUTRON      - NEUTRON TYPE
RESI.         0                    : RESIST       - RESISTIVITY TYPE
RMC .OHMM     0.25                 : RMC          - RESISTIVITY OF MUD CAKE
RMF .OHMM     0.25                 : RMF          - RESISTIVITY OF MUD FILTRATE
SUFT.C        15                   : SUFT         - SURFACE TEMPERATURE
~A  DEPTH     PHID     PHIN       GR     RESD
# ...
  420.500    0.224    0.414   86.953    3.985
  420.750    0.227    0.417   85.565    4.002
  421.000    0.227    0.417   85.143    3.962
  421.250    0.228    0.413   83.450    3.947
  421.500    0.230    0.407   82.363    3.932
  421.750    0.234    0.404   81.213    3.933
  422.000    0.241    0.401   79.699    3.934
  422.250    0.248    0.403   78.489    3.943
  422.500    0.244    0.408   77.402    3.993
  422.750    0.229    0.405   76.438    4.084
  423.000    0.216    0.402   75.533    4.175
  423.250    0.207    0.399   74.630    4.307
  423.500    0.230    0.397   73.848    4.602
  423.750    0.244    0.392   73.369    4.832
  424.000    0.240    0.388   74.112    5.070
  424.250    0.235    0.385   75.399    5.316
  424.500    0.221    0.387   77.481    5.407
  424.750    0.208    0.393   79.562    5.376
  425.000    0.222    0.401   81.948    5.107
  425.250    0.235    0.409   85.066    4.503
  425.500    0.234    0.427   88.732    4.014
  425.750    0.234    0.447   91.604    3.549
  426.000    0.225    0.470   96.612    3.207
  426.250    0.216    0.497   99.849    3.085
  426.500    0.217    0.492  102.296    3.070
  426.750    0.217    0.485  103.768    3.234
  427.000    0.217    0.478  102.317    3.432
  427.250    0.214    0.474  100.559    3.547
  427.500    0.213    0.479   98.621    3.605
  427.750    0.214    0.478   97.653    3.598
  428.000    0.211    0.473   98.394    3.419
  428.250    0.208    0.477  100.780    3.167
  428.500    0.204    0.486  102.374    3.029
  428.750    0.210    0.492  103.177    2.900
  429.000    0.215    0.489  103.187    2.835
  429.250    0.222    0.472  102.221    2.690
  429.500    0.223    0.461   99.733    2.666
  429.750    0.214    0.451   97.062    2.642
  430.000    0.203    0.441   95.853    2.668
  430.250    0.197    0.432   96.413    2.775
  430.500    0.193    0.426   97.703    3.153
  430.750    0.209    0.418   98.380    3.341
  431.000    0.223    0.412   97.599    3.857
  431.250    0.238    0.403   94.744    4.471
  431.500    0.251    0.392   91.404    5.142
  431.750    0.258    0.374   88.549    6.370
  432.000    0.231    0.353   87.645    7.597
  432.250    0.202    0.337   85.768    8.922
  432.500    0.186    0.321   82.548   10.394
  432.750    0.200    0.310   78.901   11.940
  433.000    0.227    0.320   73.855   12.505
  433.250    0.253    0.369   69.356   12.825
  433.500    0.253    0.397   74.483   10.219
  433.750    0.248    0.405   83.632    8.217
  434.000    0.244    0.408   89.186    7.196
  434.250    0.224    0.407   91.816    6.200
  434.500    0.206    0.400   91.766    5.727
  434.750    0.191    0.397   90.070    5.328
  435.000    0.176    0.395   88.556    5.010
  435.250    0.182    0.395   87.103    4.725
  435.500    0.181    0.397   87.600    4.653
  435.750    0.188    0.400   89.621    4.662
  436.000    0.195    0.402   91.580    4.761
  436.250    0.200    0.404   92.627    4.901
  436.500    0.202    0.401   92.026    5.050
  436.750    0.189    0.396   87.223    5.075
  437.000    0.203    0.394   83.699    5.109
  437.250    0.193    0.393   83.769    5.085
  437.500    0.193    0.399   85.790    4.996
  437.750    0.194    0.404   87.506    4.907
  438.000    0.195    0.407   89.465    4.729
  438.250    0.203    0.410   91.364    4.689
  438.500    0.191    0.411   92.288    4.715
  438.750    0.176    0.412   92.542    4.748
  439.000    0.170    0.409   92.368    4.798
  439.250    0.174    0.404   91.769    4.865
  439.500    0.181    0.396   91.718    4.964
  439.750    0.184    0.394   93.617    4.998
  440.000    0.171    0.394   95.880    5.039
  440.250    0.176    0.398   99.425    5.122
  440.500    0.180    0.402  101.566    5.181
  440.750    0.184    0.402  103.648    5.386
  441.000    0.169    0.400  104.267    5.649
  441.250    0.156    0.395  104.216    6.369
  441.500    0.150    0.387   98.010    7.245
  441.750    0.171    0.380   90.466    7.711
  442.000    0.196    0.373   83.164    8.072
  442.250    0.231    0.365   77.264    7.722
  442.500    0.168    0.353   71.485    6.554
  442.750    0.133    0.342   64.855    6.007
  443.000    0.088    0.334   58.527    5.919
  443.250    0.110    0.348   54.028    6.124
  443.500    0.143    0.366   62.081    5.545
  443.750    0.178    0.385   71.656    5.431
  444.000    0.200    0.392   80.196    6.446
  444.250    0.218    0.393   83.191    6.962
  444.500    0.229    0.396   83.505    7.020
  444.750    0.219    0.402   83.030    6.155
  445.000    0.194    0.408   81.697    5.330
  445.250    0.178    0.409   81.281    4.784
  445.500    0.166    0.403   85.007    4.237
  445.750    0.164    0.397   88.063    3.780
  446.000    0.163    0.395   88.866    3.185
  446.250    0.186    0.401   88.083    2.696
  446.500    0.202    0.426   86.936    2.378
  446.750    0.211    0.449   88.712    2.085
  447.000    0.222    0.478   92.439    1.890
  447.250    0.204    0.490   95.924    1.760
  447.500    0.190    0.498   98.250    1.696
  447.750    0.193    0.490   99.109    1.860
  448.000    0.201    0.477  100.033    2.400
  448.250    0.195    0.451   99.799    3.350
  448.500    0.163    0.425   92.254    4.503
  448.750    0.133    0.386   80.382    5.510
  449.000    0.109    0.354   72.045    5.625
  449.250    0.149    0.354   72.787    5.438
  449.500    0.180    0.379   79.558    5.235
  449.750    0.208    0.404   86.271    5.252
  450.000    0.241    0.400   89.998    5.539
  450.250    0.229    0.389   89.154    6.056
  450.500    0.208    0.380   85.998    6.670
  450.750    0.184    0.371   84.119    7.153
  451.000    0.155    0.357   82.300    7.497
  451.250    0.132    0.351   80.420    7.637
  451.500    0.138    0.349   78.725    7.671
  451.750    0.168    0.358   78.246    7.590
  452.000    0.190    0.374   82.764    7.240
  452.250    0.202    0.384   85.700    7.225
  452.500    0.176    0.373   87.597    7.128
  452.750    0.156    0.362   87.668    6.736
  453.000    0.117    0.356   86.642    6.280
  453.250    0.125    0.360   89.576    5.831
  453.500    0.142    0.375   92.816    5.227
  453.750    0.157    0.388   95.933    4.624
  454.000    0.172    0.395  100.575    4.290
  454.250    0.170    0.401  102.776    3.898
  454.500    0.169    0.415  101.020    3.654
  454.750    0.168    0.427   99.323    3.467
  455.000    0.165    0.433   93.607    3.419
  455.250    0.175    0.431   96.905    3.445
  455.500    0.179    0.426  101.485    3.495
  455.750    0.190    0.422  103.993    3.602
  456.000    0.173    0.417  106.074    3.742
  456.250    0.158    0.416  103.405    3.849
  456.500    0.151    0.423  100.610    3.965
  456.750    0.144    0.429   99.340    4.056
  457.000    0.140    0.433  103.129    4.008
  457.250    0.146    0.429  107.158    3.976
  457.500    0.139    0.423  110.033    3.888
  457.750    0.154    0.418  110.590    3.856
  458.000    0.159    0.415  109.260    3.849
  458.250    0.151    0.413  107.746    3.858
  458.500    0.144    0.414  104.406    3.883
  458.750    0.139    0.415   99.662    3.917
  459.000    0.144    0.415   95.956    3.918
  459.250    0.143    0.409   95.600    3.862
  459.500    0.138    0.403   96.767    3.659
  459.750    0.150    0.402   94.767    3.472
  460.000    0.165    0.409   98.373    3.334
  460.250    0.183    0.425  101.244    3.278
  460.500    0.202    0.439  104.851    3.279
  460.750    0.218    0.446  108.035    3.288
  461.000    0.199    0.444  108.466    3.224
  461.250    0.180    0.443  109.145    3.069
  461.500    0.175    0.441  108.240    2.793
  461.750    0.170    0.441  103.436    2.638
  462.000    0.173    0.445  103.507    2.500
  462.250    0.175    0.453  108.696    2.501
  462.500    0.175    0.457  112.848    2.731
  462.750    0.174    0.448  115.054    3.525
  463.000    0.172    0.422  114.635    4.728
  463.250    0.165    0.394  110.380    6.266
  463.500    0.149    0.367  105.028    8.040
  463.750    0.134    0.355   95.716   10.134
