~VERSION INFORMATION
 VERS.                 2.0:   CWLS LOG ASCII STANDARD -VERSION 2.0
 WRAP.                  NO:   ONE LINE PER DEPTH STEP
~WELL INFORMATION BLOCK
#MNEM.UNIT           DATA                    DESCRIPTION OF MNEMONIC
#---------    -------------------            -------------------------------
# Generated from Intellog Unique Number	CW_79_81/WELL/2898
WELL.         MOBIL WABISKAW                 : Well_name    - WELL
LOC .         00/10-06-080-25W4/0            : Location     - LOCATION
UWI .         00/10-06-080-25W4/0            : Uwi          - UNIQUE WELL ID
ENTR.         JJ                             : Entered      - ENTERED BY
SRVC.         SCHLUMBERGER                   : Scn          - SERVICE COMPANY
DATE.         20 DEC 66                      : Date         - LOG DATE
STRT.M        329.184                        : top_depth    - START DEPTH
STOP.M        457.184                        : bot_depth    - STOP DEPTH
STEP.M        0.25                           : increment    - STEP LENGTH
 NULL. -999.2500:NULL Value
~CURVE INFORMATION BLOCK
#MNEM UNIT       ERCB CURVE CODE    CURVE DESCRIPTION
#-----------   ------------------   ----------------------------------
DEPT.M        00 001 00 00         : DEPTH        - DEPTH
DELT.US/F     00 520 00 00         : DELT         - SONIC TRAVEL TIME
GR  .API      00 310 00 00         : GR           - GAMMA RAY
RHOB.KG/M3    00 350 00 00         : DENS         - BULK DENSITY
ILD .OHMM     00 120 00 00         : RESD         - DEEP RESISTIVITY (DIL)
~PARAMETER INFORMATION
#MNEM.UNIT           DATA             DESCRIPTION OF MNEMONIC
#---------         -----------     ------------------------------
GL  .M        555.315              : gl           - GROUND LEVEL ELEVATION
EREF.M        559.308              : kb           - ELEVATION OF DEPTH REFERENCE
DATM.M        555.315              : datum        - DATUM ELEVATION
TDD .M        466.344              : tdd          - TOTAL DEPTH DRILLER
RUN .         ONE                  : Run          - RUN NUMBER
ENG .         DEMETRICK            : Engineer     - RECORDING ENGINEER
WIT .         SMITH                : Witness      - WITNESSED BY
BASE.         WCT                  : Branch       - HOME BASE OF LOGGING UNIT
MUD .         GEL                  : Mud_type     - MUD TYPE
MATR.         SANDSTONE            : Logunit      - NEUTRON MATRIX
TMAX.C        26.6667              : BHT          - MAXIMUM RECORDED TEMPERATURE
BHTD.M        466.649              : BHTDEP       - MAXIMUM RECORDED TEMPERATURE
RMT .C        22.2222              : MDTP         - TEMPERATURE OF MUD
MUDD.KG/M     1140                 : MWT          - MUD DENSITY
NEUT.         1                    : NEUTRON      - NEUTRON TYPE
RESI.         0                    : RESIST       - RESISTIVITY TYPE
RM  .OHMM     4.1                  : RM           - RESISTIVITY OF MUD
RMC .OHMM     2.98                 : RMC          - RESISTIVITY OF MUD CAKE
RMF .OHMM     3.22                 : RMF          - RESISTIVITY OF MUD FILTRATE
SUFT.C        5                    : SUFT         - SURFACE TEMPERATURE
~A  DEPTH     DELT       GR     DENS     RESD
# ...
  372.684  356.325   77.685 2246.370   21.167
  372.934  352.443   70.499 2254.910   20.611
  373.184  372.669   64.111 2202.290   23.582
  373.434  393.833   69.350 2166.390   24.893
  373.684  397.787   68.750 2144.770   25.219
  373.934  390.221   61.864 2185.100   25.279
  374.184  382.990   58.769 2183.440   25.011
  374.434  377.300   66.352 2169.380   24.087
  374.684  377.235   66.751 2182.000   22.445
  374.934  377.103   66.051 2189.350   19.369
  375.184  379.583   66.549 2187.870   18.937
  375.434  386.281   69.742 2191.130   18.299
  375.684  393.316   72.286 2191.330   17.416
  375.934  396.264   73.682 2183.170   17.476
  376.184  401.088   72.733 2169.090   18.192
  376.434  404.840   72.133 2166.000   18.703
  376.684  397.676   75.276 2175.750   19.152
  376.934  396.138   77.221 2186.170   19.028
  377.184  395.805   77.769 2193.700   17.899
  377.434  393.731   78.816 2182.050   17.426
  377.684  395.876   80.212 2178.770   16.768
  377.934  394.137   85.600 2185.710   15.824
  378.184  396.282   85.350 2198.340   14.736
  378.434  395.145   84.750 2191.590   13.750
  378.684  394.544   82.055 2191.570   13.072
  378.934  393.876   78.062 2202.960   12.578
  379.184  393.075   78.959 2217.660   12.207
  379.434  392.340   82.351 2208.860   12.452
  379.684  388.659   82.999 2216.780   12.368
  379.934  381.361   84.296 2236.560   12.264
  380.184  379.890   85.692 2244.080   12.263
  380.434  387.861   82.547 2241.010   12.405
  380.684  391.144   77.856 2241.200   12.526
  380.934  388.467   71.968 2234.880   12.565
  381.184  384.250   70.570 2242.810   12.482
  381.434  384.654   73.712 2255.010   12.419
  381.684  382.915   77.853 2251.150   12.192
  381.934  387.270   83.989 2243.570   12.026
  382.184  393.299   87.431 2248.250   11.799
  382.434  397.252   85.684 2253.950   11.675
  382.684  399.531   82.490 2264.740   11.735
  382.934  392.099   81.391 2263.910   11.774
  383.184  393.977   81.989 2250.860   11.711
  383.434  396.657   81.090 2221.490   11.709
  383.684  399.472   80.141 2222.900   11.584
  383.934  399.407   80.040 2243.890   11.501
  384.184  398.337   82.884 2257.730   11.232
  384.434  390.236   87.623 2239.360   11.026
  384.684  396.132   87.123 2225.700   10.881
  384.934  401.089   84.128 2247.470   10.736
  385.184  399.618   84.028 2246.870   10.550
  385.434  395.133   82.530 2248.040   10.508
  385.684  392.724   79.336 2261.510   10.485
  385.934  390.650   74.645 2278.610   10.319
  386.184  382.080   73.895 2284.120   10.174
  386.434  376.791   75.342 2281.460   10.050
  386.684  377.797   78.634 2261.670    9.987
  386.934  389.117   81.477 2257.740   10.088
  387.184  391.463   84.220 2255.300   10.312
  387.434  386.911   87.014 2269.160   11.007
  387.684  380.819   78.780 2293.620   12.359
  387.934  361.869   74.039 2339.250   13.177
  388.184  339.972   69.148 2361.060   14.078
  388.434  318.343   82.819 2384.500   13.338
  388.684  306.491   89.254 2332.510   12.147
  388.934  341.451   93.944 2284.770   11.059
  389.184  372.393   90.999 2254.790   10.156
  389.434  398.981   85.210 2275.320    9.601
  389.684  403.604   88.353 2283.910    9.722
  389.934  407.892   88.901 2288.180   10.192
  390.184  405.818   86.754 2278.370   10.375
  390.434  399.927   87.851 2283.450   10.476
  390.684  392.428   90.994 2288.960   10.556
  390.934  385.667   94.136 2276.900   10.288
  391.184  380.646   98.626 2265.660    9.753
  391.434  377.433  102.617 2255.680    9.116
  391.684  389.020  102.366 2270.750    8.663
  391.934  403.889   99.621 2305.400    8.560
  392.184  401.882   96.926 2271.750    8.988
  392.434  394.116   93.882 2271.930    9.787
  392.684  388.560   91.635 2284.370   10.994
  392.934  384.945   89.090 2283.320   12.777
  393.184  381.531   84.848 2272.270   15.214
  393.434  378.252   80.356 2281.660   17.878
  393.684  371.490   69.478 2322.030   22.858
  393.934  310.416   79.058 2380.130   31.200
  394.184  294.480   86.042 2395.200   35.523
  394.434  333.123   84.295 2261.010   39.786
  394.684  378.262   73.766 2191.680   44.151
  394.934  348.128   60.193 2212.870   47.224
  395.184  293.818   47.270 2357.820   48.801
  395.434  231.070   39.784 2434.270   49.456
  395.684  209.441   50.860 2573.110   49.454
  395.934  202.277   58.743 2545.360   49.001
  396.184  228.531   68.721 2416.900   47.380
  396.434  260.209   75.855 2335.930   37.252
  396.684  332.203   79.746 2278.390   24.417
  396.934  338.031   72.411 2268.400   24.272
  397.184  316.804   67.570 2306.520   25.644
  397.434  333.816   67.469 2262.670   28.471
  397.684  361.342   68.865 2188.640   30.397
  397.934  379.024   71.709 2153.370   30.129
  398.184  375.945   76.747 2184.730   31.849
  398.434  373.469   79.042 2189.630   31.950
  398.684  371.195   79.091 2181.060   31.928
  398.934  368.250   74.400 2174.930   31.332
  399.184  362.359   66.316 2198.340   22.782
  399.434  369.928   60.926 2227.070   19.439
  399.684  377.430   58.281 2232.990   15.890
  399.934  369.195   69.307 2254.800   13.675
  400.184  370.001   73.347 2313.080   12.279
  400.434  377.101   76.141 2312.260   11.396
  400.684  360.361   76.389 2340.170   10.759
  400.934  361.368   76.738 2314.070   10.265
  401.184  377.509   77.435 2275.730    9.936
  401.434  385.212   78.682 2250.610    9.791
  401.684  382.268   78.332 2258.960    9.686
  401.934  384.614   78.231 2261.970    9.787
  402.184  382.473   82.571 2258.520    9.888
  402.434  372.496   87.510 2264.230   10.030
  402.684  355.153   86.711 2297.440   10.685
  402.934  356.562   80.423 2321.910   11.175
  403.184  364.533   82.418 2309.860   11.399
  403.434  381.545   85.810 2295.570   11.377
  403.684  383.489   87.106 2289.630   11.109
  403.934  378.602   87.754 2290.020   10.923
  404.184  382.287   83.961 2280.600   10.655
  404.434  386.174   77.823 2274.500   10.571
  404.684  388.653   74.579 2278.980   10.488
  404.934  378.409   73.381 2304.040   10.507
  405.184  368.500   78.519 2330.540   10.813
  405.434  373.122   68.040 2356.210   11.385
  405.684  371.450   68.439 2320.300   11.609
  405.934  356.050   75.822 2324.140   11.525
  406.184  362.078   81.859 2328.860   11.380
  406.434  384.984   86.149 2289.060   11.092
  406.684  391.013   87.844 2280.670   10.803
  406.934  390.144   84.151 2300.240   10.555
  407.184  384.789   84.899 2310.220   10.144
  407.434  376.419   83.301 2301.850    9.794
  407.684  369.791   77.263 2305.100    9.464
  407.934  376.089   76.564 2295.900    9.380
  408.184  369.795   81.752 2328.720    9.297
  408.434  358.011   85.992 2373.950    9.254
  408.684  363.839   85.991 2406.990    9.396
  408.934  384.802   86.140 2377.420    9.538
  409.184  380.987   84.393 2340.710    9.742
  409.434  369.805   80.201 2309.680    9.965
  409.684  361.704   78.254 2296.640   10.271
  409.934  359.228   77.006 2275.160   10.639
  410.184  362.445   72.614 2263.170   10.965
  410.434  368.875   74.509 2252.540   11.394
  410.684  374.771   78.699 2265.800   11.680
  410.934  369.482   77.052 2261.290   12.026
  411.184  354.282   69.567 2243.530   12.619
  411.434  308.544   64.327 2284.920   13.991
  411.684  250.618   59.785 2330.970   15.445
  411.934  237.896   54.945 2414.960   17.145
  412.184  243.055   49.206 2513.420   20.834
  412.434  253.370   52.997 2528.910   20.032
  412.684  272.257   64.722 2482.410   16.197
  412.934  294.024   73.502 2420.410   13.818
  413.184  329.854   78.341 2350.870   12.053
  413.434  350.215   71.954 2274.380   11.232
  413.684  363.744   64.469 2259.490   10.676
  413.934  344.928   70.755 2276.190   10.552
  414.184  335.421   74.646 2312.690   10.837
  414.434  342.454   70.653 2357.130   11.225
  414.684  348.818   74.245 2357.700   10.957
  414.934  344.065   77.487 2346.490   10.505
  415.184  355.519   82.925 2396.430   10.298
  415.434  367.240   87.065 2345.040   10.091
  415.684  372.198   92.004 2288.750    9.413
  415.934  371.329   96.493 2284.440    8.940
