~VERSION INFORMATION
 VERS.                 2.0:   CWLS LOG ASCII STANDARD -VERSION 2.0
 WRAP.                  NO:   ONE LINE PER DEPTH STEP
~WELL INFORMATION BLOCK
#MNEM.UNIT           DATA                    DESCRIPTION OF MNEMONIC
#---------    -------------------            -------------------------------
# Generated from Intellog Unique Number	CW_70_72/WELL/3019
NULL.         -999.25                        : NULL_VALUE
WELL.         SUN BOUVIER 10-02              : Well_name    - WELL              
LOC .         10-02-070-24W4                 : Location     - LOCATION          
UWI .         00/10-02-070-24W4/0            : Uwi          - UNIQUE WELL ID    
ENTR.         jj                             : Entered      - ENTERED BY        
SRVC.         SCHLUMBERGER                   : Scn          - SERVICE COMPANY   
DATE.         28 JAN 78                      : Date         - LOG DATE          
STRT.M        426.72                         : top_depth    - START DEPTH       
STOP.M        633.97                         : bot_depth    - STOP DEPTH        
STEP.M        0.25                           : increment    - STEP LENGTH       
~CURVE INFORMATION BLOCK
#MNEM UNIT       ERCB CURVE CODE    CURVE DESCRIPTION
#-----------   ------------------   ----------------------------------
DEPT.M        00 001 00 00         : DEPTH        - DEPTH                       
ILD .OHMM     00 120 00 00         : RESD         - DEEP RESISTIVITY (DIL)      
CALI.MM       00 280 01 00         : CAL          - CALIPER                     
GR  .API      00 310 00 00         : GR           - GAMMA RAY                   
NPHI.V/V      00 330 00 00         : PHIN         - NEUTRON POROSITY (SANDSTONE)
DPHI.V/V      00 890 00 00         : PHID         - DENSITY POROSITY (SANDSTONE)
~PARAMETER INFORMATION       
#MNEM.UNIT           DATA             DESCRIPTION OF MNEMONIC
#---------         -----------     ------------------------------
GL  .M        637.184              : gl           - GROUND LEVEL ELEVATION      
EREF.M        640.324              : kb           - ELEVATION OF DEPTH REFERENCE
DATM.M        637.184              : datum        - DATUM ELEVATION             
TDD .M        656.234              : tdd          - TOTAL DEPTH DRILLER         
RUN .         ONE                  : Run          - RUN NUMBER                  
ENG .         CHMIELEWSKI          : Engineer     - RECORDING ENGINEER          
WIT .         BROWN                : Witness      - WITNESSED BY                
BASE.         EDM                  : Branch       - HOME BASE OF LOGGING UNIT   
MUD .         GEL CHEM             : Mud_type     - MUD TYPE                    
MATR.         SANDSTONE            : Logunit      - NEUTRON MATRIX              
TMAX.C        22.7778              : BHT          - MAXIMUM RECORDED TEMPERATURE
BHTD.M        656.539              : BHTDEP       - MAXIMUM RECORDED TEMPERATURE
RMT .C        20                   : MDTP         - TEMPERATURE OF MUD          
MUDD.KG/M     0                    : MWT          - MUD DENSITY                 
NEUT.         1                    : NEUTRON      - NEUTRON TYPE                
RESI.         0                    : RESIST       - RESISTIVITY TYPE            
RM  .OHMM     4.44                 : RM           - RESISTIVITY OF MUD          
RMC .OHMM     0.25                 : RMC          - RESISTIVITY OF MUD CAKE     
RMF .OHMM     3.02                 : RMF          - RESISTIVITY OF MUD FILTRATE 
SUFT.C        -17.7778             : SUFT         - SURFACE TEMPERATURE         
~A  DEPTH     RESD      CAL       GR     PHIN     PHID
# ...
  536.220    6.661  154.564   67.856    0.367    0.141
  536.470    6.333  157.303   64.296    0.310    0.090
  536.720    6.427  159.404   66.410    0.311    0.085
  536.970    6.596  158.868   69.524    0.361    0.135
  537.220    7.119  158.330   72.761    0.388    0.164
  537.470    7.740  158.425   73.878    0.367    0.162
  537.720    8.432  158.521   73.374    0.348    0.136
  537.970    9.481  158.409   71.996    0.340    0.141
  538.220   10.251  158.503   71.118    0.336    0.151
  538.470    9.893  158.284   70.365    0.329    0.162
  538.720    8.410  157.850   70.422    0.317    0.152
  538.970    7.110  157.419   71.039    0.304    0.137
  539.220    5.944  156.988   72.219    0.288    0.105
  539.470    4.997  156.664   74.334    0.310    0.132
  539.720    4.410  156.022   77.572    0.337    0.150
  539.970    3.913  154.850   78.813    0.367    0.211
  540.220    3.441  154.418   79.556    0.389    0.222
  540.470    3.229  153.777   80.549    0.404    0.239
  540.720    3.139  153.133   83.226    0.418    0.262
  540.970    3.086  152.595   85.715    0.423    0.250
  541.220    3.069  152.693   85.772    0.440    0.228
  541.470    3.074  152.258   87.576    0.433    0.237
  541.720    3.091  151.723   91.437    0.424    0.246
  541.970    3.107  151.293   89.124    0.420    0.250
  542.220    3.148  150.861   86.187    0.430    0.267
  542.470    3.249  150.535   87.367    0.431    0.259
  542.720    3.493  153.162   89.357    0.422    0.241
  542.970    3.645  154.212   91.284    0.419    0.243
  543.220    3.811  157.370   93.026    0.420    0.237
  543.470    3.875  159.683   97.261    0.419    0.222
  543.720    3.903  159.255  102.433    0.414    0.197
  543.970    3.845  155.758   93.633    0.426    0.209
  544.220    3.745  155.329   91.257    0.440    0.241
  544.470    3.682  155.953   90.567    0.435    0.242
  544.720    3.661  156.471   91.122    0.419    0.202
  544.970    3.667  156.884   93.486    0.426    0.191
  545.220    3.701  157.297   96.662    0.415    0.199
  545.470    3.749  157.607   98.901    0.421    0.221
  545.720    3.777  159.181   99.270    0.428    0.220
  545.970    3.854  160.544   99.389    0.412    0.197
  546.220    3.832  162.541   99.447    0.423    0.205
  546.470    3.831  163.695  100.127    0.424    0.216
  546.720    3.888  163.580  100.746    0.420    0.207
  546.970    3.983  162.620   99.244    0.410    0.184
  547.220    4.042  161.873   96.993    0.404    0.202
  547.470    4.079  160.807   95.990    0.415    0.196
  547.720    4.148  159.530   95.859    0.425    0.187
  547.970    4.201  158.357   95.541    0.428    0.202
  548.220    4.264  157.928   94.976    0.424    0.214
  548.470    4.343  157.177   93.411    0.415    0.207
  548.720    4.383  157.064   90.474    0.407    0.188
  548.970    4.415  158.112   88.848    0.395    0.172
  549.220    4.431  160.318   89.216    0.406    0.155
  549.470    4.406  161.576   90.770    0.413    0.190
  549.720    4.372  162.203   95.192    0.422    0.205
  549.970    4.347  162.932   97.869    0.431    0.194
  550.220    4.298  163.344   99.484    0.429    0.209
  550.470    4.234  163.338   99.541    0.424    0.215
  550.720    4.147  163.328   98.975    0.422    0.215
  550.970    4.100  163.002   98.034    0.420    0.197
  551.220    4.039  162.253   96.406    0.423    0.180
  551.470    3.964  160.237   95.591    0.429    0.198
  551.720    3.926  159.490   95.462    0.423    0.196
  551.970    3.896  161.488   97.140    0.416    0.189
  552.220    3.867  163.378   99.380    0.423    0.211
  552.470    3.881  163.898   98.438    0.418    0.195
  552.720    3.953  163.993   93.756    0.417    0.195
  552.970    4.057  163.349   92.627    0.425    0.207
  553.220    4.210  162.390   92.186    0.435    0.200
  553.470    4.394  161.114   89.998    0.450    0.179
  553.720    4.154  160.154   86.312    0.451    0.181
  553.970    3.964  158.878   81.816    0.438    0.190
  554.220    3.949  157.497   77.508    0.423    0.209
  554.470    4.068  156.430   71.265    0.400    0.205
  554.720    4.309  155.048   65.336    0.399    0.199
  554.970    4.782  154.406   56.911    0.414    0.226
  555.220    5.308  153.448   51.417    0.424    0.295
  555.470    5.037  153.227   52.784    0.344    0.295
  555.720    4.495  153.324   55.647    0.327    0.265
  555.970    3.996  152.572   55.454    0.357    0.244
  556.220    3.448  152.248   56.073    0.383    0.247
  556.470    3.260  152.238   59.746    0.402    0.266
  556.720    3.371  151.914   62.611    0.414    0.265
  556.970    3.748  151.799   64.351    0.420    0.256
  557.220    4.129  151.049   59.544    0.421    0.240
  557.470    4.481  151.251   52.553    0.416    0.251
  557.720    4.729  151.560   47.745    0.394    0.257
  557.970    4.348  152.182   45.433    0.323    0.223
  558.220    3.938  152.492   44.180    0.314    0.177
  558.470    3.386  152.904   49.974    0.348    0.199
  558.720    3.067  152.790   55.520    0.398    0.237
  558.970    3.049  152.782   52.957    0.407    0.251
  559.220    3.159  152.770   51.081    0.380    0.257
  559.470    3.441  152.551   50.827    0.376    0.236
  559.720    3.826  152.226   51.756    0.372    0.228
  559.970    4.060  152.006   53.497    0.369    0.221
  560.220    4.060  151.786   55.051    0.362    0.193
  560.470    3.969  151.564   54.172    0.337    0.123
  560.720    3.767  151.556   53.356    0.308    0.110
  560.970    3.541  151.441   56.407    0.334    0.158
  561.220    3.373  152.066   59.208    0.367    0.220
  561.470    3.195  152.479   63.318    0.401    0.251
  561.720    3.078  152.681   65.059    0.429    0.275
  561.970    3.049  152.881   65.803    0.434    0.294
  562.220    3.048  152.980   65.859    0.409    0.288
  562.470    3.134  152.759   67.225    0.408    0.282
  562.720    3.198  152.750   70.775    0.398    0.287
  562.970    3.069  152.741   74.200    0.402    0.277
  563.220    2.984  152.942   73.135    0.407    0.272
  563.470    2.973  153.038   70.197    0.418    0.258
  563.720    3.028  153.239   67.885    0.424    0.279
  563.970    3.226  153.549   66.694    0.421    0.306
  564.220    3.675  153.644   68.372    0.413    0.291
  564.470    4.055  154.376   68.866    0.402    0.226
  564.720    4.248  156.689   65.868    0.330    0.197
  564.970    4.295  158.053   75.217    0.313    0.156
  565.220    4.184  158.784   83.506    0.344    0.152
  565.470    4.106  158.784   89.987    0.396    0.176
  565.720    3.970  159.288   94.535    0.421    0.189
  565.970    3.918  159.285   98.396    0.430    0.206
  566.220    3.917  159.064   99.451    0.445    0.215
  566.470    3.946  158.947  100.318    0.437    0.225
  566.720    4.027  159.573  102.434    0.419    0.243
  566.970    4.079  160.410  103.301    0.428    0.215
  567.220    4.139  161.456  100.614    0.429    0.193
  567.470    4.209  162.609   97.740    0.430    0.185
  567.720    4.240  163.965   95.614    0.441    0.175
  567.970    4.271  164.068   97.168    0.439    0.189
  568.220    4.334  164.482  100.655    0.426    0.184
  568.470    4.407  165.000  101.024    0.424    0.175
  568.720    4.439  165.000  100.519    0.411    0.178
  568.970    4.488  165.823  102.759    0.413    0.186
  569.220    4.555  166.134  105.249    0.420    0.195
  569.470    4.579  166.969  103.309    0.423    0.183
  569.720    4.630  167.382  104.739    0.424    0.189
  569.970    4.673  167.479  102.176    0.424    0.197
  570.220    4.760  167.788  102.731    0.424    0.184
  570.470    4.786  167.788  105.345    0.423    0.168
  570.720    4.749  168.713  108.273    0.418    0.174
  570.970    4.704  168.815  112.133    0.419    0.180
  571.220    4.669  168.913  110.195    0.434    0.171
  571.470    4.625  169.009  105.698    0.440    0.189
  571.720    4.556  169.628  103.199    0.440    0.177
  571.970    4.437  169.731   98.890    0.435    0.171
  572.220    4.371  169.828   97.700    0.414    0.153
  572.470    4.298  169.828  104.742    0.408    0.138
