~VERSION INFORMATION
 VERS.                 2.0:   CWLS LOG ASCII STANDARD -VERSION 2.0
 WRAP.                  NO:   ONE LINE PER DEPTH STEP
~WELL INFORMATION BLOCK
#MNEM.UNIT           DATA                    DESCRIPTION OF MNEMONIC
#---------    -------------------            -------------------------------
# Generated from Intellog Unique Number	CC_80_83/WELL/2377
NULL.         -999.25                        : NULL_VALUE
WELL.         ARCO ET AL PICKFORD            : Well_name    - WELL              
LOC .         10-27-080-06W4                 : Location     - LOCATION          
UWI .         00/10-27-080-06W400            : Uwi          - UNIQUE WELL ID    
ENTR.         RJA                            : Entered      - ENTERED BY        
SRVC.         SCHLUMBERGER                   : Scn          - SERVICE COMPANY   
DATE.         23 FEB 70                      : Date         - LOG DATE
STRT.M        103.632                        : top_depth    - START DEPTH       
STOP.M        312.115                        : bot_depth    - STOP DEPTH        
STEP.M        0.305                          : increment    - STEP LENGTH       
~CURVE INFORMATION BLOCK
#MNEM UNIT       ERCB CURVE CODE    CURVE DESCRIPTION
#-----------   ------------------   ----------------------------------
DEPT.M        00 001 00 00         : DEPTH        - DEPTH                       
NPHI.V/V      00 330 00 00         : PHIN         - NEUTRON POROSITY (LIMESTONE)
DPHI.V/V      00 890 00 00         : PHID         - DENSITY POROSITY (LIMESTONE)
GR  .API      00 310 00 00         : GR           - GAMMA RAY                   
ILD .OHMM     00 120 00 00         : RESD         - DEEP RESISTIVITY (DIL)      
~PARAMETER INFORMATION       
#MNEM.UNIT           DATA             DESCRIPTION OF MNEMONIC
#---------         -----------     ------------------------------
GL  .M        508.955              : gl           - GROUND LEVEL ELEVATION      
EREF.M        512.064              : kb           - ELEVATION OF DEPTH REFERENCE
DATM.M        512.064              : datum        - DATUM ELEVATION             
TDD .M        319.126              : tdd          - TOTAL DEPTH DRILLER         
RUN .         ONE                  : Run          - RUN NUMBER                  
ENG .         BILL                 : Engineer     - RECORDING ENGINEER          
WIT .         JIM                  : Witness      - WITNESSED BY                
MUD .         GEL                  : Mud_type     - MUD TYPE                    
MATR.         LIMESTONE            : Logunit      - NEUTRON MATRIX              
TMAX.C        22.2222              : BHT          - MAXIMUM RECORDED TEMPERATURE
BHTD.M        319.126              : BHTDEP       - MAXIMUM RECORDED TEMPERATURE
MATR.         1                    : LOGUNIT      - NEUTRON MATRIX              
RMT .C        25                   : MDTP         - TEMPERATURE OF MUD          
NEUT.         0                    : NEUTRON      - NEUTRON TYPE                
RESI.         0                    : RESIST       - RESISTIVITY TYPE            
RMC .OHMM     0.25                 : RMC          - RESISTIVITY OF MUD CAKE     
RMF .OHMM     0.25                 : RMF          - RESISTIVITY OF MUD FILTRATE 
SUFT.C        4                    : SUFT         - SURFACE TEMPERATURE         
~A  DEPTH     PHIN     PHID       GR     RESD
# ...
  209.701    0.308    0.198   88.351   10.525
  210.006    0.298    0.187   86.714   10.682
  210.311    0.280    0.184   84.448   10.159
  210.615    0.285    0.219   87.648    9.318
  210.920    0.301    0.246   92.042    8.100
  211.225    0.309    0.244   92.351    7.345
  211.530    0.344    0.233   91.963    6.546
  211.835    0.330    0.222   95.979    6.468
  212.139    0.342    0.212   94.221    6.769
  212.444    0.322    0.237   93.585    7.233
  212.749    0.306    0.219   92.458    7.670
  213.054    0.323    0.203   90.695    7.981
  213.359    0.358    0.276   83.239    9.244
  213.663    0.328    0.289   80.254    9.267
  213.968    0.335    0.279   77.083    8.542
  214.273    0.336    0.250   85.511    6.981
  214.578    0.351    0.220   90.468    5.716
  214.883    0.376    0.218   92.020    4.708
  215.187    0.407    0.205   93.388    4.543
  215.492    0.366    0.207   98.346    4.723
  215.797    0.379    0.209   90.772    4.835
  216.102    0.366    0.225   94.082    4.719
  216.406    0.366    0.222   89.025    4.468
  216.711    0.360    0.226   90.215    4.377
  217.016    0.385    0.221   92.134    4.801
  217.321    0.391    0.226   87.768    5.596
  217.626    0.357    0.258   80.377    5.896
  217.930    0.350    0.273   68.699    5.809
  218.235    0.349    0.267   68.426    8.011
  218.540    0.342    0.275   63.685    6.712
  218.845    0.348    0.253   71.920    4.272
  219.150    0.396    0.230   79.521    3.627
  219.454    0.410    0.224   86.752    3.693
  219.759    0.390    0.238   90.762    4.167
  220.064    0.372    0.233   90.111    5.323
  220.369    0.376    0.213   88.388    6.660
  220.674    0.355    0.233   90.204    8.541
  220.978    0.329    0.219   77.958    9.331
  221.283    0.324    0.253   71.693    9.755
  221.588    0.328    0.261   70.166    9.522
  221.893    0.340    0.254   76.505    8.465
  222.198    0.316    0.257   74.730    7.495
  222.502    0.300    0.240   75.145    6.292
  222.807    0.335    0.218   82.178    5.162
  223.112    0.382    0.210   84.367    4.227
  223.417    0.390    0.223   88.190    4.149
  223.722    0.418    0.227   99.260    4.773
  224.026    0.397    0.231   90.797    5.554
  224.331    0.369    0.228   89.454    6.067
  224.636    0.328    0.211   91.516    6.489
  224.941    0.332    0.208   93.948    6.784
  225.246    0.343    0.205   94.751    7.026
  225.550    0.336    0.194   93.668    7.346
  225.855    0.311    0.199   84.066    7.593
  226.160    0.300    0.200   83.352    7.833
  226.465    0.289    0.169   87.548    8.004
  226.770    0.289    0.189   86.899    7.934
  227.074    0.301    0.209   88.645    7.655
  227.379    0.316    0.194   89.822    6.328
  227.684    0.315    0.188   86.336    4.792
  227.989    0.324    0.190   90.539    3.622
  228.293    0.355    0.214   78.989    2.854
  228.598    0.416    0.244   72.735    2.533
  228.903    0.427    0.242   73.219    2.295
  229.208    0.433    0.245   81.455    2.156
  229.513    0.407    0.245   81.934    2.169
  229.817    0.437    0.237   76.304    2.286
  230.122    0.419    0.271   82.401    2.535
  230.427    0.412    0.252   81.683    2.961
  230.732    0.385    0.238   77.070    3.412
  231.037    0.367    0.233   81.272    4.205
  231.341    0.354    0.223   84.903    5.092
  231.646    0.351    0.220   85.326    5.890
  231.951    0.333    0.201   88.205    6.801
  232.256    0.314    0.226   79.485    7.261
  232.561    0.327    0.164   86.334    5.746
  232.865    0.323    0.152   83.226    4.851
  233.170    0.313    0.160   92.663    4.246
  233.475    0.349    0.199   93.393    3.870
  233.780    0.380    0.208   85.507    3.756
  234.085    0.359    0.174   84.226    3.624
  234.389    0.341    0.182   87.725    3.564
  234.694    0.355    0.206   95.965    3.553
  234.999    0.373    0.200   98.462    3.575
  235.304    0.358    0.201   96.117    3.646
  235.609    0.366    0.205   92.881    3.726
  235.913    0.353    0.214   86.177    3.852
  236.218    0.344    0.220   92.019    3.861
  236.523    0.356    0.224   82.860    3.776
  236.828    0.399    0.214   86.121    3.764
  237.133    0.382    0.208   91.394    3.883
  237.437    0.383    0.226   89.736    4.052
  237.742    0.369    0.210   87.637    4.625
  238.047    0.366    0.209   83.082    5.645
  238.352    0.341    0.216   78.780    6.096
  238.656    0.296    0.226   80.647    6.301
  238.961    0.309    0.228   85.102    5.665
  239.266    0.319    0.219   81.674    5.498
  239.571    0.338    0.211   82.801    6.583
  239.876    0.353    0.204   81.257    7.400
  240.180    0.308    0.169   78.466    8.193
  240.485    0.231    0.103   70.065    9.123
  240.790    0.247    0.111   64.628    9.251
  241.095    0.278    0.237   69.029    8.447
  241.400    0.263    0.257   66.539    8.073
  241.704    0.278    0.248   64.124    7.865
  242.009    0.282    0.235   72.742    6.428
  242.314    0.300    0.237   72.969    4.424
  242.619    0.318    0.228   71.445    3.363
  242.924    0.383    0.229   75.831    2.966
  243.228    0.407    0.241   76.883    2.901
  243.533    0.381    0.249   81.081    3.080
  243.838    0.358    0.240   78.667    3.577
  244.143    0.330    0.245   84.321    4.526
  244.448    0.311    0.236   90.663    6.787
  244.752    0.268    0.226   92.040    9.779
  245.057    0.222    0.206   93.331   12.807
  245.362    0.211    0.192  110.834   15.393
  245.667    0.221    0.189  104.011   15.911
  245.972    0.233    0.209   89.813   16.795
  246.276    0.240    0.218   77.373   18.207
  246.581    0.267    0.233   89.200   21.266
  246.886    0.257    0.262   98.827   24.740
  247.191    0.225    0.256   92.753   30.836
  247.496    0.205    0.277   86.630   32.360
  247.800    0.194    0.302   77.915   29.544
  248.105    0.191    0.331   67.619   23.963
  248.410    0.216    0.275   75.292   18.566
  248.715    0.239    0.259   66.697   15.706
  249.019    0.239    0.267   71.846   16.640
  249.324    0.246    0.256   73.017   21.058
  249.629    0.222    0.271   66.392   24.829
  249.934    0.205    0.311   59.499   25.613
  250.239    0.225    0.327   57.524   22.210
  250.543    0.251    0.334   69.600   21.888
  250.848    0.265    0.259   72.921   21.282
  251.153    0.241    0.291   64.204   21.626
  251.458    0.256    0.322   70.989   25.839
  251.763    0.235    0.307   69.333   33.139
  252.067    0.228    0.353   64.147   38.480
  252.372    0.212    0.359   60.343   39.471
  252.677    0.197    0.345   62.468   48.354
  252.982    0.225    0.314   64.591   56.907
  253.287    0.227    0.304   60.222   64.839
  253.591    0.214    0.304   76.020   71.917
  253.896    0.212    0.324   70.960   90.489
  254.201    0.203    0.330   62.623  110.216
  254.506    0.207    0.335   84.399  132.474
  254.811    0.209    0.338   82.115  139.017
  255.115    0.199    0.349   74.097  123.812
  255.420    0.181    0.371   68.525   75.134
  255.725    0.188    0.354   74.622   67.048
  256.030    0.206    0.339   73.651   59.935
  256.335    0.217    0.327   67.333   40.549
  256.639    0.209    0.329   63.782   26.506
  256.944    0.228    0.301   67.925   17.033
  257.249    0.283    0.288   57.002   13.373
  257.554    0.308    0.275   44.127   12.613
  257.859    0.324    0.304   34.593   13.111
  258.163    0.313    0.298   36.035   15.197
  258.468    0.296    0.284   31.911   20.639
  258.773    0.271    0.289   41.594   28.734
  259.078    0.280    0.275   45.486   68.784
  259.383    0.301    0.282   40.669  117.238
  259.687    0.292    0.280   37.941  150.640
  259.992    0.280    0.283   41.388  147.038
  260.297    0.300    0.283   51.321   88.375
  260.602    0.283    0.274   44.064  132.035
  260.907    0.263    0.286   42.022  283.516
  261.212    0.289    0.296   39.984  527.580
  261.516    0.307    0.302   35.049  625.670
  261.821    0.299    0.284   34.776  512.378
  262.126    0.287    0.277   29.157  440.929
  262.431    0.278    0.285   27.177  413.438
