~VERSION INFORMATION
 VERS.                 2.0:   CWLS LOG ASCII STANDARD -VERSION 2.0
 WRAP.                  NO:   ONE LINE PER DEPTH STEP
~WELL INFORMATION BLOCK
#MNEM.UNIT           DATA                    DESCRIPTION OF MNEMONIC
#---------    -------------------            -------------------------------
# Generated from Intellog Unique Number	CC_80_83/WELL/2351
NULL.         -999.25                        : NULL_VALUE
WELL.         HOMESTEAD ET AL COWPAR         : Well_name    - WELL
LOC .         10-13-081-05W4                 : Location     - LOCATION          
UWI .         00/10-13-081-05W4/0            : Uwi          - UNIQUE WELL ID    
ENTR.         DW                             : Entered      - ENTERED BY        
SRVC.         SCHLUMBERGER                   : Scn          - SERVICE COMPANY   
DATE.         24 FEB 78                      : Date         - LOG DATE
STRT.M        60.96                          : top_depth    - START DEPTH       
STOP.M        289.559                        : bot_depth    - STOP DEPTH        
STEP.M        0.3048                         : increment    - STEP LENGTH       
~CURVE INFORMATION BLOCK
#MNEM UNIT       ERCB CURVE CODE    CURVE DESCRIPTION
#-----------   ------------------   ----------------------------------
DEPT.M        00 001 00 00         : DEPTH        - DEPTH                       
DPHI.V/V      00 890 00 00         : PHID         - DENSITY POROSITY (LIMESTONE)
NPHI.V/V      00 330 00 00         : PHIN         - NEUTRON POROSITY (LIMESTONE)
GR  .API      00 310 00 00         : GR           - GAMMA RAY                   
ILD .OHMM     00 120 00 00         : RESD         - DEEP RESISTIVITY (DIL)      
~PARAMETER INFORMATION       
#MNEM.UNIT           DATA             DESCRIPTION OF MNEMONIC
#---------         -----------     ------------------------------
GL  .M        465.734              : gl           - GROUND LEVEL ELEVATION      
EREF.M        468.782              : kb           - ELEVATION OF DEPTH REFERENCE
DATM.M        468.782              : datum        - DATUM ELEVATION             
TDD .M        299.923              : tdd          - TOTAL DEPTH DRILLER         
RUN .         ONE                  : Run          - RUN NUMBER                  
ENG .         BILL                 : Engineer     - RECORDING ENGINEER          
WIT .         JIM                  : Witness      - WITNESSED BY                
MUD .         GEL                  : Mud_type     - MUD TYPE                    
MATR.         LIMESTONE            : Logunit      - NEUTRON MATRIX              
TMAX.C        25                   : BHT          - MAXIMUM RECORDED TEMPERATURE
BHTD.M        299.923              : BHTDEP       - MAXIMUM RECORDED TEMPERATURE
MATR.         1                    : LOGUNIT      - NEUTRON MATRIX              
RMT .C        25                   : MDTP         - TEMPERATURE OF MUD          
NEUT.         1                    : NEUTRON      - NEUTRON TYPE                
RESI.         0                    : RESIST       - RESISTIVITY TYPE            
RMC .OHMM     0.25                 : RMC          - RESISTIVITY OF MUD CAKE     
RMF .OHMM     0.25                 : RMF          - RESISTIVITY OF MUD FILTRATE 
SUFT.C        15                   : SUFT         - SURFACE TEMPERATURE         
~A  DEPTH     PHID     PHIN       GR     RESD
# ...
  220.064    0.269    0.421   55.545    1.947
  220.369    0.308    0.418   54.936    1.946
  220.674    0.310    0.426   57.891    1.945
  220.979    0.295    0.429   55.504    1.874
  221.283    0.283    0.425   51.929    1.839
  221.588    0.278    0.413   51.325    1.805
  221.893    0.296    0.402   53.092    1.804
  222.198    0.292    0.402   56.639    1.804
  222.503    0.283    0.422   64.928    1.803
  222.807    0.267    0.438   67.884    1.906
  223.112    0.250    0.446   68.461    2.051
  223.417    0.272    0.430   60.141    2.089
  223.722    0.265    0.418   58.349    2.088
  224.027    0.284    0.410   59.524    1.939
  224.331    0.273    0.401   60.693    1.833
  224.636    0.287    0.399   59.497    1.833
  224.941    0.287    0.402   63.040    1.867
  225.246    0.270    0.421   65.995    1.936
  225.551    0.254    0.427   69.542    2.046
  225.855    0.257    0.407   69.528    2.083
  226.160    0.272    0.399   64.171    2.161
  226.465    0.275    0.415   62.974    2.160
  226.770    0.274    0.432   64.147    2.120
  227.075    0.278    0.436   65.913    2.042
  227.379    0.293    0.418   66.494    2.005
  227.684    0.283    0.418   65.887    1.967
  227.989    0.278    0.421   60.535    1.967
  228.294    0.278    0.420   59.334    2.078
  228.599    0.277    0.399   61.103    2.116
  228.903    0.270    0.387   61.086    2.077
  229.208    0.295    0.390   58.106    1.964
  229.513    0.311    0.419   55.722    1.858
  229.818    0.297    0.433   55.711    1.724
  230.122    0.288    0.434   59.254    1.661
  230.427    0.286    0.434   59.836    1.600
  230.732    0.304    0.426   61.010    1.600
  231.037    0.306    0.410   58.029    1.600
  231.342    0.299    0.408   55.046    1.629
  231.646    0.296    0.419   56.223    1.628
  231.951    0.302    0.422   59.173    1.658
  232.256    0.305    0.419   60.347    1.720
  232.561    0.296    0.413   60.927    1.818
  232.866    0.293    0.437   65.069    2.068
  233.170    0.248    0.431   74.546    2.145
  233.475    0.258    0.465   73.344    2.226
  233.780    0.269    0.439   76.300    2.309
  234.085    0.240    0.425   66.200    2.224
  234.390    0.274    0.394   57.287    1.716
  234.694    0.298    0.376   53.717    1.564
  234.999    0.285    0.368   48.956    1.507
  235.304    0.306    0.391   42.418    1.507
  235.609    0.298    0.396   48.931    1.563
  235.914    0.280    0.412   54.255    1.621
  236.218    0.307    0.447   44.750    1.621
  236.523    0.328    0.454   42.364    1.561
  236.828    0.338    0.467   47.690    1.532
  237.133    0.325    0.471   51.236    1.532
  237.438    0.329    0.449   55.375    1.560
  237.742    0.326    0.474   50.021    1.618
  238.047    0.342    0.480   54.752    1.679
  238.352    0.319    0.459   57.114    1.709
  238.657    0.298    0.459   46.423    1.647
  238.962    0.306    0.462   38.698    1.529
  239.266    0.321    0.413   38.682    1.394
  239.571    0.316    0.401   45.197    1.393
  239.876    0.311    0.404   56.454    1.419
  240.181    0.313    0.410   57.626    1.472
  240.485    0.313    0.416   60.576    1.555
  240.790    0.306    0.415   63.534    1.643
  241.095    0.292    0.418   61.736    1.673
  241.400    0.272    0.441   59.354    1.768
  241.705    0.292    0.447   58.748    1.868
  242.009    0.297    0.432   65.259    1.974
  242.314    0.271    0.433   66.433    2.048
  242.619    0.268    0.446   58.707    1.901
  242.924    0.280    0.445   51.575    1.551
  243.229    0.305    0.442   48.001    1.414
  243.533    0.315    0.404   52.733    1.387
  243.838    0.255    0.484   82.789    2.428
  244.143    0.245    0.526   85.772    2.474
  244.448    0.280    0.502   83.365    2.430
  244.753    0.294    0.421   58.786    2.136
  245.057    0.284    0.430   53.384    1.809
  245.362    0.266    0.458   52.773    1.561
  245.667    0.303    0.444   45.573    1.347
  245.972    0.332    0.430   31.180    1.251
  246.277    0.336    0.417   26.977    1.163
  246.581    0.329    0.403   28.161    1.142
  246.886    0.364    0.401   29.949    1.101
  247.191    0.352    0.405   31.133    1.081
  247.496    0.326    0.405   30.523    1.061
  247.801    0.342    0.398   30.511    1.062
  248.105    0.350    0.396   31.703    1.062
  248.410    0.353    0.398   34.687    1.082
  248.715    0.336    0.399   31.078    1.103
  249.020    0.330    0.402   32.868    1.124
  249.325    0.339    0.401   38.246    1.145
  249.629    0.326    0.393   40.629    1.146
  249.934    0.323    0.383   40.022    1.146
  250.239    0.341    0.383   34.021    1.146
  250.544    0.330    0.398   37.005    1.168
  250.848    0.325    0.418   35.195    1.190
  251.153    0.324    0.426   29.793    1.169
  251.458    0.330    0.401   30.980    1.148
  251.763    0.347    0.389   32.767    1.148
  252.068    0.330    0.388   32.753    1.149
  252.372    0.323    0.398   33.341    1.193
  252.677    0.335    0.400   33.930    1.215
  252.982    0.323    0.404   33.920    1.285
  253.287    0.322    0.405   35.108    1.384
  253.592    0.330    0.404   36.891    1.518
  253.896    0.303    0.375   41.674    1.794
  254.201    0.277    0.351   47.656    2.367
  254.506    0.180    0.367   71.611    2.597
  254.811    0.186    0.407   81.786    2.647
  255.116    0.241    0.428   78.179    2.459
  255.420    0.250    0.396   61.392    2.243
  255.725    0.239    0.393   57.785    1.900
  256.030    0.253    0.411   52.979    1.670
  256.335    0.277    0.422   45.778    1.495
  256.640    0.321    0.419   36.182    1.364
  256.944    0.356    0.409   28.981    1.315
  257.249    0.343    0.409   33.161    1.390
  257.554    0.331    0.385   40.342    1.470
  257.859    0.313    0.367   51.116    1.643
  258.164    0.245    0.400   60.090    1.769
  258.468    0.241    0.424   60.081    1.737
  258.773    0.293    0.374   54.677    2.015
  259.078    0.264    0.375   67.849    2.170
  259.383    0.194    0.415   82.816    2.171
  259.688    0.267    0.437   67.226    1.805
  259.993    0.306    0.448   47.443    1.420
  260.297    0.330    0.421   38.443    1.272
  260.602    0.291    0.388   42.025    1.272
  260.907    0.308    0.368   49.207    1.531
  261.212    0.292    0.365   58.184    2.058
  261.517    0.273    0.367   70.753    2.176
  261.821    0.257    0.384   75.537    2.059
  262.126    0.242    0.420   77.320    1.777
  262.431    0.254    0.449   77.909    1.778
  262.736    0.283    0.446   62.321    1.950
  263.041    0.274    0.385   59.914    2.436
  263.345    0.253    0.342   73.683    2.931
  263.650    0.165    0.355   91.646    3.337
  263.955    0.159    0.394   97.024    3.400
  264.260    0.176    0.406   97.616    3.101
  264.565    0.215    0.393   98.203    2.777
  264.869    0.259    0.387   95.795    2.309
  265.174    0.277    0.380   83.801    2.067
  265.479    0.261    0.371   88.578    1.921
  265.784    0.247    0.375   88.571    1.657
  266.089    0.264    0.403   54.407    1.484
  266.394    0.305    0.409   54.396    1.512
  266.698    0.302    0.403   64.571    1.570
  267.003    0.295    0.388   75.944    1.660
  267.308    0.267    0.385   75.333    1.514
  267.613    0.248    0.430   65.737    1.282
  267.918    0.288    0.447   56.738    1.213
  268.222    0.304    0.421   48.339    1.148
  268.527    0.307    0.408   45.931    1.170
  268.832    0.303    0.402   44.122    1.382
  269.137    0.291    0.385   45.907    1.758
  269.442    0.270    0.370   53.684    2.321
  269.746    0.195    0.364   81.236    2.793
  270.051    0.184    0.411   86.018    2.693
  270.356    0.189    0.411   83.611    2.158
  270.661    0.230    0.393   74.612    1.794
  270.966    0.262    0.404   65.011    1.637
  271.270    0.269    0.413   56.014    1.763
  271.575    0.254    0.408   57.200    1.864
  271.880    0.229    0.409   69.173    2.083
  272.185    0.232    0.414   72.158    2.123
  272.490    0.236    0.426   51.175    2.046
  272.795    0.268    0.419   43.975    1.901
