~VERSION INFORMATION
 VERS.                 2.0:   CWLS LOG ASCII STANDARD -VERSION 2.0
 WRAP.                  NO:   ONE LINE PER DEPTH STEP
~WELL INFORMATION BLOCK
#MNEM.UNIT           DATA                    DESCRIPTION OF MNEMONIC
#---------    -------------------            -------------------------------
# Generated from Intellog Unique Number	CC_80_83/WELL/2405
NULL.         -999.25                        : NULL_VALUE
WELL.         HOMESTEAD ET AL COWPAR         : WELL_NAME
LOC .         11-23-080-04W4                 : Location     - LOCATION          
UWI .         00/11-23-080-04W400            : Uwi          - UNIQUE WELL ID    
ENTR.         DW                             : Entered      - ENTERED BY        
SRVC.         SCHLUMBERGER                   : Scn          - SERVICE COMPANY   
DATE.         27 JAN 74                      : Date         - LOG DATE
STRT.M        85.344                         : top_depth    - START DEPTH       
STOP.M        347.473                        : bot_depth    - STOP DEPTH        
STEP.M        0.3048                         : increment    - STEP LENGTH       
~CURVE INFORMATION BLOCK
#MNEM UNIT       ERCB CURVE CODE    CURVE DESCRIPTION
#-----------   ------------------   ----------------------------------
DEPT.M        00 001 00 00         : DEPTH        - DEPTH                       
DPHI.V/V      00 890 00 00         : PHID         - DENSITY POROSITY (LIMESTONE)
NPHI.V/V      00 330 00 00         : PHIN         - NEUTRON POROSITY (LIMESTONE)
GR  .API      00 310 00 00         : GR           - GAMMA RAY                   
ILD .OHMM     00 120 00 00         : RESD         - DEEP RESISTIVITY (DIL)      
~PARAMETER INFORMATION       
#MNEM.UNIT           DATA             DESCRIPTION OF MNEMONIC
#---------         -----------     ------------------------------
GL  .M        513.588              : gl           - GROUND LEVEL ELEVATION      
EREF.M        517.246              : kb           - ELEVATION OF DEPTH REFERENCE
DATM.M        517.246              : datum        - DATUM ELEVATION             
TDD .M        361.493              : tdd          - TOTAL DEPTH DRILLER         
RUN .         ONE                  : Run          - RUN NUMBER                  
ENG .         BILL                 : Engineer     - RECORDING ENGINEER          
WIT .         JIM                  : Witness      - WITNESSED BY                
MUD .         GEL                  : Mud_type     - MUD TYPE                    
MATR.         LIMESTONE            : Logunit      - NEUTRON MATRIX              
TMAX.C        22.2222              : BHT          - MAXIMUM RECORDED TEMPERATURE
BHTD.M        361.493              : BHTDEP       - MAXIMUM RECORDED TEMPERATURE
MATR.         1                    : LOGUNIT      - NEUTRON MATRIX              
RMT .C        25                   : MDTP         - TEMPERATURE OF MUD          
NEUT.         1                    : NEUTRON      - NEUTRON TYPE                
RESI.         0                    : RESIST       - RESISTIVITY TYPE            
RMC .OHMM     0.25                 : RMC          - RESISTIVITY OF MUD CAKE     
RMF .OHMM     0.25                 : RMF          - RESISTIVITY OF MUD FILTRATE 
SUFT.C        15                   : SUFT         - SURFACE TEMPERATURE         
~A  DEPTH     PHID     PHIN       GR     RESD
# ...
  191.413    0.252    0.512  120.464    4.080
  191.718    0.249    0.527  115.006    4.156
  192.023    0.246    0.540  112.583    4.312
  192.328    0.247    0.558  112.589    4.644
  192.633    0.249    0.561  113.202    4.819
  192.937    0.253    0.545  113.205    4.908
  193.242    0.255    0.537  112.606    4.999
  193.547    0.261    0.518  113.827    5.091
  193.852    0.270    0.506  113.831    5.283
  194.157    0.271    0.511  113.836    5.690
  194.461    0.268    0.504  113.236    6.016
  194.766    0.264    0.491  112.634    6.479
  195.071    0.277    0.491  111.427    6.724
  195.376    0.277    0.498  110.824    6.977
  195.681    0.267    0.501  111.437    7.107
  195.985    0.275    0.497  105.369    7.513
  196.290    0.283    0.476   98.696    8.558
  196.595    0.269    0.471   96.879    8.881
  196.900    0.278    0.482   96.280    9.565
  197.205    0.295    0.490   97.501    9.386
  197.509    0.284    0.483   98.718    9.038
  197.814    0.278    0.459  101.154    8.703
  198.119    0.278    0.458  101.767    8.540
  198.424    0.276    0.470  102.382    8.537
  198.729    0.269    0.477  101.781    8.696
  199.033    0.269    0.478  102.393    9.022
  199.338    0.278    0.476  102.397    9.018
  199.643    0.282    0.472  102.404    9.016
  199.948    0.282    0.461  101.802    9.012
  200.253    0.279    0.450  101.202    8.680
  200.557    0.275    0.446  101.208    8.516
  200.862    0.289    0.450  102.426    8.201
  201.167    0.279    0.458  106.076    7.897
  201.472    0.266    0.458  106.082    7.749
  201.776    0.258    0.465  103.052    7.603
  202.081    0.273    0.469  102.453    7.186
  202.386    0.273    0.458  103.672    6.921
  202.691    0.270    0.452  103.676    6.420
  202.996    0.287    0.454  102.468    6.298
  203.300    0.289    0.477  100.046    6.181
  203.605    0.276    0.478   98.229    6.534
  203.910    0.283    0.462   97.019    6.781
  204.215    0.281    0.461   95.206    7.441
  204.520    0.279    0.479   97.639    7.866
  204.824    0.288    0.493  100.075    8.163
  205.129    0.293    0.477   98.258    8.471
  205.434    0.298    0.477  106.159    8.955
  205.739    0.302    0.490  106.771    9.466
  206.044    0.308    0.491   98.883    9.824
  206.348    0.311    0.483   95.245   10.193
  206.653    0.305    0.484   93.429   10.190
  206.958    0.291    0.487   97.079   10.185
  207.263    0.294    0.485   98.907   10.375
  207.568    0.299    0.473   95.268   10.566
  207.872    0.304    0.462   94.061   10.563
  208.177    0.301    0.476   97.710   10.558
  208.482    0.305    0.490   99.537   10.361
  208.787    0.313    0.478  100.150   10.163
  209.092    0.317    0.463  102.586   10.160
  209.396    0.317    0.468  102.591   10.348
  209.701    0.312    0.470   97.739   10.540
  210.006    0.310    0.453   92.886   10.735
  210.311    0.311    0.444   86.819   11.139
  210.616    0.311    0.436   95.328   11.135
  210.920    0.308    0.439   94.726   11.340
  211.225    0.307    0.454   91.088   11.127
  211.530    0.302    0.450   97.774   11.334
  211.835    0.299    0.448  100.818   11.328
  212.139    0.295    0.446   99.608   11.537
  212.444    0.289    0.456   96.577   11.534
  212.749    0.288    0.467   94.153   11.968
  213.054    0.289    0.467   91.123   12.190
  213.359    0.311    0.457   92.344   12.415
  213.663    0.308    0.451   91.134   12.411
  213.968    0.308    0.444   88.104   12.407
  214.273    0.323    0.435   91.148   12.401
  214.578    0.315    0.433   91.759   12.395
  214.883    0.305    0.438   89.945   12.392
  215.187    0.300    0.456   87.520   12.620
  215.492    0.295    0.475   87.527   12.616
  215.797    0.302    0.479   88.139   12.613
  216.102    0.296    0.458   91.789   12.607
  216.407    0.307    0.449   90.580   12.604
  216.711    0.308    0.439   89.372   12.138
  217.016    0.296    0.439   95.451   10.847
  217.321    0.284    0.449  106.995    8.997
  217.626    0.267    0.498  112.467    7.057
  217.931    0.272    0.523  113.080    5.745
  218.235    0.261    0.514  111.265    5.232
  218.540    0.268    0.496  108.840    4.853
  218.845    0.258    0.481  102.773    5.131
  219.150    0.252    0.477  106.425    5.526
  219.455    0.246    0.498  107.037    5.843
  219.759    0.260    0.485  105.222    6.533
  220.064    0.279    0.474  102.796    7.169
  220.369    0.295    0.469   97.336    7.867
  220.674    0.300    0.487   91.877    8.164
  220.979    0.281    0.483   82.774    8.794
  221.283    0.177    0.445   72.455    9.833
  221.588    0.141    0.325   71.247   12.296
  221.893    0.260    0.395   79.755   14.539
  222.198    0.217    0.458   91.300   15.661
  222.503    0.266    0.492   91.305   15.082
  222.807    0.303    0.476   93.741   13.734
  223.112    0.301    0.452   96.783   12.047
  223.417    0.301    0.438   99.825   11.386
  223.722    0.308    0.441   99.830   11.597
  224.026    0.316    0.450   99.230   11.812
  224.331    0.289    0.458  100.449   12.255
  224.636    0.266    0.487   99.849   12.252
  224.941    0.172    0.464   99.247   11.798
  225.246    0.252    0.472   99.861   10.945
  225.550    0.290    0.492  102.295    9.782
  225.855    0.296    0.507  104.730    8.908
  226.160    0.295    0.487  107.165    8.112
  226.465    0.280    0.472  113.244    8.108
  226.770    0.267    0.463  119.930    8.106
  227.074    0.253    0.462  122.972    8.103
  227.379    0.265    0.462  118.119    7.659
  227.684    0.273    0.448  111.447    6.974
  227.989    0.269    0.430  110.236    7.103
  228.294    0.250    0.457  110.850    7.793
  228.598    0.263    0.465  110.249    7.938
  228.903    0.259    0.473  112.078    7.935
  229.208    0.265    0.493  114.511    7.642
  229.513    0.275    0.534  121.198    7.224
  229.818    0.268    0.524  120.595    5.561
  230.122    0.261    0.520  115.743    4.788
  230.427    0.254    0.516  112.712    4.525
  230.732    0.257    0.513  110.899    4.524
  231.037    0.273    0.513  111.510    4.608
  231.342    0.271    0.545  114.552    4.606
  231.646    0.267    0.578  119.416    4.435
  231.951    0.279    0.572  120.637    4.193
  232.256    0.280    0.542  116.998    4.038
  232.561    0.291    0.487  107.288    4.269
  232.866    0.296    0.480  104.865    4.773
  233.170    0.297    0.521  123.092    4.428
  233.475    0.292    0.583  124.309    3.884
  233.780    0.271    0.543  123.101    3.811
  234.085    0.273    0.504  114.604    3.954
  234.389    0.274    0.485  107.323    4.764
  234.694    0.252    0.476  104.292    5.634
  234.999    0.226    0.457  104.299    7.044
  235.304    0.230    0.445  108.556    7.731
  235.609    0.265    0.452  109.776    8.327
  235.913    0.237    0.468  109.174    8.969
  236.218    0.220    0.475  109.181    9.135
  236.523    0.218    0.475   93.396    9.304
  236.828    0.239    0.465   88.544    8.960
  237.133    0.264    0.465   92.195    8.629
  237.437    0.255    0.514   98.273    8.156
  237.742    0.257    0.543  108.602    7.155
  238.047    0.277    0.561  115.896    4.924
  238.352    0.265    0.554  114.688    4.084
  238.657    0.257    0.511  112.264    3.861
  238.961    0.262    0.486  109.233    3.788
  239.266    0.276    0.502  106.203    3.930
  239.571    0.286    0.529  110.460    4.155
  239.876    0.257    0.543  112.896    4.393
  240.181    0.254    0.528  112.901    4.912
  240.485    0.258    0.463  105.012    5.491
  240.790    0.272    0.451  100.159    5.806
  241.095    0.293    0.454  103.810    6.025
  241.400    0.303    0.471  104.421    6.369
  241.705    0.310    0.488  101.998    6.609
  242.009    0.314    0.504  100.182    6.607
  242.314    0.298    0.495  101.402    6.244
  242.619    0.271    0.497  108.089    5.902
  242.924    0.254    0.504  106.273    5.375
  243.229    0.271    0.521  101.422    4.542
  243.533    0.305    0.600   97.783    3.432
  243.838    0.303    0.594   95.359    2.742
  244.143    0.294    0.579   97.795    2.361
