~VERSION INFORMATION
 VERS.                 2.0:   CWLS LOG ASCII STANDARD -VERSION 2.0
 WRAP.                  NO:   ONE LINE PER DEPTH STEP
~WELL INFORMATION BLOCK
#MNEM.UNIT           DATA                    DESCRIPTION OF MNEMONIC
#---------    -------------------            -------------------------------
# Generated from Intellog Unique Number	CW_73_75/WELL/2744
WELL.         ALLIED ET AL CALLING 11-08     : Well_name    - WELL
LOC .         00/11-08-073-20W4/0            : Location     - LOCATION
UWI .         00/11-08-073-20W4/0            : Uwi          - UNIQUE WELL ID
ENTR.         JAYE                           : Entered      - ENTERED BY
SRVC.         SCHLUMBERGER                   : Scn          - SERVICE COMPANY
DATE.         20 JAN 77                      : Date         - LOG DATE
STRT.M        396.24                         : top_depth    - START DEPTH
STOP.M        624.74                         : bot_depth    - STOP DEPTH
STEP.M        0.25                           : increment    - STEP LENGTH
 NULL. -999.2500:NULL Value
~CURVE INFORMATION BLOCK
#MNEM UNIT       ERCB CURVE CODE    CURVE DESCRIPTION
#-----------   ------------------   ----------------------------------
DEPT.M        00 001 00 00         : DEPTH        - DEPTH
ILD .OHMM     00 120 00 00         : RESD         - DEEP RESISTIVITY (DIL)
NPHI.V/V      00 330 00 00         : PHIN         - NEUTRON POROSITY (SANDSTONE)
DPHI.V/V      00 890 00 00         : PHID         - DENSITY POROSITY (SANDSTONE)
GR  .API      00 310 00 00         : GR           - GAMMA RAY
CALI.MM       00 280 01 00         : CAL          - CALIPER
~PARAMETER INFORMATION
#MNEM.UNIT           DATA             DESCRIPTION OF MNEMONIC
#---------         -----------     ------------------------------
GL  .M        687.019              : gl           - GROUND LEVEL ELEVATION
EREF.M        690.22               : kb           - ELEVATION OF DEPTH REFERENCE
DATM.M        687.019              : datum        - DATUM ELEVATION
TDD .M        631.241              : tdd          - TOTAL DEPTH DRILLER
RUN .         ONE                  : Run          - RUN NUMBER
BASE.         EDM                  : Branch       - HOME BASE OF LOGGING UNIT
MATR.         SANDSTONE            : Logunit      - NEUTRON MATRIX
TMAX.C        21.1111              : BHT          - MAXIMUM RECORDED TEMPERATURE
BHTD.M        628.802              : BHTDEP       - MAXIMUM RECORDED TEMPERATURE
RMT .C        21.1111              : MDTP         - TEMPERATURE OF MUD
MUDD.KG/M     1176                 : MWT          - MUD DENSITY
NEUT.         1                    : NEUTRON      - NEUTRON TYPE
RESI.         0                    : RESIST       - RESISTIVITY TYPE
RM  .OHMM     2.8                  : RM           - RESISTIVITY OF MUD
RMC .OHMM     3.83                 : RMC          - RESISTIVITY OF MUD CAKE
RMF .OHMM     2.77                 : RMF          - RESISTIVITY OF MUD FILTRATE
SUFT.C        -17.7778             : SUFT         - SURFACE TEMPERATURE
~A  DEPTH     RESD     PHIN     PHID       GR      CAL
# ...
  432.740   10.832    0.485    0.276   76.023  163.747
  432.990    9.728    0.476    0.259   81.053  163.796
  433.240    8.624    0.468    0.227   83.950  163.642
  433.490    7.913    0.454    0.213   85.443  163.585
  433.740    7.398    0.433    0.264   87.058  163.534
  433.990    7.080    0.435    0.272   88.977  163.276
  434.240    6.880    0.443    0.277   91.204  163.130
  434.490    6.718    0.435    0.287   90.685  162.756
  434.740    6.637    0.429    0.302   86.690  162.497
  434.990    6.553    0.432    0.313   81.660  162.144
  435.240    6.549    0.448    0.308   75.837  161.781
  435.490    6.545    0.470    0.303   72.087  161.524
  435.740    6.540    0.450    0.319   69.130  161.356
  435.990    6.577    0.428    0.340   69.036  161.204
  436.240    6.612    0.417    0.316   71.382  161.154
  436.490    6.607    0.403    0.303   74.523  161.097
  436.740    6.486    0.414    0.295   77.969  161.158
  436.990    6.128    0.418    0.275   80.802  161.408
  437.240    5.771    0.406    0.242   85.039  162.178
  437.490    5.413    0.421    0.250   91.047  163.264
  437.740    5.330    0.489    0.239   95.707  164.035
  437.990    5.366    0.512    0.252   91.167  163.884
  438.240    5.479    0.489    0.270   89.244  163.732
  438.490    5.711    0.475    0.273   91.717  163.570
  438.740    5.864    0.497    0.248   94.000  163.618
  438.990    6.057    0.476    0.220   94.091  163.477
  439.240    6.287    0.489    0.192   92.658  163.105
  439.490    6.518    0.480    0.233   91.650  162.536
  439.740    6.673    0.461    0.273   88.510  161.560
  439.990    6.943    0.447    0.296   83.175  160.882
  440.240    7.450    0.771    0.358   69.424  160.207
  440.490    8.310    0.821    0.413   51.041  159.334
  440.740    8.266    0.536    0.498   43.389  158.872
  440.990    7.673    0.412    0.359   45.433  158.612
  441.240    7.237    0.389    0.331   47.047  158.242
  441.490    6.997    0.384    0.336   46.955  157.891
  441.740    6.876    0.373    0.349   46.434  157.732
  441.990    6.753    0.379    0.341   47.259  157.469
  442.240    6.710    0.390    0.322   49.180  157.415
  442.490    6.706    0.407    0.323   50.063  157.774
  442.740    6.702    0.414    0.324   49.481  158.029
  442.990    6.697    0.420    0.332   48.781  158.199
  443.240    6.733    0.419    0.334   49.788  158.339
  443.490    6.729    0.399    0.337   51.158  158.389
  443.740    6.764    0.386    0.335   52.718  158.651
  443.990    6.760    0.380    0.324   54.268  158.806
  444.240    6.795    0.391    0.327   55.148  158.644
  444.490    6.830    0.399    0.332   54.997  158.594
  444.740    6.826    0.397    0.339   54.358  158.548
  444.990    6.861    0.404    0.341   52.924  158.390
  445.240    6.858    0.408    0.333   50.757  158.446
  445.490    6.773    0.393    0.342   51.765  158.286
  445.740    6.732    0.385    0.338   52.891  158.341
  445.990    6.728    0.377    0.333   52.432  158.387
  446.240    6.724    0.371    0.328   52.585  158.442
  446.490    6.719    0.355    0.316   53.042  158.484
  446.740    6.714    0.366    0.305   52.403  158.742
  446.990    6.711    0.373    0.311   52.619  159.003
  447.240    6.746    0.372    0.323   52.279  159.156
  447.490    6.742    0.375    0.331   52.737  159.306
  447.740    6.737    0.376    0.323   52.767  159.263
  447.990    6.773    0.383    0.327   50.964  159.100
  448.240    6.769    0.406    0.342   50.447  159.147
  448.490    6.765    0.406    0.342   52.797  159.114
  448.740    6.761    0.395    0.319   54.164  159.063
  448.990    6.757    0.387    0.315   52.915  159.011
  449.240    6.714    0.383    0.328   52.214  159.059
  449.490    6.709    0.380    0.311   50.231  158.900
  449.740    6.706    0.386    0.316   52.578  158.840
  449.990    6.700    0.391    0.317   55.231  158.883
  450.240    6.658    0.386    0.326   55.687  158.730
  450.490    6.654    0.389    0.333   54.863  158.683
  450.740    6.689    0.390    0.329   54.406  158.730
  450.990    6.685    0.385    0.319   54.437  158.678
  451.240    6.681    0.377    0.304   53.795  158.621
  451.490    6.677    0.376    0.310   52.909  158.570
  451.740    6.712    0.385    0.316   52.634  158.732
  451.990    6.747    0.378    0.302   52.420  158.679
  452.240    6.782    0.370    0.309   53.123  158.937
  452.490    6.818    0.379    0.314   54.863  158.981
  452.740    6.931    0.363    0.316   56.535  159.036
  452.990    7.123    0.378    0.299   54.981  159.085
  453.240    7.198    0.389    0.291   50.987  159.237
  453.490    7.154    0.366    0.277   50.833  159.289
  453.740    6.836    0.349    0.259   53.486  159.440
  453.990    6.675    0.383    0.273   57.114  159.709
  454.240    6.632    0.389    0.296   56.654  159.748
  454.490    6.588    0.394    0.314   54.611  160.123
  454.740    6.663    0.403    0.336   54.887  160.268
  454.990    6.777    0.404    0.343   56.259  160.314
  455.240    6.693    0.390    0.331   58.908  160.368
  455.490    6.612    0.398    0.315   62.049  160.314
  455.740    6.529    0.409    0.310   57.445  160.163
  455.990    6.446    0.413    0.305   54.977  160.214
  456.240    6.364    0.414    0.311   54.455  160.160
  456.490    6.242    0.413    0.333   55.769  160.206
  456.740    6.198    0.429    0.352   56.406  160.255
  456.990    6.194    0.443    0.335   58.204  160.310
  457.240    6.190    0.434    0.333   58.416  160.666
  457.490    6.187    0.420    0.333   56.984  160.821
  457.740    6.181    0.413    0.320   56.283  161.188
  457.990    6.178    0.405    0.324   56.617  161.654
  458.240    6.174    0.395    0.330   58.602  162.115
  458.490    6.170    0.395    0.342   58.384  162.371
  458.740    6.087    0.413    0.332   55.365  162.520
  458.990    6.044    0.415    0.311   52.165  162.782
  459.240    6.000    0.427    0.309   50.492  163.039
  459.490    5.917    0.426    0.313   49.359  163.608
  459.740    5.835    0.414    0.313   48.291  163.964
  459.990    5.792    0.408    0.321   47.225  164.219
  460.240    5.708    0.412    0.321   46.341  164.588
  460.490    5.705    0.398    0.324   44.053  164.842
  460.740    5.705    0.392    0.330   41.460  164.786
  460.990    5.617    0.416    0.323   41.612  165.159
  461.240    5.574    0.430    0.317   44.387  165.302
  461.490    5.532    0.444    0.335   46.122  165.561
  461.740    5.527    0.449    0.336   47.067  165.824
  461.990    5.484    0.437    0.326   46.672  166.078
  462.240    5.441    0.426    0.328   44.933  166.338
  462.490    5.437    0.429    0.349   41.548  166.487
  462.740    5.432    0.423    0.349   40.114  166.538
  462.990    5.428    0.407    0.338   40.452  166.484
  463.240    5.421    0.409    0.349   41.333  166.435
  463.490    5.420    0.428    0.338   42.096  166.066
  463.740    5.420    0.412    0.338   42.613  165.601
  463.990    5.410    0.403    0.336   43.252  165.548
  464.240    5.448    0.396    0.334   44.746  164.983
  464.490    5.443    0.394    0.339   45.874  163.697
  464.740    5.440    0.403    0.328   47.002  163.224
  464.990    5.436    0.393    0.316   45.937  163.179
  465.240    5.430    0.390    0.324   44.381  163.539
  465.490    5.430    0.396    0.336   43.372  163.598
  465.740    5.423    0.387    0.320   42.974  163.635
  465.990    5.497    0.383    0.323   41.846  163.480
  466.240    5.493    0.397    0.335   42.306  163.323
  466.490    5.493    0.401    0.336   43.676  163.279
  466.740    5.523    0.400    0.342   45.046  163.434
  466.990    5.520    0.419    0.339   46.113  163.695
  467.240    5.514    0.414    0.346   46.630  163.948
  467.490    5.513    0.402    0.342   47.087  163.992
  467.740    5.547    0.388    0.330   47.787  164.042
  467.990    5.622    0.387    0.319   48.245  163.886
  468.240    5.656    0.381    0.318   50.225  163.628
  468.490    5.693    0.373    0.316   50.986  163.477
  468.740    5.726    0.394    0.315   51.202  163.744
  468.990    5.762    0.402    0.335   50.802  163.892
