~VERSION INFORMATION
 VERS.                 2.0:   CWLS LOG ASCII STANDARD -VERSION 2.0
 WRAP.                  NO:   ONE LINE PER DEPTH STEP
~WELL INFORMATION BLOCK
#MNEM.UNIT           DATA                    DESCRIPTION OF MNEMONIC
#---------    -------------------            -------------------------------
# Generated from Intellog Unique Number	CW_70_72/WELL/2908
NULL.         -999.25                        : NULL_VALUE
WELL.         NOVALTA RICHMOND               : Well_name    - WELL              
LOC .         16-01-070-20W4                 : Location     - LOCATION          
UWI .         00/16-01-070-20W4/0            : Uwi          - UNIQUE WELL ID    
ENTR.         MAX                            : Entered      - ENTERED BY        
SRVC.         WELEX                          : Scn          - SERVICE COMPANY   
DATE.         04 OCT 85                      : Date         - LOG DATE
STRT.M        325                            : top_depth    - START DEPTH       
STOP.M        490                            : bot_depth    - STOP DEPTH        
STEP.M        0.25                           : increment    - STEP LENGTH       
~CURVE INFORMATION BLOCK
#MNEM UNIT       ERCB CURVE CODE    CURVE DESCRIPTION
#-----------   ------------------   ----------------------------------
DEPT.M        00 001 00 00         : DEPTH        - DEPTH                       
ILD .OHMM     00 120 00 00         : RESD         - DEEP RESISTIVITY (DIL)      
NPHI.V/V      00 330 00 00         : PHIN         - NEUTRON POROSITY (SANDSTONE)
DPHI.V/V      00 890 00 00         : PHID         - DENSITY POROSITY (SANDSTONE)
CALI.MM       00 280 01 00         : CAL          - CALIPER                     
GR  .API      00 310 00 00         : GR           - GAMMA RAY                   
~PARAMETER INFORMATION       
#MNEM.UNIT           DATA             DESCRIPTION OF MNEMONIC
#---------         -----------     ------------------------------
GL  .M        577.31               : gl           - GROUND LEVEL ELEVATION      
EREF.M        580.3                : kb           - ELEVATION OF DEPTH REFERENCE
DATM.M        577.31               : datum        - DATUM ELEVATION             
TDD .M        555.8                : tdd          - TOTAL DEPTH DRILLER         
RUN .         ONE                  : Run          - RUN NUMBER                  
ENG .         BILL                 : Engineer     - RECORDING ENGINEER          
WIT .         JIM                  : Witness      - WITNESSED BY                
MUD .         GEL                  : Mud_type     - MUD TYPE                    
MATR.         SANDSTONE            : Logunit      - NEUTRON MATRIX              
TMAX.C        25                   : BHT          - MAXIMUM RECORDED TEMPERATURE
BHTD.M        555.8                : BHTDEP       - MAXIMUM RECORDED TEMPERATURE
RMT .C        19                   : MDTP         - TEMPERATURE OF MUD          
MUDD.KG/M     1160                 : MWT          - MUD DENSITY                 
NEUT.         1                    : NEUTRON      - NEUTRON TYPE                
RESI.         0                    : RESIST       - RESISTIVITY TYPE            
RM  .OHMM     4.5                  : RM           - RESISTIVITY OF MUD          
RMC .OHMM     3.5                  : RMC          - RESISTIVITY OF MUD CAKE     
RMF .OHMM     4.4                  : RMF          - RESISTIVITY OF MUD FILTRATE 
SUFT.C        -20                  : SUFT         - SURFACE TEMPERATURE         
~A  DEPTH     RESD     PHIN     PHID      CAL       GR
  325.000    2.872    0.501    0.224  182.568  104.796
  325.250    2.872    0.539    0.212  182.100  108.355
  325.500    2.898    0.514    0.204  178.683  109.259
  325.750    2.925    0.500    0.198  177.238  105.440
  326.000    2.979    0.536    0.207  176.777  103.093
  326.250    2.979    0.479    0.207  177.784  103.993
  326.500    3.007    0.475    0.207  179.780  101.059
  326.750    3.007    0.493    0.212  180.306   96.648
  327.000    3.007    0.497    0.213  180.818   95.190
  327.250    3.007    0.469    0.205  181.344   95.205
  327.500    3.062    0.456    0.202  181.368   94.928
  327.750    3.177    0.430    0.205  175.984   92.581
  328.000    3.296    0.423    0.227  173.056   85.513
  328.250    3.547    0.451    0.292  171.122   68.114
  328.500    3.782    0.597    0.567  168.194   62.224
  328.750    4.585    0.573    0.603  162.813   67.261
  329.000    5.874    0.424    0.413  166.284   75.249
  329.250    6.093    0.365    0.243  166.319   76.151
  329.500    5.983    0.349    0.231  165.352   77.053
  329.750    5.408    0.349    0.237  163.411   80.316
  330.000    4.627    0.355    0.242  161.966   79.451
  330.250    4.183    0.371    0.256  161.009   77.104
  330.500    3.852    0.372    0.284  160.545   74.167
  330.750    3.514    0.372    0.302  160.569   73.890
  331.000    3.236    0.366    0.315  160.599   74.204
  331.250    3.062    0.367    0.296  160.135   74.218
  331.500    2.979    0.377    0.300  158.686   75.417
  331.750    2.952    0.387    0.307  157.733   75.725
  332.000    2.925    0.381    0.299  157.265   74.265
  332.250    2.925    0.378    0.298  156.804   76.643
  332.500    2.925    0.378    0.304  156.827   75.479
  332.750    2.979    0.373    0.306  156.855   81.106
  333.000    3.091    0.365    0.312  157.377   84.369
  333.250    3.206    0.366    0.311  156.913   93.833
  333.500    3.296    0.371    0.301  155.960   98.570
  333.750    3.514    0.372    0.296  155.987  106.561
  334.000    3.679    0.366    0.263  155.526  105.099
  334.250    3.887    0.366    0.261  156.537   99.509
  334.500    4.107    0.376    0.251  158.525   94.803
  334.750    4.340    0.364    0.254  162.000   98.361
  335.000    4.502    0.365    0.248  164.979  100.149
  335.250    4.543    0.359    0.240  166.971   97.507
  335.500    4.543    0.359    0.231  168.976   88.079
  335.750    4.543    0.374    0.292  169.000   84.846
  336.000    4.502    0.396    0.316  164.111   76.302
  336.250    4.502    0.398    0.336  162.164   74.550
  336.500    4.502    0.395    0.331  159.735   76.630
  336.750    4.502    0.384    0.305  158.775   79.303
  337.000    4.420    0.375    0.279  158.313   87.292
  337.250    4.300    0.371    0.266  158.344   88.489
  337.500    4.070    0.388    0.265  158.857   91.754
  337.750    3.923    0.396    0.273  158.395   92.952
  338.000    3.887    0.380    0.280  157.442   93.556
  338.250    3.923    0.373    0.267  157.469   94.165
  338.500    3.959    0.376    0.254  157.497   94.181
  338.750    3.959    0.383    0.241  157.032   97.150
  339.000    3.887    0.404    0.224  157.548  100.708
  339.250    3.817    0.423    0.204  165.450  105.743
  339.500    3.713    0.438    0.185  169.410  106.940
  339.750    3.547    0.442    0.147  173.868  104.892
  340.000    3.357    0.461    0.168  172.423   99.593
  340.250    3.236    0.483    0.154  174.910   98.136
  340.500    3.206    0.494    0.204  172.474   99.921
  340.750    3.206    0.539    0.197  173.486  108.207
  341.000    3.206    0.502    0.193  175.484  110.583
  341.250    3.206    0.525    0.170  171.080  110.304
  341.500    3.148    0.574    0.177  170.131  117.700
  341.750    3.034    0.591    0.213  172.119  124.212
  342.000    2.898    0.498    0.227  173.626  121.867
  342.250    2.872    0.427    0.227  174.145  111.255
  342.500    2.872    0.388    0.225  173.684   95.922
  342.750    2.898    0.375    0.224  170.763   88.854
  343.000    3.007    0.363    0.222  165.863   80.310
  343.250    3.236    0.368    0.237  157.531   80.326
  343.500    3.996    0.367    0.241  156.574   76.800
  343.750    4.183    0.365    0.247  157.097   69.732
  344.000    4.713    0.362    0.264  157.609   65.028
  344.250    5.119    0.368    0.284  157.640   64.747
  344.500    5.119    0.416    0.291  157.667   68.896
  344.750    5.026    0.423    0.252  157.691   77.770
  345.000    4.800    0.405    0.191  162.645   85.756
  345.250    4.627    0.378    0.193  162.177   88.136
  345.500    4.543    0.364    0.234  157.776   88.741
  345.750    4.420    0.365    0.267  156.820   90.235
  346.000    4.420    0.374    0.264  156.847   94.975
  346.250    4.420    0.369    0.250  156.874   97.352
  346.500    4.420    0.365    0.225  158.378   99.437
  346.750    4.585    0.365    0.214  163.824  101.520
  347.000    4.757    0.365    0.205  163.847  100.062
  347.250    4.889    0.364    0.213  163.882   96.532
  347.500    4.934    0.368    0.241  163.410   79.428
  347.750    4.934    0.376    0.258  159.502   67.932
  348.000    4.845    0.387    0.283  156.577   66.473
  348.250    4.713    0.390    0.293  156.112   66.787
  348.500    4.585    0.411    0.292  156.632   69.753
  348.750    4.420    0.425    0.285  156.662   77.151
  349.000    4.340    0.422    0.251  156.693   78.057
  349.250    4.300    0.398    0.212  156.222   76.890
  349.500    4.300    0.368    0.178  155.760   73.658
  349.750    4.380    0.362    0.161  155.296   73.381
  350.000    4.627    0.363    0.176  154.835   73.986
  350.250    4.980    0.380    0.200  154.370   73.707
  350.500    5.310    0.413    0.232  155.381   74.906
  350.750    5.166    0.395    0.230  156.881   80.529
  351.000    4.934    0.394    0.215  159.368   87.632
  351.250    4.757    0.401    0.214  163.827   93.554
  351.500    4.502    0.388    0.210  169.266   97.701
  351.750    4.420    0.399    0.224  172.744  104.211
  352.000    4.261    0.413    0.227  176.211  108.067
  352.250    4.183    0.420    0.226  178.699  110.152
  352.500    4.145    0.408    0.226  179.218  110.166
  352.750    4.145    0.414    0.224  176.789  105.164
  353.000    4.145    0.415    0.225  169.922  107.837
  353.250    4.222    0.398    0.231  166.013  114.643
  353.500    4.300    0.415    0.237  168.999  118.497
  353.750    4.461    0.440    0.259  170.987  112.019
  354.000    4.543    0.459    0.263  170.530  101.999
  354.250    4.543    0.443    0.256  167.113   99.656
  354.500    4.461    0.420    0.236  163.201   97.014
  354.750    4.300    0.413    0.225  159.296   92.307
  355.000    4.107    0.425    0.259  158.828  100.591
  355.250    3.887    0.468    0.270  165.743  111.824
  355.500    3.679    0.451    0.256  173.645  120.106
  355.750    3.419    0.483    0.249  183.024  124.847
  356.000    3.206    0.511    0.237  182.556  123.390
  356.250    3.119    0.477    0.237  180.615  114.844
  356.500    3.062    0.439    0.237  174.739  103.936
  356.750    3.062    0.413    0.234  168.374   95.688
  357.000    3.206    0.412    0.228  165.449   84.487
  357.250    3.482    0.412    0.240  158.585   79.485
  357.500    3.959    0.409    0.247  155.664   81.865
  357.750    4.502    0.409    0.249  154.704   84.243
  358.000    4.845    0.413    0.241  154.243   83.083
  358.250    4.934    0.410    0.233  154.274   83.392
  358.500    4.845    0.405    0.228  153.802   86.656
  358.750    4.627    0.398    0.236  153.830   84.899
  359.000    4.543    0.389    0.255  153.857   81.373
  359.250    4.461    0.380    0.269  154.380   76.669
  359.500    4.543    0.392    0.282  154.899   76.978
  359.750    4.670    0.406    0.288  155.425   80.834
  360.000    4.800    0.418    0.285  155.446   82.619
  360.250    4.845    0.432    0.285  155.480   83.228
  360.500    4.800    0.418    0.282  155.504   79.407
  360.750    4.713    0.403    0.282  155.528   75.881
  361.000    4.585    0.398    0.274  155.555   74.719
  361.250    4.502    0.418    0.261  155.589   75.619
