~VERSION INFORMATION
 VERS.                 2.0:   CWLS LOG ASCII STANDARD -VERSION 2.0
 WRAP.                  NO:   ONE LINE PER DEPTH STEP
~WELL INFORMATION BLOCK
#MNEM.UNIT           DATA                    DESCRIPTION OF MNEMONIC
#---------    -------------------            -------------------------------
# Generated from Intellog Unique Number	CS_67_68/WELL/858
WELL.         AEC MARGUERITA                 : Well_name    - WELL
LOC .         00/15-26-068-05W4/0            : Location     - LOCATION
UWI .         00/15-26-068-05W4/0            : Uwi          - UNIQUE WELL ID
ENTR.         SP                             : Entered      - ENTERED BY
SRVC.         SCHLUMBERGER                   : Scn          - SERVICE COMPANY
STRT.M        360                            : top_depth    - START DEPTH
STOP.M        605                            : bot_depth    - STOP DEPTH
STEP.M        0.25                           : increment    - STEP LENGTH
 NULL. -999.2500:NULL Value
~CURVE INFORMATION BLOCK
#MNEM UNIT       ERCB CURVE CODE    CURVE DESCRIPTION
#-----------   ------------------   ----------------------------------
DEPT.M        00 001 00 00         : DEPTH        - DEPTH
ILD .OHMM     00 120 00 00         : RESD         - DEEP RESISTIVITY (DIL)
DPHI.V/V      00 890 00 00         : PHID         - DENSITY POROSITY (LIMESTONE)
NPHI.V/V      00 330 00 00         : PHIN         - NEUTRON POROSITY (LIMESTONE)
GR  .API      00 310 00 00         : GR           - GAMMA RAY
~PARAMETER INFORMATION
#MNEM.UNIT           DATA             DESCRIPTION OF MNEMONIC
#---------         -----------     ------------------------------
GL  .M        713.2                : gl           - GROUND LEVEL ELEVATION
EREF.M        716.8                : kb           - ELEVATION OF DEPTH REFERENCE
DATM.M        713.2                : datum        - DATUM ELEVATION
TDD .M        610                  : tdd          - TOTAL DEPTH DRILLER
RUN .         ONE                  : Run          - RUN NUMBER
ENG .         BILL                 : Engineer     - RECORDING ENGINEER
WIT .         JIM                  : Witness      - WITNESSED BY
MUD .         GEL                  : Mud_type     - MUD TYPE
MATR.         LIMESTONE            : Logunit      - NEUTRON MATRIX
TMAX.C        24                   : BHT          - MAXIMUM RECORDED TEMPERATURE
BHTD.M        610                  : BHTDEP       - MAXIMUM RECORDED TEMPERATURE
MATR.         1                    : LOGUNIT      - NEUTRON MATRIX
RMT .C        25                   : MDTP         - TEMPERATURE OF MUD
NEUT.         1                    : NEUTRON      - NEUTRON TYPE
RESI.         0                    : RESIST       - RESISTIVITY TYPE
RMC .OHMM     0.25                 : RMC          - RESISTIVITY OF MUD CAKE
RMF .OHMM     0.25                 : RMF          - RESISTIVITY OF MUD FILTRATE
SUFT.C        15                   : SUFT         - SURFACE TEMPERATURE
~A  DEPTH     RESD     PHID     PHIN       GR
# ...
  403.500    7.217    0.284    0.435   85.938
  403.750    7.257    0.286    0.428   88.579
  404.000    7.311    0.280    0.417   90.543
  404.250    7.366    0.276    0.421   88.761
  404.500    7.352    0.277    0.447   81.942
  404.750    7.215    0.271    0.469   78.871
  405.000    6.962    0.263    0.447   82.371
  405.250    6.820    0.265    0.434   84.643
  405.500    6.806    0.271    0.433   86.117
  405.750    6.909    0.276    0.446   83.475
  406.000    7.118    0.279    0.460   79.911
  406.250    7.294    0.288    0.473   78.007
  406.500    7.529    0.287    0.484   77.945
  406.750    7.700    0.284    0.495   78.496
  407.000    7.772    0.284    0.502   78.373
  407.250    7.786    0.280    0.491   76.345
  407.500    7.771    0.288    0.476   72.598
  407.750    7.741    0.293    0.478   73.396
  408.000    7.668    0.283    0.474   74.992
  408.250    7.582    0.283    0.470   74.930
  408.500    7.427    0.292    0.480   74.499
  408.750    7.289    0.294    0.462   74.376
  409.000    7.234    0.297    0.455   75.788
  409.250    7.207    0.306    0.461   74.927
  409.500    7.206    0.313    0.457   70.074
  409.750    7.274    0.312    0.444   62.149
  410.000    7.397    0.297    0.423   63.070
  410.250    7.550    0.289    0.403   66.570
  410.500    7.664    0.293    0.421   67.921
  410.750    7.692    0.306    0.446   64.296
  411.000    7.648    0.309    0.464   62.023
  411.250    7.619    0.322    0.447   61.347
  411.500    7.562    0.338    0.440   61.530
  411.750    7.491    0.344    0.446   62.635
  412.000    7.463    0.343    0.467   66.259
  412.250    7.476    0.343    0.477   68.592
  412.500    7.546    0.342    0.466   62.203
  412.750    7.602    0.339    0.460   62.325
  413.000    7.630    0.334    0.463   67.976
  413.250    7.630    0.325    0.462   73.749
  413.500    7.615    0.317    0.458   76.021
  413.750    7.615    0.322    0.456   75.529
  414.000    7.600    0.326    0.440   73.808
  414.250    7.571    0.324    0.431   73.808
  414.500    7.599    0.313    0.432   71.903
  414.750    7.757    0.307    0.435   68.340
  415.000    7.918    0.319    0.438   66.619
  415.250    7.799    0.326    0.446   68.584
  415.500    7.726    0.331    0.455   70.303
  415.750    7.726    0.329    0.455   71.531
  416.000    7.769    0.316    0.455   73.373
  416.250    7.841    0.307    0.456   74.724
  416.500    7.870    0.304    0.447   73.188
  416.750    7.870    0.316    0.440   73.187
  417.000    7.811    0.321    0.442   74.415
  417.250    7.694    0.320    0.464   75.090
  417.500    7.341    0.329    0.480   69.008
  417.750    6.953    0.349    0.462   57.705
  418.000    6.862    0.359    0.452   53.159
  418.250    6.900    0.366    0.450   51.254
  418.500    6.991    0.373    0.463   54.509
  418.750    7.096    0.375    0.478   59.115
  419.000    7.230    0.362    0.459   61.633
  419.250    7.284    0.350    0.458   61.448
  419.500    7.269    0.343    0.478   59.604
  419.750    7.228    0.335    0.492   58.437
  420.000    7.255    0.323    0.459   55.180
  420.250    7.378    0.315    0.418   50.266
  420.500    7.433    0.311    0.401   46.518
  420.750    7.630    0.314    0.400   43.446
  421.000    7.745    0.321    0.402   45.227
  421.250    7.817    0.322    0.405   45.963
  421.500    7.846    0.317    0.414   44.243
  421.750    7.801    0.313    0.425   45.040
  422.000    7.743    0.321    0.437   45.408
  422.250    7.699    0.328    0.442   43.196
  422.500    7.598    0.324    0.449   44.793
  422.750    7.527    0.324    0.440   48.170
  423.000    7.526    0.329    0.436   49.214
  423.250    7.540    0.336    0.436   44.606
  423.500    7.525    0.340    0.429   41.473
  423.750    7.511    0.343    0.420   42.701
  424.000    7.524    0.345    0.415   44.236
  424.250    7.538    0.344    0.413   45.341
  424.500    7.551    0.342    0.414   44.849
  424.750    7.565    0.341    0.411   44.049
  425.000    7.593    0.340    0.408   43.680
  425.250    7.650    0.340    0.413   45.031
  425.500    7.678    0.340    0.398   46.136
  425.750    7.721    0.336    0.403   46.811
  426.000    7.720    0.332    0.408   47.609
  426.250    7.720    0.333    0.401   47.669
  426.500    7.719    0.332    0.413   46.440
  426.750    7.748    0.327    0.421   45.764
  427.000    7.777    0.328    0.418   47.852
  427.250    7.820    0.328    0.415   45.947
  427.500    7.834    0.317    0.413   43.059
  427.750    7.907    0.311    0.419   46.130
  428.000    7.921    0.307    0.422   46.743
  428.250    7.921    0.314    0.413   45.145
  428.500    7.936    0.327    0.423   44.961
  428.750    7.920    0.337    0.430   44.898
  429.000    7.920    0.338    0.426   44.959
  429.250    7.904    0.343    0.426   45.204
  429.500    7.874    0.347    0.425   45.572
  429.750    7.859    0.350    0.422   46.309
  430.000    7.800    0.354    0.410   47.659
  430.250    7.770    0.353    0.398   45.939
  430.500    7.770    0.345    0.397   45.201
  430.750    7.755    0.348    0.416   46.551
  431.000    7.754    0.355    0.433   46.121
  431.250    7.768    0.350    0.422   42.373
  431.500    7.812    0.352    0.416   40.898
  431.750    7.840    0.354    0.412   44.153
  432.000    7.869    0.354    0.419   46.241
  432.250    7.913    0.354    0.424   48.329
  432.500    7.942    0.356    0.428   47.100
  432.750    7.987    0.355    0.431   46.362
  433.000    8.001    0.355    0.431   49.862
  433.250    8.000    0.359    0.416   52.134
  433.500    8.015    0.363    0.405   53.608
  433.750    7.985    0.357    0.408   50.413
  434.000    7.999    0.352    0.425   48.017
  434.250    7.999    0.350    0.431   47.832
  434.500    7.983    0.348    0.429   48.015
  434.750    7.968    0.350    0.428   48.076
  435.000    7.937    0.352    0.439   47.891
  435.250    7.937    0.353    0.451   47.645
  435.500    7.921    0.340    0.457   47.583
  435.750    7.936    0.324    0.463   47.459
  436.000    7.950    0.325    0.467   46.660
  436.250    8.010    0.337    0.460   45.676
  436.500    8.084    0.350    0.447   44.263
  436.750    8.330    0.335    0.435   42.358
  437.000    8.631    0.218    0.397   39.470
  437.250    8.977    0.172    0.360   37.258
  437.500    9.146    0.169    0.380   43.462
  437.750    8.925    0.326    0.412   49.419
  438.000    8.501    0.341    0.429   52.244
  438.250    8.006    0.351    0.440   50.708
  438.500    7.696    0.356    0.445   50.032
  438.750    7.483    0.358    0.446   51.444
  439.000    7.371    0.361    0.451   53.224
  439.250    7.343    0.367    0.456   54.944
  439.500    7.274    0.367    0.441   52.363
  439.750    7.246    0.363    0.439   48.370
  440.000    7.205    0.360    0.451   50.519
  440.250    7.178    0.360    0.457   52.791
  440.500    7.151    0.359    0.455   52.115
  440.750    7.150    0.355    0.452   50.517
  441.000    7.150    0.352    0.442   48.673
  441.250    7.163    0.349    0.434   47.936
  441.500    7.189    0.348    0.435   47.751
  441.750    7.270    0.351    0.443   48.364
  442.000    7.324    0.352    0.440   49.408
  442.250    7.379    0.349    0.421   50.943
  442.500    7.434    0.351    0.413   53.092
  442.750    7.447    0.353    0.433   54.873
  443.000    7.475    0.350    0.452   55.547
  443.250    7.488    0.344    0.466   53.274
  443.500    7.460    0.343    0.460   51.615
  443.750    7.459    0.348    0.452   54.194
  444.000    7.445    0.347    0.458   56.221
  444.250    7.458    0.343    0.465   57.817
  444.500    7.486    0.347    0.466   58.369
  444.750    7.514    0.341    0.472   58.184
  445.000    7.598    0.335    0.479   59.105
  445.250    7.770    0.332    0.473   59.780
  445.500    7.902    0.321    0.464   60.086
  445.750    7.961    0.311    0.456   59.226
  446.000    7.945    0.316    0.447   56.891
  446.250    7.768    0.341    0.447   54.187
  446.500    7.412    0.354    0.437   53.941
  446.750    6.994    0.341    0.435   56.643
