~VERSION INFORMATION
 VERS.                 2.0:   CWLS LOG ASCII STANDARD -VERSION 2.0
 WRAP.                  NO:   ONE LINE PER DEPTH STEP
~WELL INFORMATION BLOCK
#MNEM.UNIT           DATA                    DESCRIPTION OF MNEMONIC
#---------    -------------------            -------------------------------
# Generated from Intellog Unique Number	CC_80_83/WELL/2377
NULL.         -999.25                        : NULL_VALUE
WELL.         ARCO ET AL PICKFORD            : Well_name    - WELL              
LOC .         10-27-080-06W4                 : Location     - LOCATION          
UWI .         00/10-27-080-06W400            : Uwi          - UNIQUE WELL ID    
ENTR.         RJA                            : Entered      - ENTERED BY        
SRVC.         SCHLUMBERGER                   : Scn          - SERVICE COMPANY   
DATE.         23 FEB 70                      : Date         - LOG DATE
STRT.M        103.632                        : top_depth    - START DEPTH       
STOP.M        312.115                        : bot_depth    - STOP DEPTH        
STEP.M        0.305                          : increment    - STEP LENGTH       
~CURVE INFORMATION BLOCK
#MNEM UNIT       ERCB CURVE CODE    CURVE DESCRIPTION
#-----------   ------------------   ----------------------------------
DEPT.M        00 001 00 00         : DEPTH        - DEPTH                       
NPHI.V/V      00 330 00 00         : PHIN         - NEUTRON POROSITY (LIMESTONE)
DPHI.V/V      00 890 00 00         : PHID         - DENSITY POROSITY (LIMESTONE)
GR  .API      00 310 00 00         : GR           - GAMMA RAY                   
ILD .OHMM     00 120 00 00         : RESD         - DEEP RESISTIVITY (DIL)      
~PARAMETER INFORMATION       
#MNEM.UNIT           DATA             DESCRIPTION OF MNEMONIC
#---------         -----------     ------------------------------
GL  .M        508.955              : gl           - GROUND LEVEL ELEVATION      
EREF.M        512.064              : kb           - ELEVATION OF DEPTH REFERENCE
DATM.M        512.064              : datum        - DATUM ELEVATION             
TDD .M        319.126              : tdd          - TOTAL DEPTH DRILLER         
RUN .         ONE                  : Run          - RUN NUMBER                  
ENG .         BILL                 : Engineer     - RECORDING ENGINEER          
WIT .         JIM                  : Witness      - WITNESSED BY                
MUD .         GEL                  : Mud_type     - MUD TYPE                    
MATR.         LIMESTONE            : Logunit      - NEUTRON MATRIX              
TMAX.C        22.2222              : BHT          - MAXIMUM RECORDED TEMPERATURE
BHTD.M        319.126              : BHTDEP       - MAXIMUM RECORDED TEMPERATURE
MATR.         1                    : LOGUNIT      - NEUTRON MATRIX              
RMT .C        25                   : MDTP         - TEMPERATURE OF MUD          
NEUT.         0                    : NEUTRON      - NEUTRON TYPE                
RESI.         0                    : RESIST       - RESISTIVITY TYPE            
RMC .OHMM     0.25                 : RMC          - RESISTIVITY OF MUD CAKE     
RMF .OHMM     0.25                 : RMF          - RESISTIVITY OF MUD FILTRATE 
SUFT.C        4                    : SUFT         - SURFACE TEMPERATURE         
~A  DEPTH     PHIN     PHID       GR     RESD
# ...
  156.667    0.351    0.326   63.414   23.782
  156.972    0.360    0.327   57.524   23.674
  157.276    0.350    0.328   56.208   23.709
  157.581    0.348    0.333   58.135   23.565
  157.886    0.343    0.330   56.637   23.197
  158.191    0.339    0.329   58.078   22.745
  158.496    0.336    0.327   54.940   22.177
  158.800    0.350    0.332   52.733   21.746
  159.105    0.346    0.326   56.492   22.113
  159.410    0.331    0.325   57.058   23.051
  159.715    0.336    0.328   56.174   23.801
  160.020    0.334    0.317   50.591   23.382
  160.324    0.350    0.311   50.526   23.460
  160.629    0.350    0.316   56.789   24.224
  160.934    0.376    0.313   60.855   23.663
  161.239    0.356    0.322   68.696   21.662
  161.544    0.357    0.317   61.667    6.574
  161.848    0.366    0.315   59.277    3.445
  162.153    0.380    0.312   71.695    3.564
  162.458    0.362    0.303   89.803    4.610
  162.763    0.379    0.254   89.616    6.314
  163.067    0.330    0.237   79.450    8.294
  163.372    0.316    0.249   69.155    9.332
  163.677    0.328    0.217   64.719   10.521
  163.982    0.349    0.179   69.473   11.329
  164.287    0.371    0.292   71.669   12.649
  164.591    0.365    0.315   67.715   14.370
  164.896    0.334    0.321   62.946   16.169
  165.201    0.332    0.324   66.392   16.379
  165.506    0.341    0.294   65.129   16.091
  165.811    0.322    0.258   60.861   16.741
  166.115    0.296    0.246   60.979   17.121
  166.420    0.307    0.274   60.043   13.174
  166.725    0.335    0.287   57.771    8.028
  167.030    0.342    0.290   64.359    4.920
  167.335    0.378    0.278   73.574    4.453
  167.639    0.397    0.265   80.714    4.308
  167.944    0.383    0.269   83.850    4.265
  168.249    0.392    0.268   87.788    4.255
  168.554    0.362    0.246   98.365    4.173
  168.859    0.401    0.202  109.721    4.006
  169.163    0.382    0.200  112.347    3.825
  169.468    0.375    0.214  112.730    3.694
  169.773    0.375    0.222  113.226    3.602
  170.078    0.386    0.211  106.762    3.566
  170.383    0.390    0.225  106.196    3.537
  170.687    0.385    0.231  104.996    3.610
  170.992    0.370    0.228  102.369    3.664
  171.297    0.385    0.229  102.543    3.754
  171.602    0.360    0.205   99.412    3.759
  171.907    0.375    0.187  100.965    3.808
  172.211    0.403    0.196  100.162    3.917
  172.516    0.406    0.217  105.479    4.091
  172.821    0.369    0.228  105.671    4.439
  173.126    0.374    0.219   93.441    4.789
  173.430    0.373    0.220   88.284    5.137
  173.735    0.374    0.206   94.991    5.135
  174.040    0.378    0.214   99.805    4.430
  174.345    0.389    0.208  102.754    4.002
  174.650    0.356    0.219  107.401    3.663
  174.954    0.378    0.221   98.612    3.431
  175.259    0.396    0.219   94.165    3.358
  175.564    0.411    0.219   94.288    3.298
  175.869    0.424    0.230   97.923    3.279
  176.174    0.417    0.230  102.366    3.302
  176.478    0.414    0.226   99.416    3.462
  176.783    0.417    0.243   90.718    3.888
  177.088    0.403    0.218   87.039    4.878
  177.393    0.380    0.207   91.510    5.406
  177.698    0.353    0.224   89.680    6.094
  178.002    0.363    0.233   88.481    6.304
  178.307    0.403    0.213   92.369    5.815
  178.612    0.423    0.229   90.296    5.626
  178.917    0.383    0.229   83.513    5.732
  179.222    0.387    0.223   79.697    6.208
  179.526    0.380    0.218   78.003    7.384
  179.831    0.380    0.240   78.361    8.967
  180.136    0.342    0.261   79.686    9.787
  180.441    0.342    0.269   81.693   10.991
  180.746    0.353    0.273   77.361   12.040
  181.050    0.351    0.268   74.725   12.670
  181.355    0.333    0.243   71.524   12.834
  181.660    0.315    0.224   69.872   12.904
  181.965    0.322    0.232   71.379   12.945
  182.270    0.328    0.267   70.685   13.015
  182.574    0.339    0.266   71.509   12.909
  182.879    0.320    0.282   68.799   12.633
  183.184    0.300    0.281   66.231   12.798
  183.489    0.318    0.261   65.725   13.239
  183.794    0.332    0.245   69.338   13.592
  184.098    0.325    0.261   70.864   14.086
  184.403    0.325    0.275   73.616   14.378
  184.708    0.327    0.266   70.980   13.885
  185.013    0.346    0.271   70.780   12.663
  185.317    0.362    0.269   69.215   11.591
  185.622    0.357    0.276   67.826   11.303
  185.927    0.334    0.264   70.838   11.232
  186.232    0.322    0.254   72.217   10.662
  186.537    0.335    0.273   72.827   10.297
  186.841    0.341    0.265   72.770   10.571
  187.146    0.331    0.275   71.203   10.914
  187.451    0.304    0.268   70.561   11.464
  187.756    0.338    0.279   70.118   11.701
  188.061    0.338    0.268   72.253   11.741
  188.365    0.322    0.260   75.383   11.735
  188.670    0.326    0.243   77.196   11.684
  188.975    0.338    0.252   76.631   11.591
  189.280    0.327    0.257   82.143   11.387
  189.585    0.320    0.255   84.704   11.293
  189.889    0.330    0.245   81.508   11.245
  190.194    0.342    0.246   74.545   11.198
  190.499    0.353    0.261   76.345   11.278
  190.804    0.324    0.268   76.987   11.251
  191.109    0.331    0.250   77.103   11.055
  191.413    0.319    0.256   75.218   11.006
  191.718    0.299    0.250   74.589   10.959
  192.023    0.319    0.249   74.276   10.890
  192.328    0.336    0.245   73.011   10.886
  192.633    0.340    0.241   76.211   10.922
  192.937    0.342    0.232   74.261   10.710
  193.242    0.344    0.233   69.245   10.360
  193.547    0.351    0.257   69.183   10.298
  193.852    0.328    0.259   67.361   10.194
  194.157    0.313    0.250   67.418   10.269
  194.461    0.315    0.239   70.598   10.031
  194.766    0.322    0.253   73.230    9.468
  195.071    0.338    0.254   69.099    7.999
  195.376    0.353    0.252   78.561    6.003
  195.680    0.344    0.249   79.437    4.445
  195.985    0.389    0.219   90.148    3.670
  196.290    0.377    0.232   98.113    3.804
  196.595    0.379    0.228   99.740    4.647
  196.900    0.375    0.246   92.951    5.797
  197.204    0.364    0.289   91.263    6.894
  197.509    0.351    0.262   91.009    7.424
  197.814    0.378    0.223   91.324    7.183
  198.119    0.354    0.209   93.259    6.304
  198.424    0.355    0.206   95.003    5.883
  198.728    0.361    0.212   92.878    5.948
  199.033    0.348    0.219   87.922    6.153
  199.338    0.342    0.224   93.919    6.045
  199.643    0.365    0.234   94.248    5.439
  199.948    0.376    0.231   97.126    4.066
  200.252    0.363    0.226   98.752    2.994
  200.557    0.378    0.227   94.736    2.549
  200.862    0.393    0.243   99.120    2.307
  201.167    0.433    0.224   96.799    2.223
  201.472    0.472    0.222   96.534    2.296
  201.776    0.427    0.242   94.535    2.389
  202.081    0.439    0.251   97.085    2.543
  202.386    0.440    0.233   95.966    2.905
  202.691    0.425    0.227   97.523    3.338
  202.996    0.381    0.224   93.386    4.101
  203.300    0.378    0.208   85.039    4.794
  203.605    0.377    0.220   85.603    5.488
  203.910    0.353    0.243   87.663    6.058
  204.215    0.350    0.238   87.857    6.573
  204.520    0.316    0.251   82.311    7.064
  204.824    0.326    0.253   82.583    7.521
  205.129    0.331    0.242   83.834    8.430
  205.434    0.329    0.240   77.498   10.026
  205.739    0.332    0.258   78.359   13.120
  206.043    0.331    0.266   77.673   15.018
  206.348    0.304    0.187   70.216   14.587
  206.653    0.185    0.131   67.330   11.637
  206.958    0.152    0.041   65.382    9.481
  207.263    0.214    0.169   72.276    8.211
  207.567    0.332    0.228   80.035    7.915
  207.872    0.352    0.248   79.032    7.895
  208.177    0.352    0.250   82.538    8.058
  208.482    0.335    0.220   87.180    8.385
  208.787    0.330    0.208   90.563    8.741
  209.091    0.310    0.220   91.039    9.341
  209.396    0.318    0.207   89.795   10.019
