~VERSION INFORMATION
 VERS.                 2.0:   CWLS LOG ASCII STANDARD -VERSION 2.0
 WRAP.                  NO:   ONE LINE PER DEPTH STEP
~WELL INFORMATION BLOCK
#MNEM.UNIT           DATA                    DESCRIPTION OF MNEMONIC
#---------    -------------------            -------------------------------
# Generated from Intellog Unique Number	CW_73_75/WELL/992
WELL.         CDN-SUP ET AL FRANCIS 10-26    : Well_name    - WELL
LOC .         00/10-26-074-20W4/0            : Location     - LOCATION
UWI .         00/10-26-074-20W4/0            : Uwi          - UNIQUE WELL ID
ENTR.         JAYE                           : Entered      - ENTERED BY
SRVC.         SCHLUMBERGER                   : Scn          - SERVICE COMPANY
DATE.         16 M1R 76                      : Date         - LOG DATE
STRT.M        362.712                        : top_depth    - START DEPTH
STOP.M        542.462                        : bot_depth    - STOP DEPTH
STEP.M        0.25                           : increment    - STEP LENGTH
 NULL. -999.2500:NULL Value
~CURVE INFORMATION BLOCK
#MNEM UNIT       ERCB CURVE CODE    CURVE DESCRIPTION
#-----------   ------------------   ----------------------------------
DEPT.M        00 001 00 00         : DEPTH        - DEPTH
GR  .API      00 310 00 00         : GR           - GAMMA RAY
CALI.MM       00 280 01 00         : CAL          - CALIPER
NPHI.V/V      00 330 00 00         : PHIN         - NEUTRON POROSITY (SANDSTONE)
DPHI.V/V      00 890 00 00         : PHID         - DENSITY POROSITY (SANDSTONE)
ILD .OHMM     00 120 00 00         : RESD         - DEEP RESISTIVITY (DLL)
~PARAMETER INFORMATION
#MNEM.UNIT           DATA             DESCRIPTION OF MNEMONIC
#---------         -----------     ------------------------------
GL  .M        683.057              : gl           - GROUND LEVEL ELEVATION
EREF.M        686.714              : kb           - ELEVATION OF DEPTH REFERENCE
DATM.M        683.057              : datum        - DATUM ELEVATION
TDD .M        619.354              : tdd          - TOTAL DEPTH DRILLER
RUN .         ONE                  : Run          - RUN NUMBER
ENG .         WILTSHIRE            : Engineer     - RECORDING ENGINEER
WIT .         BRAND                : Witness      - WITNESSED BY
BASE.         EDMONTON             : Branch       - HOME BASE OF LOGGING UNIT
MUD .         GEL CHEM             : Mud_type     - MUD TYPE
MATR.         SANDSTONE            : Logunit      - NEUTRON MATRIX
TMAX.C        28.3333              : BHT          - MAXIMUM RECORDED TEMPERATURE
BHTD.M        619.963              : BHTDEP       - MAXIMUM RECORDED TEMPERATURE
RMT .C        11.6667              : MDTP         - TEMPERATURE OF MUD
MUDD.KG/M     1080                 : MWT          - MUD DENSITY
NEUT.         1                    : NEUTRON      - NEUTRON TYPE
RESI.         1                    : RESIST       - RESISTIVITY TYPE
RM  .OHMM     1.4                  : RM           - RESISTIVITY OF MUD
RMC .OHMM     3.95                 : RMC          - RESISTIVITY OF MUD CAKE
RMF .OHMM     2.45                 : RMF          - RESISTIVITY OF MUD FILTRATE
SUFT.C        -17.7778             : SUFT         - SURFACE TEMPERATURE
~A  DEPTH       GR      CAL     PHIN     PHID     RESD
  362.712  102.730  217.805    0.538    0.247    3.002
  362.962  106.300  216.303    0.520    0.230    2.995
  363.212  106.217  218.680    0.504    0.238    3.039
  363.462  100.004  229.653    0.518    0.213    3.049
  363.712   95.279  241.466    0.530    0.231    3.105
  363.962   90.490  233.358    0.534    0.208    3.186
  364.212   92.450  239.405    0.510    0.207    3.244
  364.462   92.616  249.017    0.495    0.237    3.347
  364.712   90.613  239.335    0.497    0.253    3.644
  364.962   89.848  230.910    0.502    0.250    4.042
  365.212   86.175  218.608    0.505    0.261    4.679
  365.462   78.353  217.209    0.495    0.280    5.694
  365.712   71.643  204.276    0.452    0.312    6.177
  365.962   71.809  203.193    0.395    0.264    6.302
  366.212   75.813  209.135    0.422    0.242    6.230
  366.462   76.411  214.655    0.444    0.279    5.956
  366.712   75.153  207.073    0.434    0.263    5.600
  366.962   73.212  209.450    0.408    0.265    4.952
  367.212   74.491  218.954    0.416    0.281    4.453
  367.462   81.098  231.819    0.439    0.298    4.057
  367.712   87.888  246.043    0.455    0.341    4.011
  367.962   95.546  257.439    0.473    0.376    4.326
  368.212   93.047  325.245    0.492    0.407    5.064
  368.462   87.207  280.436    0.506    0.458    6.061
  368.712   79.879  246.638    0.478    0.442    7.228
  368.962   71.313  203.819    0.377    0.330    8.198
  369.212   73.333  203.891    0.359    0.272    8.044
  369.462   73.995  202.072    0.379    0.133    7.762
  369.712   75.770  200.461    0.354    0.078    7.449
  369.962   81.818  200.221    0.332    0.111    6.964
  370.212   90.592  200.709    0.354    0.243    6.392
  370.462   94.719  203.086    0.376    0.249    5.977
  370.712   95.441  209.972    0.416    0.261    5.578
  370.962   92.325  217.697    0.444    0.290    5.138
  371.212   91.125  227.728    0.460    0.381    4.858
  371.462   91.726  230.939    0.479    0.388    4.902
  371.712   93.749  233.843    0.474    0.304    5.066
  371.962   94.038  255.409    0.484    0.321    5.672
  372.212   94.387  252.124    0.490    0.365    6.164
  372.462   92.694  227.238    0.477    0.335    6.551
  372.712   89.827  222.272    0.427    0.265    6.708
  372.962   88.938  218.148    0.388    0.251    6.706
  373.212   89.722  216.749    0.376    0.259    6.617
  373.462   90.320  218.602    0.390    0.251    6.303
  373.712   89.804  221.924    0.447    0.250    5.753
  373.962   90.156  228.074    0.465    0.229    5.319
  374.212   92.301  235.694    0.479    0.221    5.248
  374.462   91.911  236.077    0.493    0.281    5.588
  374.712   90.218  236.359    0.480    0.247    5.984
  374.962   88.152  239.677    0.492    0.247    6.503
  375.212   88.195  242.893    0.473    0.261    7.173
  375.462   89.475  239.609    0.438    0.269    7.609
  375.712   88.401  219.965    0.405    0.259    7.706
  375.962   90.732  218.248    0.384    0.251    7.731
  376.212   94.923  218.948    0.379    0.242    7.859
  376.462   96.885  221.433    0.398    0.226    8.123
  376.712   95.811  226.639    0.415    0.210    8.811
  376.962   93.684  235.519    0.424    0.244   10.049
  377.212   88.215  224.788    0.399    0.256   12.530
  377.462   83.860  213.533    0.367    0.263   15.768
  377.712   78.698  207.414    0.327    0.277   19.262
  377.962   71.619  206.018    0.289    0.321   21.325
  378.212   62.434  205.034    0.238    0.370   22.247
  378.462   54.858  204.582    0.222    0.385   22.075
  378.712   55.209  204.024    0.243    0.359   20.948
  378.962   57.603  203.991    0.252    0.332   19.515
  379.212   55.106  204.477    0.250    0.345   18.111
  379.462   54.341  204.965    0.251    0.349   16.530
  379.712   56.303  205.353    0.265    0.343   14.059
  379.962   59.317  205.842    0.292    0.344   11.958
  380.212   65.673  206.856    0.314    0.319   10.114
  380.462   72.465  208.603    0.332    0.299    8.747
  380.712   81.114  210.139    0.352    0.280    7.565
  380.962   84.806  211.153    0.381    0.259    7.021
  381.212   82.249  213.426    0.401    0.240    6.876
  381.462   87.058  216.430    0.398    0.223    6.861
  381.712   90.381  220.905    0.399    0.190    6.858
  381.962   90.235  228.630    0.409    0.225    6.894
  382.212   91.392  226.389    0.412    0.209    6.690
  382.462   90.380  225.307    0.428    0.233    6.106
  382.712   94.447  226.322    0.418    0.243    5.440
  382.962   99.752  228.804    0.411    0.215    4.409
  383.212  103.507  234.850    0.410    0.233    3.553
  383.462  106.705  238.065    0.420    0.221    2.945
  383.712  110.092  247.783    0.455    0.218    2.784
  383.962  113.724  254.247    0.512    0.230    2.696
  384.212  112.217  256.940    0.554    0.238    2.641
  384.462  113.682  257.429    0.557    0.244    2.621
  384.712  115.273  258.127    0.545    0.229    2.649
  384.962  114.817  258.511    0.530    0.212    2.728
  385.212  113.373  257.323    0.524    0.184    2.835
  385.462  115.396  244.704    0.544    0.195    3.036
  385.712  119.834  247.919    0.535    0.207    3.367
  385.962  121.670  248.305    0.545    0.254    3.912
  386.212  120.225  244.493    0.507    0.263    4.824
  386.462  116.738  242.468    0.472    0.271    5.491
  386.712  112.319  240.963    0.448    0.252    5.729
  386.962  112.050  246.275    0.422    0.226    5.759
  387.212  111.660  251.275    0.420    0.266    5.661
  387.462  107.553  251.134    0.451    0.254    5.680
  387.712  103.135  257.077    0.458    0.247    5.948
  387.962  101.132  265.537    0.467    0.274    6.310
  388.212   99.688  274.622    0.477    0.293    6.731
  388.462   95.765  261.376    0.495    0.314    7.140
  388.712   89.491  234.392    0.478    0.273    7.574
  388.962   81.110  219.363    0.400    0.266    7.946
  389.212   78.427  215.133    0.390    0.264    8.213
  389.462   81.687  214.050    0.398    0.255    8.380
  389.712   84.267  213.386    0.399    0.252    8.376
  389.962   85.362  211.674    0.394    0.272    8.068
  390.212   79.520  208.910    0.387    0.287    7.671
  390.462   79.438  209.610    0.379    0.294    7.226
  390.712   77.187  211.778    0.395    0.303    6.819
  390.962   74.628  215.726    0.398    0.276    6.424
  391.212   75.225  221.564    0.403    0.262    6.141
  391.462   77.002  235.789    0.391    0.293    6.150
  391.712   80.510  243.828    0.410    0.312    6.275
  391.962   86.372  252.707    0.458    0.358    6.522
  392.212   90.935  261.689    0.480    0.307    6.766
  392.462   88.558  230.719    0.475    0.303    6.689
  392.712   88.354  213.175    0.447    0.299    6.360
  392.962   91.367  209.573    0.430    0.306    6.058
  393.212   97.911  212.684    0.426    0.303    6.000
  393.462  104.887  227.016    0.425    0.281    6.087
  393.712  107.281  229.916    0.444    0.259    6.445
  393.962  102.122  227.049    0.463    0.283    7.189
  394.212   82.904  229.846    0.454    0.317    8.431
  394.462   75.824  216.809    0.421    0.373   10.280
  394.712   72.769  207.335    0.386    0.333   12.465
  394.962   78.136  208.033    0.367    0.344   15.398
  395.212   82.696  208.839    0.356    0.355   21.985
  395.462   82.986  210.269    0.346    0.366   27.411
  395.712   84.390  211.703    0.336    0.379   29.131
  395.962   84.676  211.772    0.330    0.390   28.852
  396.212   83.048  210.480    0.325    0.395   28.364
  396.462   77.825  210.132    0.323    0.399   27.118
  396.712   78.363  210.200    0.335    0.391   25.402
  396.962   83.975  210.686    0.358    0.375   23.444
  397.212   87.052  211.179    0.374    0.363   21.759
  397.462   87.156  211.460    0.391    0.357   19.457
  397.712   83.914  211.841    0.409    0.344   17.432
  397.962   82.777  212.123    0.432    0.328   15.531
  398.212   83.934  212.507    0.460    0.319   13.160
  398.462   84.967  213.101    0.483    0.304   11.595
  398.712   84.076  214.530    0.473    0.300    9.991
  398.962   84.554  215.861    0.471    0.296    7.993
