~VERSION INFORMATION
 VERS.                 2.0:   CWLS LOG ASCII STANDARD -VERSION 2.0
 WRAP.                  NO:   ONE LINE PER DEPTH STEP
~WELL INFORMATION BLOCK
#MNEM.UNIT           DATA                    DESCRIPTION OF MNEMONIC
#---------    -------------------            -------------------------------
# Generated from Intellog Unique Number	CW_73_75/WELL/1052
WELL.         MANNVILLE ER AL FRANCIS 15-08  : Well_name    - WELL
LOC .         00/15-08-074-22W4/0            : Location     - LOCATION
UWI .         00/15-08-074-22W4/0            : Uwi          - UNIQUE WELL ID
ENTR.         JAYE                           : Entered      - ENTERED BY
SRVC.         SCHLUMBERGER                   : Scn          - SERVICE COMPANY
DATE.         4 DEC 81                       : Date         - LOG DATE
STRT.M        365                            : top_depth    - START DEPTH
STOP.M        587                            : bot_depth    - STOP DEPTH
STEP.M        0.25                           : increment    - STEP LENGTH
 NULL. -999.2500:NULL Value
~CURVE INFORMATION BLOCK
#MNEM UNIT       ERCB CURVE CODE    CURVE DESCRIPTION
#-----------   ------------------   ----------------------------------
DEPT.M        00 001 00 00         : DEPTH        - DEPTH
CALI.MM       00 280 01 00         : CAL          - CALIPER
GR  .API      00 310 00 00         : GR           - GAMMA RAY
NPHI.V/V      00 330 00 00         : PHIN         - NEUTRON POROSITY (SANDSTONE)
DPHI.V/V      00 890 00 00         : PHID         - DENSITY POROSITY (SANDSTONE)
ILD .OHMM     00 120 00 00         : RESD         - DEEP RESISTIVITY (DIL)
~PARAMETER INFORMATION
#MNEM.UNIT           DATA             DESCRIPTION OF MNEMONIC
#---------         -----------     ------------------------------
GL  .M        655.1                : gl           - GROUND LEVEL ELEVATION
EREF.M        658                  : kb           - ELEVATION OF DEPTH REFERENCE
DATM.M        655.1                : datum        - DATUM ELEVATION
TDD .M        588                  : tdd          - TOTAL DEPTH DRILLER
RUN .         ONE                  : Run          - RUN NUMBER
ENG .         WRIGHT               : Engineer     - RECORDING ENGINEER
WIT .         SAMOTA               : Witness      - WITNESSED BY
BASE.         WAUN                 : Branch       - HOME BASE OF LOGGING UNIT
MUD .         GEL CHEM             : Mud_type     - MUD TYPE
MATR.         SANDSTONE            : Logunit      - NEUTRON MATRIX
TMAX.C        25.5                 : BHT          - MAXIMUM RECORDED TEMPERATURE
BHTD.M        588.5                : BHTDEP       - MAXIMUM RECORDED TEMPERATURE
RMT .C        15.5                 : MDTP         - TEMPERATURE OF MUD
MUDD.KG/M     1100                 : MWT          - MUD DENSITY
NEUT.         1                    : NEUTRON      - NEUTRON TYPE
RESI.         0                    : RESIST       - RESISTIVITY TYPE
RM  .OHMM     4.098                : RM           - RESISTIVITY OF MUD
RMC .OHMM     0                    : RMC          - RESISTIVITY OF MUD CAKE
RMF .OHMM     3.54                 : RMF          - RESISTIVITY OF MUD FILTRATE
SUFT.C        0                    : SUFT         - SURFACE TEMPERATURE
~A  DEPTH      CAL       GR     PHIN     PHID     RESD
# ...
  438.000  149.850   66.811    0.449    0.296    5.971
  438.250  149.819   59.984    0.456    0.286    5.960
  438.500  149.263   52.909    0.434    0.295    5.905
  438.750  148.714   49.114    0.418    0.301    5.850
  439.000  148.364   48.720    0.414    0.297    5.774
  439.250  148.325   46.903    0.414    0.299    5.677
  439.500  148.493   47.312    0.419    0.307    5.646
  439.750  148.561   48.406    0.424    0.311    5.656
  440.000  148.113   51.971    0.422    0.306    5.678
  440.250  148.487   52.134    0.428    0.299    5.742
  440.500  148.443   51.492    0.439    0.295    5.807
  440.750  148.196   51.718    0.446    0.299    5.861
  441.000  148.155   52.128    0.433    0.309    5.851
  441.250  148.227   54.394    0.422    0.309    5.829
  441.500  148.190   56.166    0.420    0.304    5.851
  441.750  148.569   56.021    0.428    0.302    5.851
  442.000  148.844   55.504    0.416    0.308    5.873
  442.250  149.321   57.523    0.417    0.310    5.851
  442.500  149.390   61.829    0.419    0.299    5.786
  442.750  149.660   61.127    0.422    0.306    5.668
  443.000  149.831   59.248    0.440    0.313    5.584
  443.250  150.096   56.876    0.444    0.312    5.501
  443.500  150.581   54.750    0.424    0.312    5.379
  443.750  151.574   55.222    0.429    0.298    5.289
  444.000  152.252   55.077    0.444    0.297    5.162
  444.250  151.602   52.580    0.449    0.301    5.028
  444.500  150.018   49.833    0.424    0.297    4.917
  444.750  149.255   48.638    0.409    0.287    4.917
  445.000  149.015   50.098    0.421    0.296    5.133
  445.250  148.767   50.634    0.430    0.305    5.481
  445.500  148.835   51.045    0.442    0.305    5.787
  445.750  149.006   52.197    0.424    0.210    6.030
  446.000  149.681   53.289    0.348    0.184    6.053
  446.250  149.960   53.081    0.389    0.244    5.776
  446.500  151.050   50.028    0.444    0.317    5.380
  446.750  151.640   47.593    0.441    0.328    5.029
  447.000  152.320   50.044    0.409    0.326    4.890
  447.250  152.904   48.785    0.418    0.316    4.890
  447.500  153.281   48.144    0.430    0.311    4.927
  447.750  153.653   51.151    0.438    0.310    4.964
  448.000  154.029   54.842    0.441    0.312    4.964
  448.250  153.993   55.995    0.426    0.313    4.955
  448.500  154.264   53.187    0.410    0.311    4.945
  448.750  154.331   53.782    0.416    0.307    4.945
  449.000  154.497   55.495    0.429    0.307    4.955
  449.250  154.769   54.418    0.440    0.309    4.955
  449.500  155.146   54.830    0.432    0.308    4.964
  449.750  155.210   56.227    0.404    0.308    4.955
  450.000  154.967   57.816    0.410    0.306    4.946
  450.250  154.829   59.650    0.426    0.304    4.946
  450.500  154.683   59.009    0.445    0.302    4.937
  450.750  154.541   58.430    0.443    0.299    4.928
  451.000  154.407   59.826    0.428    0.296    4.928
  451.250  154.265   62.096    0.431    0.291    4.928
  451.500  154.432   65.043    0.433    0.281    4.956
  451.750  154.703   66.319    0.423    0.276    5.087
  452.000  154.974   66.666    0.424    0.275    5.272
  452.250  155.248   66.337    0.438    0.277    5.746
  452.500  155.725   64.459    0.453    0.267    6.405
  452.750  156.408   61.095    0.306    0.205    7.248
  453.000  157.201   59.712    0.228    0.073    9.368
  453.250  158.401   62.782    0.208    0.036   11.403
  453.500  159.805   60.843    0.223    0.045   12.359
  453.750  160.385   61.810    0.262    0.054   10.902
  454.000  158.593   67.540    0.274    0.090    8.823
  454.250  154.435   80.508    0.310    0.205    7.248
  454.500  150.792   89.949    0.446    0.268    6.228
  454.750  147.865   92.154    0.464    0.268    5.661
  455.000  146.593   87.430    0.464    0.276    5.302
  455.250  146.650   84.006    0.459    0.293    5.136
  455.500  146.723   88.125    0.455    0.309    5.031
  455.750  146.995   91.012    0.458    0.304    4.865
  456.000  147.575   90.432    0.440    0.297    4.695
  456.250  148.257   89.978    0.437    0.284    4.489
  456.500  149.663   90.635    0.424    0.229    4.283
  456.750  154.164   92.776    0.424    0.202    4.057
  457.000  161.344   96.094    0.459    0.192    3.771
  457.250  162.851   99.351    0.448    0.188    3.526
  457.500  162.611  102.732    0.441    0.182    3.327
  457.750  161.744  104.379    0.437    0.189    3.122
  458.000  161.294  100.954    0.475    0.207    3.052
  458.250  161.261   96.416    0.498    0.233    3.098
  458.500  160.811   92.312    0.512    0.230    3.217
  458.750  160.669   91.609    0.473    0.213    3.409
  459.000  160.321   93.690    0.457    0.209    3.599
  459.250  159.770   93.730    0.477    0.214    3.836
  459.500  159.213   89.563    0.481    0.223    4.065
  459.750  157.635   86.633    0.473    0.252    4.300
  460.000  155.327   82.651    0.455    0.274    4.373
  460.250  153.844   78.299    0.425    0.312    4.341
  460.500  152.983   73.205    0.440    0.344    4.221
  460.750  152.330   64.955    0.489    0.382    4.112
  461.000  151.568   66.912    0.510    0.361    3.960
  461.250  150.913   69.859    0.463    0.339    3.858
  461.500  150.561   69.156    0.434    0.328    3.808
  461.750  150.426   68.019    0.429    0.328    3.794
  462.000  150.384   67.812    0.420    0.330    3.829
  462.250  150.555   67.543    0.410    0.326    3.902
  462.500  150.514   66.220    0.416    0.333    3.953
  462.750  150.587   65.888    0.427    0.346    4.013
  463.000  150.852   67.104    0.429    0.341    4.036
  463.250  150.926   68.875    0.435    0.336    4.089
  463.500  150.989   67.863    0.447    0.333    4.104
  463.750  150.948   66.725    0.452    0.337    4.120
  464.000  150.917   65.219    0.454    0.335    4.135
  464.250  150.776   64.951    0.440    0.333    4.136
  464.500  150.840   67.587    0.430    0.332    4.143
  464.750  151.011   67.750    0.432    0.331    4.128
  465.000  151.178   68.162    0.439    0.330    4.128
  465.250  151.244   67.273    0.440    0.330    4.151
  465.500  151.104   69.045    0.445    0.335    4.175
  465.750  150.859   73.538    0.449    0.344    4.190
  466.000  150.512   70.793    0.440    0.342    4.191
  466.250  150.064   67.368    0.437    0.345    4.206
  466.500  149.712   63.263    0.437    0.349    4.286
  466.750  149.989   60.582    0.449    0.324    4.458
  467.000  151.495   57.715    0.444    0.264    4.877
  467.250  153.215   52.742    0.369    0.116    5.805
  467.500  155.755   51.298    0.159   -0.005    7.227
  467.750  157.057   50.037    0.132    0.008   11.180
  468.000  157.737   46.737    0.141    0.022   13.919
  468.250  157.807   45.169    0.137    0.022   18.433
  468.500  157.461   47.868    0.127   -0.005   21.492
  468.750  156.699   48.403    0.131   -0.006   22.188
  469.000  155.730   48.256    0.124    0.006   21.173
  469.250  154.667   49.285    0.117    0.019   19.426
  469.500  153.082   51.366    0.141    0.054   17.008
  469.750  152.530   55.611    0.185    0.128    9.900
  470.000  152.904   58.434    0.300    0.250    7.631
  470.250  154.617   58.660    0.387    0.295    6.448
  470.500  156.438   59.316    0.390    0.237    6.533
  470.750  157.947   61.336    0.313    0.176    6.694
  471.000  158.839   59.459    0.253    0.124    6.719
  471.250  156.637   59.312    0.229    0.124    6.558
  471.500  152.889   65.846    0.342    0.215    6.258
  471.750  147.798   75.101    0.394    0.295    5.583
  472.000  146.009   75.140    0.444    0.323    4.999
  472.250  146.893   75.057    0.450    0.326    4.518
  472.500  147.994   74.787    0.450    0.324    4.312
  472.750  147.856   74.270    0.450    0.314    4.169
  473.000  147.814   73.876    0.459    0.317    4.091
  473.250  148.189   73.174    0.491    0.332    4.092
  473.500  148.563   67.894    0.517    0.331    4.107
  473.750  148.939   67.994    0.483    0.316    4.153
  474.000  149.418   72.240    0.464    0.318    4.193
  474.250  150.001   76.114    0.460    0.321    4.208
