~VERSION INFORMATION
 VERS.                 2.0:   CWLS LOG ASCII STANDARD -VERSION 2.0
 WRAP.                  NO:   ONE LINE PER DEPTH STEP
~WELL INFORMATION BLOCK
#MNEM.UNIT           DATA                    DESCRIPTION OF MNEMONIC
#---------    -------------------            -------------------------------
# Generated from Intellog Unique Number	CW_82_90/WELL/1037
WELL.         CHEVRON FINA MUSKWA 16-29      : Well_name    - WELL
LOC .         00/16-29-083-02W5/0            : Location     - LOCATION
UWI .         00/16-29-083-02W5/0            : Uwi          - UNIQUE WELL ID
ENTR.         JJ                             : Entered      - ENTERED BY
SRVC.         SCHLUMBERGER                   : Scn          - SERVICE COMPANY
DATE.         9 JAN 74                       : Date         - LOG DATE
STRT.M        286.512                        : top_depth    - START DEPTH
STOP.M        487.762                        : bot_depth    - STOP DEPTH
STEP.M        0.25                           : increment    - STEP LENGTH
 NULL. -999.2500:NULL Value
~CURVE INFORMATION BLOCK
#MNEM UNIT       ERCB CURVE CODE    CURVE DESCRIPTION
#-----------   ------------------   ----------------------------------
DEPT.M        00 001 00 00         : DEPTH        - DEPTH
CALI.MM       00 280 01 00         : CAL          - CALIPER
GR  .API      00 310 00 00         : GR           - GAMMA RAY
DPHI.V/V      00 890 00 00         : PHID         - DENSITY POROSITY (SANDSTONE)
NPHI.V/V      00 330 00 00         : PHIN         - NEUTRON POROSITY (SANDSTONE)
ILD .OHMM     00 120 00 00         : RESD         - DEEP RESISTIVITY (DIL)
~PARAMETER INFORMATION
#MNEM.UNIT           DATA             DESCRIPTION OF MNEMONIC
#---------         -----------     ------------------------------
GL  .M        623.316              : gl           - GROUND LEVEL ELEVATION
EREF.M        627.278              : kb           - ELEVATION OF DEPTH REFERENCE
DATM.M        623.316              : datum        - DATUM ELEVATION
TDD .M        492.252              : tdd          - TOTAL DEPTH DRILLER
RUN .         ONE                  : Run          - RUN NUMBER
ENG .         WOON                 : Engineer     - RECORDING ENGINEER
WIT .         GOLL                 : Witness      - WITNESSED BY
BASE.         EDMONTON             : Branch       - HOME BASE OF LOGGING UNIT
MUD .         GEL CHEM             : Mud_type     - MUD TYPE
MATR.         SANDSTONE            : Logunit      - NEUTRON MATRIX
TMAX.C        30                   : BHT          - MAXIMUM RECORDED TEMPERATURE
BHTD.M        492.252              : BHTDEP       - MAXIMUM RECORDED TEMPERATURE
RMT .C        4.44444              : MDTP         - TEMPERATURE OF MUD
MUDD.KG/M     8600                 : MWT          - MUD DENSITY
NEUT.         1                    : NEUTRON      - NEUTRON TYPE
RESI.         0                    : RESIST       - RESISTIVITY TYPE
RM  .OHMM     9.6                  : RM           - RESISTIVITY OF MUD
RMC .OHMM     5                    : RMC          - RESISTIVITY OF MUD CAKE
RMF .OHMM     7.1                  : RMF          - RESISTIVITY OF MUD FILTRATE
SUFT.C        -17.7778             : SUFT         - SURFACE TEMPERATURE
~A  DEPTH      CAL       GR     PHID     PHIN     RESD
# ...
  469.012  204.196   90.809    0.064    0.336    8.746
  469.262  205.153   92.132    0.105    0.350    7.034
  469.512  204.185   96.171    0.158    0.412    6.497
  469.762  204.180   99.137    0.155    0.476    6.116
  470.012  204.602  102.228    0.160    0.472    6.129
  470.262  203.955  101.846    0.161    0.455    6.107
  470.512  202.986   99.127    0.141    0.434    5.983
  470.762  202.875   97.671    0.140    0.414    5.872
  471.012  204.901   97.542    0.111    0.387    5.741
  471.262  206.285   96.781    0.065    0.374    5.602
  471.512  206.816   97.346    0.022    0.395    5.425
  471.762  207.773   99.932    0.029    0.418    4.964
  472.012  207.660  106.434    0.051    0.430    4.611
  472.262  205.516  107.947    0.088    0.437    4.373
  472.512  206.794  108.512    0.074    0.445    4.375
  472.762  207.322  112.550    0.076    0.457    4.425
  473.012  206.034  115.768    0.116    0.461    4.857
  473.262  202.927  111.850    0.114    0.460    5.644
  473.512  204.846  104.457    0.104    0.465    6.206
  473.762  206.125  105.653    0.102    0.444    6.375
  474.012  206.760  110.261    0.108    0.393    6.292
  474.262  207.504  113.163    0.108    0.397    6.002
  474.512  206.535  112.402    0.130    0.405    5.460
  474.762  203.428  109.809    0.111    0.418    5.209
  475.012  200.964  106.332    0.097    0.430    5.230
  475.262  200.316  101.465    0.090    0.456    5.291
  475.512  203.413   96.031    0.139    0.478    5.538
  475.762  206.294   84.217    0.201    0.406    6.010
  476.012  202.760   69.183    0.225    0.390    6.891
  476.262  197.087   53.958    0.233    0.387    8.082
  476.512  197.937   54.902    0.248    0.406   12.647
  476.762  198.680   55.657    0.272    0.430   17.495
  477.012  198.674   56.917    0.276    0.450   19.459
  477.262  197.921   58.808    0.253    0.463   20.177
  477.512  196.738   60.005    0.235    0.430   19.030
  477.762  196.733   62.844    0.232    0.395   17.576
  478.012  198.545   70.609    0.175    0.382   13.405
  478.262  201.321   76.227    0.146    0.388   10.638
  478.512  205.166   88.666    0.134    0.456    7.767
  478.762  210.079   95.989    0.145    0.486    6.868
  479.012  211.144   92.954    0.171    0.497    5.903
  479.262  208.785   88.341    0.171    0.495    6.202
  479.512  204.609   81.516    0.182    0.493    6.821
  479.762  202.357   66.671    0.224    0.422    7.970
  480.012  202.139   67.868    0.215    0.398   10.239
  480.262  202.346   74.054    0.205    0.409   12.286
  480.512  202.020   77.525    0.203    0.410   13.358
  480.762  202.014   79.605    0.204    0.433   12.670
  481.012  202.116   81.434    0.218    0.438   11.881
  481.262  201.790   84.525    0.206    0.427   10.809
  481.512  200.929   88.312    0.203    0.452   10.117
  481.762  200.496   90.582    0.190    0.517    9.506
  482.012  200.062   91.463    0.197    0.541    8.830
  482.262  199.737   90.323    0.207    0.516    8.312
  482.512  199.410   83.373    0.220    0.530    7.736
  482.762  199.298   81.854    0.229    0.551    7.186
  483.012  201.645   86.018    0.269    0.565    6.318
  483.262  204.527   89.174    0.265    0.553    5.650
  483.512  206.982   94.539    0.218    0.536    5.249
  483.762  205.158   96.620    0.109    0.513    4.922
  484.012  209.216   91.058    0.053    0.543    4.686
  484.262  211.992   86.950    0.075    0.554    4.617
  484.512  206.104   75.073    0.126    0.544    4.635
  484.762  202.141   76.396    0.184    0.530    4.752
  485.012  201.387   80.308    0.205    0.455    4.946
  485.262  202.131   83.463    0.187    0.395    5.168
  485.512  203.087   85.987    0.165    0.398    5.503
  485.762  205.115   85.415    0.149    0.428    5.749
  486.012  206.498   84.843    0.144    0.446    6.227
  486.262  206.280   84.082    0.172    0.449    6.887
  486.512  206.596   82.121    0.203    0.448    7.348
  486.762  205.306   81.675    0.199    0.442    7.575
  487.012  204.232   82.746    0.216    0.427    7.693
  487.262  204.226   84.196    0.184    0.370    7.753
  487.512  205.932   85.140    0.148    0.356    7.740
  487.762  209.456   85.705    0.131    0.354    7.596
