~VERSION INFORMATION
 VERS.                 2.0:   CWLS LOG ASCII STANDARD -VERSION 2.0
 WRAP.                  NO:   ONE LINE PER DEPTH STEP
~WELL INFORMATION BLOCK
#MNEM.UNIT           DATA                    DESCRIPTION OF MNEMONIC
#---------    -------------------            -------------------------------
# Generated from Intellog Unique Number	CS_73_76/WELL/4783
WELL.         LANDBANK MINERALS LTD.         : Well_name    - WELL
LOC .         00/11-09-076-02W4/0            : Location     - LOCATION
UWI .         00/11-09-076-02W4/0            : Uwi          - UNIQUE WELL ID
ENTR.         JO                             : Entered      - ENTERED BY
SRVC.         SCHLUMBERGER                   : Scn          - SERVICE COMPANY
DATE.         05/25/92                       : Date         - LOG DATE
STRT.M        285                            : top_depth    - START DEPTH
STOP.M        560                            : bot_depth    - STOP DEPTH
STEP.M        0.25                           : increment    - STEP LENGTH
 NULL. -999.2500:NULL Value
~CURVE INFORMATION BLOCK
#MNEM UNIT       ERCB CURVE CODE    CURVE DESCRIPTION
#-----------   ------------------   ----------------------------------
DEPT.M        00 001 00 00         : DEPTH        - DEPTH
GR  .API      00 310 00 00         : GR           - GAMMA RAY
DELT.US/F     00 520 00 00         : DELT         - SONIC TRAVEL TIME
ILD .OHMM     00 120 00 00         : RESD         - DEEP RESISTIVITY (DIL)
~PARAMETER INFORMATION
#MNEM.UNIT           DATA             DESCRIPTION OF MNEMONIC
#---------         -----------     ------------------------------
GL  .M        654.8                : gl           - GROUND LEVEL ELEVATION
EREF.M        658.5                : kb           - ELEVATION OF DEPTH REFERENCE
DATM.M        658.5                : datum        - DATUM ELEVATION
TDD .M        568                  : tdd          - TOTAL DEPTH DRILLER
RUN .         ONE                  : Run          - RUN NUMBER
ENG .         BILL                 : Engineer     - RECORDING ENGINEER
WIT .         JIM                  : Witness      - WITNESSED BY
MUD .         GEL                  : Mud_type     - MUD TYPE
MATR.         SANDSTONE            : Logunit      - NEUTRON MATRIX
TMAX.C        20                   : BHT          - MAXIMUM RECORDED TEMPERATURE
BHTD.M        568                  : BHTDEP       - MAXIMUM RECORDED TEMPERATURE
MATR.         1                    : LOGUNIT      - NEUTRON MATRIX
RMT .C        12                   : MDTP         - TEMPERATURE OF MUD
NEUT.         1                    : NEUTRON      - NEUTRON TYPE
RESI.         0                    : RESIST       - RESISTIVITY TYPE
RMC .OHMM     3.95                 : RMC          - RESISTIVITY OF MUD CAKE
RMF .OHMM     3.95                 : RMF          - RESISTIVITY OF MUD FILTRATE
SUFT.C        5                    : SUFT         - SURFACE TEMPERATURE
~A  DEPTH       GR     DELT     RESD
  285.000  110.839  481.344    3.404
  285.250  107.620  472.475    3.665
  285.500   79.063  444.937    4.341
  285.750   44.174  388.197   10.532
  286.000   35.245  357.428   14.233
  286.250   32.659  453.226   16.846
  286.500   40.837  500.340   17.468
  286.750   44.596  441.978   16.795
  287.000   48.976  459.878   15.253
  287.250   52.089  418.550   13.603
  287.500   47.577  365.880    8.153
  287.750   46.245  387.849    4.705
  288.000   46.852  405.735    4.038
  288.250   48.698  425.271    4.187
  288.500   53.078  444.820    5.876
  288.750   59.369  448.903    6.328
  289.000   92.253  431.924    6.689
  289.250   82.690  407.644    7.481
  289.500   73.140  399.600    9.023
  289.750   67.376  406.130   12.190
  290.000   69.222  427.275   15.560
  290.250   74.248  438.712   16.129
  290.500   78.627  441.200   15.508
  290.750   82.373  442.052   14.910
  291.000   84.220  440.484   13.805
  291.250   86.699  435.672   12.781
  291.500   92.345  364.318   11.833
  291.750   99.257  320.557   10.960
  292.000  104.269  426.101    9.584
  292.250  104.849  438.323    8.375
  292.500  108.582  437.566    8.059
  292.750  109.162  429.509    8.050
  293.000  107.197  420.641    9.002
  293.250  105.904  413.409   13.106
  293.500  101.406  415.072   13.601
  293.750   94.389  419.182   14.652
  294.000   91.171  420.859   16.380
  294.250   92.371  421.738   17.639
  294.500   88.532  421.779   17.949
  294.750   84.034  424.267   17.929
  295.000   83.349  429.202   17.554
  295.250   86.475  431.704   16.878
  295.500   92.120  429.338   15.930
  295.750   97.766  427.757   14.743
  296.000  102.765  427.000   13.650
  296.250  105.244  427.054   12.879
  296.500  105.192  427.095   12.623
  296.750  102.606  424.716   12.137
  297.000  101.287  419.093   11.892
  297.250  104.413  413.483   11.875
  297.500  105.613  413.524   11.626
  297.750  104.928  425.745   11.400
  298.000  106.141  434.722   10.957
  298.250  104.835  433.155   10.740
  298.500   97.791  430.776   10.921
  298.750   95.852  433.291   11.764
  299.000   93.900  435.779   11.971
  299.250   92.581  436.631   10.876
  299.500   98.227  437.496    9.692
  299.750  104.505  439.998    8.806
  300.000  110.784  443.283    8.153
  300.250  111.997  440.107    7.839
  300.500  111.311  433.658    7.683
  300.750  109.359  437.768    7.967
  301.000  108.040  455.682    8.573
  301.250  107.987  460.603    8.730
  301.500  108.568  433.876    8.714
  301.750  112.300  408.785    8.701
  302.000  112.881  394.252    8.851
  302.250  107.776  393.482    9.185
  302.500   98.213  387.047   10.663
  302.750   79.799  379.788   12.621
  303.000   65.804  387.156   14.120
  303.250   58.154  396.944   16.080
  303.500   56.188  405.110   16.374
  303.750   56.136  411.654   16.350
  304.000   53.550  434.448   16.320
  304.250   54.130  438.545   15.109
  304.500   56.610  438.599   13.732
  304.750   61.636  432.989   12.013
  305.000   75.512  437.086    8.064
  305.250   91.921  445.252    7.324
  305.500  102.011  442.873    5.306
  305.750  121.586  435.640    5.100
  306.000  122.799  441.386    4.721
  306.250  132.877  447.930    4.453
  306.500  132.178  456.082    4.200
  306.750  132.138  475.604    4.041
  307.000  131.426  478.917    3.811
  307.250  131.399  474.929    3.811
  307.500  135.778  477.417    3.588
  307.750  138.258  483.136    3.263
  308.000  138.205  492.113    3.196
  308.250  138.153  499.468    3.190
  308.500  134.921  494.656    3.502
  308.750  131.716  480.109    3.993
  309.000  120.886  448.515    5.194
  309.250  113.869  432.347    6.757
  309.500  110.017  440.513    8.464
  309.750  103.633  438.945    9.830
  310.000   88.372  417.126   10.792
  310.250   75.023  422.033   12.299
  310.500   69.879  426.144   14.017
  310.750   71.725  423.765   15.371
  311.000   72.319  426.253   15.647
  311.250   73.532  433.621   16.231
  311.500   72.847  432.053   16.195
  311.750   70.894  430.485   16.183
  312.000   72.741  429.729   16.147
  312.250   77.740  429.783   16.129
  312.500   79.600  433.082   16.418
  312.750   80.813  434.745   16.706
  313.000   80.127  438.072   16.669
  313.250   81.341  438.910   16.650
  313.500   86.973  438.964   16.302
  313.750   91.365  435.788   15.979
  314.000   94.478  432.584   15.662
  314.250   91.880  413.996   15.347
  314.500   89.294  410.806   15.037
  314.750   86.722  414.902   14.728
  315.000   87.276  419.837   15.267
  315.250   90.416  418.256   15.540
  315.500   90.363  418.310   16.121
  315.750   83.965  423.245   16.710
  316.000   75.049  427.355   17.010
  316.250   74.350  427.423   16.979
  316.500   80.008  432.331   16.642
  316.750   87.553  426.708   15.690
  317.000   90.666  413.784   15.091
  317.250   89.980  412.229   14.793
  317.500   92.460  422.004   14.759
  317.750   84.809  430.184   15.024
  318.000   67.649  428.602   15.293
  318.250   63.164  418.112   16.155
  318.500   60.578  419.788   17.065
  318.750   55.461  424.710   17.371
  319.000   51.609  424.791   18.007
  319.250   55.342  425.657   18.330
  319.500   59.101  427.334   18.309
  319.750   62.834  429.822   18.617
  320.000   61.515  429.876   18.234
  320.250   61.462  421.805   19.658
  320.500   63.309  417.804   19.255
  320.750   67.055  419.481   19.219
  321.000   70.814  417.913   18.838
  321.250   76.459  413.114   18.451
  321.500   83.991  409.938   17.734
  321.750   81.406  408.343   17.389
  322.000   80.087  411.655   16.394
  322.250   80.667  419.808   16.069
  322.500   81.880  427.162   15.751
  322.750   85.006  424.783   15.422
  323.000   93.817  419.160   15.410
  323.250   98.817  415.983   15.382
  323.500  103.209  417.660   15.077
  323.750  110.121  423.406   15.043
  324.000  116.386  420.202   14.751
  324.250  115.700  412.145   13.642
  324.500  112.495  411.389   12.876
  324.750  112.442  417.932   12.380
  325.000  116.188  425.287   11.684
  325.250  121.820  426.978   10.810
  325.500  123.667  426.221   10.398
  325.750  122.348  426.262   10.001
  326.000  121.029  426.316    9.432
  326.250  121.609  428.818    9.422
  326.500  124.102  432.117    9.232
  326.750  127.202  435.416    9.042
  327.000  123.997  436.295    9.028
  327.250  118.879  432.280    9.015
  327.500  113.734  427.468    9.526
  327.750  109.896  421.858   10.071
  328.000  100.979  421.912   11.048
  328.250  100.293  422.778   11.675
  328.500  100.227  416.329   12.111
  328.750   97.022  414.775   12.314
  329.000   98.222  418.074   12.300
  329.250  101.348  416.493   12.047
  329.500  105.094  413.303   11.809
  329.750  112.639  419.035   11.346
  330.000  118.918  427.201   11.121
  330.250  114.420  420.766   11.104
  330.500  110.581  408.654   11.303
  330.750  104.817  403.030   12.168
  331.000   99.053  408.776   12.382
  331.250   92.669  416.928   12.132
  331.500   86.931  427.541   11.669
  331.750   75.468  434.085   11.215
  332.000   67.185  443.076   10.985
  332.250   84.227  444.739   10.771
  332.500   86.707  418.837   11.169
  332.750   80.956  414.024   11.582
  333.000   73.305  400.289   12.239
  333.250   59.943  406.022   12.687
  333.500   54.192  410.145   13.151
  333.750   47.808  406.144   13.392
  334.000   40.144  411.052   13.627
  334.250   40.092  428.952   13.866
  334.500   45.104  439.565   13.845
  334.750   52.016  445.297   13.825
  335.000   57.674  440.485   13.541
  335.250   77.882  421.883   13.024
  335.500   92.404  416.246   12.518
  335.750   96.784  417.963   12.265
  336.000   94.831  417.990   12.252
  336.250   89.067  413.989   12.229
  336.500   85.849  404.296   12.439
  336.750   83.896  401.931   12.657
  337.000   85.110  403.607   12.643
  337.250   87.576  398.809   12.379
  337.500   86.270  396.416   12.134
  337.750   81.153  390.806   11.889
  338.000   78.567  386.805   11.876
  338.250   76.602  383.628   12.315
  338.500   69.585  383.655   12.531
  338.750   68.266  386.955   12.512
  339.000   83.408  391.065   12.030
