~VERSION INFORMATION
 VERS.                 2.0:   CWLS LOG ASCII STANDARD -VERSION 2.0
 WRAP.                  NO:   ONE LINE PER DEPTH STEP
~WELL INFORMATION BLOCK
#MNEM.UNIT           DATA                    DESCRIPTION OF MNEMONIC
#---------    -------------------            -------------------------------
# Generated from Intellog Unique Number	CS_77_79/WELL/983
WELL.         HOME OIL COMPANY LIMITED       : Well_name    - WELL
LOC .         00/11-02-077-08W4/0            : Location     - LOCATION
UWI .         00/11-02-077-08W4/0            : Uwi          - UNIQUE WELL ID
ENTR.         SP                             : Entered      - ENTERED BY
SRVC.         SCHLUMBERGER                   : Scn          - SERVICE COMPANY
STRT.M        150                            : top_depth    - START DEPTH
STOP.M        380                            : bot_depth    - STOP DEPTH
STEP.M        0.25                           : increment    - STEP LENGTH
 NULL. -999.2500:NULL Value
~CURVE INFORMATION BLOCK
#MNEM UNIT       ERCB CURVE CODE    CURVE DESCRIPTION
#-----------   ------------------   ----------------------------------
DEPT.M        00 001 00 00         : DEPTH        - DEPTH
ILD .OHMM     00 120 00 00         : RESD         - DEEP RESISTIVITY (DIL)
DPHI.V/V      00 890 00 00         : PHID         - DENSITY POROSITY (LIMESTONE)
NPHI.V/V      00 330 00 00         : PHIN         - NEUTRON POROSITY (LIMESTONE)
GR  .API      00 310 00 00         : GR           - GAMMA RAY
~PARAMETER INFORMATION
#MNEM.UNIT           DATA             DESCRIPTION OF MNEMONIC
#---------         -----------     ------------------------------
GL  .M        575.6                : gl           - GROUND LEVEL ELEVATION
EREF.M        579.11               : kb           - ELEVATION OF DEPTH REFERENCE
DATM.M        575.61               : datum        - DATUM ELEVATION
TDD .M        400                  : tdd          - TOTAL DEPTH DRILLER
RUN .         ONE                  : Run          - RUN NUMBER
ENG .         BILL                 : Engineer     - RECORDING ENGINEER
WIT .         JIM                  : Witness      - WITNESSED BY
MUD .         GEL                  : Mud_type     - MUD TYPE
MATR.         LIMESTONE            : Logunit      - NEUTRON MATRIX
TMAX.C        36                   : BHT          - MAXIMUM RECORDED TEMPERATURE
BHTD.M        400                  : BHTDEP       - MAXIMUM RECORDED TEMPERATURE
MATR.         1                    : LOGUNIT      - NEUTRON MATRIX
RMT .C        25                   : MDTP         - TEMPERATURE OF MUD
NEUT.         1                    : NEUTRON      - NEUTRON TYPE
RESI.         0                    : RESIST       - RESISTIVITY TYPE
RMC .OHMM     0.25                 : RMC          - RESISTIVITY OF MUD CAKE
RMF .OHMM     0.25                 : RMF          - RESISTIVITY OF MUD FILTRATE
SUFT.C        15                   : SUFT         - SURFACE TEMPERATURE
~A  DEPTH     RESD     PHID     PHIN       GR
# ...
  237.000    6.642    0.221    0.331  108.079
  237.250    6.402    0.194    0.324  109.324
  237.500    6.171    0.195    0.318  112.423
  237.750    5.839    0.206    0.333  112.435
  238.000    5.423    0.217    0.348  112.444
  238.250    5.325    0.230    0.361  109.986
  238.500    5.229    0.252    0.364  111.848
  238.750    5.135    0.258    0.362  108.771
  239.000    5.043    0.233    0.389  109.402
  239.250    5.044    0.236    0.429  113.733
  239.500    4.954    0.235    0.465  108.804
  239.750    4.956    0.250    0.474  103.260
  240.000    4.958    0.259    0.440  100.185
  240.250    4.960    0.273    0.419  102.047
  240.500    4.963    0.255    0.384  103.908
  240.750    4.874    0.251    0.379  100.215
  241.000    4.786    0.291    0.383   95.905
  241.250    4.788    0.313    0.405   92.828
  241.500    4.790    0.302    0.419   95.312
  241.750    4.704    0.297    0.399   94.703
  242.000    4.450    0.310    0.346   98.418
  242.250    3.982    0.305    0.352  105.218
  242.500    3.698    0.246    0.382  108.933
  242.750    3.565    0.236    0.454  105.246
  243.000    3.501    0.218    0.478  103.400
  243.250    3.502    0.224    0.468  108.967
  243.500    3.637    0.235    0.393  110.828
  243.750    3.707    0.220    0.404  105.904
  244.000    3.778    0.255    0.409  104.677
  244.250    3.851    0.270    0.420  109.009
  244.500    3.853    0.255    0.431  112.105
  244.750    3.783    0.226    0.451  108.414
  245.000    3.647    0.237    0.465  108.423
  245.250    3.648    0.257    0.446  111.521
  245.500    3.719    0.282    0.454  110.299
  245.750    3.861    0.275    0.449  113.394
  246.000    4.320    0.246    0.437  107.235
  246.250    4.657    0.238    0.416  103.541
  246.500    4.835    0.239    0.418  101.698
  246.750    5.022    0.233    0.422  101.708
  247.000    5.118    0.224    0.388  101.104
  247.250    5.120    0.233    0.364   96.793
  247.500    5.317    0.224    0.376   94.950
  247.750    5.419    0.216    0.354   97.432
  248.000    5.422    0.210    0.348  101.766
  248.250    5.324    0.231    0.373  105.478
  248.500    4.944    0.250    0.387  106.109
  248.750    4.262    0.264    0.391  106.116
  249.000    3.885    0.273    0.419  106.126
  249.250    3.745    0.272    0.453  104.285
  249.500    3.677    0.284    0.466   93.185
  249.750    4.350    0.300    0.401   85.171
  250.000    5.544    0.300    0.400   79.010
  250.250    7.199    0.302    0.402   78.401
  250.500    8.676    0.300    0.363   77.795
  250.750    9.180    0.304    0.334   78.424
  251.000    9.015    0.293    0.349   78.434
  251.250    9.018    0.289    0.371   75.975
  251.500    9.191    0.296    0.405   74.753
  251.750    9.195    0.299    0.412   76.001
  252.000    9.373    0.289    0.406   78.484
  252.250    9.553    0.285    0.369   79.725
  252.500   10.490    0.285    0.389   80.352
  252.750   11.958    0.279    0.404   79.745
  253.000   12.649    0.194    0.138   66.173
  253.250   12.655    0.084    0.120   51.986
  253.500   12.199    0.000    0.135   52.615
  253.750   11.327    0.077    0.193   77.318
  254.000   10.326    0.200    0.286   90.292
  254.250    9.590    0.228    0.333   88.453
  254.500    9.072    0.264    0.359   92.168
  254.750    8.583    0.246    0.330   94.646
  255.000    8.120    0.230    0.332   94.659
  255.250    7.828    0.233    0.348   98.372
  255.500    7.687    0.239    0.371  102.085
  255.750    7.690    0.244    0.403   99.627
  256.000    7.695    0.250    0.374   95.317
  256.250    7.842    0.239    0.377   94.095
  256.500    8.454    0.230    0.403   87.314
  256.750    8.778    0.203    0.355   76.830
  257.000    8.782    0.041    0.228   74.371
  257.250    8.785    0.155    0.253   86.110
  257.500    8.628    0.178    0.332   97.852
  257.750    8.316    0.217    0.374   96.630
  258.000    7.869    0.231    0.352   99.107
  258.250    7.871    0.234    0.370  100.352
  258.500    7.730    0.240    0.363   92.955
  258.750    7.734    0.237    0.357   90.499
  259.000    7.595    0.232    0.348   96.066
  259.250    7.457    0.229    0.363   97.927
  259.500    7.324    0.227    0.375   94.850
  259.750    7.193    0.236    0.359   97.334
  260.000    7.062    0.243    0.309  102.898
  260.250    6.935    0.243    0.344  102.908
  260.500    6.562    0.230    0.355  101.683
  260.750    6.443    0.221    0.349  101.697
  261.000    5.985    0.218    0.331  103.560
  261.250    5.877    0.210    0.311  105.423
  261.500    5.771    0.203    0.304  106.048
  261.750    5.774    0.208    0.322  106.679
  262.000    5.776    0.233    0.334  105.454
  262.250    5.567    0.238    0.365  100.525
  262.500    4.889    0.278    0.407   98.070
  262.750    4.294    0.354    0.446   99.313
  263.000    3.701    0.348    0.485   99.322
  263.250    3.190    0.329    0.506   97.483
  263.500    2.750    0.290    0.444   94.406
  263.750    2.554    0.268    0.408   95.035
  264.000    2.508    0.267    0.547   96.279
  264.250    2.509    0.253    0.524   93.206
  264.500    2.606    0.243    0.486   92.598
  264.750    2.861    0.259    0.418   94.462
  265.000    3.323    0.283    0.393   96.324
  265.250    3.717    0.281    0.317   95.099
  265.500    4.564    0.249    0.298   91.406
  265.750    5.500    0.265    0.279   89.568
  266.000    7.141    0.282    0.256   90.809
  266.250    9.101    0.287    0.237   87.116
  266.500   11.599    0.317    0.220   82.188
  266.750   14.784    0.333    0.223   79.732
  267.000   17.489    0.329    0.218   79.742
  267.250   21.077    0.317    0.193   79.135
  267.500   25.881    0.273    0.181   76.677
  267.750   30.618    0.290    0.184   81.627
  268.000   34.250    0.301    0.156   88.430
  268.250   40.521    0.275    0.125   87.820
  268.500   44.496    0.348    0.110   76.719
  268.750   47.075    0.446    0.096   68.706
  269.000   47.980    0.459    0.094   65.633
  269.250   48.910    0.458    0.094   65.022
  269.500   48.022    0.453    0.105   65.655
  269.750   46.295    0.454    0.115   65.044
  270.000   45.452    0.455    0.120   63.206
  270.250   42.215    0.451    0.118   63.836
  270.500   41.455    0.437    0.116   65.698
  270.750   41.475    0.430    0.111   66.323
  271.000   40.730    0.443    0.111   66.953
  271.250   39.259    0.459    0.118   67.578
  271.500   38.555    0.453    0.121   68.210
  271.750   38.566    0.447    0.117   67.600
  272.000   38.595    0.444    0.112   66.993
  272.250   38.608    0.450    0.106   66.390
  272.500   39.347    0.449    0.110   66.400
  272.750   39.363    0.439    0.116   66.410
  273.000   36.556    0.437    0.117   65.187
  273.250   34.584    0.445    0.118   64.582
  273.500   31.526    0.439    0.128   65.824
  273.750   28.737    0.430    0.141   66.451
  274.000   26.193    0.426    0.147   67.698
  274.250   23.005    0.432    0.147   70.178
  274.500   19.463    0.436    0.173   68.335
  274.750   14.190    0.428    0.241   69.583
  275.000   12.461    0.417    0.299   67.741
  275.250   11.572    0.358    0.328   65.899
  275.500   11.577    0.305    0.229   60.355
  275.750   11.800    0.086    0.119   57.277
  276.000   12.254    0.008    0.092   55.436
  276.250   13.710    0.012    0.101   58.538
  276.500   14.777    0.023    0.101   56.693
  276.750   15.343    0.034    0.109   52.382
  277.000   14.248    0.064    0.138   56.717
  277.250   12.283    0.216    0.237   60.428
  277.500   10.588    0.315    0.336   62.292
  277.750    9.298    0.326    0.348   62.920
  278.000    8.320    0.327    0.374   64.165
  278.250    7.872    0.328    0.357   61.711
  278.500    7.587    0.335    0.328   62.338
  278.750    7.450    0.326    0.321   64.202
  279.000    7.455    0.327    0.349   64.208
  279.250    7.458    0.334    0.379   64.220
  279.500    7.601    0.337    0.393   62.377
  279.750    7.893    0.339    0.366   59.923
  280.000    8.047    0.327    0.389   61.165
  280.250    8.050    0.326    0.405   59.323
