~VERSION INFORMATION
 VERS.                 2.0:   CWLS LOG ASCII STANDARD -VERSION 2.0
 WRAP.                  NO:   ONE LINE PER DEPTH STEP
~WELL INFORMATION BLOCK
#MNEM.UNIT           DATA                    DESCRIPTION OF MNEMONIC
#---------    -------------------            -------------------------------
# Generated from Intellog Unique Number	CS_67_68/WELL/854
WELL.         AEC FISH CREEK                 : Well_name    - WELL
LOC .         00/13-30-068-08W4/0            : Location     - LOCATION
UWI .         00/13-30-068-08W4/0            : Uwi          - UNIQUE WELL ID
ENTR.         SP                             : Entered      - ENTERED BY
SRVC.         SCHLUMBERGER                   : Scn          - SERVICE COMPANY
STRT.M        405                            : top_depth    - START DEPTH
STOP.M        625                            : bot_depth    - STOP DEPTH
STEP.M        0.25                           : increment    - STEP LENGTH
 NULL. -999.2500:NULL Value
~CURVE INFORMATION BLOCK
#MNEM UNIT       ERCB CURVE CODE    CURVE DESCRIPTION
#-----------   ------------------   ----------------------------------
DEPT.M        00 001 00 00         : DEPTH        - DEPTH
ILD .OHMM     00 120 00 00         : RESD         - DEEP RESISTIVITY (DIL)
DPHI.V/V      00 890 00 00         : PHID         - DENSITY POROSITY (LIMESTONE)
NPHI.V/V      00 330 00 00         : PHIN         - NEUTRON POROSITY (LIMESTONE)
GR  .API      00 310 00 00         : GR           - GAMMA RAY
~PARAMETER INFORMATION
#MNEM.UNIT           DATA             DESCRIPTION OF MNEMONIC
#---------         -----------     ------------------------------
GL  .M        732.42               : gl           - GROUND LEVEL ELEVATION
EREF.M        731.68               : kb           - ELEVATION OF DEPTH REFERENCE
DATM.M        732.42               : datum        - DATUM ELEVATION
TDD .M        633                  : tdd          - TOTAL DEPTH DRILLER
RUN .         ONE                  : Run          - RUN NUMBER
ENG .         BILL                 : Engineer     - RECORDING ENGINEER
WIT .         JIM                  : Witness      - WITNESSED BY
MUD .         GEL                  : Mud_type     - MUD TYPE
MATR.         LIMESTONE            : Logunit      - NEUTRON MATRIX
TMAX.C        28                   : BHT          - MAXIMUM RECORDED TEMPERATURE
BHTD.M        625                  : BHTDEP       - MAXIMUM RECORDED TEMPERATURE
MATR.         1                    : LOGUNIT      - NEUTRON MATRIX
RMT .C        25                   : MDTP         - TEMPERATURE OF MUD
NEUT.         1                    : NEUTRON      - NEUTRON TYPE
RESI.         0                    : RESIST       - RESISTIVITY TYPE
RMC .OHMM     0.25                 : RMC          - RESISTIVITY OF MUD CAKE
RMF .OHMM     0.25                 : RMF          - RESISTIVITY OF MUD FILTRATE
SUFT.C        15                   : SUFT         - SURFACE TEMPERATURE
~A  DEPTH     RESD     PHID     PHIN       GR
# ...
  492.000    5.586    0.272    0.424   93.287
  492.250    5.359    0.295    0.442   95.976
  492.500    5.279    0.301    0.442   97.020
  492.750    5.339    0.307    0.435   96.478
  493.000    5.380    0.317    0.437   91.241
  493.250    5.369    0.320    0.446   90.090
  493.500    5.379    0.301    0.445   95.036
  493.750    5.400    0.284    0.437   98.824
  494.000    5.440    0.284    0.439  101.026
  494.250    5.512    0.283    0.448  102.435
  494.500    5.596    0.281    0.437  101.284
  494.750    5.680    0.280    0.435   99.278
  495.000    5.898    0.279    0.436   95.811
  495.250    5.920    0.279    0.438   92.767
  495.500    5.777    0.298    0.443   95.214
  495.750    5.659    0.316    0.454   97.111
  496.000    5.648    0.328    0.461   97.971
  496.250    5.691    0.319    0.462   96.759
  496.500    5.777    0.299    0.460   90.608
  496.750    5.931    0.289    0.449   87.444
  497.000    5.998    0.281    0.439   90.684
  497.250    6.078    0.275    0.431   92.640
  497.500    6.123    0.270    0.424   94.172
  497.750    6.100    0.265    0.418   92.715
  498.000    6.032    0.263    0.410   92.296
  498.250    5.998    0.267    0.403   94.315
  498.500    5.919    0.271    0.412   93.957
  498.750    5.809    0.274    0.418   94.877
  499.000    5.669    0.267    0.425   97.933
  499.250    5.543    0.261    0.433  102.148
  499.500    5.409    0.256    0.438  103.984
  499.750    5.429    0.253    0.444  100.273
  500.000    5.439    0.251    0.450   98.388
  500.250    5.439    0.260    0.447  100.103
  500.500    5.409    0.268    0.442  104.806
  500.750    5.398    0.260    0.439  108.105
  501.000    5.398    0.258    0.452  109.636
  501.250    5.398    0.265    0.457  108.972
  501.500    5.470    0.267    0.455  111.357
  501.750    5.521    0.264    0.449  113.193
  502.000    5.511    0.268    0.457  111.127
  502.250    5.328    0.272    0.462  108.635
  502.500    5.054    0.267    0.450  106.263
  502.750    4.951    0.263    0.442  104.258
  503.000    4.813    0.260    0.435  104.448
  503.250    4.724    0.256    0.432  105.615
  503.500    4.724    0.251    0.431  106.108
  503.750    4.724    0.247    0.430  106.176
  504.000    4.688    0.242    0.435  105.818
  504.250    4.627    0.239    0.432  104.850
  504.500    4.507    0.243    0.421  105.038
  504.750    4.390    0.248    0.449  107.607
  505.000    4.260    0.247    0.462  109.991
  505.250    4.126    0.242    0.452  108.535
  505.500    3.973    0.247    0.457  107.385
  505.750    3.863    0.252    0.465  106.964
  506.000    3.706    0.257    0.456  105.934
  506.250    3.570    0.262    0.447  104.234
  506.500    3.438    0.267    0.438  104.911
  506.750    3.305    0.270    0.436  110.040
  507.000    2.997    0.270    0.454  114.011
  507.250    2.854    0.265    0.467  114.566
  507.500    2.754    0.262    0.474  114.208
  507.750    2.723    0.265    0.464  114.032
  508.000    2.708    0.274    0.459  114.709
  508.250    2.703    0.285    0.454  113.863
  508.500    2.744    0.297    0.451  109.663
  508.750    2.881    0.301    0.456  106.011
  509.000    3.159    0.302    0.466  102.604
  509.250    3.556    0.306    0.463  100.354
  509.500    3.706    0.299    0.446   94.569
  509.750    3.988    0.279    0.425   93.356
  510.000    4.243    0.266    0.413  101.717
  510.250    4.356    0.259    0.411  107.699
  510.500    4.430    0.263    0.425  106.609
  510.750    4.430    0.269    0.437  105.214
  511.000    4.397    0.271    0.430  103.940
  511.250    4.323    0.277    0.449  102.361
  511.500    4.243    0.298    0.459   92.003
  511.750    4.179    0.312    0.448   84.999
  512.000    4.140    0.328    0.441   79.760
  512.250    4.164    0.343    0.436   79.097
  512.500    4.187    0.348    0.442   77.641
  512.750    4.307    0.350    0.448   75.757
  513.000    4.372    0.345    0.448   79.788
  513.250    4.446    0.339    0.444   81.503
  513.500    4.539    0.333    0.441   76.876
  513.750    4.574    0.328    0.438   71.151
  514.000    4.556    0.331    0.440   71.829
  514.250    4.531    0.336    0.440   75.921
  514.500    4.573    0.342    0.442   79.037
  514.750    4.660    0.349    0.449   79.167
  515.000    4.829    0.356    0.452   80.577
  515.250    5.033    0.341    0.444   83.327
  515.500    5.187    0.320    0.438   86.993
  515.750    5.335    0.302    0.435   90.414
  516.000    5.396    0.293    0.436   93.592
  516.250    5.436    0.285    0.436   93.416
  516.500    5.426    0.274    0.434   96.228
  516.750    5.365    0.268    0.444   95.077
  517.000    5.265    0.261    0.444   93.864
  517.250    5.080    0.251    0.429   97.041
  517.500    4.976    0.240    0.430   97.231
  517.750    4.784    0.247    0.431   94.616
  518.000    4.660    0.259    0.422   96.880
  518.250    4.539    0.263    0.418   99.447
  518.500    4.505    0.264    0.429  101.101
  518.750    4.505    0.262    0.442  102.022
  519.000    4.530    0.260    0.453  103.920
  519.250    4.573    0.258    0.458  102.829
  519.500    4.651    0.260    0.444  103.080
  519.750    4.686    0.263    0.437  104.551
  520.000    4.686    0.267    0.429  106.570
  520.250    4.624    0.266    0.432  109.688
  520.500    4.598    0.261    0.441  111.157
  520.750    4.564    0.256    0.446  108.847
  521.000    4.547    0.259    0.437  106.049
  521.250    4.530    0.262    0.431  102.703
  521.500    4.504    0.266    0.431  100.758
  521.750    4.504    0.267    0.436  102.106
  522.000    4.496    0.261    0.437  105.345
  522.250    4.479    0.255    0.436  105.962
  522.500    4.453    0.262    0.433  104.628
  522.750    4.412    0.266    0.425  107.135
  523.000    4.354    0.266    0.418  106.409
  523.250    4.297    0.260    0.425  109.710
  523.500    4.201    0.259    0.431  111.850
  523.750    4.054    0.263    0.436  112.894
  524.000    3.868    0.262    0.432  105.645
  524.250    3.455    0.260    0.439  105.225
  524.500    3.104    0.259    0.449  107.488
  524.750    2.863    0.261    0.456  107.922
  525.000    2.558    0.264    0.455  111.038
  525.250    2.316    0.269    0.456  115.803
  525.500    2.136    0.279    0.477  119.407
  525.750    1.996    0.301    0.492  123.501
  526.000    1.897    0.326    0.485  125.213
  526.250    1.872    0.303    0.475  125.342
  526.500    1.897    0.290    0.464  121.996
  526.750    1.904    0.294    0.456  121.148
  527.000    1.948    0.300    0.460  120.729
  527.250    1.974    0.306    0.468  118.967
  527.500    2.026    0.311    0.471  114.279
  527.750    2.061    0.310    0.466  113.494
  528.000    2.108    0.302    0.466  115.330
  528.250    2.152    0.296    0.466  115.154
  528.500    2.197    0.300    0.456  110.893
  528.750    2.255    0.305    0.452  109.009
  529.000    2.333    0.310    0.453  109.321
  529.250    2.543    0.314    0.446  110.975
  529.500    3.040    0.320    0.441  112.933
  529.750    3.560    0.331    0.454  113.062
  530.000    4.169    0.336    0.457  117.886
  530.250    5.050    0.329    0.439  132.832
  530.500    6.520    0.106    0.418  138.509
  530.750    7.423    0.054    0.378  124.066
  531.000    8.873    0.015    0.296   96.145
  531.250    9.895   -0.007    0.252   81.152
  531.500   10.449    0.006    0.240   66.342
  531.750    9.441    0.019    0.287   57.874
  532.000    8.642    0.034    0.351   68.432
  532.250    7.339    0.066    0.380   72.034
  532.500    6.128    0.111    0.395   79.419
  532.750    5.694    0.147    0.407   88.634
  533.000    5.164    0.190    0.419   96.141
  533.250    4.946    0.217    0.430  103.159
  533.500    4.835    0.227    0.443  102.191
  533.750    4.781    0.239    0.444  112.808
  534.000    4.781    0.252    0.430  114.705
  534.250    4.754    0.262    0.409  107.213
  534.500    4.745    0.254    0.398  100.329
  534.750    4.736    0.247    0.413  102.592
  535.000    4.736    0.242    0.426  106.989
  535.250    4.736    0.247    0.433  100.167
