~VERSION INFORMATION
 VERS.                 2.0:   CWLS LOG ASCII STANDARD -VERSION 2.0
 WRAP.                  NO:   ONE LINE PER DEPTH STEP
~WELL INFORMATION BLOCK
#MNEM.UNIT           DATA                    DESCRIPTION OF MNEMONIC
#---------    -------------------            -------------------------------
# Generated from Intellog Unique Number	CX_WELLS/WELL/3883
WELL.         SUNCOD                         : Well_name    - WELL
LOC .         00/11-21-087-17W4/0            : Location     - LOCATION
UWI .         00/11-21-087-17W400            : Uwi          - UNIQUE WELL ID
ENTR.         TIM                            : Entered      - ENTERED BY
SRVC.         SCHLUMBERGER                   : Scn          - SERVICE COMPANY
STRT.M        50                             : top_depth    - START DEPTH
STOP.M        220                            : bot_depth    - STOP DEPTH
STEP.M        0.25                           : increment    - STEP LENGTH
 NULL. -999.2500:NULL Value
~CURVE INFORMATION BLOCK
#MNEM UNIT       ERCB CURVE CODE    CURVE DESCRIPTION
#-----------   ------------------   ----------------------------------
DEPT.M        00 001 00 00         : DEPTH        - DEPTH
GR  .API      00 310 00 00         : GR           - GAMMA RAY
NPHI.V/V      00 330 00 00         : PHIN         - NEUTRON POROSITY (SANDSTONE)
DPHI.V/V      00 890 00 00         : PHID         - DENSITY POROSITY (SANDSTONE)
ILD .OHMM     00 120 00 00         : RESD         - DEEP RESISTIVITY (DIL)
~PARAMETER INFORMATION
#MNEM.UNIT           DATA             DESCRIPTION OF MNEMONIC
#---------         -----------     ------------------------------
GL  .M        511                  : gl           - GROUND LEVEL ELEVATION
EREF.M        514.5                : kb           - ELEVATION OF DEPTH REFERENCE
DATM.M        514.5                : datum        - DATUM ELEVATION
TDD .M        220                  : tdd          - TOTAL DEPTH DRILLER
RUN .         ONE                  : Run          - RUN NUMBER
ENG .         BILL                 : Engineer     - RECORDING ENGINEER
WIT .         JIM                  : Witness      - WITNESSED BY
MUD .         GEL                  : Mud_type     - MUD TYPE
MATR.         SANDSTONE            : Logunit      - NEUTRON MATRIX
TMAX.C        20                   : BHT          - MAXIMUM RECORDED TEMPERATURE
BHTD.M        220                  : BHTDEP       - MAXIMUM RECORDED TEMPERATURE
MATR.         1                    : LOGUNIT      - NEUTRON MATRIX
RMT .C        20                   : MDTP         - TEMPERATURE OF MUD
NEUT.         1                    : NEUTRON      - NEUTRON TYPE
RESI.         7                    : RESIST       - RESISTIVITY TYPE
RMC .OHMM     7                    : RMC          - RESISTIVITY OF MUD CAKE
RMF .OHMM     7                    : RMF          - RESISTIVITY OF MUD FILTRATE
SUFT.C        4                    : SUFT         - SURFACE TEMPERATURE
~A  DEPTH       GR     PHIN     PHID     RESD
# ...
  137.000   63.348    0.465    0.210    7.169
  137.250   59.936    0.470    0.147    6.539
  137.500   60.605    0.479    0.128    6.420
  137.750   61.944    0.484    0.181    6.913
  138.000   64.634    0.489    0.220    7.582
  138.250   66.650    0.483    0.221    8.789
  138.500   65.953    0.472    0.224   10.189
  138.750   65.255    0.457    0.237   10.970
  139.000   65.247    0.458    0.246   11.597
  139.250   65.900    0.458    0.231   11.814
  139.500   65.892    0.454    0.221   12.260
  139.750   65.875    0.451    0.223   12.723
  140.000   65.178    0.449    0.223   12.961
  140.250   63.129    0.449    0.226   13.205
  140.500   61.080    0.448    0.233   12.966
  140.750   60.390    0.438    0.241   12.730
  141.000   60.370    0.433    0.255   12.732
  141.250   61.027    0.434    0.251   12.734
  141.500   61.015    0.431    0.247   12.737
  141.750   60.317    0.424    0.247   12.738
  142.000   59.627    0.424    0.241   12.977
  142.250   57.571    0.430    0.236   13.220
  142.500   56.207    0.437    0.234   13.720
  142.750   53.481    0.447    0.244   14.238
  143.000   52.106    0.448    0.270   14.775
  143.250   50.738    0.442    0.267   14.777
  143.500   54.783    0.440    0.251   14.779
  143.750   58.159    0.444    0.250   13.479
  144.000   62.208    0.442    0.244   12.754
  144.250   66.256    0.439    0.243   11.632
  144.500   68.950    0.439    0.239   10.609
  144.750   69.612    0.440    0.232   10.039
  145.000   66.881    0.442    0.221    8.824
  145.250   60.767    0.441    0.207    8.048
  145.500   53.298    0.447    0.195    7.757
  145.750   53.959    0.452    0.196    8.200
  146.000   58.008    0.461    0.226    8.668
  146.250   62.735    0.450    0.234    9.507
  146.500   66.106    0.439    0.247    9.866
  146.750   68.118    0.435    0.254   10.238
  147.000   67.429    0.431    0.252   10.240
  147.250   65.372    0.429    0.245   10.431
  147.500   64.009    0.435    0.242   10.433
  147.750   60.605    0.445    0.240   10.629
  148.000   57.197    0.454    0.243   10.828
  148.250   54.466    0.452    0.248   11.237
  148.500   52.418    0.448    0.282   11.661
  148.750   51.720    0.440    0.316   11.880
  149.000   51.708    0.434    0.311   11.452
  149.250   51.687    0.434    0.294   10.638
  149.500   51.675    0.430    0.265   10.067
  149.750   50.308    0.423    0.238    9.526
  150.000   48.255    0.423    0.271   10.070
  150.250   46.206    0.438    0.273   11.673
  150.500   48.222    0.418    0.259   13.042
  150.750   51.598    0.408    0.305   12.572
  151.000   57.671    0.437    0.308   12.117
  151.250   60.369    0.444    0.304   11.257
  151.500   63.740    0.455    0.300   10.851
  151.750   63.720    0.466    0.295   10.653
  152.000   63.708    0.476    0.274   10.269
  152.250   63.692    0.482    0.259    9.718
  152.500   64.345    0.476    0.256    9.367
  152.750   64.337    0.474    0.263    9.543
  153.000   63.631    0.470    0.284    9.903
  153.250   62.264    0.465    0.289   10.468
  153.500   61.578    0.464    0.295   10.470
  153.750   59.529    0.458    0.299   10.092
  154.000   57.468    0.460    0.245    9.550
  154.250   57.460    0.485    0.245    9.377
  154.500   58.799    0.489    0.241    9.207
  154.750   63.525    0.459    0.235    9.208
  155.000   65.537    0.427    0.229    9.209
  155.250   62.811    0.415    0.235    9.210
  155.500   61.444    0.458    0.248    9.212
  155.750   60.073    0.469    0.253    9.213
  156.000   55.991    0.467    0.235    9.046
  156.250   52.587    0.454    0.204    8.882
  156.500   55.955    0.442    0.235    8.883
  156.750   59.330    0.443    0.252    8.722
  157.000   62.024    0.451    0.225    8.564
  157.250   64.714    0.441    0.221    8.104
  157.500   68.085    0.440    0.230    7.256
  157.750   72.134    0.449    0.239    6.741
  158.000   81.607    0.461    0.244    5.817
  158.250   84.297    0.474    0.246    5.926
  158.500   84.281    0.502    0.246    6.381
  158.750   81.554    0.511    0.246    6.998
  159.000   75.440    0.514    0.246    7.964
  159.250   71.355    0.510    0.244    8.898
  159.500   70.657    0.505    0.230    9.759
  159.750   71.323    0.495    0.220    9.942
  160.000   73.339    0.483    0.223   10.510
  160.250   74.682    0.480    0.223   10.511
  160.500   73.310    0.463    0.218   10.513
  160.750   69.903    0.447    0.199   10.134
  161.000   69.213    0.443    0.209    9.950
  161.250   69.866    0.448    0.223    9.770
  161.500   71.882    0.457    0.235    9.770
  161.750   73.225    0.462    0.234    9.772
  162.000   75.237    0.448    0.227    9.956
  162.250   75.225    0.442    0.228    9.957
  162.500   74.523    0.458    0.229    9.959
  162.750   74.511    0.472    0.224    9.960
  163.000   73.140    0.466    0.219    9.779
  163.250   72.450    0.445    0.219    9.963
  163.500   71.756    0.433    0.223   10.727
  163.750   71.736    0.419    0.226   11.550
  164.000   72.401    0.405    0.227   11.768
  164.250   73.059    0.393    0.228   11.770
  164.500   73.038    0.391    0.230   11.771
  164.750   72.344    0.399    0.234   11.992
  165.000   70.969    0.414    0.240   12.444
  165.250   69.606    0.423    0.248   13.650
  165.500   67.553    0.419    0.251   14.164
  165.750   65.508    0.413    0.258   15.536
  166.000   64.137    0.408    0.264   16.727
  166.250   61.407    0.393    0.268   19.036
  166.500   58.676    0.380    0.232   18.692
  166.750   57.309    0.367    0.176   17.047
  167.000   55.938    0.354    0.153   15.546
  167.250   54.566    0.342    0.157   14.178
  167.500   55.909    0.366    0.183   12.695
  167.750   59.950    0.407    0.207   12.236
  168.000   64.003    0.432    0.234   11.795
  168.250   68.729    0.414    0.273   11.581
  168.500   72.101    0.403    0.243   11.799
  168.750   71.403    0.402    0.230   12.020
  169.000   64.612    0.421    0.211   12.943
  169.250   59.175    0.430    0.177   14.729
  169.500   55.098    0.429    0.131   16.762
  169.750   50.339    0.427    0.094   20.537
  170.000   45.580    0.397    0.058   24.701
  170.250   42.172    0.352    0.028   27.092
  170.500   44.866    0.225    0.025   25.638
  170.750   49.592    0.238    0.019   22.123
  171.000   56.351    0.278    0.020   19.090
  171.250   60.400    0.322    0.118   16.473
  171.500   61.735    0.367    0.167   15.587
  171.750   63.747    0.405    0.194   14.216
  172.000   65.094    0.431    0.195   13.958
  172.250   66.429    0.436    0.162   13.705
  172.500   69.123    0.431    0.140   12.970
  172.750   71.820    0.454    0.171   12.049
  173.000   73.159    0.463    0.195   11.402
  173.250   72.457    0.460    0.210   10.989
  173.500   71.772    0.458    0.208   10.400
  173.750   71.756    0.464    0.206   10.401
  174.000   72.409    0.473    0.204   10.402
  174.250   73.078    0.473    0.173   10.598
  174.500   73.739    0.469    0.165   10.599
  174.750   75.070    0.464    0.192   10.601
  175.000   76.409    0.467    0.208   10.603
  175.250   77.070    0.464    0.208   10.410
  175.500   77.727    0.459    0.194   10.412
  175.750   78.397    0.458    0.193   10.607
  176.000   78.380    0.458    0.200   10.807
  176.250   79.038    0.458    0.204   11.009
  176.500   78.348    0.457    0.202   11.011
  176.750   76.291    0.452    0.192   11.012
  177.000   74.920    0.442    0.168   11.014
  177.250   72.879    0.433    0.165   10.815
  177.500   69.467    0.410    0.192   10.816
  177.750   68.104    0.394    0.212   11.224
  178.000   67.398    0.416    0.224   11.434
  178.250   68.067    0.425    0.228   12.313
  178.500   69.406    0.437    0.229   12.777
  178.750   72.096    0.442    0.223   13.259
  179.000   75.463    0.431    0.207   12.547
  179.250   77.480    0.425    0.190   11.028
  179.500   77.467    0.429    0.191   10.245
  179.750   76.096    0.445    0.186   10.059
  180.000   75.402    0.439    0.181   11.661
  180.250   75.390    0.425    0.212   13.271
