~VERSION INFORMATION
 VERS.                 2.0:   CWLS LOG ASCII STANDARD -VERSION 2.0
 WRAP.                  NO:   ONE LINE PER DEPTH STEP
~WELL INFORMATION BLOCK
#MNEM.UNIT           DATA                    DESCRIPTION OF MNEMONIC
#---------    -------------------            -------------------------------
# Generated from Intellog Unique Number	CS_67_68/WELL/2214
WELL.         GEOG et al HYLO                : Well_name    - WELL
LOC .         00/13-18-067-14W4/0            : Location     - LOCATION
UWI .         00/13-18-067-14W4/0            : Uwi          - UNIQUE WELL ID
ENTR.         SP                             : Entered      - ENTERED BY
SRVC.         SCHLUMBERGER                   : Scn          - SERVICE COMPANY
STRT.M        300                            : top_depth    - START DEPTH
STOP.M        491                            : bot_depth    - STOP DEPTH
STEP.M        0.25                           : increment    - STEP LENGTH
 NULL. -999.2500:NULL Value
~CURVE INFORMATION BLOCK
#MNEM UNIT       ERCB CURVE CODE    CURVE DESCRIPTION
#-----------   ------------------   ----------------------------------
DEPT.M        00 001 00 00         : DEPTH        - DEPTH
ILD .OHMM     00 120 00 00         : RESD         - DEEP RESISTIVITY (DIL)
DPHI.V/V      00 890 00 00         : PHID         - DENSITY POROSITY (LIMESTONE)
NPHI.V/V      00 330 00 00         : PHIN         - NEUTRON POROSITY (LIMESTONE)
GR  .API      00 310 00 00         : GR           - GAMMA RAY
CALI.MM       00 280 01 00         : CAL          - CALIPER
~PARAMETER INFORMATION
#MNEM.UNIT           DATA             DESCRIPTION OF MNEMONIC
#---------         -----------     ------------------------------
GL  .M        563                  : gl           - GROUND LEVEL ELEVATION
EREF.M        565.7                : kb           - ELEVATION OF DEPTH REFERENCE
DATM.M        563                  : datum        - DATUM ELEVATION
TDD .M        493                  : tdd          - TOTAL DEPTH DRILLER
RUN .         ONE                  : Run          - RUN NUMBER
ENG .         BILL                 : Engineer     - RECORDING ENGINEER
WIT .         JIM                  : Witness      - WITNESSED BY
MUD .         GEL                  : Mud_type     - MUD TYPE
MATR.         LIMESTONE            : Logunit      - NEUTRON MATRIX
TMAX.C        30                   : BHT          - MAXIMUM RECORDED TEMPERATURE
BHTD.M        490                  : BHTDEP       - MAXIMUM RECORDED TEMPERATURE
MATR.         1                    : LOGUNIT      - NEUTRON MATRIX
RMT .C        25                   : MDTP         - TEMPERATURE OF MUD
NEUT.         1                    : NEUTRON      - NEUTRON TYPE
RESI.         0                    : RESIST       - RESISTIVITY TYPE
RMC .OHMM     0.25                 : RMC          - RESISTIVITY OF MUD CAKE
RMF .OHMM     0.25                 : RMF          - RESISTIVITY OF MUD FILTRATE
SUFT.C        15                   : SUFT         - SURFACE TEMPERATURE
~A  DEPTH     RESD     PHID     PHIN       GR      CAL
# ...
  446.000    2.072    0.334    0.502  100.380  208.530
  446.250    1.995    0.310    0.487   98.933  229.240
  446.500    2.048    0.289    0.492   98.092  236.260
  446.750    2.107    0.275    0.513   98.409  233.743
  447.000    2.155    0.276    0.497   97.873  222.608
  447.250    2.225    0.293    0.527  100.442  212.994
  447.500    2.280    0.316    0.547  103.314  205.206
  447.750    2.337    0.322    0.525  102.474  193.968
  448.000    2.394    0.303    0.498   97.800  185.166
  448.250    2.458    0.276    0.481  100.308  187.014
  448.500    2.505    0.290    0.510  103.727  194.742
  448.750    2.577    0.276    0.532  106.418  200.035
  449.000    2.726    0.284    0.551  105.821  205.227
  449.250    3.018    0.303    0.534  103.157  211.433
  449.500    3.391    0.325    0.510  100.796  207.500
  449.750    3.803    0.320    0.508   99.529  184.398
  450.000    4.210    0.288    0.493   97.108  173.769
  450.250    4.412    0.203    0.458   94.078  166.693
  450.500    4.590    0.127    0.414   92.021  164.175
  450.750    4.677    0.096    0.357   91.973  161.558
  451.000    4.233    0.074    0.432   94.966  161.377
  451.250    3.868    0.148    0.484   97.413  164.844
  451.500    3.608    0.194    0.514  101.320  165.677
  451.750    3.410    0.214    0.526  105.288  173.202
  452.000    3.302    0.214    0.503  106.881  170.079
  452.250    3.216    0.190    0.483  106.528  170.505
  452.500    3.098    0.172    0.468  109.218  181.073
  452.750    3.006    0.230    0.467  110.448  193.669
  453.000    2.884    0.237    0.500  107.904  207.381
  453.250    2.809    0.256    0.509  104.935  217.541
  453.500    2.756    0.254    0.509  106.346  217.662
  453.750    2.725    0.262    0.508  106.663  210.686
  454.000    2.725    0.242    0.509  104.850  203.709
  454.250    2.736    0.217    0.500  105.226  194.401
  454.500    2.793    0.190    0.492  108.708  184.885
  454.750    2.867    0.164    0.489  111.823  190.993
  455.000    2.966    0.230    0.503  113.357  200.038
  455.250    3.068    0.236    0.509  115.438  187.281
  455.500    3.168    0.230    0.497  117.579  194.703
  455.750    3.339    0.239    0.500  117.410  198.679
  456.000    3.600    0.258    0.501  116.022  195.353
  456.250    3.780    0.263    0.512  114.148  191.824
  456.500    3.852    0.241    0.524  110.266  194.279
  456.750    3.675    0.221    0.493  106.019  183.651
  457.000    3.447    0.200    0.454  109.013  175.558
  457.250    3.138    0.181    0.463  107.565  168.074
  457.500    2.798    0.160    0.481  106.362  161.809
  457.750    2.649    0.222    0.523  108.141  168.013
  458.000    2.551    0.313    0.550  109.976  189.536
  458.250    2.542    0.300    0.528  111.995  203.042
  458.500    2.542    0.275    0.533  113.406  204.481
  458.750    2.556    0.300    0.536  114.941  200.953
  459.000    2.580    0.314    0.526  117.086  187.992
  459.250    2.595    0.308    0.511  118.130  176.045
  459.500    2.614    0.280    0.496  118.688  183.367
  459.750    2.624    0.267    0.505  118.094  193.733
  460.000    2.634    0.297    0.520  115.853  202.780
  460.250    2.644    0.291    0.528  111.545  192.962
  460.500    2.664    0.267    0.538  113.628  181.928
  460.750    2.954    0.264    0.554  116.498  191.181
  461.000    3.565    0.265    0.498  102.577  201.239
  461.250    4.137    0.230    0.426   90.662  178.746
  461.500    4.657    0.181    0.386   81.914  171.564
  461.750    5.403    0.157    0.360   77.362  165.094
  462.000    6.509    0.144    0.340   72.504  158.928
  462.250    8.219    0.146    0.316   67.953  160.977
  462.500    9.772    0.145    0.288   61.395  162.115
  462.750   11.445    0.119    0.256   58.303  162.948
  463.000   12.574    0.084    0.228   56.065  163.170
  463.250   12.982    0.053    0.217   56.259  162.985
  463.500   11.816    0.021    0.240   60.653  162.301
  463.750    9.864    0.026    0.273   66.568  161.914
  464.000    8.406    0.100    0.301   73.029  161.629
  464.250    8.081    0.129    0.326   77.848  161.043
  464.500    7.738    0.146    0.332   77.618  160.960
  464.750    7.537    0.134    0.328   77.023  160.777
  465.000    7.259    0.143    0.327   80.685  160.694
  465.250    7.043    0.142    0.329   84.654  160.617
  465.500    6.886    0.131    0.338   86.672  160.938
  465.750    6.809    0.123    0.343   90.640  164.205
  466.000    6.720    0.120    0.343   95.945  165.847
  466.250    6.557    0.141    0.341  100.400  162.726
  466.500    6.459    0.153    0.337  102.907  161.425
  466.750    6.435    0.186    0.344   97.807  160.840
  467.000    6.410    0.206    0.351   93.013  160.556
  467.250    6.410    0.187    0.349   95.339  160.474
  467.500    6.386    0.195    0.350   98.392  160.292
  467.750    6.326    0.186    0.350  101.691  160.111
  468.000    6.255    0.197    0.351  100.547  160.129
  468.250    6.116    0.211    0.362   98.002  160.152
  468.500    5.923    0.223    0.353  100.935  160.270
  468.750    5.912    0.205    0.339  104.966  160.292
  469.000    6.070    0.189    0.332  108.263  160.312
  469.250    6.185    0.175    0.333  112.047  160.230
  469.500    6.302    0.160    0.343  117.234  160.252
  469.750    6.386    0.158    0.346  119.982  160.378
  470.000    6.266    0.152    0.346  122.611  160.393
  470.250    6.046    0.142    0.364  119.154  160.514
  470.500    5.834    0.129    0.375  114.665  160.440
  470.750    5.682    0.125    0.382  113.277  160.354
  471.000    5.650    0.110    0.390  111.038  160.273
  471.250    5.757    0.086    0.388  108.738  160.294
  471.500    5.956    0.083    0.380  109.906  160.618
  471.750    6.313    0.112    0.368  113.022  160.842
  472.000    6.858    0.129    0.354  115.165  160.864
  472.250    7.242    0.121    0.342  119.741  160.883
  472.500    7.311    0.124    0.335  124.560  160.902
  472.750    7.041    0.119    0.334  128.466  160.516
  473.000    6.858    0.110    0.345  113.691  160.538
  473.250    6.704    0.135    0.356  100.499  160.658
  473.500    6.445    0.156    0.351   96.861  160.784
  473.750    6.325    0.180    0.346   98.579  161.005
  474.000    6.481    0.179    0.343  100.415  161.025
  474.250    6.641    0.168    0.340  102.313  160.845
  474.500    7.067    0.162    0.338  105.125  160.661
  474.750    7.605    0.151    0.338  107.449  160.681
  475.000    8.386    0.154    0.338  110.506  160.802
  475.250    9.161    0.139    0.332  112.220  160.822
  475.500    9.656    0.123    0.339  102.070  160.944
  475.750    9.933    0.111    0.352   87.479  161.167
  476.000    9.914    0.099    0.359   77.086  160.680
  476.250    9.007    0.085    0.368   69.735  157.659
  476.500    7.881    0.110    0.360   73.460  152.811
  476.750    6.973    0.223    0.341   83.876  151.006
  477.000    6.241    0.191    0.390  100.136  154.580
  477.250    6.022    0.164    0.384  109.579  158.454
  477.500    6.010    0.190    0.306   92.128  160.093
  477.750    6.067    0.192    0.299   99.381  156.868
  478.000    6.159    0.159    0.325  116.310  158.512
  478.250    6.240    0.138    0.338  126.302  160.258
  478.500    6.323    0.117    0.348  132.033  162.104
  478.750    6.371    0.125    0.353  134.419  163.339
  479.000    6.359    0.136    0.346  137.109  164.476
  479.250    6.287    0.137    0.342  140.041  164.901
  479.500    6.112    0.114    0.345  142.671  164.620
  479.750    5.964    0.122    0.350  140.431  164.334
  480.000    5.777    0.132    0.352  112.939  164.052
  480.250    5.470    0.133    0.346  107.597  163.667
  480.500    5.035    0.133    0.348  109.500  163.282
  480.750    4.822    0.145    0.350  109.569  162.896
  481.000    4.831    0.166    0.353   95.526  160.076
  481.250    5.035    0.183    0.354   89.513  157.458
  481.500    5.179    0.199    0.338   84.840  156.263
  481.750    5.398    0.180    0.328   87.226  156.080
  482.000    5.480    0.151    0.316   92.349  158.537
  482.250    5.347    0.128    0.307   97.594  160.991
