~VERSION INFORMATION
 VERS.                 2.0:   CWLS LOG ASCII STANDARD -VERSION 2.0
 WRAP.                  NO:   ONE LINE PER DEPTH STEP
~WELL INFORMATION BLOCK
#MNEM.UNIT           DATA                    DESCRIPTION OF MNEMONIC
#---------    -------------------            -------------------------------
# Generated from Intellog Unique Number	CW_76_78/WELL/994
WELL.         11-06-076-22W4                 : Well_name    - WELL
LOC .         00/11-06-076-22W4/0            : Location     - LOCATION
UWI .         00/11-06-076-22W4/0            : Uwi          - UNIQUE WELL ID
ENTR.         JAYE                           : Entered      - ENTERED BY
SRVC.         SCHLUMBERGER                   : Scn          - SERVICE COMPANY
DATE.         19 DEC 72                      : Date         - LOG DATE
STRT.M        405.384                        : top_depth    - START DEPTH
STOP.M        643.134                        : bot_depth    - STOP DEPTH
STEP.M        0.25                           : increment    - STEP LENGTH
 NULL. -999.2500:NULL Value
~CURVE INFORMATION BLOCK
#MNEM UNIT       ERCB CURVE CODE    CURVE DESCRIPTION
#-----------   ------------------   ----------------------------------
DEPT.M        00 001 00 00         : DEPTH        - DEPTH
ILD .OHMM     00 120 00 00         : RESD         - DEEP RESISTIVITY (DIL)
NPHI.V/V      00 330 00 00         : PHIN         - NEUTRON POROSITY (SANDSTONE)
DPHI.V/V      00 890 00 00         : PHID         - DENSITY POROSITY (SANDSTONE)
GR  .API      00 310 00 00         : GR           - GAMMA RAY
CALI.MM       00 280 01 00         : CAL          - CALIPER
~PARAMETER INFORMATION
#MNEM.UNIT           DATA             DESCRIPTION OF MNEMONIC
#---------         -----------     ------------------------------
GL  .M        697.809              : gl           - GROUND LEVEL ELEVATION
EREF.M        701.04               : kb           - ELEVATION OF DEPTH REFERENCE
DATM.M        697.809              : datum        - DATUM ELEVATION
TDD .M        644.957              : tdd          - TOTAL DEPTH DRILLER
RUN .         ONE                  : Run          - RUN NUMBER
MATR.         SANDSTONE            : Logunit      - NEUTRON MATRIX
TMAX.C        30                   : BHT          - MAXIMUM RECORDED TEMPERATURE
BHTD.M        644.957              : BHTDEP       - MAXIMUM RECORDED TEMPERATURE
RMT .C        17.7778              : MDTP         - TEMPERATURE OF MUD
MUDD.KG/M     0                    : MWT          - MUD DENSITY
NEUT.         1                    : NEUTRON      - NEUTRON TYPE
RESI.         0                    : RESIST       - RESISTIVITY TYPE
RM  .OHMM     2.33                 : RM           - RESISTIVITY OF MUD
RMC .OHMM     0                    : RMC          - RESISTIVITY OF MUD CAKE
RMF .OHMM     2.71                 : RMF          - RESISTIVITY OF MUD FILTRATE
SUFT.C        -17.7778             : SUFT         - SURFACE TEMPERATURE
~A  DEPTH     RESD     PHIN     PHID       GR      CAL
# ...
  514.884    4.357    0.437    0.232   75.004  222.416
  515.134    4.314    0.469    0.253   76.924  222.483
  515.384    4.296    0.484    0.230   78.535  222.529
  515.634    4.301    0.505    0.207   75.411  222.490
  515.884    4.346    0.527    0.226   72.102  222.656
  516.134    4.399    0.547    0.257   70.433  222.596
  516.384    4.485    0.495    0.216   74.116  222.360
  516.634    4.624    0.478    0.198   76.276  222.406
  516.884    4.785    0.449    0.206   75.886  222.878
  517.134    4.861    0.505    0.202   78.412  222.950
  517.384    4.858    0.544    0.180   81.850  222.895
  517.634    4.846    0.512    0.188   82.006  222.748
  517.884    4.799    0.524    0.199   77.303  222.698
  518.134    4.752    0.553    0.216   74.114  222.765
  518.384    4.679    0.562    0.229   71.233  222.817
  518.634    4.600    0.521    0.230   68.228  222.877
  518.884    4.481    0.527    0.242   64.678  222.939
  519.134    4.269    0.499    0.278   61.548  222.995
  519.384    4.182    0.453    0.294   57.572  223.045
  519.634    4.111    0.461    0.299   54.204  223.323
  519.884    4.056    0.466    0.302   51.563  223.369
  520.134    4.258    0.490    0.310   49.166  223.632
  520.384    4.480    0.516    0.323   47.074  224.213
  520.634    4.861    0.487    0.316   45.345  224.785
  520.884    5.453    0.364    0.249   44.104  225.249
  521.134    6.355    0.290    0.205   43.531  225.614
  521.384    7.712    0.193    0.046   43.504  226.292
  521.634    9.888    0.173    0.039   43.663  227.079
  521.884   13.716    0.185    0.062   44.061  227.436
  522.134   13.986    0.205    0.087   45.311  227.603
  522.384   10.995    0.246    0.106   47.776  227.356
  522.634    8.884    0.266    0.134   51.636  226.793
  522.884    6.574    0.372    0.213   57.201  225.304
  523.134    5.531    0.518    0.261   64.834  223.620
  523.384    4.704    0.524    0.225   69.428  222.540
  523.634    4.313    0.497    0.196   75.053  220.847
  523.884    4.256    0.462    0.183   77.275  219.674
  524.134    4.347    0.445    0.159   77.491  219.735
  524.384    4.709    0.428    0.166   77.160  220.199
  524.634    4.999    0.431    0.195   76.955  220.981
  524.884    5.173    0.453    0.228   77.412  221.655
  525.134    5.274    0.476    0.233   78.786  222.533
  525.384    5.438    0.480    0.217   80.763  223.422
  525.634    5.596    0.440    0.192   81.893  224.096
  525.884    5.738    0.480    0.207   81.440  224.362
  526.134    5.861    0.465    0.206   81.534  224.318
  526.384    5.999    0.455    0.193   82.362  224.267
  526.634    6.173    0.452    0.183   82.217  224.118
  526.884    6.295    0.434    0.178   80.969  224.076
  527.134    6.337    0.433    0.177   79.059  224.243
  527.384    6.286    0.432    0.181   79.340  224.714
  527.634    6.225    0.461    0.191   80.466  224.983
  527.884    6.152    0.482    0.191   82.141  225.030
  528.134    6.093    0.471    0.174   83.331  225.296
  528.384    5.989    0.436    0.184   82.334  225.562
  528.634    5.909    0.462    0.163   81.210  225.834
  528.884    5.776    0.472    0.157   82.764  225.884
  529.134    5.720    0.451    0.149   81.705  225.939
  529.384    5.664    0.468    0.168   83.501  225.895
  529.634    5.599    0.462    0.177   84.631  225.854
  529.884    5.585    0.436    0.173   82.720  226.010
  530.134    5.551    0.493    0.190   84.273  226.273
  530.384    5.536    0.501    0.199   88.866  226.542
  530.634    5.503    0.495    0.187   90.543  226.808
  530.884    5.489    0.498    0.177   87.115  227.186
  531.134    5.486    0.515    0.160   86.056  227.648
  531.384    5.482    0.530    0.164   86.454  228.004
  531.634    5.489    0.515    0.160   86.913  228.268
  531.884    5.484    0.488    0.171   87.918  228.440
  532.134    5.522    0.507    0.183   89.046  227.887
  532.384    5.569    0.509    0.161   89.933  226.804
  532.634    5.689    0.488    0.187   88.327  225.008
  532.884    5.790    0.467    0.177   86.720  222.495
  533.134    5.959    0.468    0.194   83.290  220.390
  533.384    6.009    0.450    0.209   82.291  219.622
  533.634    5.939    0.424    0.214   81.048  219.372
  533.884    5.807    0.481    0.206   79.198  219.533
  534.134    5.677    0.492    0.229   77.530  220.227
  534.384    5.529    0.488    0.222   75.560  220.687
  534.634    5.435    0.478    0.213   72.919  221.251
  534.884    5.383    0.478    0.201   80.856  221.928
  535.134    5.300    0.495    0.193   85.207  222.506
  535.384    5.278    0.460    0.210   82.140  223.074
  535.634    5.333    0.450    0.185   80.473  223.960
  535.884    5.398    0.447    0.204   82.215  224.526
  536.134    5.464    0.451    0.210   84.676  225.099
  536.384    5.541    0.462    0.199   87.686  225.576
  536.634    5.599    0.483    0.173   88.877  225.935
  536.884    5.667    0.492    0.192   89.517  226.512
  537.134    5.706    0.483    0.199   89.736  226.887
  537.384    5.733    0.469    0.194   89.588  227.146
  537.634    5.707    0.450    0.187   87.922  227.308
  537.884    5.704    0.430    0.200   86.563  227.367
  538.134    5.669    0.438    0.188   85.377  227.417
  538.384    5.634    0.450    0.178   83.829  227.481
  538.634    5.600    0.459    0.168   81.796  227.555
  538.884    5.555    0.465    0.188   80.010  227.609
  539.134    5.572    0.475    0.182   79.194  227.652
  539.384    5.630    0.479    0.176   79.286  227.714
  539.634    5.720    0.485    0.169   80.901  227.361
  539.884    5.811    0.522    0.196   82.763  227.109
  540.134    5.872    0.462    0.180   82.612  227.268
  540.384    5.910    0.444    0.191   81.983  227.339
  540.634    5.951    0.456    0.174   81.587  227.495
  540.884    6.035    0.440    0.162   81.500  227.651
  541.134    6.142    0.423    0.199   81.777  227.410
  541.384    6.228    0.416    0.186   82.785  227.258
  541.634    6.225    0.435    0.189   84.584  227.114
  541.884    6.220    0.435    0.200   85.648  226.861
  542.134    6.194    0.445    0.212   85.926  227.218
  542.384    6.178    0.477    0.178   85.602  227.286
  542.634    6.096    0.503    0.177   85.572  227.649
  542.884    5.959    0.479    0.192   86.757  229.456
  543.134    5.836    0.436    0.188   89.283  231.161
  543.384    5.675    0.461    0.170   88.894  232.660
  543.634    5.497    0.473    0.188   85.038  235.805
  543.884    5.355    0.498    0.202   81.547  238.330
  544.134    5.342    0.483    0.195   80.672  233.967
  544.384    5.397    0.476    0.203   76.758  230.732
  544.634    5.503    0.505    0.165   76.977  229.143
  544.884    5.611    0.533    0.211   79.741  228.069
  545.134    5.849    0.510    0.209   82.696  227.208
  545.384    6.441    0.488    0.173   79.201  226.743
  545.634    7.774    0.456    0.101   72.978  226.496
  545.884    9.144    0.367    0.090   68.634  226.251
  546.134   10.776    0.303    0.042   67.396  226.301
  546.384   11.294    0.362    0.050   67.795  226.770
  546.634   10.299    0.319    0.070   69.166  226.833
  546.884    8.569    0.342    0.091   70.535  226.576
  547.134    8.047    0.449    0.137   72.213  226.224
  547.384    8.071    0.421    0.150   74.130  225.781
  547.634    8.320    0.454    0.163   76.838  225.621
  547.884    8.547    0.480    0.189   78.937  225.682
  548.134    8.715    0.453    0.202   80.188  225.338
  548.384    8.694    0.449    0.180   80.041  224.770
  548.634    8.468    0.433    0.138   72.782  224.308
  548.884    8.192    0.437    0.130   70.477  226.364
  549.134    7.853    0.348    0.099   67.354  226.873
  549.384    7.392    0.373    0.147   72.972  227.382
  549.634    6.894    0.416    0.164   76.634  227.579
  549.884    6.933    0.394    0.142   73.511  227.569
  550.134    8.672    0.396    0.111   74.301  227.455
  550.384   10.706    0.405    0.079   71.972  227.448
  550.634   11.523    0.310    0.025   65.426  227.023
  550.884   11.312    0.250   -0.006   60.959  226.496
  551.134   10.378    0.239   -0.010   64.803  226.177
