~VERSION INFORMATION
 VERS.                 2.0:   CWLS LOG ASCII STANDARD -VERSION 2.0
 WRAP.                  NO:   ONE LINE PER DEPTH STEP
~WELL INFORMATION BLOCK
#MNEM.UNIT           DATA                    DESCRIPTION OF MNEMONIC
#---------    -------------------            -------------------------------
# Generated from Intellog Unique Number	CS_71_72/WELL/892
WELL.         MURPHY OIL COMPANY             : Well_name    - WELL
LOC .         00/11-09-071-11W4/0            : Location     - LOCATION
UWI .         00/11-09-071-11W4/0            : Uwi          - UNIQUE WELL ID
ENTR.         SP                             : Entered      - ENTERED BY
SRVC.         SCHLUMBERGER                   : Scn          - SERVICE COMPANY
STRT.M        270                            : top_depth    - START DEPTH
STOP.M        465                            : bot_depth    - STOP DEPTH
STEP.M        0.25                           : increment    - STEP LENGTH
 NULL. -999.2500:NULL Value
~CURVE INFORMATION BLOCK
#MNEM UNIT       ERCB CURVE CODE    CURVE DESCRIPTION
#-----------   ------------------   ----------------------------------
DEPT.M        00 001 00 00         : DEPTH        - DEPTH
ILD .OHMM     00 120 00 00         : RESD         - DEEP RESISTIVITY (DIL)
DPHI.V/V      00 890 00 00         : PHID         - DENSITY POROSITY (LIMESTONE)
NPHI.V/V      00 330 00 00         : PHIN         - NEUTRON POROSITY (LIMESTONE)
GR  .API      00 310 00 00         : GR           - GAMMA RAY
~PARAMETER INFORMATION
#MNEM.UNIT           DATA             DESCRIPTION OF MNEMONIC
#---------         -----------     ------------------------------
GL  .M        612.9                : gl           - GROUND LEVEL ELEVATION
EREF.M        616.6                : kb           - ELEVATION OF DEPTH REFERENCE
DATM.M        612.9                : datum        - DATUM ELEVATION
TDD .M        480                  : tdd          - TOTAL DEPTH DRILLER
RUN .         ONE                  : Run          - RUN NUMBER
ENG .         BILL                 : Engineer     - RECORDING ENGINEER
WIT .         JIM                  : Witness      - WITNESSED BY
MUD .         GEL                  : Mud_type     - MUD TYPE
MATR.         LIMESTONE            : Logunit      - NEUTRON MATRIX
TMAX.C        26                   : BHT          - MAXIMUM RECORDED TEMPERATURE
BHTD.M        480                  : BHTDEP       - MAXIMUM RECORDED TEMPERATURE
MATR.         1                    : LOGUNIT      - NEUTRON MATRIX
RMT .C        25                   : MDTP         - TEMPERATURE OF MUD
NEUT.         1                    : NEUTRON      - NEUTRON TYPE
RESI.         0                    : RESIST       - RESISTIVITY TYPE
RMC .OHMM     0.25                 : RMC          - RESISTIVITY OF MUD CAKE
RMF .OHMM     0.25                 : RMF          - RESISTIVITY OF MUD FILTRATE
SUFT.C        15                   : SUFT         - SURFACE TEMPERATURE
~A  DEPTH     RESD     PHID     PHIN       GR
  270.000    2.825    0.201    0.396  101.367
  270.250    2.918    0.201    0.393  100.704
  270.500    2.959    0.195    0.400  101.203
  270.750    3.073    0.192    0.409  101.398
  271.000    3.340    0.169    0.415   99.087
  271.250    3.528    0.123    0.378   95.369
  271.500    3.665    0.101    0.359   91.408
  271.750    3.771    0.145    0.341   89.830
  272.000    3.947    0.175    0.346   97.722
  272.250    3.854    0.193    0.362  104.942
  272.500    3.686    0.205    0.376  110.635
  272.750    3.532    0.198    0.389  111.868
  273.000    3.315    0.195    0.393  110.840
  273.250    3.200    0.199    0.385  107.551
  273.500    3.107    0.212    0.390  106.219
  273.750    3.039    0.223    0.397  106.228
  274.000    3.001    0.228    0.402  104.589
  274.250    2.963    0.225    0.397  101.849
  274.500    2.964    0.220    0.393   98.440
  274.750    3.022    0.217    0.404   95.822
  275.000    3.110    0.218    0.414   93.937
  275.250    3.224    0.213    0.424   93.705
  275.500    3.262    0.209    0.405   93.653
  275.750    3.132    0.208    0.391   93.480
  276.000    2.984    0.217    0.371   93.491
  276.250    2.908    0.212    0.386   94.173
  276.500    3.374    0.197    0.392   88.074
  276.750    4.450    0.205    0.372   70.610
  277.000    7.675    0.261    0.127   54.306
  277.250   12.726    0.338    0.091   45.763
  277.500   25.367    0.377    0.084   42.474
  277.750   39.461    0.407    0.094   42.545
  278.000   46.662    0.410    0.104   42.557
  278.250   46.161    0.400    0.112   42.386
  278.500   39.666    0.397    0.117   42.394
  278.750   33.262    0.402    0.103   41.312
  279.000   37.540    0.409    0.091   40.890
  279.250   38.546    0.406    0.084   39.737
  279.500   35.505    0.354    0.116   36.081
  279.750   27.155    0.300    0.172   42.874
  280.000   22.097    0.257    0.212   58.954
  280.250   16.774    0.223    0.243   75.155
  280.500   12.264    0.209    0.274   87.203
  280.750    9.034    0.204    0.296   97.234
  281.000    7.014    0.203    0.317  102.193
  281.250    6.222    0.206    0.326  104.527
  281.500    6.549    0.211    0.333  105.330
  281.750    6.689    0.214    0.340  101.430
  282.000    6.667    0.209    0.328   98.691
  282.250    6.608    0.204    0.316   99.680
  282.500    6.488    0.213    0.317  100.975
  282.750    6.323    0.223    0.329  101.289
  283.000    6.058    0.229    0.324   99.650
  283.250    5.783    0.225    0.314   99.049
  283.500    5.657    0.216    0.319  101.687
  283.750    5.617    0.212    0.331  106.344
  284.000    5.684    0.209    0.339  108.734
  284.250    5.893    0.215    0.342  100.191
  284.500    7.303    0.239    0.315   86.943
  284.750    9.504    0.283    0.252   71.740
  285.000   10.583    0.325    0.196   56.903
  285.250   11.436    0.347    0.182   46.770
  285.500   10.957    0.313    0.207   64.378
  285.750    9.069    0.289    0.234   73.004
  286.000    7.763    0.272    0.250   77.291
  286.250    6.861    0.259    0.266   77.913
  286.500    6.156    0.288    0.286   71.446
  286.750    5.703    0.317    0.311   56.244
  287.000    5.454    0.337    0.332   48.310
  287.250    5.395    0.336    0.319   48.565
  287.500    5.398    0.306    0.305   55.297
  287.750    5.452    0.271    0.296   62.213
  288.000    5.589    0.247    0.294   68.698
  288.250    5.633    0.222    0.307   76.713
  288.500    5.388    0.205    0.321   83.811
  288.750    4.629    0.197    0.337   91.154
  289.000    3.897    0.196    0.358   98.618
  289.250    3.298    0.198    0.382  106.695
  289.500    2.856    0.205    0.403  113.426
  289.750    2.500    0.214    0.420  113.925
  290.000    2.269    0.224    0.435  112.286
  290.250    2.361    0.233    0.447  108.936
  290.500    2.740    0.241    0.455  102.348
  290.750    3.132    0.248    0.423   93.927
  291.000    3.846    0.256    0.403   87.155
  291.250    4.793    0.267    0.380   81.055
  291.500    5.930    0.281    0.360   75.200
  291.750    6.665    0.293    0.367   73.255
  292.000    6.976    0.306    0.362   72.411
  292.250    7.019    0.318    0.343   69.977
  292.500    6.853    0.331    0.330   66.871
  292.750    6.766    0.323    0.335   63.950
  293.000    6.681    0.313    0.342   62.555
  293.250    6.622    0.305    0.341   62.504
  293.500    6.725    0.300    0.339   64.044
  293.750    6.628    0.301    0.340   65.457
  294.000    6.594    0.309    0.341   67.422
  294.250    6.584    0.314    0.343   69.392
  294.500    6.575    0.313    0.351   70.071
  294.750    6.480    0.316    0.359   70.757
  295.000    6.398    0.319    0.363   70.825
  295.250    6.306    0.324    0.358   69.370
  295.500    6.227    0.330    0.347   66.630
  295.750    6.171    0.335    0.335   64.563
  296.000    6.197    0.341    0.329   63.351
  296.250    6.236    0.345    0.339   65.259
  296.500    6.357    0.344    0.344   66.734
  296.750    6.432    0.344    0.342   68.272
  297.000    6.484    0.341    0.341   67.243
  297.250    6.486    0.334    0.343   64.626
  297.500    6.789    0.324    0.353   60.666
  297.750    7.805    0.297    0.373   57.011
  298.000    8.449    0.210    0.390   52.928
  298.250    9.079    0.182    0.366   49.456
  298.500    9.066    0.164    0.329   46.654
  298.750    8.622    0.248    0.277   54.913
  299.000    8.246    0.278    0.293   61.645
  299.250    7.945    0.295    0.320   62.877
  299.500    7.729    0.307    0.333   63.684
  299.750    7.576    0.309    0.321   62.287
  300.000    7.563    0.307    0.319   61.197
  300.250    7.638    0.304    0.328   61.819
  300.500    7.699    0.301    0.332   62.013
  300.750    7.790    0.301    0.328   59.397
  301.000    7.838    0.302    0.326   56.901
  301.250    7.798    0.298    0.326   54.895
  301.500    7.685    0.295    0.332   58.572
  301.750    7.336    0.295    0.340   65.121
  302.000    6.732    0.294    0.344   73.501
  302.250    6.155    0.286    0.334   83.472
  302.500    5.595    0.278    0.328   89.653
  302.750    5.301    0.273    0.336   90.948
  303.000    5.344    0.277    0.345   89.246
  303.250    5.468    0.289    0.351   82.230
  303.500    5.680    0.299    0.345   74.786
  303.750    5.923    0.306    0.343   69.604
  304.000    6.095    0.309    0.344   69.613
  304.250    6.380    0.301    0.341   74.512
  304.500    6.466    0.299    0.326   80.573
  304.750    6.629    0.288    0.316   86.020
  305.000    6.747    0.273    0.312   91.652
  305.250    6.761    0.261    0.312   94.962
  305.500    6.828    0.252    0.319   97.787
  305.750    6.883    0.242    0.324   98.893
  306.000    6.860    0.231    0.330  100.861
  306.250    6.748    0.224    0.337  103.076
  306.500    6.701    0.223    0.341  103.629
  306.750    6.806    0.234    0.345   99.608
  307.000    6.965    0.248    0.351   95.463
  307.250    7.101    0.254    0.359   91.136
  307.500    7.143    0.250    0.371   88.273
  307.750    7.190    0.244    0.381   88.834
  308.000    7.177    0.236    0.387   87.562
  308.250    7.141    0.237    0.380   85.129
  308.500    7.076    0.241    0.371   83.733
  308.750    6.844    0.244    0.364   86.188
  309.000    6.352    0.248    0.360   89.620
  309.250    5.656    0.252    0.375   93.174
  309.500    4.824    0.246    0.395   97.523
  309.750    4.161    0.241    0.411  100.222
  310.000    3.804    0.235    0.421  101.515
  310.250    3.504    0.231    0.426  102.566
  310.500    3.395    0.230    0.428  103.370
  310.750    3.494    0.233    0.426  104.296
  311.000    3.840    0.232    0.417  104.735
  311.250    4.292    0.231    0.405  103.645
  311.500    4.726    0.238    0.399  102.494
  311.750    5.087    0.255    0.389  100.611
  312.000    5.435    0.277    0.379   96.772
  312.250    5.884    0.298    0.379   89.390
  312.500    6.311    0.313    0.384   74.859
  312.750    6.743    0.324    0.387   70.409
  313.000    7.164    0.334    0.382   66.938
  313.250    7.470    0.341    0.368   65.480
