~VERSION INFORMATION
 VERS.                 2.0:   CWLS LOG ASCII STANDARD -VERSION 2.0
 WRAP.                  NO:   ONE LINE PER DEPTH STEP
~WELL INFORMATION BLOCK
#MNEM.UNIT           DATA                    DESCRIPTION OF MNEMONIC
#---------    -------------------            -------------------------------
# Generated from Intellog Unique Number	CS_73_76/WELL/4784
WELL.         BOW VALLEY INDUSTRIES          : Well_name    - WELL
LOC .         00/11-28-076-16W4/0            : Location     - LOCATION
UWI .         00/11-28-076-16W4/0            : Uwi          - UNIQUE WELL ID
ENTR.         JO                             : Entered      - ENTERED BY
SRVC.         SCHLUMBERGER                   : Scn          - SERVICE COMPANY
STRT.M        330                            : top_depth    - START DEPTH
STOP.M        555                            : bot_depth    - STOP DEPTH
STEP.M        0.25                           : increment    - STEP LENGTH
 NULL. -999.2500:NULL Value
~CURVE INFORMATION BLOCK
#MNEM UNIT       ERCB CURVE CODE    CURVE DESCRIPTION
#-----------   ------------------   ----------------------------------
DEPT.M        00 001 00 00         : DEPTH        - DEPTH
GR  .API      00 310 00 00         : GR           - GAMMA RAY
NPHI.V/V      00 330 00 00         : PHIN         - NEUTRON POROSITY (SANDSTONE)
DPHI.V/V      00 890 00 00         : PHID         - DENSITY POROSITY (SANDSTONE)
ILD .OHMM     00 120 00 00         : RESD         - DEEP RESISTIVITY (DIL)
~PARAMETER INFORMATION
#MNEM.UNIT           DATA             DESCRIPTION OF MNEMONIC
#---------         -----------     ------------------------------
GL  .M        699.4                : gl           - GROUND LEVEL ELEVATION
EREF.M        708.7                : kb           - ELEVATION OF DEPTH REFERENCE
DATM.M        708.7                : datum        - DATUM ELEVATION
TDD .M        561                  : tdd          - TOTAL DEPTH DRILLER
RUN .         ONE                  : Run          - RUN NUMBER
ENG .         BILL                 : Engineer     - RECORDING ENGINEER
WIT .         JIM                  : Witness      - WITNESSED BY
MUD .         GEL                  : Mud_type     - MUD TYPE
MATR.         SANDSTONE            : Logunit      - NEUTRON MATRIX
TMAX.C        38                   : BHT          - MAXIMUM RECORDED TEMPERATURE
BHTD.M        561                  : BHTDEP       - MAXIMUM RECORDED TEMPERATURE
MATR.         1                    : LOGUNIT      - NEUTRON MATRIX
RMT .C        22                   : MDTP         - TEMPERATURE OF MUD
NEUT.         1                    : NEUTRON      - NEUTRON TYPE
RESI.         0                    : RESIST       - RESISTIVITY TYPE
RMC .OHMM     2                    : RMC          - RESISTIVITY OF MUD CAKE
RMF .OHMM     4                    : RMF          - RESISTIVITY OF MUD FILTRATE
SUFT.C        5                    : SUFT         - SURFACE TEMPERATURE
~A  DEPTH       GR     PHIN     PHID     RESD
# ...
  373.500   80.294    0.396    0.274    8.715
  373.750   88.224    0.399    0.265    8.717
  374.000  102.226    0.390    0.253    8.558
  374.250  110.758    0.394    0.239    8.559
  374.500   89.513    0.388    0.250    7.793
  374.750   77.385    0.381    0.266    7.231
  375.000   78.624    0.393    0.260    7.097
  375.250   94.449    0.387    0.257    6.837
  375.500  101.766    0.400    0.256    6.839
  375.750  102.398    0.421    0.249    6.971
  376.000   93.307    0.425    0.241    7.807
  376.250   96.978    0.422    0.244    8.263
  376.500   97.002    0.430    0.257    8.265
  376.750  106.142    0.440    0.266    7.962
  377.000   92.190    0.428    0.268    7.670
  377.250   83.100    0.419    0.258    7.116
  377.500   89.809    0.419    0.223    6.728
  377.750   84.972    0.437    0.202    6.242
  378.000   89.858    0.456    0.166    6.013
  378.250   94.750    0.443    0.242    5.793
  378.500   67.423    0.412    0.282    5.686
  378.750   57.117    0.388    0.295    6.248
  379.000   54.711    0.385    0.303    7.982
  379.250   66.281    0.381    0.307   10.993
  379.500   66.913    0.378    0.313   12.311
  379.750   54.183    0.390    0.324   12.548
  380.000   57.847    0.405    0.315   13.034
  380.250   56.663    0.402    0.304   13.538
  380.500   59.118    0.397    0.320   14.059
  380.750   55.496    0.394    0.334   14.881
  381.000   54.306    0.400    0.322   16.354
  381.250   55.539    0.444    0.315   16.983
  381.500   62.255    0.459    0.324   17.976
  381.750   58.026    0.433    0.332   18.321
  382.000   54.410    0.406    0.334   18.326
  382.250   52.606    0.395    0.334   18.332
  382.500   50.199    0.390    0.336   17.660
  382.750   54.484    0.384    0.337   16.697
  383.000   57.541    0.379    0.341   15.491
  383.250   58.179    0.384    0.344   14.644
  383.500   56.381    0.388    0.347   13.587
  383.750   53.373    0.406    0.346   12.607
  384.000   50.955    0.392    0.341   12.373
  384.250   53.410    0.380    0.330   11.698
  384.500   52.833    0.383    0.318   11.269
  384.750   50.421    0.375    0.321   10.856
  385.000   52.275    0.401    0.318   11.066
  385.250   54.724    0.403    0.312   11.493
  385.500   55.356    0.392    0.317   11.496
  385.750   58.419    0.394    0.319   11.499
  386.000   64.520    0.398    0.319   11.290
  386.250   64.545    0.403    0.338   11.292
  386.500   56.062    0.405    0.337   10.477
  386.750   59.733    0.383    0.350    9.186
  387.000   67.056    0.383    0.342    7.332
  387.250   56.136    0.371    0.297    6.192
  387.500   47.045    0.339    0.238    5.429
  387.750   37.347    0.283    0.194    4.585
  388.000   27.041    0.283    0.198    4.174
  388.250   23.419    0.330    0.216    4.021
  388.500   32.559    0.357    0.251    4.419
  388.750   43.528    0.370    0.293    4.856
  389.000   49.022    0.384    0.300    6.088
  389.250   52.693    0.390    0.291    8.706
  389.500   58.794    0.395    0.290    9.750
  389.750   56.388    0.397    0.301   10.126
  390.000   46.082    0.390    0.320   10.717
  390.250   41.853    0.373    0.339   11.131
  390.500   50.992    0.391    0.343   11.561
  390.750   57.094    0.404    0.345   11.565
  391.000   48.611    0.401    0.344   11.568
  391.250   48.034    0.396    0.336   11.145
  391.500   48.666    0.382    0.331   10.736
  391.750   44.431    0.373    0.344   10.738
  392.000   40.202    0.373    0.347   10.541
  392.250   36.580    0.368    0.355   10.544
  392.500   40.858    0.365    0.359   10.547
  392.750   43.320    0.359    0.340   10.551
  393.000   45.168    0.366    0.327   10.555
  393.250   42.755    0.375    0.332   10.556
  393.500   47.034    0.369    0.331   10.761
  393.750   42.197    0.371    0.325   10.968
  394.000   42.227    0.366    0.321   11.829
  394.250   37.385    0.381    0.312   12.056
  394.500   38.624    0.383    0.311   12.760
  394.750   40.478    0.378    0.303   13.253
  395.000   37.471    0.383    0.302   13.256
  395.250   42.350    0.394    0.303   13.261
  395.500   45.413    0.402    0.306   13.017
  395.750   41.184    0.410    0.312   12.779
  396.000   36.955    0.415    0.321   12.781
  396.250   36.378    0.407    0.328   12.314
  396.500   36.403    0.402    0.333   11.862
  396.750   36.427    0.410    0.328   11.645
  397.000   37.060    0.415    0.319   11.431
  397.250   38.901    0.405    0.321   11.221
  397.500   40.147    0.392    0.332   11.015
  397.750   37.735    0.393    0.341   11.017
  398.000   37.759    0.392    0.351   11.020
  398.250   37.790    0.389    0.357   11.023
  398.500   38.416    0.389    0.360   11.027
  398.750   40.264    0.395    0.359   11.454
  399.000   36.642    0.402    0.347   11.673
  399.250   36.059    0.413    0.347   11.899
  399.500   36.084    0.419    0.345   11.901
  399.750   34.893    0.408    0.333   11.901
  400.000   36.139    0.397    0.325   11.911
  400.250   37.373    0.387    0.332   12.370
  400.500   38.625    0.384    0.337   12.142
  400.750   36.213    0.386    0.342   11.919
  401.000   35.630    0.396    0.343   11.700
  401.250   37.478    0.395    0.337   11.273
  401.500   34.464    0.394    0.333   11.064
  401.750   32.671    0.403    0.337   10.863
  402.000   33.304    0.399    0.348   10.864
  402.250   33.930    0.398    0.355   10.867
  402.500   36.385    0.413    0.349   10.871
  402.750   38.239    0.425    0.333   11.080
  403.000   36.440    0.410    0.319   11.082
  403.250   36.459    0.396    0.327   11.088
  403.500   40.136    0.394    0.337   11.090
  403.750   37.730    0.387    0.349   11.092
  404.000   37.748    0.383    0.338   11.097
  404.250   39.602    0.386    0.318   11.099
  404.500   35.373    0.394    0.323   11.102
  404.750   32.353    0.399    0.334   11.106
  405.000   29.339    0.381    0.337   11.109
  405.250   33.010    0.371    0.337   11.111
  405.500   38.503    0.384    0.332   11.114
  405.750   40.363    0.397    0.334   11.119
  406.000   38.559    0.414    0.331   11.119
  406.250   41.014    0.406    0.332   11.995
  406.500   44.691    0.401    0.333   10.919
  406.750   42.886    0.426    0.338   10.923
  407.000   47.778    0.414    0.341   11.134
  407.250   50.835    0.402    0.343   11.138
  407.500   52.683    0.404    0.338   11.352
  407.750   48.454    0.404    0.327   11.571
  408.000   45.446    0.404    0.312   11.793
  408.250   43.641    0.408    0.314   12.021
  408.500   46.097    0.405    0.323   12.024
  408.750   51.596    0.411    0.338   11.803
  409.000   49.798    0.405    0.338   11.371
  409.250   46.176    0.389    0.332   11.161
  409.500   46.195    0.389    0.323   11.165
  409.750   49.866    0.418    0.318   10.960
  410.000   48.073    0.431    0.334   10.963
  410.250   45.059    0.417    0.344   11.175
  410.500   51.155    0.407    0.345   11.392
  410.750   50.578    0.435    0.346   11.610
  411.000   49.387    0.436    0.337   12.288
  411.250   45.766    0.423    0.332   12.525
  411.500   50.652    0.409    0.337   12.528
  411.750   51.284    0.399    0.328   12.531
  412.000   48.276    0.400    0.321   11.847
  412.250   47.693    0.397    0.330   11.629
  412.500   48.325    0.426    0.341   11.415
  412.750   51.990    0.422    0.336   11.206
  413.000   48.976    0.413    0.324   11.000
  413.250   50.216    0.404    0.313   11.003
  413.500   54.494    0.397    0.324   10.802
  413.750   61.811    0.391    0.331   10.805
  414.000   60.013    0.398    0.325   10.809
  414.250   53.353    0.423    0.316   10.610
  414.500   49.130    0.443    0.321   10.613
  414.750   53.402    0.439    0.335   10.616
  415.000   58.288    0.428    0.340   10.618
  415.250   55.882    0.406    0.334   10.823
  415.500   56.514    0.407    0.320   11.033
  415.750   60.799    0.422    0.309   11.034
  416.000   57.791    0.421    0.321   11.461
  416.250   55.385    0.412    0.329   11.904
  416.500   57.232    0.417    0.342   12.134
  416.750   62.720    0.411    0.334   11.911
