~VERSION INFORMATION
 VERS.                 2.0:   CWLS LOG ASCII STANDARD -VERSION 2.0
 WRAP.                  NO:   ONE LINE PER DEPTH STEP
~WELL INFORMATION BLOCK
#MNEM.UNIT           DATA                    DESCRIPTION OF MNEMONIC
#---------    -------------------            -------------------------------
# Generated from Intellog Unique Number	CS_71_72/WELL/3326
WELL.         ALBERTA ENERGY CO.LTD.         : Well_name    - WELL
LOC .         00/10-32-072-03W4/0            : Location     - LOCATION
UWI .         00/10-33-067-11W4/0            : Uwi          - UNIQUE WELL ID
ENTR.         JOETTE                         : Entered      - ENTERED BY
SRVC.         SCHLUMBERGER                   : Scn          - SERVICE COMPANY
DATE.         05/13/92                       : Date         - LOG DATE
STRT.M        325                            : top_depth    - START DEPTH
STOP.M        560                            : bot_depth    - STOP DEPTH
STEP.M        0.25                           : increment    - STEP LENGTH
 NULL. -999.2500:NULL Value
~CURVE INFORMATION BLOCK
#MNEM UNIT       ERCB CURVE CODE    CURVE DESCRIPTION
#-----------   ------------------   ----------------------------------
DEPT.M        00 001 00 00         : DEPTH        - DEPTH
CALI.MM       00 280 01 00         : CAL          - CALIPER
GR  .API      00 310 00 00         : GR           - GAMMA RAY
NPHI.V/V      00 330 00 00         : PHIN         - NEUTRON POROSITY (SANDSTONE)
DPHI.V/V      00 890 00 00         : PHID         - DENSITY POROSITY (SANDSTONE)
ILD .OHMM     00 120 00 00         : RESD         - DEEP RESISTIVITY (DIL)
~PARAMETER INFORMATION
#MNEM.UNIT           DATA             DESCRIPTION OF MNEMONIC
#---------         -----------     ------------------------------
GL  .M        695.31               : gl           - GROUND LEVEL ELEVATION
EREF.M        698.91               : kb           - ELEVATION OF DEPTH REFERENCE
DATM.M        698.91               : datum        - DATUM ELEVATION
TDD .M        566                  : tdd          - TOTAL DEPTH DRILLER
RUN .         ONE                  : Run          - RUN NUMBER
ENG .         BILL                 : Engineer     - RECORDING ENGINEER
WIT .         JIM                  : Witness      - WITNESSED BY
MUD .         GEL                  : Mud_type     - MUD TYPE
MATR.         SANDSTONE            : Logunit      - NEUTRON MATRIX
TMAX.C        32                   : BHT          - MAXIMUM RECORDED TEMPERATURE
BHTD.M        566                  : BHTDEP       - MAXIMUM RECORDED TEMPERATURE
MATR.         1                    : LOGUNIT      - NEUTRON MATRIX
RMT .C        12                   : MDTP         - TEMPERATURE OF MUD
NEUT.         1                    : NEUTRON      - NEUTRON TYPE
RESI.         0                    : RESIST       - RESISTIVITY TYPE
RMC .OHMM     2.5                  : RMC          - RESISTIVITY OF MUD CAKE
RMF .OHMM     2.3                  : RMF          - RESISTIVITY OF MUD FILTRATE
SUFT.C        4                    : SUFT         - SURFACE TEMPERATURE
~A  DEPTH      CAL       GR     PHIN     PHID     RESD
# ...
  507.500  158.326   56.954    0.384    0.277    6.411
  507.750  158.397   58.208    0.379    0.276    6.421
  508.000  158.468   58.848    0.374    0.272    6.429
  508.250  159.339   59.502    0.373    0.271    6.318
  508.500  159.410   58.955    0.371    0.268    6.327
  508.750  159.481   63.225    0.376    0.263    6.219
  509.000  159.553   59.075    0.378    0.256    6.225
  509.250  159.624   53.110    0.379    0.259    6.120
  509.500  159.712   54.978    0.379    0.271    6.013
  509.750  159.748   54.431    0.373    0.271    5.802
  510.000  159.837   52.083    0.371    0.276    5.596
  510.250  159.943   50.335    0.384    0.288    5.298
  510.500  159.996   47.986    0.401    0.301    5.018
  510.750  160.050   45.624    0.399    0.312    4.930
  511.000  160.103   46.278    0.389    0.305    4.754
  511.250  160.192   45.157    0.380    0.297    4.503
  511.500  160.298   42.782    0.380    0.308    4.423
  511.750  160.352   37.431    0.384    0.322    4.347
  512.000  159.604   35.683    0.383    0.322    4.195
  512.250  159.711   33.935    0.378    0.321    4.199
  512.500  159.764   33.388    0.377    0.321    4.128
  512.750  159.835   40.673    0.379    0.322    4.131
  513.000  159.088   42.515    0.381    0.322    4.136
  513.250  159.159   47.385    0.376    0.317    4.143
  513.500  160.030   50.427    0.371    0.308    4.305
  513.750  160.119   58.899    0.375    0.291    4.560
  514.000  158.589   72.162    0.414    0.279    4.921
  514.250  157.842   87.240    0.407    0.228    5.513
  514.500  156.329   84.891    0.405    0.234    5.726
  514.750  155.582   78.340    0.406    0.240    6.178
  515.000  154.906   76.592    0.405    0.235    6.421
  515.250  154.959   78.446    0.395    0.225    6.674
  515.500  155.012   83.303    0.401    0.209    6.683
  515.750  155.066   88.160    0.405    0.195    6.448
  516.000  155.172   64.783    0.394    0.199    6.103
  516.250  156.062   49.825    0.388    0.232    5.463
  516.500  156.115   42.673    0.392    0.248    4.891
  516.750  155.403   42.727    0.384    0.285    4.899
  517.000  154.656   48.784    0.377    0.279    4.996
  517.250  153.926   57.844    0.378    0.253    5.292
  517.500  153.979   62.127    0.395    0.241    5.500
  517.750  153.268   65.769    0.396    0.251    5.717
  518.000  152.538   62.821    0.409    0.254    5.516
  518.250  152.591   50.251    0.419    0.263    5.222
  518.500  152.680   43.099    0.414    0.282    5.037
  518.750  152.769   51.572    0.404    0.288    5.236
  519.000  152.804   63.034    0.400    0.259    5.339
  519.250  152.893   60.085    0.403    0.238    5.447
  519.500  152.982   28.902    0.386    0.277    5.557
  519.750  153.018   27.154    0.372    0.297    4.792
  520.000  153.106   29.622    0.372    0.314    4.372
  520.250  152.395   32.064    0.377    0.322    4.217
  520.500  152.448   36.320    0.384    0.318    4.143
  520.750  152.554   41.191    0.378    0.309    4.229
  521.000  152.608   46.648    0.370    0.296    4.394
  521.250  152.661   52.118    0.359    0.259    4.481
  521.500  151.931   53.973    0.356    0.249    5.019
  521.750  152.020   55.841    0.365    0.256    5.517
  522.000  152.091   48.062    0.380    0.274    5.422
  522.250  152.180   30.102    0.384    0.304    4.677
  522.500  152.215   22.336    0.388    0.356    4.265
  522.750  152.304   23.030    0.390    0.366    3.611
  523.000  152.358   24.858    0.390    0.361    3.000
  523.250  152.446   27.326    0.381    0.348    2.949
  523.500  152.500   27.379    0.367    0.339    2.897
  523.750  152.606   25.618    0.373    0.338    2.900
  524.000  151.859   21.482    0.375    0.336    2.900
  524.250  151.948   20.934    0.369    0.336    3.574
  524.500  152.036   22.189    0.381    0.340    3.574
  524.750  152.072   23.429    0.388    0.338    3.143
  525.000  152.161   24.083    0.382    0.336    3.267
  525.250  152.214   22.362    0.379    0.336    3.272
  525.500  152.321   21.788    0.387    0.338    3.274
  525.750  152.374   22.442    0.392    0.344    3.278
  526.000  153.245   24.897    0.389    0.349    3.283
  526.250  153.316   24.363    0.381    0.346    3.288
  526.500  153.387   22.601    0.376    0.339    3.292
  526.750  153.459   22.695    0.363    0.336    3.234
  527.000  153.512   22.721    0.366    0.335    3.238
  527.250  153.583   23.975    0.377    0.337    3.182
  527.500  153.654   25.256    0.388    0.343    3.186
  527.750  153.725   25.883    0.395    0.346    3.133
  528.000  153.831   26.550    0.389    0.345    3.136
  528.250  153.885   27.191    0.386    0.345    3.142
  528.500  153.956   27.244    0.386    0.344    3.085
  528.750  154.027   26.697    0.385    0.337    3.090
  529.000  154.098   27.951    0.375    0.334    3.095
  529.250  154.187   30.419    0.373    0.329    3.099
  529.500  154.240   28.057    0.359    0.320    3.103
  529.750  154.329   25.722    0.343    0.317    3.107
  530.000  154.382   25.175    0.354    0.314    3.111
  530.250  154.471   25.242    0.365    0.319    3.116
  530.500  154.524   25.895    0.377    0.324    3.118
  530.750  153.012   24.735    0.387    0.328    3.124
  531.000  153.083   24.201    0.386    0.331    3.127
  531.250  152.335   24.254    0.377    0.332    3.132
  531.500  151.624   24.908    0.369    0.328    3.134
  531.750  151.677   26.762    0.359    0.321    3.138
  532.000  150.947   28.617    0.351    0.319    3.084
  532.250  150.218   26.869    0.353    0.318    3.089
  532.500  149.506   26.308    0.353    0.318    3.092
  532.750  149.595   25.774    0.347    0.318    3.096
  533.000  148.865   25.828    0.350    0.319    3.043
  533.250  148.936   27.669    0.367    0.324    3.104
  533.500  148.989   28.923    0.389    0.331    3.109
  533.750  149.078   27.188    0.403    0.340    3.114
  534.000  149.167   26.041    0.403    0.360    3.118
  534.250  149.203   25.507    0.398    0.361    3.181
  534.500  149.291   26.147    0.395    0.344    3.185
  534.750  149.345   26.201    0.387    0.342    3.189
  535.000  150.234   25.653    0.389    0.345    3.133
  535.250  150.287   24.506    0.401    0.347    3.137
  535.500  150.358   23.358    0.413    0.353    3.142
  535.750  151.230   24.012    0.421    0.367    3.088
  536.000  151.301   26.467    0.413    0.360    3.092
  536.250  151.372   30.723    0.397    0.345    3.095
  536.500  151.478   29.576    0.386    0.334    3.042
  536.750  151.549   26.640    0.375    0.331    3.046
  537.000  151.621   29.095    0.364    0.326    3.050
  537.250  151.709   30.336    0.391    0.344    3.111
  537.500  151.763   32.804    0.403    0.374    3.174
  537.750  151.816   35.259    0.419    0.375    3.238
  538.000  151.905   35.326    0.437    0.369    3.365
  538.250  151.193   38.381    0.449    0.360    3.500
  538.500  151.246   41.423    0.439    0.364    3.637
  538.750  151.317   41.503    0.425    0.368    3.709
  539.000  151.388   43.358    0.413    0.374    3.855
  539.250  151.477   45.186    0.401    0.334    3.933
  539.500  151.512   49.456    0.392    0.313    3.939
  539.750  151.601   52.511    0.391    0.305    3.799
  540.000  150.854   48.361    0.390    0.308    3.530
  540.250  150.943   40.008    0.387    0.316    3.342
  540.500  151.049   36.459    0.393    0.320    3.285
  540.750  151.103   35.311    0.391    0.324    3.168
  541.000  151.156   34.764    0.381    0.337    3.113
  541.250  151.245   33.617    0.372    0.330    3.118
  541.500  151.298   32.496    0.379    0.326    3.122
  541.750  150.604   32.522    0.397    0.329    3.185
  542.000  150.639   35.578    0.397    0.333    3.249
  542.250  149.910   38.033    0.389    0.327    3.314
  542.500  149.981   38.687    0.382    0.323    3.446
  542.750  149.269   36.952    0.380    0.324    3.582
  543.000  149.322   35.804    0.379    0.318    3.865
  543.250  149.429   37.045    0.375    0.306    3.941
  543.500  149.482   39.500    0.371    0.318    4.023
  543.750  149.535   38.953    0.369    0.313    4.101
