~VERSION INFORMATION
 VERS.                 2.0:   CWLS LOG ASCII STANDARD -VERSION 2.0
 WRAP.                  NO:   ONE LINE PER DEPTH STEP
~WELL INFORMATION BLOCK
#MNEM.UNIT           DATA                    DESCRIPTION OF MNEMONIC
#---------    -------------------            -------------------------------
# Generated from Intellog Unique Number	CS_77_79/WELL/3303
WELL.         ATCOR LTD.                     : Well_name    - WELL
LOC .         00/11-23-077-13W4/0            : Location     - LOCATION
UWI .         00/11-23-077-13W4/0            : Uwi          - UNIQUE WELL ID
ENTR.         JO                             : Entered      - ENTERED BY
SRVC.         SCHLUMBERGER                   : Scn          - SERVICE COMPANY
DATE.         05/22/92                       : Date         - LOG DATE
STRT.M        285                            : top_depth    - START DEPTH
STOP.M        505                            : bot_depth    - STOP DEPTH
STEP.M        0.25                           : increment    - STEP LENGTH
 NULL. -999.2500:NULL Value
~CURVE INFORMATION BLOCK
#MNEM UNIT       ERCB CURVE CODE    CURVE DESCRIPTION
#-----------   ------------------   ----------------------------------
DEPT.M        00 001 00 00         : DEPTH        - DEPTH
GR  .API      00 310 00 00         : GR           - GAMMA RAY
NPHI.V/V      00 330 00 00         : PHIN         - NEUTRON POROSITY (SANDSTONE)
DPHI.V/V      00 890 00 00         : PHID         - DENSITY POROSITY (SANDSTONE)
ILD .OHMM     00 120 00 00         : RESD         - DEEP RESISTIVITY (DIL)
~PARAMETER INFORMATION
#MNEM.UNIT           DATA             DESCRIPTION OF MNEMONIC
#---------         -----------     ------------------------------
GL  .M        683.2                : gl           - GROUND LEVEL ELEVATION
EREF.M        686.7                : kb           - ELEVATION OF DEPTH REFERENCE
DATM.M        686.7                : datum        - DATUM ELEVATION
TDD .M        511                  : tdd          - TOTAL DEPTH DRILLER
RUN .         ONE                  : Run          - RUN NUMBER
ENG .         BILL                 : Engineer     - RECORDING ENGINEER
WIT .         JIM                  : Witness      - WITNESSED BY
MUD .         GEL                  : Mud_type     - MUD TYPE
MATR.         SANDSTONE            : Logunit      - NEUTRON MATRIX
TMAX.C        21                   : BHT          - MAXIMUM RECORDED TEMPERATURE
BHTD.M        511                  : BHTDEP       - MAXIMUM RECORDED TEMPERATURE
MATR.         1                    : LOGUNIT      - NEUTRON MATRIX
RMT .C        20                   : MDTP         - TEMPERATURE OF MUD
NEUT.         1                    : NEUTRON      - NEUTRON TYPE
RESI.         0                    : RESIST       - RESISTIVITY TYPE
RMC .OHMM     0                    : RMC          - RESISTIVITY OF MUD CAKE
RMF .OHMM     5.64                 : RMF          - RESISTIVITY OF MUD FILTRATE
SUFT.C        5                    : SUFT         - SURFACE TEMPERATURE
~A  DEPTH       GR     PHIN     PHID     RESD
# ...
  415.500   59.916    0.401    0.332    5.935
  415.750   61.233    0.426    0.333    5.842
  416.000   60.761    0.423    0.335    5.647
  416.250   60.237    0.412    0.331    5.458
  416.500   59.134    0.406    0.325    5.569
  416.750   59.267    0.407    0.329    6.236
  417.000   59.374    0.404    0.332    6.609
  417.250   59.481    0.396    0.332    6.617
  417.500   58.983    0.413    0.327    6.396
  417.750   57.248    0.419    0.324    6.070
  418.000   58.013    0.408    0.320    6.673
  418.250   58.671    0.396    0.324    7.067
  418.500   59.383    0.398    0.335    7.216
  418.750   55.914    0.423    0.333    6.487
  419.000   55.389    0.363    0.292    6.381
  419.250   55.496    0.330    0.194    7.272
  419.500   54.998    0.296    0.135    8.596
  419.750   52.685    0.219    0.107   10.939
  420.000   50.373    0.253    0.103   15.537
  420.250   52.267    0.281    0.197   18.032
  420.500   54.794    0.355    0.268   20.549
  420.750   59.161    0.385    0.313   19.501
  421.000   58.031    0.430    0.338   12.142
  421.250   56.928    0.448    0.348    7.986
  421.500   58.876    0.434    0.350    6.437
  421.750   60.193    0.418    0.358    6.809
  422.000   57.907    0.407    0.351    6.952
  422.250   56.804    0.400    0.343    6.844
  422.500   56.911    0.407    0.342    6.737
  422.750   56.991    0.411    0.341    6.754
  423.000   58.939    0.403    0.336    7.562
  423.250   60.255    0.396    0.329    7.582
  423.500   61.572    0.446    0.315    6.326
  423.750   61.678    0.441    0.315    5.791
  424.000   60.575    0.440    0.326    5.910
  424.250   58.841    0.459    0.334    6.034
  424.500   53.531    0.452    0.333    6.391
  424.750   53.059    0.434    0.326    6.782
  425.000   53.113    0.423    0.329    6.791
  425.250   53.824    0.416    0.334    6.808
  425.500   55.772    0.420    0.337    6.826
  425.750   54.669    0.420    0.333    6.843
  426.000   55.986    0.412    0.327    6.870
  426.250   57.934    0.406    0.326    6.883
  426.500   59.197    0.404    0.331    6.901
  426.750   58.094    0.399    0.333    6.918
  427.000   51.547    0.406    0.326    6.932
  427.250   53.495    0.387    0.321    6.954
  427.500   56.626    0.396    0.316    6.846
  427.750   58.548    0.418    0.315    6.863
  428.000   61.074    0.432    0.322    7.137
  428.250   64.205    0.462    0.327    7.151
  428.500   64.311    0.465    0.328    6.912
  428.750   59.580    0.474    0.319    6.440
  429.000   55.426    0.464    0.297    6.005
  429.250   49.484    0.432    0.232    6.715
  429.500   44.147    0.199    0.173   12.106
  429.750   42.440    0.163    0.061   16.871
  430.000   47.385    0.374    0.054   13.580
  430.250   53.540    0.389    0.110    9.097
  430.500   60.353    0.405    0.299    7.060
  430.750   61.065    0.413    0.316    6.467
  431.000   59.962    0.408    0.322    6.480
  431.250   58.859    0.412    0.332    6.492
  431.500   58.966    0.412    0.333    6.509
  431.750   59.651    0.407    0.326    6.646
  432.000   59.153    0.421    0.325    6.916
  432.250   58.655    0.421    0.325    6.934
  432.500   58.761    0.414    0.326    7.084
  432.750   59.526    0.410    0.328    6.969
  433.000   60.185    0.410    0.330    6.983
  433.250   60.896    0.406    0.332    6.753
  433.500   59.793    0.413    0.338    6.523
  433.750   59.295    0.416    0.343    6.309
  434.000   63.031    0.416    0.327    6.321
  434.250   68.003    0.445    0.316    6.342
  434.500   72.344    0.435    0.302    6.362
  434.750   77.921    0.424    0.289    6.374
  435.000   82.866    0.405    0.271    6.387
  435.250   82.973    0.416    0.263    6.173
  435.500   74.585    0.441    0.294    5.862
  435.750   68.066    0.448    0.313    5.770
  436.000   67.567    0.440    0.312    6.112
  436.250   70.094    0.425    0.310    6.719
  436.500   72.593    0.421    0.313    7.111
  436.750   72.095    0.447    0.309    7.405
  437.000   66.785    0.495    0.288    7.415
  437.250   64.446    0.516    0.225    7.571
  437.500   55.453    0.519    0.144    9.454
  437.750   53.141    0.386    0.113   12.031
  438.000   63.556    0.400    0.143    9.684
  438.250   70.316    0.416    0.222    7.934
  438.500   72.869    0.430    0.258    6.871
  438.750   77.210    0.466    0.247    6.768
  439.000   78.526    0.457    0.232    7.173
  439.250   76.845    0.446    0.226    7.455
  439.500   79.344    0.436    0.233    7.607
  439.750   84.921    0.435    0.229    7.773
  440.000   87.447    0.435    0.222    7.798
  440.250   88.159    0.433    0.219    7.676
  440.500   86.451    0.432    0.220    7.424
  440.750   87.189    0.427    0.227    7.433
  441.000   88.506    0.419    0.224    7.185
  441.250   89.849    0.418    0.213    7.208
  441.500   90.507    0.405    0.217    7.222
  441.750   87.590    0.424    0.230    7.383
  442.000   80.439    0.422    0.201    7.529
  442.250   76.890    0.416    0.196    7.835
  442.500   75.813    0.423    0.199    7.995
  442.750   80.154    0.428    0.205    8.468
  443.000   83.916    0.414    0.199    8.974
  443.250   85.233    0.396    0.201    9.687
  443.500   86.549    0.387    0.211   10.074
  443.750   87.234    0.389    0.218    9.917
  444.000   89.787    0.402    0.209    9.756
  444.250   95.969    0.395    0.203    8.926
  444.500   99.073    0.387    0.200    7.868
  444.750   99.838    0.386    0.202    7.072
  445.000   98.077    0.381    0.203    7.486
  445.250   92.135    0.390    0.201    8.085
  445.500   91.032    0.405    0.196    8.256
  445.750   92.954    0.417    0.194    8.435
  446.000   92.456    0.424    0.208    8.142
  446.250   88.355    0.424    0.213    7.182
  446.500   87.857    0.426    0.203    6.216
  446.750   87.964    0.427    0.195    5.588
  447.000   88.071    0.430    0.190    6.248
  447.250   89.992    0.430    0.202    6.626
  447.500   90.099    0.423    0.240    6.284
  447.750   88.996    0.427    0.286    5.243
  448.000   87.919    0.546    0.309    3.325
  448.250   87.395    0.563    0.299    2.442
  448.500   87.528    0.558    0.289    2.077
  448.750   87.582    0.543    0.287    2.007
  449.000   85.874    0.529    0.288    2.013
  449.250   81.747    0.529    0.291    2.018
  449.500   86.087    0.524    0.282    2.062
  449.750   89.218    0.519    0.275    2.143
  450.000   88.747    0.532    0.272    2.400
  450.250   88.222    0.526    0.256    2.539
  450.500   85.331    0.492    0.238    3.175
  450.750   84.202    0.440    0.201    4.592
  451.000   85.518    0.410    0.190    5.045
  451.250   88.044    0.417    0.160    5.439
  451.500   80.288    0.387    0.154    5.456
  451.750   79.790    0.368    0.125    5.674
  452.000   85.945    0.407    0.159    6.006
  452.250   92.127    0.428    0.190    7.643
  452.500   93.470    0.461    0.207    8.245
  452.750   95.996    0.470    0.218    6.636
  453.000   90.633    0.433    0.221    5.437
  453.250   82.877    0.425    0.210    4.297
  453.500   85.403    0.415    0.205    4.635
  453.750   88.534    0.418    0.199    5.479
  454.000   81.961    0.425    0.197    6.846
  454.250   77.229    0.421    0.192    8.394
  454.500   65.817    0.388    0.183   10.299
  454.750   68.948    0.339    0.005   12.398
  455.000   77.602    0.347    0.100   13.881
  455.250   78.260    0.371    0.165   12.692
  455.500   79.577    0.368    0.194   10.597
  455.750   85.154    0.370    0.210    9.177
  456.000   88.285    0.393    0.198    9.726
  456.250   92.021    0.386    0.177    9.057
  456.500   88.498    0.388    0.177    7.154
  456.750   89.815    0.409    0.183    5.865
  457.000   96.601    0.468    0.186    5.173
  457.250  101.547    0.437    0.185    4.826
  457.500   99.234    0.423    0.183    4.922
  457.750   96.344    0.458    0.183    5.312
  458.000   97.055    0.481    0.184    5.623
  458.250   98.371    0.483    0.190    5.438
  458.500   98.478    0.446    0.207    4.972
  458.750   97.375    0.422    0.219    4.992
