~VERSION INFORMATION
 VERS.                 2.0:   CWLS LOG ASCII STANDARD -VERSION 2.0
 WRAP.                  NO:   ONE LINE PER DEPTH STEP
~WELL INFORMATION BLOCK
#MNEM.UNIT           DATA                    DESCRIPTION OF MNEMONIC
#---------    -------------------            -------------------------------
# Generated from Intellog Unique Number	CW_73_75/WELL/1049
WELL.         SUNCOR MITSUE 11-34            : Well_name    - WELL
LOC .         00/11-34-074-05W5/0            : Location     - LOCATION
UWI .         00/11-34-074-05W5/0            : Uwi          - UNIQUE WELL ID
ENTR.         JAYE                           : Entered      - ENTERED BY
SRVC.         SCHLUMBERGER                   : Scn          - SERVICE COMPANY
DATE.         18 MAR 80                      : Date         - LOG DATE
STRT.M        725                            : top_depth    - START DEPTH
STOP.M        945                            : bot_depth    - STOP DEPTH
STEP.M        0.25                           : increment    - STEP LENGTH
 NULL. -999.2500:NULL Value
~CURVE INFORMATION BLOCK
#MNEM UNIT       ERCB CURVE CODE    CURVE DESCRIPTION
#-----------   ------------------   ----------------------------------
DEPT.M        00 001 00 00         : DEPTH        - DEPTH
ILD .OHMM     00 120 00 00         : RESD         - DEEP RESISTIVITY (DLL)
NPHI.V/V      00 330 00 00         : PHIN         - NEUTRON POROSITY (SANDSTONE)
DPHI.V/V      00 890 00 00         : PHID         - DENSITY POROSITY (SANDSTONE)
GR  .API      00 310 00 00         : GR           - GAMMA RAY
CALI.MM       00 280 01 00         : CAL          - CALIPER
~PARAMETER INFORMATION
#MNEM.UNIT           DATA             DESCRIPTION OF MNEMONIC
#---------         -----------     ------------------------------
GL  .M        977.2                : gl           - GROUND LEVEL ELEVATION
EREF.M        980.3                : kb           - ELEVATION OF DEPTH REFERENCE
DATM.M        977.2                : datum        - DATUM ELEVATION
TDD .M        958                  : tdd          - TOTAL DEPTH DRILLER
RUN .         ONE                  : Run          - RUN NUMBER
ENG .         HOOK                 : Engineer     - RECORDING ENGINEER
WIT .         KEIR                 : Witness      - WITNESSED BY
BASE.         5270                 : Branch       - HOME BASE OF LOGGING UNIT
MUD .         GEL CHEM             : Mud_type     - MUD TYPE
MATR.         SANDSTONE            : Logunit      - NEUTRON MATRIX
TMAX.C        36                   : BHT          - MAXIMUM RECORDED TEMPERATURE
BHTD.M        957                  : BHTDEP       - MAXIMUM RECORDED TEMPERATURE
RMT .C        25.6                 : MDTP         - TEMPERATURE OF MUD
MUDD.KG/M     1066                 : MWT          - MUD DENSITY
NEUT.         0                    : NEUTRON      - NEUTRON TYPE
RESI.         1                    : RESIST       - RESISTIVITY TYPE
RM  .OHMM     3.83                 : RM           - RESISTIVITY OF MUD
RMC .OHMM     0                    : RMC          - RESISTIVITY OF MUD CAKE
RMF .OHMM     0                    : RMF          - RESISTIVITY OF MUD FILTRATE
SUFT.C        0                    : SUFT         - SURFACE TEMPERATURE
~A  DEPTH     RESD     PHIN     PHID       GR      CAL
# ...
  907.500    3.851    0.425    0.203  104.351  161.155
  907.750    3.683    0.436    0.200  103.870  160.968
  908.000    3.585    0.442    0.197  103.511  160.580
  908.250    3.478    0.445    0.192  103.524  160.496
  908.500    3.428    0.441    0.185  101.376  160.210
  908.750    3.460    0.433    0.177  101.142  159.818
  909.000    3.637    0.419    0.173  102.389  158.709
  909.250    3.950    0.406    0.172  103.821  157.389
  909.500    4.116    0.392    0.173  104.945  156.486
  909.750    4.134    0.400    0.174  104.155  156.508
  910.000    3.957    0.406    0.174  105.464  156.633
  910.250    3.808    0.414    0.171  104.737  157.062
  910.500    3.717    0.420    0.174  100.489  157.393
  910.750    3.743    0.427    0.173   94.760  158.134
  911.000    4.016    0.432    0.170   88.415  159.596
  911.250    5.266    0.419    0.195   88.798  159.616
  911.500    6.321    0.396    0.208   90.353  156.963
  911.750    7.360    0.381    0.199   89.379  155.644
  912.000    7.894    0.365    0.199   88.094  154.844
  912.250    8.245    0.347    0.198   83.231  154.451
  912.500    8.605    0.325    0.186   79.106  154.370
  912.750    9.235    0.293    0.171   73.439  155.010
  913.000   10.695    0.229    0.130   72.280  156.161
  913.250   12.324    0.211    0.099   73.279  158.343
  913.500   13.333    0.238    0.073   83.539  159.700
  913.750   12.030    0.262    0.140   89.664  157.663
  914.000    9.853    0.286    0.174   97.886  155.422
  914.250    8.303    0.312    0.201  103.763  154.414
  914.500    6.964    0.332    0.178  106.369  154.640
  914.750    5.919    0.347    0.168  106.628  156.410
  915.000    5.508    0.368    0.160  103.739  159.107
  915.250    5.373    0.383    0.155  103.876  160.360
  915.500    5.330    0.372    0.160  103.888  160.384
  915.750    5.374    0.368    0.183  102.974  160.300
  916.000    5.404    0.368    0.190  100.333  160.219
  916.250    5.461    0.365    0.182   97.320  160.445
  916.500    5.722    0.364    0.177   93.629  160.569
  916.750    6.066    0.367    0.173   89.629  160.594
  917.000    6.553    0.365    0.169   85.505  160.610
  917.250    7.373    0.360    0.156   83.110  160.840
  917.500    8.254    0.345    0.139   83.123  160.759
  917.750    9.087    0.333    0.092   85.666  160.984
  918.000    9.650    0.318    0.075   88.643  160.905
  918.250   10.107    0.309    0.098   89.951  161.025
  918.500    9.798    0.318    0.113   90.335  160.945
  918.750    9.111    0.328    0.117   90.716  160.860
  919.000    8.136    0.336    0.106   92.212  160.678
  919.250    7.242    0.344    0.123   96.359  160.492
  919.500    6.434    0.352    0.143  101.681  160.408
  919.750    5.746    0.359    0.152  106.570  160.431
  920.000    5.106    0.367    0.168  111.213  161.175
  920.250    4.622    0.376    0.175  109.806  161.808
  920.500    4.291    0.384    0.167  108.152  162.549
  920.750    3.945    0.391    0.169  107.485  163.087
  921.000    3.620    0.401    0.182  107.560  163.829
  921.250    3.367    0.408    0.174  108.560  164.053
  921.500    3.149    0.413    0.165  109.683  164.074
  921.750    2.954    0.412    0.157  107.659  163.890
  922.000    2.906    0.410    0.164  104.338  163.601
  922.250    3.019    0.406    0.157  100.523  162.388
  922.500    3.245    0.396    0.171  100.659  161.276
  922.750    3.524    0.389    0.180  100.239  159.445
  923.000    3.760    0.386    0.169   98.894  157.720
  923.250    4.042    0.384    0.158   98.782  157.327
  923.500    4.198    0.382    0.154  101.697  157.142
  923.750    4.281    0.378    0.164  104.612  157.062
  924.000    4.276    0.359    0.169  103.820  157.188
  924.250    4.296    0.358    0.171  102.537  157.516
  924.500    4.298    0.363    0.174  101.255  158.358
  924.750    4.322    0.373    0.170  100.649  159.408
  925.000    4.423    0.385    0.165   99.118  159.942
  925.250    4.539    0.389    0.159   96.723  160.067
  925.500    4.788    0.383    0.151   92.847  159.882
  925.750    5.137    0.371    0.144   92.119  159.798
  926.000    5.522    0.345    0.135   92.995  159.823
  926.250    5.854    0.329    0.127   94.736  159.841
  926.500    6.050    0.334    0.123   96.662  159.863
  926.750    5.993    0.348    0.131   99.021  159.883
  927.000    5.778    0.359    0.142  101.564  159.597
  927.250    5.608    0.375    0.145  102.749  159.719
  927.500    5.489    0.376    0.161  100.416  159.946
  927.750    5.346    0.369    0.153   98.268  160.174
  928.000    5.252    0.360    0.144   98.344  160.296
  928.250    5.139    0.351    0.132   99.589  160.523
  928.500    4.997    0.346    0.125  100.527  161.058
  928.750    4.851    0.347    0.115   99.308  161.491
  929.000    4.747    0.361    0.112   98.639  161.924
  929.250    4.600    0.374    0.125   99.331  162.154
  929.500    4.488    0.386    0.136   98.788  162.273
  929.750    4.340    0.397    0.147   95.837  162.605
  930.000    4.149    0.409    0.162   95.730  162.829
  930.250    3.873    0.415    0.168   96.047  163.160
  930.500    3.411    0.417    0.161  101.246  163.285
  930.750    2.841    0.425    0.149  103.172  163.821
  931.000    1.606    0.442    0.158  101.703  163.530
  931.250    1.324    0.466    0.188  100.728  162.218
  931.500    1.149    0.514    0.219  100.863  161.312
  931.750    1.071    0.545    0.269  102.358  156.495
  932.000    1.055    0.543    0.284  103.852  150.857
  932.250    1.083    0.518    0.271  107.753  152.627
  932.500    1.149    0.500    0.259  105.976  158.511
  932.750    1.256    0.485    0.244  101.667  160.180
  933.000    1.415    0.448    0.228   96.248  160.717
  933.250    1.661    0.424    0.203   91.136  161.045
  933.500    2.547    0.377    0.144   93.927  161.891
  933.750    3.768    0.341    0.102   99.989  162.837
  934.000    4.639    0.349    0.094   99.940  163.372
  934.250    4.934    0.357    0.108   98.655  163.596
  934.500    4.914    0.360    0.121   99.965  163.926
  934.750    4.908    0.361    0.097   99.483  164.255
  935.000    4.813    0.362    0.097  104.373  164.588
  935.250    4.671    0.365    0.106  100.250  164.608
  935.500    4.511    0.370    0.112   98.410  164.427
  935.750    4.334    0.369    0.098   99.842  164.650
  936.000    4.115    0.359    0.074  104.052  164.772
  936.250    3.880    0.355    0.061  105.608  164.689
  936.500    3.665    0.374    0.095  109.695  163.272
  936.750    3.484    0.388    0.143  109.090  162.777
  937.000    3.242    0.400    0.144  107.622  161.466
  937.250    3.051    0.410    0.120  107.697  160.453
  937.500    2.825    0.420    0.123  108.451  159.342
  937.750    2.699    0.422    0.116  109.204  158.952
  938.000    2.575    0.410    0.102  111.253  158.971
  938.250    2.500    0.417    0.099  113.241  158.995
  938.500    2.485    0.426    0.127  118.438  158.705
  938.750    2.491    0.429    0.146  123.821  157.287
  939.000    2.527    0.421    0.159  119.019  155.763
  939.250    2.585    0.411    0.132  115.945  154.344
  939.500    2.700    0.409    0.132  114.106  154.261
  939.750    2.799    0.408    0.120  113.502  154.181
  940.000    2.904    0.406    0.116  114.254  154.304
  940.250    2.975    0.403    0.114  114.824  154.324
  940.500    3.101    0.400    0.110  111.377  154.346
  940.750    3.254    0.394    0.108  107.318  154.984
  941.000    3.386    0.387    0.103  104.983  155.521
  941.250    3.411    0.372    0.090  101.106  156.055
  941.500    3.426    0.375    0.079   94.575  156.796
  941.750    3.440    0.381    0.107   84.527  158.359
  942.000    3.519    0.374    0.125   72.067  159.409
  942.250    3.620    0.305    0.150   58.006  160.667
  942.500    3.747    0.278    0.164   53.450  161.199
  942.750    3.986    0.258    0.141   51.550  159.473
  943.000    4.477    0.242    0.093   48.661  156.406
  943.250    5.283    0.222    0.021   44.477  152.724
  943.500    6.706    0.194    0.020   41.586  151.098
  943.750    9.158    0.173    0.020   38.450  150.810
