~VERSION INFORMATION
 VERS.                 2.0:   CWLS LOG ASCII STANDARD -VERSION 2.0
 WRAP.                  NO:   ONE LINE PER DEPTH STEP
~WELL INFORMATION BLOCK
#MNEM.UNIT           DATA                    DESCRIPTION OF MNEMONIC
#---------    -------------------            -------------------------------
# Generated from Intellog Unique Number	CS_73_76/WELL/3241
WELL.         10-26-075-05W4                 : Well_name    - WELL
LOC .         00/10-26-075-05W4/0            : Location     - LOCATION
UWI .         00/10-26-075-05W4/0            : Uwi          - UNIQUE WELL ID
ENTR.         SP                             : Entered      - ENTERED BY
SRVC.         SCHLUMBERGER                   : Scn          - SERVICE COMPANY
STRT.M        230                            : top_depth    - START DEPTH
STOP.M        455                            : bot_depth    - STOP DEPTH
STEP.M        0.25                           : increment    - STEP LENGTH
 NULL. -999.2500:NULL Value
~CURVE INFORMATION BLOCK
#MNEM UNIT       ERCB CURVE CODE    CURVE DESCRIPTION
#-----------   ------------------   ----------------------------------
DEPT.M        00 001 00 00         : DEPTH        - DEPTH
ILD .OHMM     00 120 00 00         : RESD         - DEEP RESISTIVITY (DIL)
DPHI.V/V      00 890 00 00         : PHID         - DENSITY POROSITY (LIMESTONE)
NPHI.V/V      00 330 00 00         : PHIN         - NEUTRON POROSITY (LIMESTONE)
GR  .API      00 310 00 00         : GR           - GAMMA RAY
~PARAMETER INFORMATION
#MNEM.UNIT           DATA             DESCRIPTION OF MNEMONIC
#---------         -----------     ------------------------------
GL  .M        619.6                : gl           - GROUND LEVEL ELEVATION
EREF.M        624.6                : kb           - ELEVATION OF DEPTH REFERENCE
DATM.M        619.6                : datum        - DATUM ELEVATION
TDD .M        465                  : tdd          - TOTAL DEPTH DRILLER
RUN .         ONE                  : Run          - RUN NUMBER
ENG .         BILL                 : Engineer     - RECORDING ENGINEER
WIT .         JIM                  : Witness      - WITNESSED BY
MUD .         GEL                  : Mud_type     - MUD TYPE
MATR.         LIMESTONE            : Logunit      - NEUTRON MATRIX
TMAX.C        16                   : BHT          - MAXIMUM RECORDED TEMPERATURE
BHTD.M        465                  : BHTDEP       - MAXIMUM RECORDED TEMPERATURE
MATR.         1                    : LOGUNIT      - NEUTRON MATRIX
RMT .C        25                   : MDTP         - TEMPERATURE OF MUD
NEUT.         1                    : NEUTRON      - NEUTRON TYPE
RESI.         0                    : RESIST       - RESISTIVITY TYPE
RMC .OHMM     0.25                 : RMC          - RESISTIVITY OF MUD CAKE
RMF .OHMM     0.25                 : RMF          - RESISTIVITY OF MUD FILTRATE
SUFT.C        15                   : SUFT         - SURFACE TEMPERATURE
~A  DEPTH     RESD     PHID     PHIN       GR
# ...
  317.000    9.269    0.312    0.440   56.828
  317.250    8.933    0.331    0.458   54.404
  317.500    8.147    0.342    0.466   52.588
  317.750    7.568    0.344    0.450   51.978
  318.000    7.161    0.335    0.445   52.579
  318.250    6.651    0.336    0.454   53.182
  318.500    6.179    0.326    0.471   56.201
  318.750    5.846    0.326    0.477   58.013
  319.000    5.532    0.341    0.482   59.823
  319.250    5.431    0.350    0.476   60.425
  319.500    5.235    0.350    0.474   61.026
  319.750    5.046    0.350    0.464   61.023
  320.000    4.775    0.353    0.459   60.415
  320.250    4.518    0.357    0.456   62.830
  320.500    4.197    0.344    0.451   67.061
  320.750    3.971    0.297    0.473   73.106
  321.000    3.757    0.295    0.497   79.150
  321.250    3.622    0.280    0.507   82.170
  321.500    3.556    0.294    0.493   82.772
  321.750    3.491    0.306    0.487   82.768
  322.000    3.492    0.289    0.486   74.900
  322.250    3.492    0.292    0.493   71.269
  322.500    3.493    0.304    0.504   69.452
  322.750    3.429    0.306    0.475   67.634
  323.000    3.430    0.304    0.465   68.839
  323.250    3.245    0.306    0.461   71.861
  323.500    3.071    0.314    0.471   76.695
  323.750    2.852    0.315    0.462   79.111
  324.000    2.699    0.298    0.474   86.365
  324.250    2.554    0.276    0.498   91.201
  324.500    2.462    0.258    0.520   93.011
  324.750    2.373    0.284    0.535   85.749
  325.000    2.373    0.299    0.543   78.489
  325.250    2.330    0.317    0.500   69.412
  325.500    2.374    0.327    0.470   66.385
  325.750    2.418    0.337    0.463   63.962
  326.000    2.464    0.339    0.456   63.959
  326.250    2.510    0.326    0.446   63.350
  326.500    2.557    0.319    0.441   59.718
  326.750    2.605    0.315    0.434   57.295
  327.000    2.654    0.322    0.429   56.081
  327.250    2.704    0.315    0.431   56.078
  327.500    2.806    0.338    0.439   58.493
  327.750    2.859    0.337    0.448   60.305
  328.000    3.022    0.333    0.457   55.462
  328.250    3.569    0.303    0.458   51.830
  328.500    3.915    0.187    0.437   48.197
  328.750    4.294    0.095    0.405   45.170
  329.000    4.375    0.099    0.228   42.142
  329.250    4.064    0.199    0.238   45.767
  329.500    3.506    0.239    0.357   51.812
  329.750    3.081    0.293    0.424   57.251
  330.000    2.758    0.344    0.449   59.063
  330.250    2.562    0.344    0.458   59.060
  330.500    2.424    0.331    0.455   58.450
  330.750    2.380    0.338    0.458   58.448
  331.000    2.252    0.339    0.455   59.654
  331.250    2.212    0.337    0.437   60.255
  331.500    2.171    0.333    0.439   60.856
  331.750    2.132    0.338    0.457   60.248
  332.000    2.093    0.343    0.454   57.221
  332.250    2.093    0.346    0.451   61.451
  332.500    2.094    0.347    0.481   66.285
  332.750    2.094    0.350    0.498   67.492
  333.000    2.133    0.360    0.494   68.697
  333.250    2.173    0.346    0.481   69.299
  333.500    2.255    0.326    0.484   67.481
  333.750    2.384    0.299    0.475   66.873
  334.000    2.520    0.295    0.473   68.079
  334.250    2.664    0.303    0.469   70.493
  334.500    2.816    0.291    0.467   71.699
  334.750    2.977    0.279    0.469   72.906
  335.000    3.148    0.286    0.486   74.111
  335.250    3.207    0.301    0.501   74.714
  335.500    3.207    0.288    0.503   73.501
  335.750    3.267    0.301    0.494   74.707
  336.000    3.268    0.289    0.490   77.122
  336.250    3.268    0.293    0.484   77.724
  336.500    3.269    0.305    0.482   78.326
  336.750    3.269    0.288    0.477   77.717
  337.000    3.270    0.288    0.468   77.713
  337.250    3.270    0.284    0.468   77.104
  337.500    2.982    0.306    0.505   75.286
  337.750    3.038    0.299    0.493   74.073
  338.000    3.038    0.291    0.471   73.466
  338.250    3.039    0.294    0.462   73.461
  338.500    3.039    0.273    0.470   72.853
  338.750    3.040    0.279    0.464   72.848
  339.000    3.040    0.277    0.448   73.450
  339.250    3.097    0.273    0.458   74.052
  339.500    3.335    0.286    0.466   74.652
  339.750    3.335    0.286    0.475   75.255
  340.000    3.398    0.280    0.470   75.856
  340.250    3.462    0.269    0.465   77.062
  340.500    3.462    0.286    0.460   77.663
  340.750    3.527    0.271    0.463   76.450
  341.000    3.528    0.269    0.467   74.632
  341.250    3.594    0.272    0.469   74.629
  341.500    3.595    0.281    0.471   78.858
  341.750    3.595    0.272    0.479   80.066
  342.000    3.595    0.248    0.502   81.270
  342.250    3.596    0.259    0.519   81.873
  342.500    3.596    0.266    0.498   81.264
  342.750    3.597    0.237    0.488   81.260
  343.000    3.598    0.256    0.488   81.257
  343.250    3.532    0.266    0.494   81.858
  343.500    3.533    0.252    0.507   81.854
  343.750    3.468    0.243    0.512   83.061
  344.000    3.405    0.236    0.511   84.872
  344.250    3.344    0.254    0.505   87.891
  344.500    3.344    0.236    0.523   89.099
  344.750    3.283    0.257    0.533   92.118
  345.000    3.107    0.245    0.516   92.721
  345.250    3.050    0.253    0.501   93.322
  345.500    2.886    0.260    0.495   91.504
  345.750    2.731    0.270    0.505   90.290
  346.000    2.584    0.289    0.517   89.682
  346.250    2.491    0.260    0.537   89.678
  346.500    2.357    0.257    0.556   90.885
  346.750    2.314    0.265    0.571   89.671
  347.000    2.272    0.263    0.541   88.458
  347.250    2.231    0.255    0.525   90.269
  347.500    2.190    0.268    0.538   91.475
  347.750    2.150    0.268    0.552   90.866
  348.000    2.111    0.257    0.564   90.257
  348.250    2.112    0.268    0.581   89.649
  348.500    2.112    0.280    0.589   88.437
  348.750    2.152    0.298    0.574   86.014
  349.000    2.152    0.294    0.546   83.591
  349.250    2.152    0.290    0.536   82.378
  349.500    2.152    0.281    0.524   80.560
  349.750    2.113    0.279    0.528   78.740
  350.000    2.075    0.298    0.528   78.739
  350.250    2.037    0.311    0.511   78.130
  350.500    2.037    0.319    0.499   78.732
  350.750    2.194    0.321    0.495   79.936
  351.000    2.277    0.331    0.488   79.933
  351.250    2.235    0.326    0.498   80.535
  351.500    2.077    0.327    0.509   79.322
  351.750    1.965    0.318    0.517   73.875
  352.000    1.759    0.305    0.523   69.033
  352.250    1.575    0.297    0.490   64.796
  352.500    1.410    0.303    0.476   62.978
  352.750    1.359    0.324    0.467   61.159
  353.000    1.310    0.321    0.451   60.551
  353.250    1.217    0.331    0.438   58.129
  353.500    1.217    0.316    0.426   58.124
  353.750    1.195    0.306    0.421   60.540
  354.000    1.195    0.301    0.419   62.351
  354.250    1.195    0.309    0.423   64.162
  354.500    1.195    0.290    0.427   65.974
  354.750    1.195    0.308    0.431   66.574
  355.000    1.174    0.309    0.439   66.572
  355.250    1.152    0.315    0.445   65.962
  355.500    1.152    0.324    0.452   65.959
  355.750    1.312    0.320    0.461   66.561
  356.000    1.466    0.308    0.467   67.162
  356.250    1.578    0.298    0.460   67.763
  356.500    1.668    0.238    0.446   67.154
  356.750    1.763    0.207    0.381   66.547
  357.000    1.830    0.209    0.376   68.961
  357.250    1.764    0.282    0.396   70.168
  357.500    1.639    0.312    0.426   72.584
  357.750    1.579    0.292    0.446   74.394
  358.000    1.551    0.295    0.446   75.600
  358.250    1.523    0.294    0.451   76.806
  358.500    1.551    0.286    0.462   77.407
  358.750    1.580    0.277    0.472   76.194
  359.000    1.640    0.270    0.485   75.587
  359.250    1.734    0.260    0.491   77.397
  359.500    1.867    0.268    0.491   79.209
  359.750    2.010    0.253    0.484   81.624
  360.000    2.048    0.244    0.477   81.016
  360.250    2.125    0.238    0.474   80.408
