~VERSION INFORMATION
 VERS.                 2.0:   CWLS LOG ASCII STANDARD -VERSION 2.0
 WRAP.                  NO:   ONE LINE PER DEPTH STEP
~WELL INFORMATION BLOCK
#MNEM.UNIT           DATA                    DESCRIPTION OF MNEMONIC
#---------    -------------------            -------------------------------
# Generated from Intellog Unique Number	CS_69_70/WELL/886
NULL.         -999.25                        : NULL_VALUE
WELL.         MAYNARD ENERGY                 : Well_name    - WELL              
LOC .         00/11-06-070-15W4/0            : Location     - LOCATION          
UWI .         00/11-06-070-15W4/0            : Uwi          - UNIQUE WELL ID    
ENTR.         SP                             : Entered      - ENTERED BY        
SRVC.         SCHLUMBERGER                   : Scn          - SERVICE COMPANY   
STRT.M        270                            : top_depth    - START DEPTH       
STOP.M        492                            : bot_depth    - STOP DEPTH        
STEP.M        0.25                           : increment    - STEP LENGTH       
~CURVE INFORMATION BLOCK
#MNEM UNIT       ERCB CURVE CODE    CURVE DESCRIPTION
#-----------   ------------------   ----------------------------------
DEPT.M        00 001 00 00         : DEPTH        - DEPTH                       
ILD .OHMM     00 120 00 00         : RESD         - DEEP RESISTIVITY (DIL)      
DPHI.V/V      00 890 00 00         : PHID         - DENSITY POROSITY (LIMESTONE)
NPHI.V/V      00 330 00 00         : PHIN         - NEUTRON POROSITY (LIMESTONE)
GR  .API      00 310 00 00         : GR           - GAMMA RAY                   
~PARAMETER INFORMATION       
#MNEM.UNIT           DATA             DESCRIPTION OF MNEMONIC
#---------         -----------     ------------------------------
GL  .M        562.71               : gl           - GROUND LEVEL ELEVATION      
EREF.M        565.41               : kb           - ELEVATION OF DEPTH REFERENCE
DATM.M        562.71               : datum        - DATUM ELEVATION             
TDD .M        494                  : tdd          - TOTAL DEPTH DRILLER         
RUN .         ONE                  : Run          - RUN NUMBER                  
ENG .         BILL                 : Engineer     - RECORDING ENGINEER          
WIT .         JIM                  : Witness      - WITNESSED BY                
MUD .         GEL                  : Mud_type     - MUD TYPE                    
MATR.         LIMESTONE            : Logunit      - NEUTRON MATRIX              
TMAX.C        21                   : BHT          - MAXIMUM RECORDED TEMPERATURE
BHTD.M        494                  : BHTDEP       - MAXIMUM RECORDED TEMPERATURE
MATR.         1                    : LOGUNIT      - NEUTRON MATRIX              
RMT .C        25                   : MDTP         - TEMPERATURE OF MUD          
NEUT.         1                    : NEUTRON      - NEUTRON TYPE                
RESI.         0                    : RESIST       - RESISTIVITY TYPE            
RMC .OHMM     0.25                 : RMC          - RESISTIVITY OF MUD CAKE     
RMF .OHMM     0.25                 : RMF          - RESISTIVITY OF MUD FILTRATE 
SUFT.C        15                   : SUFT         - SURFACE TEMPERATURE         
~A  DEPTH     RESD     PHID     PHIN       GR
# ...
  357.000    4.130    0.284    0.406   84.849
  357.250    4.075    0.281    0.410   84.558
  357.500    4.036    0.288    0.414   83.775
  357.750    4.054    0.298    0.422   82.629
  358.000    4.113    0.291    0.432   82.214
  358.250    4.204    0.306    0.443   82.896
  358.500    4.304    0.315    0.448   85.653
  358.750    4.314    0.318    0.452   88.407
  359.000    4.218    0.299    0.454   92.079
  359.250    4.171    0.272    0.457   95.261
  359.500    4.165    0.261    0.456   98.933
  359.750    4.223    0.240    0.453  102.237
  360.000    4.355    0.224    0.448  105.359
  360.250    4.545    0.221    0.443  106.225
  360.500    4.758    0.230    0.440  105.809
  360.750    4.956    0.240    0.435  104.723
  361.000    5.113    0.246    0.435  101.992
  361.250    5.343    0.244    0.434   99.869
  361.500    5.205    0.250    0.435   98.054
  361.750    5.232    0.259    0.435   98.797
  362.000    5.291    0.256    0.432   98.503
  362.250    5.309    0.246    0.428   95.105
  362.500    5.303    0.246    0.419   92.433
  362.750    5.297    0.262    0.413   90.132
  363.000    5.265    0.275    0.408   89.227
  363.250    5.218    0.286    0.407   88.807
  363.500    5.155    0.270    0.406   91.258
  363.750    5.092    0.265    0.412   95.844
  364.000    5.029    0.261    0.416   98.355
  364.250    4.892    0.268    0.419  100.685
  364.500    4.780    0.288    0.417  101.305
  364.750    4.684    0.279    0.412   95.464
  365.000    4.702    0.280    0.398   90.415
  365.250    4.931    0.284    0.370   86.708
  365.500    6.391    0.280    0.327   80.502
  365.750   10.059    0.259    0.157   74.416
  366.000   10.940    0.152    0.124   68.270
  366.250   11.569    0.078    0.107   62.853
  366.500   11.954    0.033    0.098   56.219
  366.750    9.895   -0.010    0.097   59.829
  367.000    7.315    0.001    0.123   70.331
  367.250    6.046    0.047    0.208   77.902
  367.500    5.314    0.142    0.271   87.915
  367.750    4.836    0.205    0.338   94.267
  368.000    5.294    0.247    0.384   98.852
  368.250    6.200    0.265    0.387   97.400
  368.500    7.594    0.268    0.344   92.047
  368.750    9.388    0.283    0.328   87.792
  369.000   10.009    0.304    0.318   85.547
  369.250    9.816    0.318    0.316   80.254
  369.500    9.068    0.316    0.330   74.536
  369.750    7.530    0.297    0.371   73.021
  370.000    6.318    0.279    0.400   78.277
  370.250    5.709    0.269    0.416   84.206
  370.500    5.304    0.262    0.428   87.266
  370.750    4.955    0.256    0.437   90.021
  371.000    4.713    0.243    0.442   90.887
  371.250    4.813    0.233    0.433   90.472
  371.500    4.920    0.251    0.424   88.595
  371.750    5.215    0.264    0.417   87.507
  372.000    5.502    0.277    0.413   86.004
  372.250    5.822    0.291    0.411   86.009
  372.500    6.117    0.280    0.410   86.814
  372.750    6.388    0.243    0.410   88.714
  373.000    6.634    0.226    0.411   91.534
  373.250    6.742    0.218    0.413   92.152
  373.500    6.882    0.215    0.413   90.763
  373.750    6.916    0.214    0.411   89.432
  374.000    6.862    0.222    0.410   88.164
  374.250    6.716    0.219    0.407   88.421
  374.500    5.895    0.225    0.407   90.751
  374.750    5.604    0.218    0.408   92.836
  375.000    5.874    0.207    0.407   93.762
  375.250    6.129    0.196    0.400   93.956
  375.500    6.375    0.189    0.392   93.542
  375.750    6.515    0.182    0.389   93.248
  376.000    6.582    0.179    0.393   92.538
  376.250    6.258    0.179    0.402   92.484
  376.500    6.301    0.185    0.399   92.435
  376.750    6.335    0.193    0.393   92.510
  377.000    6.223    0.205    0.387   92.526
  377.250    6.079    0.221    0.385   92.539
  377.500    5.918    0.238    0.386   92.547
  377.750    5.837    0.244    0.385   92.490
  378.000    5.701    0.237    0.380   91.834
  378.250    5.670    0.232    0.376   90.504
  378.500    5.680    0.225    0.375   90.028
  378.750    5.698    0.228    0.375   90.650
  379.000    5.790    0.220    0.387   92.430
  379.250    5.938    0.205    0.395   95.797
  379.500    6.185    0.199    0.396   99.653
  379.750    6.373    0.198    0.394  102.287
  380.000    6.611    0.205    0.392  104.248
  380.250    6.867    0.216    0.387  103.525
  380.500    6.908    0.197    0.380   98.294
  380.750    6.845    0.178    0.372   93.004
  381.000    6.546    0.165    0.368   90.818
  381.250    6.368    0.153    0.367   94.490
  381.500    6.337    0.165    0.381   97.794
  381.750    6.250    0.180    0.399  100.732
  382.000    6.138    0.211    0.411  103.247
  382.250    6.058    0.222    0.421  104.722
  382.500    5.970    0.231    0.424  105.587
  382.750    5.924    0.214    0.423  107.185
  383.000    5.933    0.205    0.422  108.600
  383.250    5.967    0.199    0.419  109.043
  383.500    6.083    0.197    0.414  108.987
  383.750    6.142    0.196    0.417  108.638
  384.000    6.266    0.197    0.422  108.156
  384.250    6.268    0.200    0.417  107.072
  384.500    6.246    0.211    0.411  105.924
  384.750    6.247    0.225    0.407  104.656
  385.000    6.168    0.234    0.402  103.084
  385.250    6.071    0.244    0.398  101.755
  385.500    5.918    0.257    0.396  100.302
  385.750    5.741    0.266    0.394   96.661
  386.000    5.645    0.254    0.392   94.899
  386.250    5.525    0.250    0.397   91.010
  386.500    5.404    0.249    0.398   88.826
  386.750    5.049    0.249    0.397   87.984
  387.000    4.903    0.255    0.397   89.463
  387.250    4.482    0.258    0.397   90.630
  387.500    4.279    0.256    0.400   94.122
  387.750    3.842    0.254    0.421   97.918
  388.000    3.477    0.248    0.445   98.775
  388.250    3.137    0.234    0.468  104.589
  388.500    2.935    0.236    0.486  106.119
  388.750    2.726    0.249    0.505  108.689
  389.000    2.735    0.257    0.524  111.874
  389.250    2.818    0.271    0.536  113.717
  389.500    3.088    0.263    0.523  112.079
  389.750    3.326    0.252    0.516  109.410
  390.000    3.719    0.242    0.499  107.530
  390.250    4.104    0.235    0.476  106.567
  390.500    4.539    0.239    0.441  106.701
  390.750    4.736    0.237    0.426  107.145
  391.000    4.860    0.248    0.421  107.334
  391.250    4.943    0.233    0.417  107.961
  391.500    5.050    0.221    0.419  108.031
  391.750    5.125    0.212    0.421  107.009
  392.000    5.151    0.206    0.423  106.346
  392.250    5.040    0.211    0.425  104.534
  392.500    4.887    0.217    0.429  102.899
  392.750    4.798    0.219    0.433  101.019
  393.000    4.524    0.205    0.433   99.078
  393.250    4.452    0.194    0.428   97.139
  393.500    4.339    0.186    0.417   95.076
  393.750    4.269    0.196    0.402   91.918
  394.000    4.475    0.225    0.391   88.271
  394.250    4.532    0.242    0.380   92.429
  394.500    4.730    0.253    0.362   92.138
  394.750    4.886    0.234    0.332   86.665
  395.000    4.888    0.188    0.313   82.957
  395.250    4.646    0.152    0.297   80.650
  395.500    4.354    0.137    0.301   78.587
  395.750    4.006    0.200    0.320   76.770
  396.000    3.698    0.256    0.339   73.611
  396.250    3.562    0.276    0.357   68.564
  396.500    3.433    0.309    0.375   66.928
  396.750    3.370    0.302    0.387   67.977
  397.000    3.291    0.298    0.388   70.125
  397.250    3.129    0.305    0.389   70.565
  397.500    3.106    0.309    0.391   70.208
  397.750    3.116    0.306    0.394   68.026
  398.000    3.102    0.295    0.402   67.671
  398.250    3.080    0.286    0.406   69.270
  398.500    3.098    0.291    0.407   70.258
  398.750    3.140    0.308    0.404   70.941
  399.000    3.182    0.318    0.401   71.258
  399.250    3.259    0.306    0.395   70.969
  399.500    3.260    0.295    0.392   70.671
  399.750    3.294    0.286    0.389   70.134
  400.000    3.345    0.288    0.387   69.664
  400.250    3.387    0.300    0.386   69.916
