~VERSION INFORMATION
VERS.                2.00:   CWLS LOG ASCII STANDARD -VERSION 2.0
WRAP.                  NO:
~WELL INFORMATION BLOCK
#MNEM.UNIT           DATA                    DESCRIPTION OF MNEMONIC
#---------    -------------------            -------------------------------
# Generated from Intellog Unique Number	CC_80_83/WELL/2471
LOC .         00/10-22-083-08W4/0            : Location     - LOCATION
UWI .         00/10-22-083-08W4/0            : Uwi          - UNIQUE WELL ID
ENTR.         DW                             : Entered      - ENTERED BY
STRT.M             259.08:
STOP.M             511.83:
STEP.M               0.25:
NULL.             -999.25:
COMP.  :COMPANY
WELL.  ARC0 ET AL SURMONT:WELL
FLD.   :FIELD
LOC.   :LOCATION
CTRY.  :COUNTRY
PROV.  :PROVINCE
SRVC.  SCHLUMBERGER:SERVICE COMPANY
DATE.  :LOG DATE
UWI.   :UNIQUE WELL ID
~PARAMETER INFORMATION
#MNEM.UNIT           DATA             DESCRIPTION OF MNEMONIC
#---------         -----------     ------------------------------
GL  .M        732.13               : gl           - GROUND LEVEL ELEVATION
EREF.M        735.178              : kb           - ELEVATION OF DEPTH REFERENCE
DATM.M        735.178              : datum        - DATUM ELEVATION
TDD .M        515.722              : tdd          - TOTAL DEPTH DRILLER
RUN .         ONE                  : Run          - RUN NUMBER
ENG .         BILL                 : Engineer     - RECORDING ENGINEER
WIT .         JIM                  : Witness      - WITNESSED BY
MUD .         GEL                  : Mud_type     - MUD TYPE
MATR.         SANDSTONE            : Logunit      - NEUTRON MATRIX
TMAX.C        20                   : BHT          - MAXIMUM RECORDED TEMPERATURE
BHTD.M        515.722              : BHTDEP       - MAXIMUM RECORDED TEMPERATURE
MATR.         1                    : LOGUNIT      - NEUTRON MATRIX
RMT .C        25                   : MDTP         - TEMPERATURE OF MUD
NEUT.         1                    : NEUTRON      - NEUTRON TYPE
RESI.         0                    : RESIST       - RESISTIVITY TYPE
RMC .OHMM     0.25                 : RMC          - RESISTIVITY OF MUD CAKE
RMF .OHMM     0.25                 : RMF          - RESISTIVITY OF MUD FILTRATE
SUFT.C        15                   : SUFT         - SURFACE TEMPERATURE
~Curve Information Block
#MNEM UNIT       ERCB CURVE CODE    CURVE DESCRIPTION
#MNEM.UNIT         API CODE    Curve Description
#----------    ------------    --------------------
DEPT.M                     :   DEPTH
DPHI.V/V                   :   DPHI
DT  .us/m                  :   DT
GR  .API       00 310 00 00:   GR
ILD .Ohmm      00 120 00 00:   ILD
NPHI.V/V       00 330 00 00:   NPHI
RHOB.gm/c3                 :   RHOB
~A  Depth           DPHI          DT          GR         ILD        NPHI        RHOB
# ...
425.33              0.32     -999.25       78.12        4.06        0.38     -999.25
425.58              0.33     -999.25       72.58        4.62        0.37     -999.25
425.83              0.33     -999.25       73.35        4.90        0.33     -999.25
426.08              0.32     -999.25       72.34        6.26        0.31     -999.25
426.33              0.32     -999.25       70.63        6.79        0.33     -999.25
426.58              0.30     -999.25       69.90        6.87        0.34     -999.25
426.83              0.29     -999.25       69.14        6.94        0.35     -999.25
427.08              0.29     -999.25       67.37        6.94        0.35     -999.25
427.33              0.29     -999.25       65.34        7.07        0.33     -999.25
427.58              0.28     -999.25       63.67        7.27        0.34     -999.25
427.83              0.27     -999.25       63.17        7.62        0.36     -999.25
428.08              0.27     -999.25       61.75        7.93        0.34     -999.25
428.33              0.29     -999.25       57.40        8.47        0.32     -999.25
428.58              0.31     -999.25       54.27        9.30        0.32     -999.25
428.83              0.33     -999.25       59.01        9.88        0.30     -999.25
429.08              0.34     -999.25       63.44       10.71        0.27     -999.25
429.33              0.35     -999.25       57.60       11.24        0.26     -999.25
429.58              0.35     -999.25       50.02       11.49        0.23     -999.25
429.83              0.35     -999.25       54.90       11.58        0.18     -999.25
430.08              0.34     -999.25       70.37       11.16        0.19     -999.25
430.33              0.34     -999.25       79.31       10.10        0.31     -999.25
430.58              0.34     -999.25       76.36        8.36        0.33     -999.25
430.83              0.35     -999.25       77.30        6.91        0.31     -999.25
431.08              0.36     -999.25       82.55        6.04        0.31     -999.25
431.33              0.37     -999.25       82.45        5.47        0.31     -999.25
431.58              0.38     -999.25       79.93        5.32        0.34     -999.25
431.83              0.36     -999.25       74.71        5.35        0.33     -999.25
432.08              0.35     -999.25       75.76        5.68        0.33     -999.25
432.33              0.34     -999.25       81.84        6.23        0.31     -999.25
432.58              0.34     -999.25       86.64        6.83        0.29     -999.25
432.83              0.35     -999.25       88.17        7.36        0.28     -999.25
433.08              0.36     -999.25       86.33        7.44        0.29     -999.25
433.33              0.35     -999.25       82.63        6.49        0.32     -999.25
433.58              0.35     -999.25       80.31        5.26        0.34     -999.25
433.83              0.35     -999.25       77.39        4.13        0.36     -999.25
434.08              0.34     -999.25       71.91        3.11        0.36     -999.25
434.33              0.33     -999.25       67.94        2.60        0.37     -999.25
434.58              0.34     -999.25       67.11        2.41        0.40     -999.25
434.83              0.34     -999.25       63.91        2.38        0.41     -999.25
435.08              0.34     -999.25       64.08        2.55        0.38     -999.25
435.33              0.35     -999.25       68.01        3.09        0.36     -999.25
435.58              0.35     -999.25       68.41        3.89        0.35     -999.25
435.83              0.35     -999.25       68.18        4.41        0.35     -999.25
436.08              0.35     -999.25       71.75        4.91        0.32     -999.25
436.33              0.34     -999.25       75.11        5.46        0.29     -999.25
436.58              0.35     -999.25       74.46        5.88        0.29     -999.25
436.83              0.36     -999.25       70.82        6.12        0.30     -999.25
437.08              0.35     -999.25       67.34        6.20        0.31     -999.25
437.33              0.35     -999.25       66.47        5.84        0.33     -999.25
437.58              0.35     -999.25       71.94        5.47        0.31     -999.25
437.83              0.34     -999.25       77.83        4.77        0.30     -999.25
438.08              0.33     -999.25       79.99        3.80        0.30     -999.25
438.33              0.33     -999.25       79.39        3.21        0.33     -999.25
438.58              0.34     -999.25       75.79        3.12        0.36     -999.25
438.83              0.35     -999.25       72.04        3.13        0.38     -999.25
439.08              0.36     -999.25       66.54        3.11        0.37     -999.25
439.33              0.35     -999.25       65.84        3.17        0.34     -999.25
439.58              0.35     -999.25       74.53        3.34        0.34     -999.25
439.83              0.35     -999.25       84.49        3.50        0.35     -999.25
440.08              0.36     -999.25       85.92        3.51        0.37     -999.25
440.33              0.36     -999.25       81.52        3.42        0.38     -999.25
440.58              0.35     -999.25       80.91        3.33        0.37     -999.25
440.83              0.35     -999.25       85.75        3.30        0.35     -999.25
441.08              0.34     -999.25       89.73        3.30        0.34     -999.25
441.33              0.34     -999.25       89.63        3.25        0.35     -999.25
441.58              0.35     -999.25       88.13        3.19        0.37     -999.25
441.83              0.35     -999.25       86.72        3.21        0.40     -999.25
442.08              0.35     -999.25       84.74        3.25        0.39     -999.25
442.33              0.35     -999.25       82.11        3.24        0.37     -999.25
442.58              0.35     -999.25       79.58        3.31        0.36     -999.25
442.83              0.35     -999.25       77.30        3.47        0.34     -999.25
443.08              0.35     -999.25       78.11        3.58        0.32     -999.25
443.33              0.34     -999.25       80.06        3.78        0.32     -999.25
443.58              0.34     -999.25       81.19        4.13        0.34     -999.25
443.83              0.35     -999.25       81.47        4.43        0.36     -999.25
444.08              0.34     -999.25       80.93        4.56        0.35     -999.25
444.33              0.34     -999.25       79.81        4.58        0.34     -999.25
444.58              0.34     -999.25       76.14        4.56        0.33     -999.25
444.83              0.35     -999.25       73.00        4.61        0.33     -999.25
445.08              0.35     -999.25       72.04        4.83        0.31     -999.25
445.33              0.35     -999.25       74.40        5.24        0.29     -999.25
445.58              0.35     -999.25       82.34        5.68        0.28     -999.25
445.83              0.35     -999.25       77.25        5.94        0.29     -999.25
446.08              0.35     -999.25       64.67        5.92        0.30     -999.25
446.33              0.36     -999.25       59.49        5.56        0.30     -999.25
446.58              0.36     -999.25       63.03        4.91        0.30     -999.25
446.83              0.35     -999.25       66.49        4.26        0.32     -999.25
447.08              0.34     -999.25       71.02        3.83        0.34     -999.25
447.33              0.34     -999.25       70.57        3.88        0.36     -999.25
447.58              0.34     -999.25       64.22        5.20        0.31     -999.25
447.83              0.34     -999.25       59.22        7.24        0.24     -999.25
448.08              0.34     -999.25       60.06        9.46        0.25     -999.25
448.33              0.34     -999.25       65.75       12.53        0.29     -999.25
448.58              0.34     -999.25       87.25       12.47        0.31     -999.25
448.83              0.34     -999.25      101.46       10.73        0.31     -999.25
