~VERSION INFORMATION
 VERS.                 2.0:   CWLS LOG ASCII STANDARD -VERSION 2.0
 WRAP.                  NO:   ONE LINE PER DEPTH STEP
~WELL INFORMATION BLOCK
#MNEM.UNIT           DATA                    DESCRIPTION OF MNEMONIC
#---------    -------------------            -------------------------------
# Generated from Intellog Unique Number	CS_71_72/WELL/875
WELL.         PEX PHILLIPS AEC GRIST         : Well_name    - WELL
LOC .         00/10-31-071-07W4/0            : Location     - LOCATION
UWI .         00/10-31-071-07W4/0            : Uwi          - UNIQUE WELL ID
ENTR.         SP                             : Entered      - ENTERED BY
SRVC.         SCHLUMBERGER                   : Scn          - SERVICE COMPANY
STRT.M        300                            : top_depth    - START DEPTH
STOP.M        520                            : bot_depth    - STOP DEPTH
STEP.M        0.25                           : increment    - STEP LENGTH
 NULL. -999.2500:NULL Value
~CURVE INFORMATION BLOCK
#MNEM UNIT       ERCB CURVE CODE    CURVE DESCRIPTION
#-----------   ------------------   ----------------------------------
DEPT.M        00 001 00 00         : DEPTH        - DEPTH
ILD .OHMM     00 120 00 00         : RESD         - DEEP RESISTIVITY (DIL)
DPHI.V/V      00 890 00 00         : PHID         - DENSITY POROSITY (LIMESTONE)
NPHI.V/V      00 330 00 00         : PHIN         - NEUTRON POROSITY (LIMESTONE)
GR  .API      00 310 00 00         : GR           - GAMMA RAY
~PARAMETER INFORMATION
#MNEM.UNIT           DATA             DESCRIPTION OF MNEMONIC
#---------         -----------     ------------------------------
GL  .M        660.2                : gl           - GROUND LEVEL ELEVATION
EREF.M        664                  : kb           - ELEVATION OF DEPTH REFERENCE
DATM.M        660.2                : datum        - DATUM ELEVATION
TDD .M        532                  : tdd          - TOTAL DEPTH DRILLER
RUN .         ONE                  : Run          - RUN NUMBER
ENG .         BILL                 : Engineer     - RECORDING ENGINEER
WIT .         JIM                  : Witness      - WITNESSED BY
MUD .         GEL                  : Mud_type     - MUD TYPE
MATR.         LIMESTONE            : Logunit      - NEUTRON MATRIX
TMAX.C        22                   : BHT          - MAXIMUM RECORDED TEMPERATURE
BHTD.M        532                  : BHTDEP       - MAXIMUM RECORDED TEMPERATURE
MATR.         1                    : LOGUNIT      - NEUTRON MATRIX
RMT .C        25                   : MDTP         - TEMPERATURE OF MUD
NEUT.         1                    : NEUTRON      - NEUTRON TYPE
RESI.         0                    : RESIST       - RESISTIVITY TYPE
RMC .OHMM     0.25                 : RMC          - RESISTIVITY OF MUD CAKE
RMF .OHMM     0.25                 : RMF          - RESISTIVITY OF MUD FILTRATE
SUFT.C        15                   : SUFT         - SURFACE TEMPERATURE
~A  DEPTH     RESD     PHID     PHIN       GR
# ...
  387.000    2.942    0.287    0.559   86.276
  387.250    3.390    0.285    0.561   84.746
  387.500    4.004    0.312    0.571   81.271
  387.750    4.623    0.308    0.525   76.520
  388.000    5.248    0.284    0.493   73.958
  388.250    5.847    0.272    0.475   75.705
  388.500    6.226    0.288    0.457   76.726
  388.750    6.518    0.300    0.447   77.441
  389.000    6.646    0.278    0.441   77.974
  389.250    6.600    0.254    0.442   78.198
  389.500    6.359    0.244    0.449   78.495
  389.750    6.151    0.243    0.458   81.213
  390.000    6.040    0.252    0.464   82.902
  390.250    5.987    0.269    0.464   82.283
  390.500    6.024    0.274    0.448   76.865
  390.750    6.120    0.251    0.436   75.335
  391.000    6.170    0.248    0.435   76.354
  391.250    6.243    0.264    0.436   77.613
  391.500    6.306    0.273    0.447   78.088
  391.750    6.311    0.269    0.439   78.439
  392.000    6.267    0.281    0.450   78.118
  392.250    6.153    0.274    0.460   77.559
  392.500    5.986    0.263    0.441   77.186
  392.750    5.650    0.254    0.464   76.809
  393.000    5.454    0.278    0.491   76.493
  393.250    5.157    0.296    0.515   76.479
  393.500    4.950    0.304    0.506   77.074
  393.750    4.806    0.331    0.533   77.730
  394.000    4.855    0.320    0.538   78.080
  394.250    5.082    0.303    0.528   77.151
  394.500    5.515    0.319    0.540   75.016
  394.750    5.939    0.328    0.482   71.180
  395.000    6.359    0.301    0.469   69.649
  395.250    6.810    0.293    0.477   73.280
  395.500    7.089    0.291    0.473   73.935
  395.750    7.242    0.288    0.469   69.975
  396.000    7.315    0.295    0.469   71.481
  396.250    7.306    0.292    0.471   74.138
  396.500    7.255    0.275    0.466   75.704
  396.750    7.164    0.251    0.458   74.235
  397.000    7.102    0.235    0.466   74.100
  397.250    7.119    0.249    0.482   75.908
  397.500    7.190    0.251    0.472   76.380
  397.750    7.374    0.238    0.443   76.672
  398.000    7.547    0.231    0.433   74.959
  398.250    7.739    0.229    0.432   73.671
  398.500    7.845    0.231    0.435   77.119
  398.750    7.925    0.238    0.447   80.142
  399.000    8.004    0.227    0.462   81.890
  399.250    7.994    0.207    0.470   82.120
  399.500    8.014    0.203    0.460   80.893
  399.750    8.034    0.241    0.453   77.176
  400.000    8.145    0.250    0.446   74.188
  400.250    8.511    0.229    0.446   74.296
  400.500    9.342    0.218    0.443   75.620
  400.750    9.889    0.213    0.422   77.975
  401.000   10.751    0.220    0.409   79.358
  401.250   11.599    0.229    0.417   77.219
  401.500   12.562    0.252    0.422   73.199
  401.750   13.401    0.272    0.372   68.692
  402.000   14.056    0.272    0.302   64.307
  402.250   14.171    0.252    0.274   60.591
  402.500   13.174    0.239    0.321   61.124
  402.750   11.533    0.219    0.373   68.033
  403.000   10.363    0.204    0.404   75.063
  403.250    9.209    0.222    0.426   78.148
  403.500    8.562    0.254    0.434   79.411
  403.750    8.281    0.278    0.427   79.945
  404.000    7.995    0.301    0.447   79.809
  404.250    7.590    0.265    0.464   79.432
  404.500    7.451    0.246    0.474   78.933
  404.750    7.220    0.233    0.463   77.889
  405.000    7.037    0.223    0.461   80.851
  405.250    6.884    0.221    0.472   83.206
  405.500    6.785    0.235    0.469   83.861
  405.750    6.700    0.231    0.455   83.424
  406.000    6.628    0.224    0.451   84.017
  406.250    6.621    0.233    0.468   85.158
  406.500    6.624    0.226    0.481   85.814
  406.750    6.628    0.213    0.470   84.222
  407.000    6.644    0.204    0.452   83.601
  407.250    6.636    0.220    0.459   84.013
  407.500    6.640    0.217    0.474   82.908
  407.750    6.643    0.228    0.484   82.408
  408.000    6.598    0.226    0.482   84.031
  408.250    6.479    0.209    0.481   84.933
  408.500    6.267    0.198    0.495   86.132
  408.750    6.084    0.247    0.520   86.848
  409.000    5.775    0.261    0.501   86.291
  409.250    5.419    0.253    0.469   83.484
  409.500    4.935    0.246    0.478   82.441
  409.750    4.469    0.265    0.515   86.130
  410.000    4.039    0.280    0.538   87.636
  410.250    3.671    0.278    0.561   89.018
  410.500    3.413    0.257    0.559   89.734
  410.750    3.276    0.240    0.550   89.964
  411.000    3.236    0.228    0.558   89.588
  411.250    3.231    0.226    0.566   89.696
  411.500    3.270    0.237    0.562   90.289
  411.750    3.328    0.252    0.560   90.459
  412.000    3.419    0.275    0.564   89.597
  412.250    3.627    0.299    0.570   86.790
  412.500    3.789    0.309    0.565   83.317
  412.750    4.020    0.286    0.522   79.965
  413.000    4.272    0.254    0.476   76.247
  413.250    4.549    0.227    0.490   75.688
  413.500    4.780    0.248    0.513   77.374
  413.750    4.976    0.257    0.505   77.180
  414.000    5.161    0.272    0.480   73.706
  414.250    5.262    0.286    0.473   69.928
  414.500    5.295    0.270    0.480   66.696
  414.750    5.199    0.244    0.477   64.012
  415.000    5.145    0.258    0.471   67.947
  415.250    5.147    0.285    0.468   71.638
  415.500    5.308    0.295    0.474   68.649
  415.750    5.705    0.303    0.476   63.596
  416.000    6.297    0.288    0.467   69.653
  416.250    6.717    0.196    0.488   73.711
  416.500    7.058    0.149    0.488   75.338
  416.750    7.089    0.166    0.362   61.602
  417.000    6.578    0.234    0.392   62.377
  417.250    5.990    0.282    0.456   68.316
  417.500    5.528    0.307    0.488   73.161
  417.750    5.326    0.319    0.505   73.085
  418.000    5.240    0.333    0.491   69.125
  418.250    5.214    0.327    0.472   65.835
  418.500    5.266    0.321    0.461   64.547
  418.750    5.319    0.317    0.490   65.080
  419.000    5.372    0.319    0.507   66.160
  419.250    5.427    0.325    0.507   67.301
  419.500    5.461    0.331    0.487   67.710
  419.750    5.516    0.337    0.494   64.238
  420.000    5.573    0.321    0.501   64.224
  420.250    5.607    0.294    0.490   67.674
  420.500    5.631    0.273    0.482   71.546
  420.750    5.666    0.264    0.470   74.385
  421.000    5.680    0.261    0.460   75.469
  421.250    5.716    0.256    0.468   77.156
  421.500    5.751    0.249    0.457   79.693
  421.750    5.831    0.244    0.444   81.077
  422.000    5.923    0.262    0.443   80.820
  422.250    6.040    0.267    0.437   81.050
  422.500    6.112    0.262    0.428   81.281
  422.750    6.209    0.273    0.443   79.022
  423.000    6.307    0.283    0.459   74.394
  423.250    6.359    0.288    0.473   71.466
  423.500    6.410    0.280    0.465   70.846
  423.750    6.426    0.267    0.455   72.897
  424.000    6.406    0.219    0.451   76.708
  424.250    6.278    0.204    0.463   79.004
  424.500    6.084    0.216    0.474   80.145
  424.750    5.862    0.228    0.471   79.525
  425.000    5.596    0.241    0.464   77.022
  425.250    5.302    0.258    0.459   73.974
  425.500    5.013    0.252    0.456   77.179
  425.750    4.732    0.258    0.463   81.415
  426.000    4.577    0.290    0.486   82.679
  426.250    4.452    0.310    0.516   79.751
  426.500    4.282    0.294    0.546   77.975
  426.750    4.133    0.249    0.500   78.631
  427.000    4.043    0.250    0.471   79.589
  427.250    4.146    0.282    0.516   80.549
  427.500    4.465    0.307    0.567   79.504
  427.750    4.872    0.301    0.465   74.937
  428.000    5.247    0.261    0.448   73.346
  428.250    5.608    0.251    0.442   73.452
  428.500    5.805    0.244    0.440   74.169
  428.750    5.875    0.234    0.437   74.218
  429.000    5.714    0.229    0.435   72.262
  429.250    4.862    0.255    0.448   75.891
  429.500    3.830    0.278    0.468   80.310
  429.750    3.228    0.295    0.487   83.638
  430.000    2.918    0.303    0.510   87.633
  430.250    2.733    0.328    0.550   86.771
