~VERSION INFORMATION
 VERS.                 2.0:   CWLS LOG ASCII STANDARD -VERSION 2.0
 WRAP.                  NO:   ONE LINE PER DEPTH STEP
~WELL INFORMATION BLOCK
#MNEM.UNIT           DATA                    DESCRIPTION OF MNEMONIC
#---------    -------------------            -------------------------------
# Generated from Intellog Unique Number	CS_73_76/WELL/2201
WELL.         PEX KIRBY                      : Well_name    - WELL
LOC .         00/11-18-074-08W4/0            : Location     - LOCATION
UWI .         00/11-18-074-08W4/0            : Uwi          - UNIQUE WELL ID
ENTR.         SP                             : Entered      - ENTERED BY
SRVC.         SCHLUMBERGER                   : Scn          - SERVICE COMPANY
STRT.M        290                            : top_depth    - START DEPTH
STOP.M        505                            : bot_depth    - STOP DEPTH
STEP.M        0.25                           : increment    - STEP LENGTH
 NULL. -999.2500:NULL Value
~CURVE INFORMATION BLOCK
#MNEM UNIT       ERCB CURVE CODE    CURVE DESCRIPTION
#-----------   ------------------   ----------------------------------
DEPT.M        00 001 00 00         : DEPTH        - DEPTH
ILD .OHMM     00 120 00 00         : RESD         - DEEP RESISTIVITY (DIL)
DPHI.V/V      00 890 00 00         : PHID         - DENSITY POROSITY (LIMESTONE)
NPHI.V/V      00 330 00 00         : PHIN         - NEUTRON POROSITY (LIMESTONE)
GR  .API      00 310 00 00         : GR           - GAMMA RAY
~PARAMETER INFORMATION
#MNEM.UNIT           DATA             DESCRIPTION OF MNEMONIC
#---------         -----------     ------------------------------
GL  .M        665.27               : gl           - GROUND LEVEL ELEVATION
EREF.M        669.23               : kb           - ELEVATION OF DEPTH REFERENCE
DATM.M        665.27               : datum        - DATUM ELEVATION
TDD .M        518                  : tdd          - TOTAL DEPTH DRILLER
RUN .         ONE                  : Run          - RUN NUMBER
ENG .         BILL                 : Engineer     - RECORDING ENGINEER
WIT .         JIM                  : Witness      - WITNESSED BY
MUD .         GEL                  : Mud_type     - MUD TYPE
MATR.         LIMESTONE            : Logunit      - NEUTRON MATRIX
TMAX.C        34                   : BHT          - MAXIMUM RECORDED TEMPERATURE
BHTD.M        518                  : BHTDEP       - MAXIMUM RECORDED TEMPERATURE
MATR.         1                    : LOGUNIT      - NEUTRON MATRIX
RMT .C        25                   : MDTP         - TEMPERATURE OF MUD
NEUT.         1                    : NEUTRON      - NEUTRON TYPE
RESI.         0                    : RESIST       - RESISTIVITY TYPE
RMC .OHMM     0.25                 : RMC          - RESISTIVITY OF MUD CAKE
RMF .OHMM     0.25                 : RMF          - RESISTIVITY OF MUD FILTRATE
SUFT.C        15                   : SUFT         - SURFACE TEMPERATURE
~A  DEPTH     RESD     PHID     PHIN       GR
# ...
  420.500    6.830    0.194    0.412   92.903
  420.750    6.703    0.197    0.417   84.854
  421.000    6.578    0.203    0.418   84.865
  421.250    6.579    0.210    0.397   87.974
  421.500    6.456    0.220    0.375   92.321
  421.750    6.336    0.227    0.386   94.809
  422.000    6.218    0.231    0.397   95.441
  422.250    6.102    0.228    0.385   97.929
  422.500    5.989    0.226    0.369  100.418
  422.750    5.989    0.227    0.359   96.707
  423.000    5.990    0.215    0.360   89.278
  423.250    5.878    0.201    0.366   89.909
  423.500    5.879    0.189    0.366   89.296
  423.750    5.880    0.205    0.384   84.346
  424.000    5.881    0.223    0.398   85.596
  424.250    5.663    0.238    0.413   87.464
  424.500    5.350    0.243    0.428   86.855
  424.750    4.867    0.233    0.439   85.005
  425.000    4.343    0.237    0.424   86.255
  425.250    3.732    0.243    0.444   86.882
  425.500    3.207    0.248    0.463   88.137
  425.750    2.973    0.242    0.478   89.385
  426.000    2.704    0.240    0.471   90.012
  426.250    2.555    0.245    0.458   90.639
  426.500    2.460    0.245    0.451   90.651
  426.750    2.369    0.242    0.439   91.276
  427.000    2.281    0.272    0.446   90.667
  427.250    2.239    0.307    0.460   88.197
  427.500    2.239    0.315    0.455   87.589
  427.750    2.282    0.311    0.437   89.457
  428.000    2.416    0.281    0.426   91.326
  428.250    2.657    0.207    0.413   91.953
  428.500    2.922    0.176    0.389   90.102
  428.750    3.275    0.176    0.400   85.774
  429.000    4.036    0.191    0.400   87.024
  429.250    4.438    0.211    0.384   88.896
  429.500    4.881    0.225    0.367   89.522
  429.750    5.167    0.235    0.353   86.431
  430.000    5.903    0.255    0.340   79.623
  430.250    6.871    0.294    0.328   70.954
  430.500    8.468    0.309    0.324   65.384
  430.750   10.435    0.309    0.332   60.434
  431.000   13.613    0.320    0.348   57.965
  431.250   16.151    0.324    0.366   61.073
  431.500   18.802    0.320    0.376   63.561
  431.750   17.763    0.306    0.361   66.053
  432.000   16.158    0.297    0.352   66.060
  432.250   15.267    0.288    0.357   62.973
  432.500   14.700    0.279    0.353   61.123
  432.750   14.703    0.276    0.356   61.130
  433.000   16.478    0.273    0.374   62.999
  433.250   17.781    0.285    0.390   64.250
  433.500   18.471    0.294    0.388   63.020
  433.750   19.190    0.300    0.380   61.786
  434.000   19.559    0.299    0.395   58.082
  434.250   19.194    0.290    0.405   57.470
  434.500   18.836    0.275    0.386   57.477
  434.750   17.464    0.255    0.374   56.866
  435.000   16.816    0.251    0.368   55.017
  435.250   16.191    0.266    0.381   56.264
  435.500   15.297    0.269    0.399   59.375
  435.750   14.181    0.270    0.406   61.244
  436.000   14.183    0.272    0.396   61.870
  436.250   15.017    0.275    0.385   56.924
  436.500   16.204    0.277    0.379   55.692
  436.750   16.833    0.284    0.366   60.664
  437.000   17.157    0.290    0.363   63.149
  437.250   17.490    0.295    0.375   65.016
  437.500   17.163    0.296    0.397   63.166
  437.750   15.612    0.280    0.411   60.697
  438.000   14.473    0.272    0.414   68.767
  438.250   13.674    0.253    0.392   71.873
  438.500   13.676    0.241    0.385   73.121
  438.750   14.479    0.215    0.374   66.312
  439.000   16.229    0.242    0.365   61.362
  439.250   18.188    0.247    0.372   58.894
  439.500   20.384    0.237    0.372   55.803
  439.750   23.284    0.213    0.337   52.715
  440.000   26.096    0.149    0.321   50.863
  440.250   28.159    0.101    0.312   48.395
  440.500   29.814    0.088    0.309   48.402
  440.750   30.972    0.126    0.307   52.131
  441.000   31.571    0.162    0.307   57.101
  441.250   30.981    0.192    0.309   60.210
  441.500   29.272    0.206    0.330   58.976
  441.750   27.137    0.245    0.353   58.989
  442.000   25.157    0.267    0.376   61.475
  442.250   24.687    0.277    0.404   65.823
  442.500   24.226    0.286    0.396   65.213
  442.750   23.775    0.290    0.367   67.086
  443.000   23.778    0.293    0.359   67.712
  443.250   23.783    0.290    0.371   64.004
  443.500   23.785    0.287    0.379   60.291
  443.750   23.343    0.288    0.382   57.201
  444.000   22.906    0.288    0.399   58.453
  444.250   22.057    0.276    0.409   59.080
  444.500   20.063    0.254    0.411   57.233
  444.750   16.286    0.234    0.382   57.240
  445.000   14.535    0.201    0.330   57.869
  445.250   12.729    0.214    0.330   60.977
  445.500   11.147    0.229    0.346   64.708
  445.750    9.949    0.239    0.356   67.814
  446.000    9.050    0.241    0.358   67.203
  446.250    9.051    0.239    0.350   64.116
  446.500    9.053    0.236    0.360   65.364
  446.750    9.228    0.234    0.361   66.612
  447.000    9.406    0.223    0.348   64.765
  447.250    9.771    0.214    0.340   63.531
  447.500   10.151    0.213    0.327   59.824
  447.750   11.377    0.223    0.320   58.592
  448.000   13.244    0.244    0.320   56.122
  448.250   16.952    0.276    0.322   53.031
  448.500   21.699    0.299    0.316   46.842
  448.750   26.237    0.317    0.320   37.555
  449.000   29.970    0.321    0.347   31.986
  449.250   31.134    0.311    0.364   36.335
  449.500   25.273    0.303    0.362   40.681
  449.750   20.514    0.295    0.353   50.610
  450.000   16.339    0.288    0.343   59.297
  450.250   14.040    0.283    0.335   67.364
  450.500   12.530    0.279    0.323   74.192
  450.750   11.398    0.277    0.317   74.820
  451.000   11.840    0.275    0.331   70.492
  451.250   13.271    0.275    0.341   69.880
  451.500   15.449    0.282    0.337   68.650
  451.750   18.681    0.284    0.332   58.744
  452.000   22.587    0.285    0.347   52.555
  452.250   26.294    0.288    0.348   48.223
  452.500   28.916    0.291    0.338   45.754
  452.750   29.475    0.292    0.329   43.908
  453.000   28.382    0.290    0.323   43.293
  453.250   24.387    0.289    0.318   41.441
  453.500   20.175    0.288    0.329   40.830
  453.750   17.668    0.295    0.340   45.181
  454.000   14.897    0.299    0.337   52.627
  454.250   13.550    0.301    0.342   53.256
  454.500   11.424    0.301    0.355   50.787
  454.750   10.005    0.300    0.372   53.279
  455.000    9.100    0.298    0.379   55.766
  455.250    8.278    0.291    0.385   60.731
  455.500    8.123    0.279    0.381   68.798
  455.750    7.972    0.265    0.365   73.149
  456.000    7.974    0.264    0.355   76.257
  456.250    7.975    0.266    0.351   81.225
  456.500    7.976    0.265    0.340   80.615
  456.750    7.977    0.252    0.335   78.146
  457.000    7.978    0.240    0.330   80.014
  457.250    7.979    0.229    0.341   88.701
  457.500    8.290    0.235    0.361   96.149
  457.750    8.450    0.239    0.367  105.456
  458.000    8.777    0.249    0.357  114.144
  458.250    9.472    0.256    0.351  117.870
  458.500   10.028    0.260    0.344   96.184
  458.750   11.028    0.262    0.346   75.119
  459.000   11.899    0.256    0.345   70.171
  459.250   12.598    0.238    0.340   72.661
  459.500   13.088    0.225    0.340   75.148
  459.750   13.341    0.225    0.345   80.118
  460.000   13.598    0.239    0.349   77.645
  460.250   13.861    0.246    0.334   67.739
  460.500   14.129    0.228    0.321   57.210
  460.750   14.678    0.223    0.313   60.940
  461.000   14.961    0.234    0.318   67.765
  461.250   15.542    0.241    0.324   78.932
  461.500   15.544    0.252    0.326   75.843
  461.750   15.546    0.265    0.326   71.514
  462.000   21.066    0.271    0.327   61.606
  462.250   29.091    0.277    0.325   56.035
  462.500   35.849    0.267    0.326   51.087
  462.750   39.423    0.256    0.331   54.815
  463.000   41.739    0.247    0.336   53.585
  463.250   23.181    0.175    0.338   52.975
  463.500   16.792    0.130    0.336   55.461
  463.750   14.157    0.120    0.332   75.305
