~VERSION INFORMATION
 VERS.                 2.0:   CWLS LOG ASCII STANDARD -VERSION 2.0
 WRAP.                  NO:   ONE LINE PER DEPTH STEP
~WELL INFORMATION BLOCK
#MNEM.UNIT           DATA                    DESCRIPTION OF MNEMONIC
#---------    -------------------            -------------------------------
# Generated from Intellog Unique Number	CW_82_90/WELL/2591
WELL.         AMOCO D-1 WABASCA 10-03        : Well_name    - WELL
LOC .         00/10-03-084-22W4/0            : Location     - LOCATION
UWI .         00/10-03-084-22W4/0            : Uwi          - UNIQUE WELL ID
ENTR.         JJ                             : Entered      - ENTERED BY
SRVC.         SCHLUMBERGER                   : Scn          - SERVICE COMPANY
DATE.         8 MAR 72                       : Date         - LOG DATE
STRT.M        272.491                        : top_depth    - START DEPTH
STOP.M        400.491                        : bot_depth    - STOP DEPTH
STEP.M        0.25                           : increment    - STEP LENGTH
 NULL. -999.2500:NULL Value
~CURVE INFORMATION BLOCK
#MNEM UNIT       ERCB CURVE CODE    CURVE DESCRIPTION
#-----------   ------------------   ----------------------------------
DEPT.M        00 001 00 00         : DEPTH        - DEPTH
ILD .OHMM     00 120 00 00         : RESD         - DEEP RESISTIVITY (DIL)
CALI.MM       00 280 01 00         : CAL          - CALIPER
GR  .API      00 310 00 00         : GR           - GAMMA RAY
NPHI.V/V      00 330 00 00         : PHIN         - NEUTRON POROSITY (SANDSTONE)
DPHI.V/V      00 890 00 00         : PHID         - DENSITY POROSITY (SANDSTONE)
~PARAMETER INFORMATION
#MNEM.UNIT           DATA             DESCRIPTION OF MNEMONIC
#---------         -----------     ------------------------------
GL  .M        605.333              : gl           - GROUND LEVEL ELEVATION
EREF.M        607.771              : kb           - ELEVATION OF DEPTH REFERENCE
DATM.M        607.771              : datum        - DATUM ELEVATION
TDD .M        399.288              : tdd          - TOTAL DEPTH DRILLER
RUN .         ONE                  : Run          - RUN NUMBER
ENG .         WORONUK              : Engineer     - RECORDING ENGINEER
WIT .         HUCULAK              : Witness      - WITNESSED BY
BASE.         EDM                  : Branch       - HOME BASE OF LOGGING UNIT
MUD .         GEL-SAWDUST          : Mud_type     - MUD TYPE
MATR.         SANDSTONE            : Logunit      - NEUTRON MATRIX
TMAX.C        26.1111              : BHT          - MAXIMUM RECORDED TEMPERATURE
BHTD.M        399.898              : BHTDEP       - MAXIMUM RECORDED TEMPERATURE
RMT .C        20                   : MDTP         - TEMPERATURE OF MUD
MUDD.KG/M     1164                 : MWT          - MUD DENSITY
NEUT.         1                    : NEUTRON      - NEUTRON TYPE
RESI.         0                    : RESIST       - RESISTIVITY TYPE
RM  .OHMM     7.15                 : RM           - RESISTIVITY OF MUD
RMC .OHMM     0                    : RMC          - RESISTIVITY OF MUD CAKE
RMF .OHMM     6.84                 : RMF          - RESISTIVITY OF MUD FILTRATE
SUFT.C        5                    : SUFT         - SURFACE TEMPERATURE
~A  DEPTH     RESD      CAL       GR     PHIN     PHID
  272.491   22.414  143.270   59.731    0.387    0.333
  272.741   20.259  144.100   60.649    0.393    0.331
  272.991   20.787  145.033   65.178    0.398    0.345
  273.241   24.168  145.863   63.955    0.371    0.354
  273.491   21.134  146.796   65.179    0.389    0.346
  273.741    9.625  148.869   69.157    0.427    0.310
  273.991    7.266  150.321   75.645    0.408    0.312
  274.241   10.867  152.912   82.132    0.371    0.327
  274.491   24.259  156.851   72.708    0.354    0.332
  274.741   19.819  160.997   69.771    0.354    0.276
  274.991    9.626  165.453   78.829    0.384    0.267
  275.241    8.911  168.874   86.785    0.393    0.253
  275.491    9.262  173.745   88.070    0.374    0.238
  275.741    8.911  175.922   93.028    0.380    0.237
  275.991    7.735  168.150   95.782    0.400    0.250
  276.241    6.740  169.291   94.375    0.395    0.261
  276.491    7.736  169.188   90.642    0.411    0.274
  276.741    7.057  167.219   86.603    0.392    0.279
  276.991    6.815  164.836   75.649    0.407    0.293
  277.241   15.869  162.246   65.246    0.426    0.309
  277.491   39.122  159.345   55.026    0.378    0.325
  277.741   31.612  156.548   45.112    0.406    0.341
  277.991   26.065  153.336   43.215    0.399    0.356
  278.241   28.260  152.093   42.542    0.410    0.365
  278.491   29.211  151.264   40.890    0.388    0.360
  278.741   28.680  150.850   43.338    0.409    0.354
  278.991   27.543  150.540   43.767    0.377    0.356
  279.241   27.092  150.333   41.319    0.386    0.371
  279.491   27.798  150.541   41.197    0.412    0.374
  279.741   28.159  150.749   44.747    0.391    0.375
  279.991   27.850  151.268   46.278    0.419    0.381
  280.241   26.357  151.476   44.626    0.410    0.393
  280.491   24.989  152.202   43.953    0.400    0.378
  280.741   25.640  152.928   45.544    0.419    0.365
  280.991   26.116  153.965   48.054    0.409    0.376
  281.241   24.761  154.173   48.238    0.407    0.373
  281.491   23.824  154.484   50.013    0.400    0.367
  281.741   22.796  156.350   48.912    0.380    0.357
  281.991   23.220  158.423   51.176    0.395    0.352
  282.241   23.607  156.351   53.074    0.413    0.346
  282.491   22.423  149.823   56.869    0.391    0.342
  282.741   21.934  146.300   52.157    0.411    0.342
  282.991   23.093  147.648   54.666    0.426    0.354
  283.241   26.701  149.100   54.911    0.449    0.361
  283.491   13.282  150.966   52.953    0.435    0.345
  283.741    9.559  152.106   53.137    0.409    0.333
  283.991   18.592  151.899   53.566    0.397    0.341
  284.241   32.030  153.247   54.913    0.415    0.351
  284.491   27.398  156.357   53.567    0.419    0.354
  284.741   22.467  159.985   49.650    0.393    0.330
  284.991   17.922  161.125   49.467    0.423    0.334
  285.241   17.307  162.058   54.180    0.423    0.350
  285.491   18.696  160.505   55.159    0.381    0.340
  285.741   20.308  158.122   51.427    0.391    0.337
  285.991   20.420  156.671   49.713    0.412    0.348
  286.241   21.538  152.320   53.080    0.429    0.350
  286.491   25.366  149.626   58.527    0.416    0.334
  286.741   18.458  149.212   60.424    0.439    0.330
  286.991   12.140  150.145   62.505    0.440    0.309
  287.241   11.745  155.327   66.484    0.427    0.290
  287.491   13.481  168.904   74.379    0.373    0.240
  287.741   11.468  175.847   78.847    0.401    0.219
  287.991    8.284  178.750   82.397    0.391    0.235
  288.241    9.115  179.787   88.333    0.374    0.250
  288.491    9.318  176.575   95.311    0.387    0.263
  288.741    9.284  167.352   92.557    0.416    0.268
  288.991    9.544  159.477   83.989    0.393    0.251
  289.241   10.159  159.166   87.111    0.366    0.252
  289.491   10.578  164.141   85.398    0.359    0.269
  289.741   10.159  169.842   83.011    0.359    0.268
  289.991    9.650  175.231   87.602    0.347    0.255
  290.241    9.032  175.957   91.213    0.334    0.247
  290.491    9.544  173.781   91.397    0.354    0.243
  290.741    9.527  169.637   93.478    0.374    0.241
  290.991    8.691  166.321   98.680    0.384    0.239
  291.241    8.090  164.560  102.169    0.328    0.232
  291.491    8.966  162.592   91.459    0.263    0.209
  291.741   15.996  161.867   84.666    0.227    0.146
  291.991   33.795  161.350   77.568    0.185    0.087
  292.241   47.829  162.179   74.630    0.173    0.073
  292.491   47.830  163.009   72.428    0.180    0.096
  292.741   33.120  163.942   70.653    0.190    0.140
  292.991   23.531  161.248   71.204    0.266    0.175
  293.241   18.805  146.326   75.734    0.386    0.202
  293.491   15.251  144.876   73.408    0.396    0.253
  293.741   15.881  146.223   72.858    0.417    0.294
  293.991   16.146  152.235   77.387    0.409    0.310
  294.241   16.057  153.790   82.650    0.383    0.313
  294.491   16.057  153.790   82.651    0.392    0.310
  294.741   16.628  156.589   84.365    0.377    0.302
  294.991   16.028  163.118   84.855    0.367    0.283
  295.241   13.191  170.270   84.427    0.360    0.276
  295.491   10.897  175.245   91.587    0.354    0.259
  295.741    9.706  179.287   93.791    0.342    0.245
  295.991    8.968  174.106   90.609    0.371    0.234
  296.241    9.886  163.225   84.306    0.357    0.226
  296.491   12.976  157.837   77.941    0.357    0.225
  296.741   15.059  157.423   78.737    0.363    0.254
  296.991   14.676  160.429   80.941    0.393    0.292
  297.241    9.923  164.471   87.551    0.379    0.278
  297.491    7.974  170.793   92.692    0.366    0.264
  297.741    7.771  174.214   98.567    0.394    0.238
  297.991    7.714  173.178  102.362    0.394    0.252
  298.241    6.291  170.173  104.137    0.393    0.242
  298.491    6.396  169.656  107.687    0.409    0.236
  298.741    5.792  171.107  104.689    0.406    0.233
  298.991    5.149  172.559   98.447    0.374    0.223
  299.241    5.431  173.492   91.226    0.338    0.189
  299.491    8.520  174.632   84.310    0.319    0.169
  299.741   11.245  174.840   89.635    0.376    0.135
  299.991    8.182  172.354   87.738    0.370    0.171
  300.241    7.989  171.007   85.230    0.369    0.205
  300.491   10.429  168.831   80.946    0.377    0.228
  300.741   12.305  166.656   75.867    0.379    0.238
  300.991   12.625  164.688   76.357    0.377    0.249
  301.241   15.369  163.755   77.642    0.386    0.257
  301.491   18.368  163.238   75.072    0.360    0.273
  301.741   21.121  162.824   69.136    0.347    0.289
  301.991   17.415  162.410   67.423    0.371    0.273
  302.241   16.300  162.100   70.667    0.369    0.256
  302.491   21.953  158.991   73.666    0.362    0.301
  302.741   23.846  157.230   74.952    0.384    0.323
  302.991   19.590  157.127   71.770    0.398    0.296
  303.241   15.684  157.646   71.770    0.387    0.261
  303.491   17.936  161.481   74.830    0.387    0.256
  303.741   19.880  169.254   82.787    0.413    0.284
  303.991   14.520  171.534   88.846    0.382    0.279
  304.241   11.994  168.530   90.927    0.379    0.229
  304.491   12.980  164.385   87.255    0.394    0.226
  304.741   14.981  160.966   84.502    0.384    0.254
  304.991   15.036  157.857   88.602    0.387    0.243
  305.241   15.064  155.371   92.275    0.396    0.237
  305.491   14.022  154.543   84.809    0.386    0.244
  305.741   14.872  154.647   72.936    0.376    0.259
  305.991   16.424  154.958   65.103    0.368    0.279
  306.241   18.338  156.099   65.654    0.374    0.293
  306.491   16.066  157.136   70.918    0.389    0.291
  306.741   14.791  158.898   72.570    0.378    0.278
  306.991   15.572  160.039   79.119    0.391    0.284
  307.241   15.232  161.594   83.465    0.413    0.256
  307.491   11.520  162.838   76.917    0.395    0.251
  307.741   11.373  163.046   69.267    0.366    0.275
  307.991   14.284  163.046   64.188    0.396    0.291
  308.241   17.229  162.840   62.658    0.396    0.305
  308.491   17.973  162.115   66.514    0.384    0.293
  308.741   17.388  161.701   66.515    0.371    0.253
