~VERSION INFORMATION
 VERS.                 2.0:   CWLS LOG ASCII STANDARD -VERSION 2.0
 WRAP.                  NO:   ONE LINE PER DEPTH STEP
~WELL INFORMATION BLOCK
#MNEM.UNIT           DATA                    DESCRIPTION OF MNEMONIC
#---------    -------------------            -------------------------------
# Generated from Intellog Unique Number	CW_82_90/WELL/2591
WELL.         AMOCO D-1 WABASCA 10-03        : Well_name    - WELL
LOC .         00/10-03-084-22W4/0            : Location     - LOCATION
UWI .         00/10-03-084-22W4/0            : Uwi          - UNIQUE WELL ID
ENTR.         JJ                             : Entered      - ENTERED BY
SRVC.         SCHLUMBERGER                   : Scn          - SERVICE COMPANY
DATE.         8 MAR 72                       : Date         - LOG DATE
STRT.M        272.491                        : top_depth    - START DEPTH
STOP.M        400.491                        : bot_depth    - STOP DEPTH
STEP.M        0.25                           : increment    - STEP LENGTH
 NULL. -999.2500:NULL Value
~CURVE INFORMATION BLOCK
#MNEM UNIT       ERCB CURVE CODE    CURVE DESCRIPTION
#-----------   ------------------   ----------------------------------
DEPT.M        00 001 00 00         : DEPTH        - DEPTH
ILD .OHMM     00 120 00 00         : RESD         - DEEP RESISTIVITY (DIL)
CALI.MM       00 280 01 00         : CAL          - CALIPER
GR  .API      00 310 00 00         : GR           - GAMMA RAY
NPHI.V/V      00 330 00 00         : PHIN         - NEUTRON POROSITY (SANDSTONE)
DPHI.V/V      00 890 00 00         : PHID         - DENSITY POROSITY (SANDSTONE)
~PARAMETER INFORMATION
#MNEM.UNIT           DATA             DESCRIPTION OF MNEMONIC
#---------         -----------     ------------------------------
GL  .M        605.333              : gl           - GROUND LEVEL ELEVATION
EREF.M        607.771              : kb           - ELEVATION OF DEPTH REFERENCE
DATM.M        607.771              : datum        - DATUM ELEVATION
TDD .M        399.288              : tdd          - TOTAL DEPTH DRILLER
RUN .         ONE                  : Run          - RUN NUMBER
ENG .         WORONUK              : Engineer     - RECORDING ENGINEER
WIT .         HUCULAK              : Witness      - WITNESSED BY
BASE.         EDM                  : Branch       - HOME BASE OF LOGGING UNIT
MUD .         GEL-SAWDUST          : Mud_type     - MUD TYPE
MATR.         SANDSTONE            : Logunit      - NEUTRON MATRIX
TMAX.C        26.1111              : BHT          - MAXIMUM RECORDED TEMPERATURE
BHTD.M        399.898              : BHTDEP       - MAXIMUM RECORDED TEMPERATURE
RMT .C        20                   : MDTP         - TEMPERATURE OF MUD
MUDD.KG/M     1164                 : MWT          - MUD DENSITY
NEUT.         1                    : NEUTRON      - NEUTRON TYPE
RESI.         0                    : RESIST       - RESISTIVITY TYPE
RM  .OHMM     7.15                 : RM           - RESISTIVITY OF MUD
RMC .OHMM     0                    : RMC          - RESISTIVITY OF MUD CAKE
RMF .OHMM     6.84                 : RMF          - RESISTIVITY OF MUD FILTRATE
SUFT.C        5                    : SUFT         - SURFACE TEMPERATURE
~A  DEPTH     RESD      CAL       GR     PHIN     PHID
# ...
  345.491   16.880  168.526   93.250    0.342    0.199
  345.741   18.883  165.729   93.618    0.318    0.212
  345.991   21.673  164.175   87.682    0.302    0.217
  346.241   29.350  162.414   84.194    0.306    0.222
  346.491   29.840  160.445   90.070    0.322    0.241
  346.741   22.321  158.581   92.089    0.341    0.226
  346.991   22.036  157.960   87.010    0.353    0.245
  347.241   23.457  159.722   83.645    0.320    0.239
  347.491   27.574  160.863   78.382    0.318    0.176
  347.741   25.386  162.418   68.529    0.276    0.121
  347.991   29.623  163.144   63.939    0.262    0.140
  348.241   43.177  163.351   63.817    0.256    0.147
  348.491   61.558  163.456   73.304    0.310    0.139
  348.741   39.099  164.078   84.871    0.350    0.176
  348.991   26.386  170.089   96.193    0.343    0.229
  349.241   17.133  176.411  100.539    0.343    0.257
  349.491   12.722  180.557  104.945    0.338    0.230
  349.741   11.712  181.594   97.969    0.344    0.205
  349.991   14.900  173.926   89.340    0.345    0.187
  350.241   17.292  164.600   85.791    0.324    0.177
  350.491   18.475  162.735   81.385    0.271    0.199
  350.741   18.611  163.150   77.652    0.245    0.221
  350.991   21.519  163.876   71.471    0.226    0.225
  351.241   33.943  164.084   62.414    0.208    0.191
  351.491   54.035  164.499   55.927    0.197    0.082
  351.741   68.870  165.329   51.460    0.175    0.046
  351.991   78.758  166.469   51.889    0.159    0.033
  352.241   85.234  166.677   60.029    0.148    0.025
  352.491   86.976  165.434   68.475    0.205    0.026
  352.741   80.368  164.295   75.085    0.234    0.042
  352.991   53.741  163.467   67.680    0.243    0.074
  353.241   56.165  163.260   69.761    0.284    0.096
  353.491   61.911  162.742   83.042    0.327    0.125
  353.741   29.306  162.328   90.386    0.333    0.204
  353.991   20.368  163.469   92.406    0.312    0.209
  354.241   16.040  166.786   87.388    0.328    0.208
  354.491   20.443  168.755   88.245    0.326    0.201
  354.741   20.632  169.689   91.917    0.351    0.188
  354.991   18.925  170.519   91.122    0.330    0.170
  355.241   19.998  170.726   87.940    0.354    0.129
  355.491   18.891  171.142   85.615    0.330    0.164
  355.741   20.035  171.557   85.248    0.309    0.151
  355.991   21.603  171.661   87.084    0.343    0.176
  356.241   19.779  171.661   91.124    0.334    0.198
  356.491   17.553  171.144   91.920    0.312    0.193
  356.741   17.977  170.212   88.248    0.302    0.172
  356.991   21.564  168.036   89.534    0.322    0.155
  357.241   23.640  164.513   95.226    0.342    0.187
  357.491   21.017  165.757   96.756    0.330    0.201
  357.741   18.514  168.245   92.166    0.309    0.180
  357.991   18.720  170.318   85.435    0.321    0.141
  358.241   23.641  170.941   86.231    0.348    0.127
  358.491   22.209  171.874   91.494    0.343    0.175
  358.741   18.515  171.978   97.676    0.336    0.174
  358.991   17.077  171.564   98.839    0.316    0.164
  359.241   17.299  170.943   98.717    0.302    0.165
  359.491   17.815  171.151   99.207    0.308    0.166
  359.741   19.965  172.499   98.534    0.324    0.144
  359.991   20.942  173.432   95.107    0.324    0.140
  360.241   18.687  174.676   92.476    0.329    0.172
  360.491   17.110  174.988   94.129    0.321    0.174
  360.741   17.427  174.263   98.474    0.305    0.171
  360.991   19.246  173.435  101.412    0.312    0.192
  361.241   20.411  172.088  104.534    0.326    0.182
  361.491   20.077  174.058  108.145    0.319    0.175
  361.741   16.707  176.960  111.022    0.292    0.176
  361.991   15.494  177.168  110.532    0.304    0.195
  362.241   14.745  172.505  106.188    0.309    0.197
  362.491   17.916  169.915   99.823    0.244    0.176
  362.741   34.781  169.812   90.276    0.250    0.083
  362.991   46.843  171.160   91.011    0.281    0.077
  363.241   36.889  173.855   97.621    0.301    0.119
  363.491   25.544  170.954  102.517    0.301    0.200
  363.741   18.082  168.363   99.703    0.317    0.202
  363.991   16.046  164.633   84.525    0.276    0.167
  364.241   30.529  162.976   80.425    0.281    0.140
  364.491   50.978  163.287   84.893    0.307    0.127
  364.741   36.219  163.806   88.933    0.292    0.149
  364.991   28.733  163.910   92.054    0.314    0.234
  365.241   28.107  164.014   88.016    0.323    0.243
  365.491   30.756  164.533   83.487    0.271    0.239
  365.741   34.658  164.741   75.348    0.260    0.212
  365.991   41.804  165.053   71.738    0.254    0.194
  366.241   51.642  165.157   73.880    0.270    0.160
  366.491   64.383  165.261   79.817    0.287    0.138
  366.741   70.321  165.054   85.203    0.285    0.135
  366.991   55.787  164.019   84.285    0.284    0.163
  367.241   44.501  163.605   76.146    0.275    0.160
  367.491   48.339  163.398   73.331    0.258    0.159
  367.741   57.348  162.570   71.189    0.271    0.167
  367.991   65.582  162.052   68.007    0.320    0.158
  368.241   65.462  162.053   69.905    0.342    0.130
  368.491   49.600  162.157   73.577    0.324    0.174
  368.741   37.929  163.090   75.781    0.304    0.283
  368.991   30.704  165.785   71.681    0.241    0.289
  369.241   32.325  167.755   65.928    0.218    0.213
  369.491   40.375  169.103   65.072    0.193    0.120
  369.741   51.177  169.103   64.644    0.181    0.089
  369.991   66.071  168.171   63.971    0.169    0.080
  370.241   72.965  167.136   62.013    0.173    0.073
  370.491   78.531  165.271   57.668    0.177    0.065
  370.741   80.875  164.442   52.773    0.185    0.059
  370.991   86.091  164.547   57.424    0.201    0.052
  371.241   99.909  166.413   60.546    0.216    0.042
  371.491   78.103  168.279   64.034    0.231    0.040
  371.741   61.620  167.450   67.951    0.243    0.076
  371.991   53.983  165.171   72.297    0.294    0.145
  372.241   48.260  164.964   75.602    0.326    0.177
  372.491   39.067  164.550   77.194    0.329    0.208
  372.741   25.885  164.344   80.866    0.321    0.231
  372.991   20.877  164.033   86.191    0.312    0.232
  373.241   21.819  163.516   82.335    0.302    0.211
  373.491   23.140  162.791   73.768    0.287    0.197
  373.741   24.407  162.377   69.546    0.290    0.181
  373.991   27.860  163.103   68.138    0.291    0.173
  374.241   28.273  164.555   74.687    0.285    0.163
  374.491   28.170  166.939   66.425    0.269    0.156
  374.741   33.237  168.079   64.284    0.255    0.149
  374.991   39.942  167.873   69.241    0.276    0.109
  375.241   35.251  166.526   79.217    0.294    0.175
  375.491   23.442  166.216   83.379    0.293    0.198
  375.741   24.098  167.874   79.952    0.291    0.178
  375.991   27.055  168.393   84.237    0.314    0.160
  376.241   27.761  169.016   90.235    0.319    0.169
  376.491   22.432  169.949   92.622    0.310    0.194
  376.741   20.313  170.986   87.359    0.300    0.210
  376.991   21.623  171.815   86.502    0.310    0.198
  377.241   22.933  172.023   88.278    0.321    0.179
  377.491   18.293  172.024   90.787    0.326    0.170
  377.741   16.718  172.128   92.256    0.321    0.183
  377.991   16.505  172.336   92.563    0.297    0.190
  378.241   19.014  173.062   92.808    0.281    0.162
  378.491   24.412  173.581   93.053    0.289    0.139
  378.741   22.229  173.581   92.625    0.297    0.119
  378.991   16.781  172.857   91.646    0.299    0.118
  379.241   18.061  169.852   89.933    0.292    0.175
  379.491   19.982  170.163   90.606    0.285    0.155
  379.741   21.310  171.822   94.095    0.275    0.136
  379.991   17.929  173.170   97.339    0.287    0.170
  380.241   14.567  172.860   93.484    0.276    0.191
  380.491   13.990  169.855   87.731    0.238    0.127
  380.741   16.999  170.374   78.246    0.284    0.065
  380.991   20.542  172.758   89.323    0.328    0.026
  381.241   29.341  173.173   99.605    0.321    0.054
  381.491   18.431  170.894   99.850    0.314    0.094
  381.741   12.012  169.962   99.667    0.311    0.195
