~VERSION INFORMATION
 VERS.                 2.0:   CWLS LOG ASCII STANDARD -VERSION 2.0
 WRAP.                  NO:   ONE LINE PER DEPTH STEP
~WELL INFORMATION BLOCK
#MNEM.UNIT           DATA                    DESCRIPTION OF MNEMONIC
#---------    -------------------            -------------------------------
# Generated from Intellog Unique Number	CS_67_68/WELL/822
WELL.         ESSO RESOURCES CANADA LTD      : Well_name    - WELL
LOC .         00/11-19-068-06W4/0            : Location     - LOCATION
UWI .         00/11-19-068-06W4/0            : Uwi          - UNIQUE WELL ID
ENTR.         SP                             : Entered      - ENTERED BY
SRVC.         SCHLUMBERGER                   : Scn          - SERVICE COMPANY
STRT.M        330                            : top_depth    - START DEPTH
STOP.M        550                            : bot_depth    - STOP DEPTH
STEP.M        0.25                           : increment    - STEP LENGTH
 NULL. -999.2500:NULL Value
~CURVE INFORMATION BLOCK
#MNEM UNIT       ERCB CURVE CODE    CURVE DESCRIPTION
#-----------   ------------------   ----------------------------------
DEPT.M        00 001 00 00         : DEPTH        - DEPTH
ILD .OHMM     00 120 00 00         : RESD         - DEEP RESISTIVITY (DIL)
DPHI.V/V      00 890 00 00         : PHID         - DENSITY POROSITY (LIMESTONE)
NPHI.V/V      00 330 00 00         : PHIN         - NEUTRON POROSITY (LIMESTONE)
GR  .API      00 310 00 00         : GR           - GAMMA RAY
~PARAMETER INFORMATION
#MNEM.UNIT           DATA             DESCRIPTION OF MNEMONIC
#---------         -----------     ------------------------------
GL  .M        668.73               : gl           - GROUND LEVEL ELEVATION
EREF.M        672                  : kb           - ELEVATION OF DEPTH REFERENCE
DATM.M        672.6                : datum        - DATUM ELEVATION
TDD .M        557                  : tdd          - TOTAL DEPTH DRILLER
RUN .         ONE                  : Run          - RUN NUMBER
ENG .         BILL                 : Engineer     - RECORDING ENGINEER
WIT .         JIM                  : Witness      - WITNESSED BY
MUD .         GEL                  : Mud_type     - MUD TYPE
MATR.         LIMESTONE            : Logunit      - NEUTRON MATRIX
TMAX.C        28                   : BHT          - MAXIMUM RECORDED TEMPERATURE
BHTD.M        557                  : BHTDEP       - MAXIMUM RECORDED TEMPERATURE
MATR.         1                    : LOGUNIT      - NEUTRON MATRIX
RMT .C        25                   : MDTP         - TEMPERATURE OF MUD
NEUT.         1                    : NEUTRON      - NEUTRON TYPE
RESI.         0                    : RESIST       - RESISTIVITY TYPE
RMC .OHMM     0.25                 : RMC          - RESISTIVITY OF MUD CAKE
RMF .OHMM     0.25                 : RMF          - RESISTIVITY OF MUD FILTRATE
SUFT.C        15                   : SUFT         - SURFACE TEMPERATURE
~A  DEPTH     RESD     PHID     PHIN       GR
# ...
  504.000   10.558    0.240    0.399   64.301
  504.250   12.732    0.259    0.401   61.212
  504.500   15.707    0.254    0.389   50.450
  504.750   25.195    0.268    0.399   40.375
  505.000   30.213    0.290    0.399   34.540
  505.250   29.211    0.315    0.388   43.244
  505.500   23.113    0.302    0.379   50.636
  505.750   19.725    0.280    0.374   56.970
  506.000   17.350    0.260    0.381   62.490
  506.250   14.124    0.251    0.401   67.949
  506.500   12.400    0.256    0.421   67.359
  506.750   11.242    0.273    0.436   71.379
  507.000    9.945    0.285    0.414   76.341
  507.250    9.153    0.263    0.377   80.055
  507.500    8.052    0.239    0.373   82.518
  507.750    7.043    0.237    0.383   84.108
  508.000    6.618    0.245    0.386   86.822
  508.250    6.184    0.248    0.374   91.103
  508.500    5.758    0.234    0.388   93.560
  508.750    5.587    0.224    0.397   96.457
  509.000    5.401    0.224    0.409   98.800
  509.250    5.311    0.227    0.419  100.576
  509.500    5.242    0.227    0.414  102.542
  509.750    5.204    0.221    0.404  103.880
  510.000    5.275    0.195    0.395  102.977
  510.250    5.521    0.191    0.396   97.267
  510.500    5.691    0.197    0.402   94.991
  510.750    5.735    0.200    0.398   91.092
  511.000    5.946    0.203    0.387   84.072
  511.250    6.130    0.215    0.378   78.492
  511.500    6.513    0.232    0.383   75.710
  511.750    7.507    0.261    0.412   74.306
  512.000    7.827    0.279    0.425   75.400
  512.250    8.023    0.268    0.416   78.242
  512.500    7.261    0.259    0.412   83.073
  512.750    7.180    0.252    0.403   89.342
  513.000    6.902    0.249    0.392   96.426
  513.250    6.800    0.241    0.405  100.199
  513.500    6.649    0.225    0.418  102.411
  513.750    6.625    0.216    0.427   93.459
  514.000    8.424    0.219    0.438   69.531
  514.250    9.726    0.117    0.343   58.268
  514.500   11.685    0.081    0.316   46.819
  514.750   12.534    0.074    0.291   54.153
  515.000   12.140    0.179    0.321   63.044
  515.250   11.027    0.212    0.337   72.059
  515.500   10.054    0.209    0.345   81.383
  515.750   11.522    0.190    0.406   52.340
  516.000   15.740    0.233    0.433   43.388
  516.250   18.662    0.285    0.404   40.860
  516.500   21.105    0.311    0.382   48.189
  516.750   22.766    0.301    0.386   62.632
  517.000   22.987    0.286    0.383   61.916
  517.250   20.684    0.269    0.398   56.268
  517.500   18.159    0.272    0.424   46.817
  517.750   14.838    0.286    0.404   50.839
  518.000   12.711    0.295    0.357   64.914
  518.250   10.726    0.263    0.328   71.365
  518.500    8.831    0.223    0.324   76.012
  518.750    7.480    0.211    0.346   74.306
  519.000    6.923    0.234    0.366   73.703
  519.250    6.694    0.243    0.351   77.229
  519.500    6.557    0.233    0.339   84.065
  519.750    6.485    0.204    0.336   90.647
  520.000    6.510    0.179    0.324   96.104
  520.250    6.574    0.161    0.326  103.247
  520.500    6.650    0.141    0.352  105.959
  520.750    6.766    0.156    0.366  105.554
  521.000    6.948    0.162    0.381  103.214
  521.250    7.204    0.163    0.398   92.699
  521.500    7.398    0.180    0.369   75.385
  521.750    7.276    0.197    0.343   72.921
  522.000    6.994    0.211    0.329   78.321
  522.250    6.877    0.206    0.324   82.903
  522.500    7.103    0.205    0.345   85.930
  522.750    7.378    0.216    0.355   87.088
  523.000    7.650    0.187    0.337   86.118
  523.250    7.812    0.155    0.323   84.772
  523.500    7.873    0.164    0.318   81.060
  523.750    7.845    0.171    0.327   77.659
  524.000    7.832    0.172    0.333   85.989
  524.250    7.893    0.171    0.342   91.325
  524.500    8.045    0.175    0.357   85.179
  524.750    8.404    0.184    0.373   76.040
  525.000    8.796    0.196    0.395   71.140
  525.250    9.258    0.207    0.389   67.364
  525.500    9.708    0.212    0.393   64.963
  525.750   10.122    0.226    0.405   58.690
  526.000   10.239    0.248    0.395   60.655
  526.250   10.165    0.219    0.380   67.736
  526.500    9.771    0.210    0.370   70.388
  526.750    9.045    0.210    0.365   73.479
  527.000    8.744    0.207    0.355   77.314
  527.250    8.648    0.205    0.389   66.113
  527.500    8.764    0.232    0.409   63.275
  527.750    9.018    0.175    0.376   71.666
  528.000    9.210    0.174    0.371   78.436
  528.250    9.281    0.185    0.398   79.403
  528.500    9.336    0.198    0.388   78.435
  528.750    9.391    0.181    0.376   79.214
  529.000    9.979    0.213    0.383   68.266
  529.250   11.370    0.276    0.414   55.444
  529.500   13.154    0.307    0.441   48.798
  529.750   14.243    0.258    0.421   49.514
  530.000   14.992    0.255    0.410   54.849
  530.250   15.081    0.264    0.414   58.623
  530.500   14.173    0.286    0.405   57.906
  530.750   13.219    0.276    0.394   64.301
  531.000   12.259    0.232    0.397   65.204
  531.250   11.739    0.255    0.413   54.567
  531.500   10.785    0.280    0.434   48.733
  531.750   10.078    0.306    0.440   47.770
  532.000    9.102    0.325    0.428   49.421
  532.250    8.174    0.297    0.418   46.081
  532.500    6.885    0.275    0.420   40.997
  532.750    5.898    0.265    0.412   35.975
  533.000    5.100    0.281    0.397   35.382
  533.250    4.739    0.297    0.383   45.519
  533.500    4.642    0.298    0.377   52.099
  533.750    4.732    0.262    0.380   62.300
  534.000    4.814    0.237    0.388   66.700
  534.250    4.870    0.238    0.396   64.919
  534.500    4.807    0.253    0.407   51.787
  534.750    4.700    0.276    0.378   47.886
  535.000    4.426    0.298    0.358   64.201
  535.250    4.319    0.245    0.368   72.467
  535.500    4.295    0.229    0.402   68.134
  535.750    4.329    0.247    0.425   63.363
  536.000    4.396    0.258    0.426   59.958
  536.250    4.455    0.268    0.416   55.123
  536.500    4.364    0.279    0.418   52.282
  536.750    4.172    0.283    0.415   52.938
  537.000    3.980    0.263    0.408   62.578
  537.250    3.841    0.248    0.426   59.926
  537.500    3.755    0.274    0.456   48.039
  537.750    3.771    0.324    0.417   43.391
  538.000    3.865    0.330    0.401   40.989
  538.250    4.030    0.324    0.391   46.572
  538.500    4.218    0.317    0.378   57.154
  538.750    4.398    0.255    0.366   63.855
  539.000    4.560    0.219    0.368   70.624
  539.250    4.613    0.210    0.381   70.592
  539.500    4.588    0.211    0.394   69.316
  539.750    4.486    0.223    0.402   68.971
  540.000    4.320    0.235    0.391   68.314
  540.250    4.224    0.220    0.385   66.784
  540.500    4.091    0.218    0.390   61.702
  540.750    3.978    0.242    0.403   58.985
  541.000    3.889    0.263    0.418   58.144
  541.250    3.760    0.284    0.412   58.922
  541.500    3.642    0.289    0.425   60.077
  541.750    3.595    0.283    0.439   54.430
  542.000    3.456    0.300    0.413   42.481
  542.250    3.386    0.314    0.387   33.404
  542.500    3.291    0.324    0.380   28.941
  542.750    3.224    0.339    0.404   27.849
  543.000    3.171    0.342    0.411   36.367
  543.250    3.250    0.329    0.395   44.699
  543.500    3.421    0.311    0.401   51.778
  543.750    3.621    0.288    0.404   60.167
  544.000    3.762    0.279    0.384   63.133
  544.250    3.856    0.268    0.392   62.225
  544.500    3.871    0.262    0.407   59.949
  544.750    3.829    0.257    0.417   59.980
  545.000    3.653    0.254    0.409   59.079
  545.250    3.485    0.252    0.436   53.994
  545.500    3.363    0.258    0.472   49.028
  545.750    3.196    0.304    0.433   42.826
  546.000    3.125    0.329    0.401   39.735
  546.250    3.079    0.334    0.370   37.208
  546.500    3.109    0.311    0.370   40.042
  546.750    3.285    0.288    0.381   49.932
  547.000    3.503    0.275    0.395   55.577
  547.250    3.687    0.273    0.397   60.037
