~VERSION INFORMATION
 VERS.                 2.0:   CWLS LOG ASCII STANDARD -VERSION 2.0
 WRAP.                  NO:   ONE LINE PER DEPTH STEP
~WELL INFORMATION BLOCK
#MNEM.UNIT           DATA                    DESCRIPTION OF MNEMONIC
#---------    -------------------            -------------------------------
# Generated from Intellog Unique Number	CW_73_75/WELL/1048
WELL.         CDN SUP ET AL FRANCIS 11-35    : Well_name    - WELL
LOC .         00/11-35-074-20W4/0            : Location     - LOCATION
UWI .         00/11-35-074-20W4/0            : Uwi          - UNIQUE WELL ID
ENTR.         JAYE                           : Entered      - ENTERED BY
SRVC.         SCHLUMBERGER                   : Scn          - SERVICE COMPANY
DATE.         3 MAR 76                       : Date         - LOG DATE
STRT.M        323.088                        : top_depth    - START DEPTH
STOP.M        524.313                        : bot_depth    - STOP DEPTH
STEP.M        0.25                           : increment    - STEP LENGTH
 NULL. -999.2500:NULL Value
~CURVE INFORMATION BLOCK
#MNEM UNIT       ERCB CURVE CODE    CURVE DESCRIPTION
#-----------   ------------------   ----------------------------------
DEPT.M        00 001 00 00         : DEPTH        - DEPTH
GR  .API      00 310 00 00         : GR           - GAMMA RAY
CALI.IN       00 280 01 00         : CAL          - CALIPER
NPHI.V/V      00 330 00 00         : PHIN         - NEUTRON POROSITY (SANDSTONE)
DPHI.V/V      00 890 00 00         : PHID         - DENSITY POROSITY (SANDSTONE)
ILD .OHMM     00 120 00 00         : RESD         - DEEP RESISTIVITY (DLL)
~PARAMETER INFORMATION
#MNEM.UNIT           DATA             DESCRIPTION OF MNEMONIC
#---------         -----------     ------------------------------
GL  .M        640.69               : gl           - GROUND LEVEL ELEVATION
EREF.M        644.652              : kb           - ELEVATION OF DEPTH REFERENCE
DATM.M        640.69               : datum        - DATUM ELEVATION
TDD .M        585.216              : tdd          - TOTAL DEPTH DRILLER
RUN .         ONE                  : Run          - RUN NUMBER
BASE.         EDM                  : Branch       - HOME BASE OF LOGGING UNIT
MUD .         GEL CHEM             : Mud_type     - MUD TYPE
MATR.         SANDSTONE            : Logunit      - NEUTRON MATRIX
TMAX.C        23.8889              : BHT          - MAXIMUM RECORDED TEMPERATURE
BHTD.M        585.826              : BHTDEP       - MAXIMUM RECORDED TEMPERATURE
RMT .C        17.7778              : MDTP         - TEMPERATURE OF MUD
MUDD.KG/M     1164                 : MWT          - MUD DENSITY
NEUT.         1                    : NEUTRON      - NEUTRON TYPE
RESI.         1                    : RESIST       - RESISTIVITY TYPE
RM  .OHMM     1.96                 : RM           - RESISTIVITY OF MUD
RMC .OHMM     0                    : RMC          - RESISTIVITY OF MUD CAKE
RMF .OHMM     2.24                 : RMF          - RESISTIVITY OF MUD FILTRATE
SUFT.C        -17.7778             : SUFT         - SURFACE TEMPERATURE
~A  DEPTH       GR      CAL     PHIN     PHID     RESD
# ...
  505.588   91.898    8.647    0.376    0.218    6.671
  505.838   89.822    8.702    0.385    0.217    7.150
  506.088   86.290    8.804    0.386    0.204    7.634
  506.338   75.673    8.915    0.388    0.217    8.362
  506.588   70.053    8.650    0.391    0.290    9.210
  506.838   68.103    8.132    0.357    0.259   10.274
  507.088   71.024    7.980    0.328    0.232   11.357
  507.338   71.161    7.905    0.335    0.274   12.463
  507.588   64.845    7.868    0.349    0.271   13.627
  507.838   55.367    7.860    0.323    0.286   14.818
  508.088   45.003    7.848    0.286    0.307   15.996
  508.338   47.228    7.820    0.259    0.319   16.956
  508.588   51.161    7.732    0.274    0.331   18.138
  508.838   53.133    7.682    0.301    0.318   19.087
  509.088   58.232    7.843    0.272    0.317   20.388
  509.338   56.734    7.900    0.256    0.336   21.518
  509.588   53.757    7.956    0.252    0.329   23.123
  509.838   51.961    8.013    0.245    0.338   24.849
  510.088   50.451    8.070    0.236    0.325   26.949
  510.338   51.599    8.048    0.229    0.335   30.575
  510.588   55.685    8.045    0.223    0.334   31.119
  510.838   60.061    8.043    0.232    0.301   25.952
  511.088   63.558    8.080    0.252    0.261   21.646
  511.338   70.875    8.137    0.268    0.215   17.568
  511.588   77.902    8.173    0.282    0.203   13.628
  511.838   79.043    8.171    0.301    0.196   10.862
  512.088   70.776    8.171    0.338    0.214   10.007
  512.338   59.859    8.127    0.348    0.288   10.371
  512.588   40.702    8.047    0.316    0.269   10.848
  512.838   49.200    7.986    0.271    0.233   11.978
  513.088   59.755    8.003    0.277    0.226   12.872
  513.338   67.076    8.003    0.260    0.182   13.462
  513.588   76.448    7.998    0.270    0.148   13.702
  513.838   75.530    7.996    0.274    0.181   13.695
  514.088   74.326    7.974    0.262    0.299   14.986
  514.338   73.702    7.972    0.254    0.332   17.315
  514.588   73.662    8.009    0.247    0.312   20.369
  514.838   73.336    8.046    0.251    0.279   23.534
  515.088   70.952    8.063    0.250    0.251   27.940
  515.338   67.097    8.061    0.249    0.194   32.279
  515.588   64.120    8.000    0.248    0.168   36.624
  515.838   61.437    7.939    0.234    0.209   40.442
  516.088   61.990    7.838    0.230    0.232   41.538
  516.338   63.135    7.777    0.244    0.208   41.519
  516.588   65.452    7.755    0.252    0.205   41.128
  516.838   65.416    7.773    0.265    0.208   39.644
  517.088   63.329    7.790    0.262    0.249   38.218
  517.338   63.000    7.768    0.254    0.295   38.896
  517.588   67.674    7.766    0.251    0.318   41.424
  517.838   70.873    7.764    0.250    0.342   44.116
  518.088   69.959    7.800    0.246    0.362   42.911
  518.338   64.041    7.818    0.255    0.343   41.742
  518.588   51.653    7.777    0.282    0.314   40.240
  518.838   39.555    7.853    0.299    0.262   39.145
  519.088   34.818    7.890    0.304    0.175   39.123
  519.338   35.072    7.907    0.306    0.154   39.464
  519.588   36.805    7.905    0.296    0.184   40.903
  519.838   39.126    7.903    0.282    0.190   41.630
  520.088   41.742    7.919    0.270    0.225   39.056
  520.338   47.000    7.937    0.275    0.229   36.308
  520.588   47.552    7.915    0.297    0.258   35.004
  520.838   41.638    7.894    0.291    0.252   35.624
  521.088   36.015    7.891    0.273    0.121   37.598
  521.338   30.097    7.889    0.251    0.111   39.678
  521.588   28.881    7.926    0.208    0.055   40.022
  521.838   31.500    7.943    0.184    0.054   39.285
  522.088   34.107    7.941    0.242    0.116   38.560
  522.338   33.491    7.939    0.269    0.118   34.574
  522.588   33.158    7.936    0.270    0.120   32.145
  522.838   31.950    7.895    0.269    0.140   31.270
  523.088   31.918    7.854    0.261    0.144   31.827
  523.338   32.176    7.772    0.271    0.131   34.200
  523.588   32.438    7.770    0.275    0.122   34.810
  523.838   35.634    7.748    0.265    0.110   34.794
  524.088   39.429    7.766    0.254    0.131   32.940
  524.313   44.103    7.763    0.250    0.145   29.534
