~VERSION INFORMATION
 VERS.                 2.0:   CWLS LOG ASCII STANDARD -VERSION 2.0
 WRAP.                  NO:   ONE LINE PER DEPTH STEP
~WELL INFORMATION BLOCK
#MNEM.UNIT           DATA                    DESCRIPTION OF MNEMONIC
#---------    -------------------            -------------------------------
# Generated from Intellog Unique Number	CW_70_72/WELL/2909
NULL.         -999.25                        : NULL_VALUE
WELL.         NOVALTA RICHMOND               : Well_name    - WELL              
LOC .         16-04-070-19W4                 : Location     - LOCATION          
UWI .         00/16-04-070-19W4/0            : Uwi          - UNIQUE WELL ID    
ENTR.         MAX                            : Entered      - ENTERED BY        
SRVC.         COMPUTALOG                     : Scn          - SERVICE COMPANY   
DATE.         21 DEC 84                      : Date         - LOG DATE
STRT.M        300                            : top_depth    - START DEPTH       
STOP.M        470                            : bot_depth    - STOP DEPTH        
STEP.M        0.25                           : increment    - STEP LENGTH       
~CURVE INFORMATION BLOCK
#MNEM UNIT       ERCB CURVE CODE    CURVE DESCRIPTION
#-----------   ------------------   ----------------------------------
DEPT.M        00 001 00 00         : DEPTH        - DEPTH                       
ILD .OHMM     00 120 00 00         : RESD         - DEEP RESISTIVITY (DIL)      
NPHI.V/V      00 330 00 00         : PHIN         - NEUTRON POROSITY (SANDSTONE)
DPHI.V/V      00 890 00 00         : PHID         - DENSITY POROSITY (SANDSTONE)
CALI.MM       00 280 01 00         : CAL          - CALIPER                     
GR  .API      00 310 00 00         : GR           - GAMMA RAY                   
~PARAMETER INFORMATION       
#MNEM.UNIT           DATA             DESCRIPTION OF MNEMONIC
#---------         -----------     ------------------------------
GL  .M        555.94               : gl           - GROUND LEVEL ELEVATION      
EREF.M        558.89               : kb           - ELEVATION OF DEPTH REFERENCE
DATM.M        555.94               : datum        - DATUM ELEVATION             
TDD .M        546.1                : tdd          - TOTAL DEPTH DRILLER         
RUN .         ONE                  : Run          - RUN NUMBER                  
ENG .         BILL                 : Engineer     - RECORDING ENGINEER          
WIT .         JIM                  : Witness      - WITNESSED BY                
MUD .         GEL                  : Mud_type     - MUD TYPE                    
MATR.         SANDSTONE            : Logunit      - NEUTRON MATRIX              
TMAX.C        24                   : BHT          - MAXIMUM RECORDED TEMPERATURE
BHTD.M        546.1                : BHTDEP       - MAXIMUM RECORDED TEMPERATURE
RMT .C        13.8                 : MDTP         - TEMPERATURE OF MUD          
MUDD.KG/M     1080                 : MWT          - MUD DENSITY                 
NEUT.         1                    : NEUTRON      - NEUTRON TYPE                
RESI.         0                    : RESIST       - RESISTIVITY TYPE            
RM  .OHMM     6                    : RM           - RESISTIVITY OF MUD          
RMC .OHMM     4.5                  : RMC          - RESISTIVITY OF MUD CAKE     
RMF .OHMM     7                    : RMF          - RESISTIVITY OF MUD FILTRATE 
SUFT.C        -10                  : SUFT         - SURFACE TEMPERATURE         
~A  DEPTH     RESD     PHIN     PHID      CAL       GR
# ...
  409.500    4.550    0.430    0.230  164.176   85.722
  409.750    4.723    0.419    0.217  158.143   83.311
  410.000    4.814    0.407    0.173  154.122   79.086
  410.250    4.815    0.395    0.129  152.620   74.258
  410.500    4.818    0.410    0.130  153.633   74.867
  410.750    4.777    0.433    0.167  155.653   78.192
  411.000    4.734    0.439    0.208  158.176   84.538
  411.250    4.692    0.430    0.215  159.693   88.166
  411.500    4.609    0.414    0.198  159.699   83.640
  411.750    4.527    0.414    0.180  158.197   81.833
  412.000    4.487    0.397    0.186  156.190   82.440
  412.250    4.489    0.382    0.203  155.190   83.653
  412.500    4.409    0.402    0.208  154.693   80.939
  412.750    4.291    0.404    0.213  154.693   80.338
  413.000    4.253    0.397    0.229  154.204   80.947
  413.250    4.255    0.390    0.237  153.202   80.951
  413.500    4.377    0.389    0.222  152.204   79.746
  413.750    4.758    0.376    0.171  152.209   62.535
  414.000    5.124    0.363    0.119  152.217   49.552
  414.250    5.886    0.232    0.026  152.223   49.556
  414.500    6.700    0.260    0.078  152.733   61.339
  414.750    6.703    0.321    0.183  152.739   70.403
  415.000    6.115    0.360    0.234  152.243   79.166
  415.250    4.814    0.383    0.266  152.249   79.170
  415.500    4.233    0.400    0.261  152.256   80.383
  415.750    3.934    0.416    0.260  152.263   81.897
  416.000    3.793    0.429    0.259  152.269   81.901
  416.250    3.726    0.438    0.243  152.276   80.395
  416.500    3.729    0.432    0.226  151.277   70.734
  416.750    3.695    0.430    0.263  150.781   67.416
  417.000    3.663    0.446    0.278  150.786   66.213
  417.250    3.666    0.446    0.282  151.297   65.613
  417.500    3.633    0.422    0.282  150.297   64.709
  417.750    3.634    0.409    0.284  149.800   63.807
  418.000    3.636    0.408    0.286  149.807   64.717
  418.250    3.637    0.419    0.290  150.316   65.929
  418.500    3.881    0.394    0.294  151.834   65.934
  418.750    4.258    0.351    0.281  152.343   63.824
  419.000    4.847    0.316    0.258  152.351   61.109
  419.250    5.724    0.303    0.186  151.350   49.334
  419.500    7.345    0.272    0.125  149.847   50.547
  419.750    8.133    0.272    0.107  149.349   56.893
  420.000    7.842    0.319    0.132  149.861   61.427
  420.250    5.788    0.371    0.183  150.369   63.848
  420.500    4.950    0.395    0.235  150.879   64.154
  420.750    4.234    0.388    0.270  149.378   66.574
  421.000    3.793    0.395    0.296  147.873   67.786
  421.250    3.590    0.409    0.299  146.371   67.790
  421.500    3.494    0.414    0.288  146.377   67.794
  421.750    3.494    0.411    0.275  146.384   67.798
  422.000    3.497    0.409    0.264  146.391   65.990
  422.250    3.497    0.421    0.257  146.901   64.484
  422.500    3.566    0.425    0.255  146.906   65.696
  422.750    3.667    0.418    0.253  146.913   69.626
  423.000    3.667    0.417    0.248  147.926   73.255
  423.250    3.844    0.421    0.243  149.946   76.279
  423.500    4.139    0.417    0.235  150.961   79.001
  423.750    4.417    0.400    0.230  150.966   77.193
  424.000    4.671    0.395    0.232  150.974   74.479
  424.250    4.893    0.382    0.233  150.981   75.390
  424.500    5.032    0.384    0.227  149.981   76.903
  424.750    5.176    0.395    0.220  149.485   79.323
  425.000    4.871    0.386    0.213  161.377   80.128
  425.250    5.101    0.402    0.216  161.372   78.929
  425.500    5.244    0.409    0.217  161.369   79.824
  425.750    5.441    0.414    0.217  161.365   80.719
  426.000    5.646    0.414    0.215  160.863   81.016
  426.250    5.697    0.418    0.211  160.362   80.715
  426.500    5.695    0.423    0.207  159.362   79.816
  426.750    5.588    0.415    0.197  159.357   74.133
  427.000    5.382    0.420    0.185  159.852   73.832
  427.250    4.902    0.448    0.221  160.846   81.005
  427.500    4.261    0.467    0.257  163.831   92.364
  427.750    3.705    0.479    0.254  168.313   94.156
  428.000    3.374    0.484    0.244  171.797   93.257
  428.250    3.190    0.497    0.235  171.794   92.956
  428.500    3.072    0.493    0.240  171.292   94.150
  428.750    3.014    0.490    0.251  171.288   94.447
  429.000    3.014    0.491    0.252  171.782   94.743
  429.250    2.984    0.496    0.248  172.277   95.638
  429.500    2.928    0.502    0.240  172.274   96.533
  429.750    2.927    0.501    0.231  172.270   95.933
  430.000    2.954    0.497    0.222  172.765   96.528
  430.250    3.065    0.478    0.208  172.761   96.227
  430.500    3.270    0.472    0.194  171.762   93.833
  430.750    3.522    0.453    0.179  170.263   90.842
  431.000    4.164    0.431    0.164  168.266   81.870
  431.250    4.401    0.419    0.138  161.286   83.063
  431.500    4.785    0.416    0.150  157.296   86.350
  431.750    4.873    0.406    0.178  157.293   92.029
  432.000    4.826    0.413    0.187  162.770   94.119
  432.250    4.736    0.429    0.199  166.255   95.612
  432.500    4.734    0.438    0.214  167.745   95.311
  432.750    4.821    0.422    0.213  167.243   92.020
  433.000    4.911    0.414    0.193  167.240   93.214
  433.250    4.955    0.416    0.183  166.738   95.604
  433.500    5.000    0.409    0.185  165.240   96.499
  433.750    4.998    0.407    0.179  164.239   98.888
  434.000    4.998    0.419    0.161  164.734   89.916
  434.250    4.995    0.413    0.147  164.731   84.832
  434.500    5.135    0.408    0.124  162.235   82.138
  434.750    5.328    0.405    0.187  159.242   80.641
  435.000    5.580    0.416    0.209  154.753   74.361
  435.250    5.844    0.421    0.206  150.762   70.472
  435.500    6.294    0.408    0.203  149.265   68.376
  435.750    6.906    0.393    0.209  147.268   66.581
  436.000    7.438    0.385    0.205  146.767   64.486
  436.250    8.086    0.360    0.174  148.257   61.792
  436.500    9.039    0.333    0.134  149.749   57.007
  436.750   11.511    0.246    0.061  153.732   59.396
  437.000   12.868    0.242    0.047  157.216   65.374
  437.250   12.394    0.308    0.084  157.710   82.115
  437.500    9.112    0.342    0.142  157.707   91.381
  437.750    7.632    0.370    0.165  158.199   91.678
  438.000    6.886    0.402    0.166  158.198   85.397
  438.250    6.214    0.397    0.158  158.693   82.704
  438.500    5.819    0.392    0.148  157.692   83.599
  438.750    5.710    0.401    0.153  156.693   85.690
  439.000    5.654    0.412    0.165  156.690   86.285
  439.250    5.549    0.419    0.163  157.682   85.386
  439.500    5.496    0.416    0.162  156.682   83.889
  439.750    5.546    0.410    0.171  156.180   80.299
  440.000    5.596    0.406    0.172  158.170   80.296
  440.250    5.596    0.398    0.163  161.156   81.491
  440.500    5.644    0.384    0.163  160.654   80.891
  440.750    5.695    0.375    0.157  159.654   78.197
  441.000    5.800    0.372    0.145  159.650   79.989
  441.250    5.853    0.388    0.148  160.643   81.781
  441.500    5.851    0.405    0.164  162.135   81.480
  441.750    5.851    0.406    0.171  162.131   81.777
  442.000    5.738    0.391    0.168  161.629   85.064
  442.250    5.684    0.380    0.173  162.124   92.536
  442.500    5.526    0.389    0.176  163.116   94.926
  442.750    5.473    0.404    0.166  163.611   89.542
  443.000    5.321    0.398    0.175  162.611   80.570
  443.250    5.077    0.392    0.202  161.113   80.568
  443.500    4.799    0.391    0.198  158.120   83.556
  443.750    4.753    0.381    0.188  154.129   86.543
  444.000    4.932    0.358    0.188  152.132   77.571
  444.250    5.165    0.350    0.141  151.630   72.187
  444.500    5.668    0.333    0.106  152.125   73.680
  444.750    6.161    0.331    0.078  153.118   73.080
  445.000    6.698    0.346    0.082  155.107   69.191
  445.250    7.281    0.362    0.077  156.599   67.694
  445.500    7.416    0.383    0.085  157.094   69.486
  445.750    6.945    0.390    0.111  157.090   78.752
