~VERSION INFORMATION
 VERS.                 2.0:   CWLS LOG ASCII STANDARD -VERSION 2.0
 WRAP.                  NO:   ONE LINE PER DEPTH STEP
~WELL INFORMATION BLOCK
#MNEM.UNIT           DATA                    DESCRIPTION OF MNEMONIC
#---------    -------------------            -------------------------------
# Generated from Intellog Unique Number	CW_70_72/WELL/1036
NULL.         -999.25                        : NULL_VALUE
WELL.         JOFFRE ET AL CALLW 10-15       : Well_name    - WELL              
LOC .         10-15-071-20W4                 : Location     - LOCATION          
UWI .         00/10-15-071-20W4/0            : Uwi          - UNIQUE WELL ID    
ENTR.         JAYE                           : Entered      - ENTERED BY        
SRVC.         SCHLUMBERGER                   : Scn          - SERVICE COMPANY   
DATE.         13 JAN 79                      : Date         - LOG DATE          
STRT.M        315                            : top_depth    - START DEPTH       
STOP.M        500                            : bot_depth    - STOP DEPTH        
STEP.M        0.25                           : increment    - STEP LENGTH       
~CURVE INFORMATION BLOCK
#MNEM UNIT       ERCB CURVE CODE    CURVE DESCRIPTION
#-----------   ------------------   ----------------------------------
DEPT.M        00 001 00 00         : DEPTH        - DEPTH                       
DPHI.V/V      00 890 00 00         : PHID         - DENSITY POROSITY (SANDSTONE)
NPHI.V/V      00 330 00 00         : PHIN         - NEUTRON POROSITY (SANDSTONE)
GR  .API      00 310 00 00         : GR           - GAMMA RAY                   
CALI.MM       00 280 01 00         : CAL          - CALIPER                     
ILD .OHMM     00 120 00 00         : RESD         - DEEP RESISTIVITY (DIL)      
~PARAMETER INFORMATION       
#MNEM.UNIT           DATA             DESCRIPTION OF MNEMONIC
#---------         -----------     ------------------------------
GL  .M        584.3                : gl           - GROUND LEVEL ELEVATION      
EREF.M        587.6                : kb           - ELEVATION OF DEPTH REFERENCE
DATM.M        584.3                : datum        - DATUM ELEVATION             
TDD .M        530                  : tdd          - TOTAL DEPTH DRILLER         
RUN .         ONE                  : Run          - RUN NUMBER                  
ENG .         MOORE                : Engineer     - RECORDING ENGINEER          
WIT .         O'REILLY             : Witness      - WITNESSED BY                
BASE.         EDM                  : Branch       - HOME BASE OF LOGGING UNIT   
MUD .         FGM                  : Mud_type     - MUD TYPE                    
MATR.         SANDSTONE            : Logunit      - NEUTRON MATRIX              
TMAX.C        26                   : BHT          - MAXIMUM RECORDED TEMPERATURE
BHTD.M        531                  : BHTDEP       - MAXIMUM RECORDED TEMPERATURE
RMT .C        48.9                 : MDTP         - TEMPERATURE OF MUD          
MUDD.KG/M     1090                 : MWT          - MUD DENSITY                 
NEUT.         1                    : NEUTRON      - NEUTRON TYPE                
RESI.         0                    : RESIST       - RESISTIVITY TYPE            
RM  .OHMM     2.79                 : RM           - RESISTIVITY OF MUD          
RMC .OHMM     0                    : RMC          - RESISTIVITY OF MUD CAKE     
RMF .OHMM     4.18                 : RMF          - RESISTIVITY OF MUD FILTRATE 
SUFT.C        0                    : SUFT         - SURFACE TEMPERATURE         
~A  DEPTH     PHID     PHIN       GR      CAL     RESD
  315.000    0.170    0.517  103.341  180.394    2.799
  315.250    0.195    0.524  101.982  181.105    2.826
  315.500    0.193    0.521  100.070  184.380    2.941
  315.750    0.186    0.513   98.834  188.373    3.049
  316.000    0.182    0.517   97.968  185.801    3.108
  316.250    0.186    0.495   97.287  185.279    3.104
  316.500    0.184    0.477   96.174  186.298    2.953
  316.750    0.165    0.480   94.939  187.624    2.671
  317.000    0.195    0.500   94.073  191.617    2.522
  317.250    0.248    0.525   94.991  196.636    2.413
  317.500    0.246    0.535   94.063  200.424    2.501
  317.750    0.186    0.502   89.996  200.109    3.102
  318.000    0.191    0.479   81.621  193.126    3.898
  318.250    0.212    0.465   74.723  179.988    4.596
  318.500    0.199    0.452   70.102  171.466    5.154
  318.750    0.237    0.419   75.145  168.585    5.661
  319.000    0.317    0.435   81.541  167.757    6.126
  319.250    0.370    0.507   88.862  168.056    6.667
  319.500    0.422    0.545   94.704  168.973    7.188
  319.750    0.568    0.690   73.834  169.888    7.606
  320.000    0.629    0.719   56.534  170.187    7.974
  320.250    0.534    0.664   45.266  170.591    7.831
  320.500    0.211    0.618   48.399  170.685    7.519
  320.750    0.181    0.530   49.503  169.448    7.087
  321.000    0.173    0.354   50.545  168.517    6.730
  321.250    0.164    0.344   53.188  169.330    6.414
  321.500    0.153    0.374   56.445  170.553    6.000
  321.750    0.163    0.392   59.518  172.494    5.708
  322.000    0.161    0.403   62.899  175.666    5.451
  322.250    0.144    0.427   64.494  177.812    5.293
  322.500    0.154    0.409   66.397  178.012    5.149
  322.750    0.205    0.413   69.594  175.541    5.001
  323.000    0.263    0.420   74.513  172.559    4.865
  323.250    0.297    0.422   76.848  170.602    4.751
  323.500    0.303    0.408   77.458  169.569    4.622
  323.750    0.280    0.421   80.346  169.253    4.471
  324.000    0.256    0.433   83.050  170.477    4.262
  324.250    0.234    0.441   86.246  171.803    4.100
  324.500    0.210    0.455   89.381  173.950    4.042
  324.750    0.206    0.472   94.054  180.097    4.104
  325.000    0.218    0.454   98.973  185.629    4.231
  325.250    0.229    0.429  101.800  183.364    4.403
  325.500    0.228    0.422  102.041  175.150    4.607
  325.750    0.216    0.413  101.360  175.245    4.758
  326.000    0.203    0.390   99.509  176.366    4.951
  326.250    0.185    0.393   97.412  177.794    5.114
  326.500    0.176    0.408   94.330  177.684    5.164
  326.750    0.230    0.432   89.586  177.266    5.206
  327.000    0.218    0.420   85.088  176.130    5.277
  327.250    0.208    0.405   85.760  174.790    5.310
  327.500    0.195    0.392   88.957  174.884    5.283
  327.750    0.177    0.392   95.845  175.492    5.296
  328.000    0.185    0.412   98.303  175.893    5.259
  328.250    0.198    0.421   98.113  175.990    5.203
  328.500    0.206    0.411   94.293  175.776    5.015
  328.750    0.211    0.403   86.903  174.436    4.779
  329.000    0.215    0.399   81.358  172.992    4.471
  329.250    0.220    0.392   78.215  171.548    4.105
  329.500    0.232    0.382   73.840  170.720    3.906
  329.750    0.262    0.388   67.681  170.096    3.799
  330.000    0.284    0.392   65.460  170.090    3.710
  330.250    0.258    0.393   69.826  169.773    3.698
  330.500    0.233    0.395   71.237  169.459    3.708
  330.750    0.218    0.399   68.832  169.040    3.751
  331.000    0.208    0.402   71.966  169.032    3.853
  331.250    0.213    0.402   78.671  169.024    3.899
  331.500    0.226    0.398   84.267  169.222    3.907
  331.750    0.251    0.396   87.956  169.111    3.888
  332.000    0.263    0.401   90.721  169.412    3.811
  332.250    0.261    0.410   92.624  169.713    3.700
  332.500    0.252    0.422   96.989  169.704    3.423
  332.750    0.263    0.437  101.355  170.108    3.262
  333.000    0.216    0.470  105.843  171.741    3.047
  333.250    0.160    0.499  110.763  174.093    2.925
  333.500    0.150    0.549  107.374  176.958    2.804
  333.750    0.092    0.552  105.707  179.823    2.738
  334.000    0.190    0.544  110.072  179.405    2.699
  334.250    0.131    0.547  114.622  177.551    2.650
  334.500    0.142    0.565  120.034  180.929    2.617
  334.750    0.195    0.578  121.753  183.793    2.614
  335.000    0.234    0.531  119.717  187.376    2.659
  335.250    0.247    0.523  113.127  189.933    2.752
  335.500    0.265    0.536  110.414  197.311    2.956
  335.750    0.308    0.546  113.856  216.282    3.402
  336.000    0.260    0.553  119.699  233.200    3.886
  336.250    0.201    0.464  118.956  190.826    4.349
  336.500    0.201    0.426  114.273  180.868    4.777
  336.750    0.204    0.440  111.438  172.449    5.141
  337.000    0.174    0.455  108.479  173.466    5.390
  337.250    0.193    0.452  106.751  173.870    5.453
  337.500    0.164    0.442  104.715  174.170    5.549
  337.750    0.179    0.438  102.249  174.160    5.625
  338.000    0.198    0.450   98.735  174.153    5.628
  338.250    0.204    0.469   95.654  174.865    5.568
  338.500    0.201    0.483   93.495  174.754    5.427
  338.750    0.193    0.466   95.645  174.746    5.290
  339.000    0.189    0.467   96.071  175.251    5.127
  339.250    0.183    0.469   93.481  176.371    4.915
  339.500    0.194    0.471   92.430  177.494    4.772
  339.750    0.207    0.480   92.795  178.511    4.634
  340.000    0.207    0.488   94.082  179.120    4.619
  340.250    0.204    0.493   95.371  179.624    4.562
  340.500    0.220    0.498   99.182  179.924    4.539
  340.750    0.249    0.506   99.978  180.020    4.507
  341.000    0.241    0.517   97.758  179.705    4.543
  341.250    0.223    0.527   96.276  179.287    4.563
  341.500    0.215    0.516   94.732  179.585    4.574
  341.750    0.234    0.499   91.897  179.885    4.560
  342.000    0.228    0.491   88.999  180.186    4.494
  342.250    0.212    0.503   88.687  180.691    4.446
  342.500    0.201    0.512   89.666  181.299    4.366
  342.750    0.219    0.519   90.340  181.600    4.264
  343.000    0.234    0.525   91.443  181.181    4.180
  343.250    0.254    0.540   93.592  180.560    4.066
  343.500    0.258    0.548   95.065  179.936    3.970
  343.750    0.233    0.538   95.553  179.621    3.856
  344.000    0.247    0.519   95.241  180.126    3.872
  344.250    0.254    0.505   94.436  181.555    4.007
  344.500    0.244    0.491   93.755  183.906    4.328
  344.750    0.235    0.489   90.180  185.438    4.898
  345.000    0.251    0.492   83.590  180.403    5.482
  345.250    0.269    0.474   78.230  173.625    6.101
  345.500    0.279    0.464   76.626  169.617    6.664
  345.750    0.261    0.460   75.082  168.071    7.253
  346.000    0.275    0.457   72.800  167.138    7.617
  346.250    0.287    0.454   70.764  167.131    7.897
  346.500    0.301    0.451   68.729  167.330    7.886
  346.750    0.302    0.452   69.709  167.424    7.920
  347.000    0.293    0.468   71.120  167.724    7.850
  347.250    0.277    0.494   72.716  167.716    7.710
  347.500    0.275    0.502   75.727  167.709    7.714
  347.750    0.280    0.484   74.307  167.600    7.761
  348.000    0.289    0.462   72.087  167.591    7.823
  348.250    0.293    0.438   69.619  167.892    7.856
  348.500    0.296    0.452   67.953  168.397    7.861
  348.750    0.307    0.473   66.103  168.389    7.777
  349.000    0.308    0.485   64.498  168.689    7.666
  349.250    0.308    0.434   64.370  168.475    7.542
  349.500    0.308    0.423   64.489  168.570    7.338
  349.750    0.310    0.431   64.915  168.665    7.072
  350.000    0.313    0.446   66.018  168.659    6.816
  350.250    0.314    0.459   67.060  168.344    6.472
  350.500    0.310    0.444   68.409  167.720    5.855
  350.750    0.303    0.436   70.005  167.815    5.306
  351.000    0.290    0.435   71.478  167.807    4.890
  351.250    0.261    0.418   74.489  168.313    4.811
