~VERSION INFORMATION
 VERS.                 2.0:   CWLS LOG ASCII STANDARD -VERSION 2.0
 WRAP.                  NO:   ONE LINE PER DEPTH STEP
~WELL INFORMATION BLOCK
#MNEM.UNIT           DATA                    DESCRIPTION OF MNEMONIC
#---------    -------------------            -------------------------------
# Generated from Intellog Unique Number	CS_73_76/WELL/1968
WELL.         AMOCO                          : Well_name    - WELL
LOC .         00/10-18-073-04W4/0            : Location     - LOCATION
UWI .         00/10-18-073-04W4/0            : Uwi          - UNIQUE WELL ID
ENTR.         T                              : Entered      - ENTERED BY
SRVC.         SCHLUMBERGER                   : Scn          - SERVICE COMPANY
STRT.M        300                            : top_depth    - START DEPTH
STOP.M        515                            : bot_depth    - STOP DEPTH
STEP.M        0.25                           : increment    - STEP LENGTH
 NULL. -999.2500:NULL Value
~CURVE INFORMATION BLOCK
#MNEM UNIT       ERCB CURVE CODE    CURVE DESCRIPTION
#-----------   ------------------   ----------------------------------
DEPT.M        00 001 00 00         : DEPTH        - DEPTH
GR  .API      00 310 00 00         : GR           - GAMMA RAY
NPHI.V/V      00 330 00 00         : PHIN         - NEUTRON POROSITY (SANDSTONE)
DPHI.V/V      00 890 00 00         : PHID         - DENSITY POROSITY (SANDSTONE)
ILD .OHMM     00 120 00 00         : RESD         - DEEP RESISTIVITY (DIL)
~PARAMETER INFORMATION
#MNEM.UNIT           DATA             DESCRIPTION OF MNEMONIC
#---------         -----------     ------------------------------
GL  .M        695.3                : gl           - GROUND LEVEL ELEVATION
EREF.M        699.1                : kb           - ELEVATION OF DEPTH REFERENCE
DATM.M        699.1                : datum        - DATUM ELEVATION
TDD .M        530                  : tdd          - TOTAL DEPTH DRILLER
RUN .         ONE                  : Run          - RUN NUMBER
ENG .         BILL                 : Engineer     - RECORDING ENGINEER
WIT .         JIM                  : Witness      - WITNESSED BY
MUD .         GEL                  : Mud_type     - MUD TYPE
MATR.         SANDSTONE            : Logunit      - NEUTRON MATRIX
TMAX.C        23.8                 : BHT          - MAXIMUM RECORDED TEMPERATURE
BHTD.M        530                  : BHTDEP       - MAXIMUM RECORDED TEMPERATURE
MATR.         1                    : LOGUNIT      - NEUTRON MATRIX
RMT .C        25                   : MDTP         - TEMPERATURE OF MUD
NEUT.         1                    : NEUTRON      - NEUTRON TYPE
RESI.         0                    : RESIST       - RESISTIVITY TYPE
RMC .OHMM     5.7                  : RMC          - RESISTIVITY OF MUD CAKE
RMF .OHMM     6.6                  : RMF          - RESISTIVITY OF MUD FILTRATE
SUFT.C        15                   : SUFT         - SURFACE TEMPERATURE
~A  DEPTH       GR     PHIN     PHID     RESD
  300.000   89.060    0.507    0.194    3.823
  300.250   85.927    0.507    0.178    3.748
  300.500   95.160    0.513    0.224    3.742
  300.750  101.302    0.517    0.238    3.669
  301.000  103.115    0.520    0.265    3.666
  301.250  104.300    0.523    0.268    3.592
  301.500  104.887    0.519    0.266    3.590
  301.750  105.463    0.517    0.267    3.584
  302.000  106.040    0.521    0.270    3.580
  302.250  105.998    0.526    0.269    3.576
  302.500  104.720    0.533    0.266    3.571
  302.750  102.195    0.540    0.263    3.569
  303.000  102.153    0.545    0.260    3.631
  303.250  104.584    0.531    0.257    3.628
  303.500  105.161    0.515    0.256    3.623
  303.750  104.501    0.513    0.253    3.620
  304.000  101.368    0.518    0.245    3.615
  304.250   99.481    0.524    0.234    3.610
  304.500   95.730    0.527    0.222    3.608
  304.750   91.947    0.525    0.199    3.601
  305.000   91.926    0.520    0.200    3.598
  305.250   94.965    0.526    0.211    3.595
  305.500   98.015    0.531    0.222    3.592
  305.750  100.447    0.529    0.232    3.656
  306.000  102.260    0.522    0.244    3.721
  306.250  102.847    0.517    0.258    3.716
  306.500  103.403    0.520    0.271    3.712
  306.750  103.372    0.524    0.271    3.778
  307.000  102.701    0.525    0.268    3.845
  307.250  102.041    0.520    0.267    3.988
  307.500  102.010    0.516    0.264    4.058
  307.750  101.979    0.518    0.263    4.053
  308.000  101.927    0.520    0.261    4.124
  308.250  101.874    0.516    0.256    4.044
  308.500  101.843    0.507    0.254    4.041
  308.750  101.812    0.497    0.255    3.887
  309.000  101.141    0.492    0.255    3.737
  309.250  101.110    0.497    0.255    3.735
  309.500   99.821    0.506    0.254    3.801
  309.750   99.172    0.516    0.249    4.094
  310.000   97.873    0.519    0.252    5.734
  310.250   97.233    0.524    0.261    7.591
  310.500   95.326    0.522    0.272    7.586
  310.750   93.430    0.491    0.281    8.167
  311.000   90.915    0.483    0.293    8.797
  311.250   84.689    0.464    0.303   12.557
  311.500   78.465    0.469    0.325   13.027
  311.750   73.476    0.486    0.347   14.029
  312.000   69.724    0.458    0.290   14.550
  312.250   66.591    0.406    0.287   14.529
  312.500   60.984    0.388    0.298   14.517
  312.750   54.131    0.393    0.307   14.219
  313.000   49.142    0.397    0.313   13.942
  313.250   45.998    0.402    0.322   13.923
  313.500   45.957    0.399    0.327   13.652
  313.750   45.905    0.393    0.336   13.633
  314.000   48.336    0.389    0.339   13.621
  314.250   51.407    0.389    0.329   13.602
  314.500   58.785    0.392    0.315   13.595
  314.750   61.835    0.392    0.304   13.568
  315.000   61.794    0.392    0.297   13.557
  315.250   62.989    0.395    0.299   13.549
  315.500   66.657    0.401    0.307   13.534
  315.750   72.180    0.406    0.312   13.267
  316.000   77.714    0.409    0.316   13.248
  316.250   83.227    0.417    0.309   12.991
  316.500   85.658    0.428    0.303   12.976
  316.750   85.617    0.438    0.303   12.717
  317.000   85.575    0.437    0.305   12.466
  317.250   87.388    0.430    0.303   11.990
  317.500   88.594    0.422    0.301   11.757
  317.750   90.407    0.416    0.301   11.307
  318.000   89.747    0.418    0.301   11.087
  318.250   87.850    0.420    0.299   10.663
  318.500   89.014    0.424    0.294   10.065
  318.750   90.230    0.428    0.288    9.505
  319.000   93.279    0.435    0.281    8.974
  319.250   94.485    0.437    0.277    8.313
  319.500   97.524    0.441    0.273    8.002
  319.750   99.338    0.445    0.267    7.844
  320.000  100.543    0.444    0.261    7.981
  320.250  101.120    0.443    0.252    8.432
  320.500   96.729    0.439    0.246    8.588
  320.750   94.224    0.429    0.248    8.741
  321.000   96.656    0.426    0.254    8.728
  321.250   98.469    0.421    0.270    8.719
  321.500  100.890    0.422    0.295    8.706
  321.750  103.332    0.431    0.316    8.699
  322.000  101.436    0.442    0.318    8.523
  322.250   95.211    0.446    0.295    8.518
  322.500   87.749    0.447    0.292    7.890
  322.750   79.669    0.447    0.304    7.591
  323.000   74.062    0.445    0.306    7.304
  323.250   68.435    0.436    0.302    7.025
  323.500   69.630    0.425    0.292    6.887
  323.750   74.545    0.422    0.251    6.500
  324.000   79.460    0.434    0.241    6.376
  324.250   90.549    0.458    0.220    5.906
  324.500  101.637    0.483    0.203    5.791
  324.750  105.305    0.489    0.186    5.466
  325.000  106.490    0.474    0.164    5.063
  325.250  107.695    0.459    0.157    4.871
  325.500  110.127    0.457    0.191    4.600
  325.750  112.558    0.465    0.209    4.261
  326.000  114.990    0.492    0.218    4.100
  326.250  117.422    0.498    0.209    3.797
  326.500  119.853    0.498    0.201    3.654
  326.750  120.430    0.498    0.209    3.451
  327.000  121.006    0.498    0.237    3.257
  327.250  120.954    0.499    0.241    3.194
  327.500  121.531    0.504    0.251    3.312
  327.750  119.634    0.510    0.263    4.145
  328.000  115.275    0.512    0.266    4.904
  328.250  110.286    0.506    0.270    6.616
  328.500  105.298    0.501    0.284    7.681
  328.750   95.971    0.492    0.297    8.916
  329.000   89.746    0.477    0.322   10.351
  329.250   83.521    0.471    0.370   11.143
  329.500   77.914    0.499    0.420   11.342
  329.750   72.915    0.527    0.420   11.547
  330.000   75.337    0.407    0.334   11.753
  330.250   77.150    0.367    0.324   11.740
  330.500   77.747    0.297    0.332   11.943
  330.750   78.942    0.292    0.343   11.936
  331.000   79.519    0.287    0.355   12.145
  331.250   81.311    0.281    0.362   12.365
  331.500   81.909    0.278    0.372   12.582
  331.750   84.330    0.279    0.383   12.572
  332.000   86.143    0.280    0.386   12.320
  332.250   86.091    0.283    0.382   12.077
  332.500   85.452    0.292    0.361   11.619
  332.750   84.174    0.309    0.358   11.393
  333.000   82.266    0.336    0.369   11.168
  333.250   79.133    0.360    0.370   10.945
  333.500   75.381    0.368    0.356   10.933
  333.750   71.630    0.367    0.348   11.339
  334.000   67.260    0.346    0.323   11.757
  334.250   64.126    0.300    0.303   11.966
  334.500   64.085    0.303    0.306   11.733
  334.750   65.280    0.311    0.320   10.872
  335.000   63.383    0.325    0.372    9.518
  335.250   57.137    0.345    0.389    8.822
  335.500   52.757    0.225    0.412    7.580
  335.750   52.736    0.205    0.422    6.515
  336.000   53.312    0.229    0.401    5.599
  336.250   54.507    0.244    0.370    4.811
  336.500   54.466    0.275    0.348    4.293
  336.750   55.032    0.307    0.334    4.054
  337.000   55.608    0.325    0.316    3.757
  337.250   55.577    0.356    0.297    3.614
  337.500   56.762    0.386    0.287    3.542
  337.750   56.730    0.398    0.282    3.538
  338.000   56.678    0.401    0.284    3.535
  338.250   56.647    0.396    0.288    3.530
  338.500   56.605    0.389    0.293    3.526
  338.750   56.543    0.384    0.293    3.523
  339.000   56.511    0.378    0.285    3.517
  339.250   55.233    0.376    0.284    3.514
  339.500   52.110    0.376    0.290    3.445
  339.750   47.740    0.376    0.303    3.376
  340.000   47.080    0.373    0.314    3.308
  340.250   52.603    0.367    0.325    3.244
  340.500   53.180    0.364    0.323    3.064
  340.750   53.128    0.365    0.305    3.060
  341.000   53.086    0.366    0.307    2.999
  341.250   53.034    0.367    0.311    2.996
  341.500   53.013    0.368    0.310    2.937
  341.750   51.703    0.373    0.312    2.879
  342.000   51.054    0.381    0.320    2.823
  342.250   51.002    0.390    0.324    2.820
  342.500   51.589    0.396    0.333    2.764
  342.750   51.547    0.405    0.332    2.710
  343.000   52.113    0.413    0.326    2.654
  343.250   52.092    0.413    0.317    2.652
