~VERSION INFORMATION
 VERS.                 2.0:   CWLS LOG ASCII STANDARD -VERSION 2.0
 WRAP.                  NO:   ONE LINE PER DEPTH STEP
~WELL INFORMATION BLOCK
#MNEM.UNIT           DATA                    DESCRIPTION OF MNEMONIC
#---------    -------------------            -------------------------------
# Generated from Intellog Unique Number	CX_WELLS/WELL/3420
WELL.         ATCOR ET AL GREGOIRE LAKE      : Well_name    - WELL
LOC .         00/14-24-085-06W4/0            : Location     - LOCATION
UWI .         00/14-24-085-06W400            : Uwi          - UNIQUE WELL ID
ENTR.         T                              : Entered      - ENTERED BY
SRVC.         SCHLUMBERGER                   : Scn          - SERVICE COMPANY
STRT.M        120                            : top_depth    - START DEPTH
STOP.M        255                            : bot_depth    - STOP DEPTH
STEP.M        0.25                           : increment    - STEP LENGTH
 NULL. -999.2500:NULL Value
~CURVE INFORMATION BLOCK
#MNEM UNIT       ERCB CURVE CODE    CURVE DESCRIPTION
#-----------   ------------------   ----------------------------------
DEPT.M        00 001 00 00         : DEPTH        - DEPTH
GR  .API      00 310 00 00         : GR           - GAMMA RAY
NPHI.V/V      00 330 00 00         : PHIN         - NEUTRON POROSITY (SANDSTONE)
DPHI.V/V      00 890 00 00         : PHID         - DENSITY POROSITY (SANDSTONE)
ILD .OHMM     00 120 00 00         : RESD         - DEEP RESISTIVITY (OTHER)
~PARAMETER INFORMATION
#MNEM.UNIT           DATA             DESCRIPTION OF MNEMONIC
#---------         -----------     ------------------------------
GL  .M        452.6                : gl           - GROUND LEVEL ELEVATION
EREF.M        456                  : kb           - ELEVATION OF DEPTH REFERENCE
DATM.M        456                  : datum        - DATUM ELEVATION
TDD .M        471                  : tdd          - TOTAL DEPTH DRILLER
RUN .         ONE                  : Run          - RUN NUMBER
ENG .         BILL                 : Engineer     - RECORDING ENGINEER
WIT .         JIM                  : Witness      - WITNESSED BY
MUD .         GEL                  : Mud_type     - MUD TYPE
MATR.         SANDSTONE            : Logunit      - NEUTRON MATRIX
TMAX.C        26                   : BHT          - MAXIMUM RECORDED TEMPERATURE
BHTD.M        471                  : BHTDEP       - MAXIMUM RECORDED TEMPERATURE
MATR.         1                    : LOGUNIT      - NEUTRON MATRIX
RMT .C        15.6                 : MDTP         - TEMPERATURE OF MUD
NEUT.         1                    : NEUTRON      - NEUTRON TYPE
RESI.         1.5                  : RESIST       - RESISTIVITY TYPE
RMC .OHMM     2                    : RMC          - RESISTIVITY OF MUD CAKE
RMF .OHMM     1.1                  : RMF          - RESISTIVITY OF MUD FILTRATE
SUFT.C        4                    : SUFT         - SURFACE TEMPERATURE
~A  DEPTH       GR     PHIN     PHID     RESD
  120.000   77.477    0.454    0.321    5.837
  120.250   77.461    0.449    0.315    6.064
  120.500   76.226    0.448    0.307    6.299
  120.750   72.550    0.453    0.300    6.420
  121.000   71.928    0.453    0.301    6.299
  121.250   75.566    0.446    0.310    5.839
  121.500   76.774    0.449    0.312    5.730
  121.750   78.585    0.456    0.310    5.731
  122.000   79.180    0.456    0.309    5.731
  122.250   80.385    0.446    0.310    5.624
  122.500   80.979    0.441    0.314    5.415
  122.750   79.133    0.441    0.316    5.313
  123.000   76.674    0.437    0.318    5.116
  123.250   75.438    0.436    0.320    5.020
  123.500   74.817    0.436    0.322    5.117
  123.750   76.017    0.437    0.323    5.215
  124.000   76.006    0.437    0.326    5.315
  124.250   76.600    0.436    0.326    5.316
  124.500   76.585    0.437    0.325    5.316
  124.750   77.790    0.442    0.321    5.317
  125.000   78.995    0.448    0.319    5.317
  125.250   80.802    0.457    0.315    5.317
  125.500   82.006    0.456    0.309    5.024
  125.750   83.211    0.456    0.306    4.657
  126.000   83.806    0.462    0.304    4.570
  126.250   85.617    0.472    0.301    4.570
  126.500   86.219    0.472    0.299    4.570
  126.750   88.034    0.470    0.295    4.747
  127.000   89.845    0.489    0.293    4.931
  127.250   90.436    0.483    0.291    4.571
  127.500   90.416    0.484    0.293    4.080
  127.750   89.799    0.496    0.299    4.004
  128.000   89.173    0.505    0.304    4.238
  128.250   90.378    0.514    0.310    3.783
  128.500   93.413    0.521    0.321    3.574
  128.750   92.787    0.495    0.335    3.251
  129.000   91.544    0.489    0.326    3.190
  129.250   90.922    0.494    0.298    3.507
  129.500   90.903    0.501    0.289    3.713
  129.750   91.494    0.513    0.291    4.006
  130.000   92.096    0.516    0.298    4.161
  130.250   92.691    0.516    0.305    4.241
  130.500   95.112    0.521    0.317    4.162
  130.750   96.316    0.534    0.324    3.858
  131.000   96.911    0.564    0.340    3.715
  131.250   97.506    0.574    0.367    3.379
  131.500   97.483    0.563    0.364    3.253
  131.750   97.471    0.567    0.364    2.959
  132.000   97.459    0.562    0.394    2.796
  132.250   97.436    0.557    0.406    2.743
  132.500   97.425    0.550    0.354    2.641
  132.750   97.409    0.536    0.316    2.642
  133.000   96.174    0.519    0.298    2.744
  133.250   95.540    0.509    0.296    3.017
  133.500   95.529    0.497    0.296    3.381
  133.750   95.510    0.476    0.298    3.789
  134.000   95.498    0.459    0.299    4.088
  134.250   94.262    0.451    0.292    4.495
  134.500   91.197    0.450    0.285    4.850
  134.750   90.571    0.459    0.280    5.539
  135.000   92.382    0.467    0.282    5.976
  135.250   94.807    0.471    0.283    6.447
  135.500   97.232    0.476    0.283    6.825
  135.750   99.660    0.482    0.280    6.826
  136.000  101.475    0.489    0.280    6.957
  136.250  103.286    0.492    0.290    7.091
  136.500   98.390    0.484    0.295    7.227
  136.750   94.710    0.460    0.293    7.228
  137.000   95.309    0.455    0.282    7.229
  137.250   96.514    0.442    0.272    7.093
  137.500   96.498    0.435    0.274    6.961
  137.750   97.093    0.425    0.266    6.830
  138.000   97.066    0.414    0.238    6.961
  138.250   96.448    0.409    0.209    7.511
  138.500   94.598    0.404    0.204    8.103
  138.750   90.922    0.404    0.234    9.081
  139.000   88.471    0.416    0.262   10.371
  139.250   89.671    0.435    0.279   11.190
  139.500   90.876    0.457    0.284   11.846
  139.750   92.683    0.468    0.272   10.775
  140.000   93.892    0.457    0.271   10.375
  140.250   94.483    0.458    0.266    9.801
  140.500   95.081    0.465    0.263    8.915
  140.750   95.676    0.472    0.262    7.957
  141.000   96.884    0.479    0.264    7.376
  141.250   97.471    0.457    0.267    7.376
  141.500   98.070    0.442    0.277    7.377
  141.750   98.050    0.436    0.273    7.239
  142.000   97.421    0.424    0.269    6.839
  142.250   97.413    0.424    0.276    6.220
  142.500   97.390    0.425    0.284    5.552
  142.750   97.382    0.430    0.299    5.877
  143.000   96.753    0.447    0.309    6.462
  143.250   94.896    0.463    0.356    7.106
  143.500   93.054    0.465    0.361    7.106
  143.750   91.822    0.467    0.350    6.588
  144.000   89.977    0.476    0.334    6.343
  144.250   89.961    0.482    0.325    5.769
  144.500   90.560    0.488    0.318    5.555
  144.750   92.981    0.486    0.315    5.555
  145.000   95.406    0.473    0.319    5.451
  145.250   96.606    0.475    0.328    4.958
  145.500   97.201    0.462    0.312    4.425
  145.750   95.969    0.437    0.298    4.102
  146.000   94.124    0.434    0.293    4.181
  146.250   91.058    0.440    0.294    4.686
  146.500   87.988    0.447    0.302    4.960
  146.750   88.579    0.456    0.308    5.665
  147.000   91.004    0.463    0.344    5.997
  147.250   92.819    0.491    0.347    6.230
  147.500   94.023    0.494    0.333    5.252
  147.750   94.004    0.497    0.320    4.345
  148.000   93.996    0.480    0.337    3.878
  148.250   95.193    0.481    0.340    3.595
  148.500   95.792    0.465    0.321    3.270
  148.750   95.166    0.433    0.313    3.148
  149.000   94.537    0.415    0.309    3.462
  149.250   93.305    0.419    0.304    3.735
  149.500   90.842    0.419    0.296    4.347
  149.750   89.610    0.415    0.276    4.602
  150.000   87.154    0.408    0.251    5.357
  150.250   84.695    0.397    0.226    5.890
  150.500   83.463    0.386    0.205    6.355
  150.750   81.007    0.382    0.212    7.122
  151.000   78.547    0.392    0.263    7.540
  151.250   77.316    0.414    0.308    7.685
  151.500   78.516    0.438    0.299    7.832
  151.750   79.725    0.447    0.268    7.983
  152.000   79.702    0.447    0.210    8.136
  152.250   77.856    0.434    0.189    7.834
  152.500   77.231    0.420    0.161    7.687
  152.750   80.270    0.427    0.240    7.263
  153.000   87.575    0.440    0.262    7.263
  153.250   90.606    0.448    0.272    7.689
  153.500   91.815    0.446    0.275    7.404
  153.750   93.626    0.443    0.275    7.128
  154.000   94.221    0.445    0.277    7.129
  154.250   93.591    0.449    0.289    6.995
  154.500   91.749    0.449    0.302    6.736
  154.750   91.124    0.450    0.296    6.485
  155.000   91.101    0.446    0.294    6.244
  155.250   91.089    0.440    0.306    6.245
  155.500   90.467    0.436    0.338    6.245
  155.750   88.618    0.441    0.434    6.246
  156.000   86.772    0.522    0.475    6.014
  156.250   83.706    0.562    0.538    5.470
  156.500   81.247    0.554    0.530    4.790
  156.750   79.401    0.540    0.402    4.195
  157.000   79.996    0.524    0.401    3.470
  157.250   79.366    0.492    0.370    2.817
  157.500   78.741    0.486    0.346    2.420
  157.750   78.119    0.496    0.319    2.514
  158.000   78.100    0.485    0.348    2.612
  158.250   78.088    0.474    0.392    2.818
  158.500   78.073    0.467    0.330    2.983
  158.750   78.053    0.470    0.312    3.280
  159.000   80.474    0.471    0.370    3.676
  159.250   83.513    0.476    0.323    3.891
  159.500   87.768    0.483    0.272    3.891
  159.750   89.579    0.492    0.248    3.819
  160.000   85.293    0.490    0.241    3.819
  160.250   81.621    0.469    0.256    3.747
  160.500   77.335    0.455    0.296    3.540
  160.750   79.150    0.453    0.327    3.345
  161.000   84.011    0.462    0.356    3.541
  161.250   85.822    0.528    0.361    3.968
  161.500   87.023    0.502    0.329    4.044
  161.750   87.626    0.490    0.314    3.894
  162.000   87.610    0.485    0.307    3.749
  162.250   86.985    0.491    0.312    3.610
  162.500   86.965    0.496    0.348    3.476
  162.750   88.776    0.493    0.377    3.347
  163.000   90.591    0.496    0.379    3.222
  163.250   90.576    0.500    0.345    3.103
