~VERSION INFORMATION
 VERS.                 2.0:   CWLS LOG ASCII STANDARD -VERSION 2.0
 WRAP.                  NO:   ONE LINE PER DEPTH STEP
~WELL INFORMATION BLOCK
#MNEM.UNIT           DATA                    DESCRIPTION OF MNEMONIC
#---------    -------------------            -------------------------------
# Generated from Intellog Unique Number	CS_73_76/WELL/2184
WELL.         BOW VALLEY EXPLORATION         : Well_name    - WELL
LOC .         00/10-06-074-15W4/0            : Location     - LOCATION
UWI .         00/10-06-074-15W4/0            : Uwi          - UNIQUE WELL ID
ENTR.         SP                             : Entered      - ENTERED BY
SRVC.         SCHLUMBERGER                   : Scn          - SERVICE COMPANY
STRT.M        286.512                        : top_depth    - START DEPTH
STOP.M        493.512                        : bot_depth    - STOP DEPTH
STEP.M        0.25                           : increment    - STEP LENGTH
 NULL. -999.2500:NULL Value
~CURVE INFORMATION BLOCK
#MNEM UNIT       ERCB CURVE CODE    CURVE DESCRIPTION
#-----------   ------------------   ----------------------------------
DEPT.M        00 001 00 00         : DEPTH        - DEPTH
GR  .API      00 310 00 00         : GR           - GAMMA RAY
DPHI.V/V      00 890 00 00         : PHID         - DENSITY POROSITY (SANDSTONE)
NPHI.V/V      00 330 00 00         : PHIN         - NEUTRON POROSITY (SANDSTONE)
ILD .OHMM     00 120 00 00         : RESD         - DEEP RESISTIVITY (DIL)
~PARAMETER INFORMATION
#MNEM.UNIT           DATA             DESCRIPTION OF MNEMONIC
#---------         -----------     ------------------------------
GL  .M        10                   : gl           - GROUND LEVEL ELEVATION
EREF.M        637.337              : kb           - ELEVATION OF DEPTH REFERENCE
DATM.M        10                   : datum        - DATUM ELEVATION
TDD .M        484.327              : tdd          - TOTAL DEPTH DRILLER
RUN .         ONE                  : Run          - RUN NUMBER
ENG .         BILL                 : Engineer     - RECORDING ENGINEER
WIT .         JIM                  : Witness      - WITNESSED BY
MUD .         GEL                  : Mud_type     - MUD TYPE
MATR.         SANDSTONE            : Logunit      - NEUTRON MATRIX
TMAX.C        22.2222              : BHT          - MAXIMUM RECORDED TEMPERATURE
BHTD.M        469.087              : BHTDEP       - MAXIMUM RECORDED TEMPERATURE
MATR.         1                    : LOGUNIT      - NEUTRON MATRIX
RMT .C        25                   : MDTP         - TEMPERATURE OF MUD
NEUT.         1                    : NEUTRON      - NEUTRON TYPE
RESI.         0                    : RESIST       - RESISTIVITY TYPE
RMC .OHMM     0.25                 : RMC          - RESISTIVITY OF MUD CAKE
RMF .OHMM     0.25                 : RMF          - RESISTIVITY OF MUD FILTRATE
SUFT.C        15                   : SUFT         - SURFACE TEMPERATURE
~A  DEPTH       GR     PHID     PHIN     RESD
# ...
  330.012   67.277    0.242    0.435   11.152
  330.262   62.824    0.222    0.425   11.256
  330.512   61.740    0.238    0.415   11.474
  330.762   60.210    0.228    0.422   11.523
  331.012   57.635    0.245    0.434   11.665
  331.262   57.236    0.269    0.441   11.664
  331.512   58.824    0.285    0.430   11.661
  331.762   58.193    0.270    0.429   11.659
  332.012   59.845    0.285    0.432   11.658
  332.262   61.728    0.281    0.422   11.656
  332.512   69.470    0.275    0.415   11.654
  332.762   75.139    0.271    0.421   11.653
  333.012   79.126    0.255    0.437   11.650
  333.262   72.546    0.253    0.447   11.670
  333.512   68.606    0.263    0.460   11.414
  333.762   66.690    0.274    0.454   11.435
  334.012   65.737    0.284    0.447   11.434
  334.262   63.432    0.291    0.444   11.433
  334.512   60.801    0.287    0.455   11.428
  334.762   58.798    0.293    0.459   11.280
  335.012   57.578    0.289    0.435   11.453
  335.262   56.053    0.293    0.421   11.420
  335.512   55.810    0.293    0.419   11.313
  335.762   58.621    0.285    0.427   11.204
  336.012   60.988    0.284    0.427   11.579
  336.262   62.204    0.290    0.413   11.385
  336.512   60.186    0.297    0.410   11.417
  336.762   58.852    0.297    0.417   11.417
  337.012   57.882    0.287    0.427   11.415
  337.262   57.917    0.289    0.436   11.414
  337.512   59.319    0.297    0.427   11.412
  337.762   60.549    0.295    0.422   11.410
  338.012   60.370    0.287    0.418   11.409
  338.262   61.570    0.280    0.413   11.407
  338.512   63.411    0.289    0.415   11.406
  338.762   63.879    0.286    0.423   11.405
  339.012   63.946    0.277    0.437   11.397
  339.262   63.940    0.280    0.440   11.383
  339.512   62.990    0.290    0.434   11.181
  339.762   61.233    0.289    0.431   11.189
  340.012   61.656    0.284    0.433   11.190
  340.262   62.753    0.288    0.421   11.188
  340.512   62.159    0.299    0.421   11.187
  340.762   62.812    0.300    0.423   11.185
  341.012   65.718    0.295    0.426   11.190
  341.262   67.288    0.291    0.432   11.228
  341.512   64.651    0.293    0.418   11.379
  341.762   67.303    0.299    0.411   11.596
  342.012   66.595    0.287    0.403   11.821
  342.262   63.563    0.284    0.404   11.991
  342.512   62.665    0.300    0.412   12.040
  342.762   61.706    0.298    0.420   11.796
  343.012   60.733    0.293    0.432   11.810
  343.262   59.710    0.292    0.440   11.820
  343.512   60.006    0.290    0.432   11.586
  343.762   63.478    0.287    0.423   11.612
  344.012   64.963    0.304    0.423   11.353
  344.262   65.412    0.307    0.425   11.370
  344.512   65.091    0.294    0.428   11.251
  344.762   64.869    0.284    0.434   11.166
  345.012   61.666    0.291    0.444   11.159
  345.262   59.592    0.294    0.452   11.153
  345.512   61.488    0.304    0.444   11.137
  345.762   63.521    0.316    0.432   10.944
  346.012   62.640    0.318    0.433   10.967
  346.262   60.694    0.306    0.462   10.745
  346.512   61.134    0.318    0.484   10.745
  346.762   62.145    0.319    0.481   10.675
  347.012   62.578    0.304    0.454   10.741
  347.262   61.556    0.312    0.443   10.744
  347.512   63.584    0.314    0.437   10.786
  347.762   66.118    0.321    0.443   10.942
  348.012   66.464    0.321    0.449   10.830
  348.262   66.693    0.326    0.440   10.720
  348.512   66.225    0.326    0.451   10.396
  348.762   65.328    0.321    0.456    9.800
  349.012   64.373    0.320    0.472    9.220
  349.262   63.809    0.360    0.512    8.763
  349.512   65.162    0.380    0.549    8.624
  349.762   69.886    0.359    0.518    9.100
  350.012   73.081    0.331    0.476    9.563
  350.262   74.894    0.329    0.476    9.889
  350.512   75.796    0.332    0.462   10.328
  350.762   77.468    0.325    0.472   10.614
  351.012   78.428    0.316    0.478   11.148
  351.262   76.163    0.302    0.462   11.302
  351.512   74.204    0.306    0.456   11.300
  351.762   71.534    0.318    0.462   11.550
  352.012   68.975    0.320    0.467   11.532
  352.262   68.444    0.316    0.469   11.533
  352.512   71.918    0.319    0.458   11.531
  352.762   75.301    0.324    0.457   11.530
  353.012   72.865    0.322    0.464   11.529
  353.262   70.637    0.328    0.464   11.527
  353.512   68.275    0.319    0.458   11.500
  353.762   69.059    0.323    0.456   11.737
  354.012   68.925    0.317    0.459   12.131
  354.262   66.031    0.298    0.372   12.507
  354.512   62.334    0.263    0.242   14.896
  354.762   58.243    0.173    0.192   17.811
  355.012   56.121    0.088    0.169   22.224
  355.262   53.903    0.038    0.163   27.097
  355.512   52.483    0.015    0.167   32.104
  355.762   51.499    0.033    0.169   37.656
  356.012   52.203    0.029    0.165   41.673
  356.262   50.187    0.033    0.158   43.766
  356.512   49.391    0.039    0.155   44.840
  356.762   49.818    0.027    0.159   45.579
  357.012   51.106    0.015    0.158   47.120
  357.262   51.732    0.005    0.152   47.800
  357.512   51.677   -0.000    0.148   50.790
  357.762   51.717   -0.000    0.147   53.327
  358.012   50.927   -0.000    0.148   56.007
  358.262   49.891    0.000    0.140   58.572
  358.512   50.192    0.000    0.138   61.081
  358.762   50.572   -0.000    0.137   62.336
  359.012   50.735    0.000    0.134   63.416
  359.262   50.385    0.000    0.131   64.843
  359.512   49.983   -0.000    0.131   63.435
  359.762   49.303    0.007    0.137   62.666
  360.012   50.279   -0.001    0.142   62.060
  360.262   52.314    0.000    0.144   60.157
  360.512   53.052    0.000    0.144   57.264
  360.762   53.053    0.001    0.145   54.494
  361.012   52.520    0.014    0.154   51.428
  361.262   52.453    0.013    0.166   47.768
  361.512   53.232    0.032    0.181   43.531
  361.762   55.385    0.048    0.205   36.956
  362.012   56.470    0.042    0.230   32.005
  362.262   59.144    0.067    0.277   27.101
  362.512   64.942    0.116    0.341   21.667
  362.762   70.314    0.176    0.419   19.093
  363.012   72.280    0.253    0.477   16.938
  363.262   72.926    0.297    0.488   14.362
  363.512   73.984    0.314    0.482   13.377
  363.762   73.427    0.297    0.477   12.198
  364.012   74.154    0.296    0.489   11.251
  364.262   74.144    0.300    0.494   10.381
  364.512   73.124    0.292    0.468    9.671
  364.762   71.369    0.298    0.445    8.718
  365.012   68.655    0.289    0.412    7.902
  365.262   65.926    0.274    0.400    7.680
  365.512   67.914    0.240    0.438    7.637
  365.762   69.988    0.307    0.455    7.785
  366.012   72.749    0.326    0.446    7.878
  366.262   73.219    0.325    0.442    7.933
  366.512   75.302    0.320    0.461    7.788
  366.762   76.993    0.321    0.472    7.190
  367.012   77.961    0.296    0.467    7.543
  367.262   81.083    0.294    0.474    7.232
  367.512   81.752    0.288    0.498    7.166
  367.762   81.487    0.275    0.511    7.100
  368.012   82.512    0.278    0.497    6.990
  368.262   83.635    0.280    0.490    6.964
  368.512   86.315    0.287    0.496    6.959
  368.762   88.113    0.268    0.498    6.840
  369.012   94.018    0.255    0.476    6.704
  369.262  100.524    0.220    0.494    6.589
  369.512  103.070    0.210    0.504    6.515
  369.762   99.763    0.208    0.495    6.475
  370.012   98.920    0.207    0.481    6.353
  370.262   98.805    0.201    0.485    6.242
  370.512  100.336    0.202    0.496    5.840
  370.762  103.940    0.196    0.499    5.150
  371.012  103.843    0.186    0.498    4.612
  371.262  101.906    0.193    0.496    3.831
  371.512  102.893    0.189    0.505    3.255
  371.762  104.281    0.182    0.533    2.837
  372.012  103.144    0.194    0.528    2.878
  372.262  101.872    0.213    0.533    3.158
  372.512   99.061    0.229    0.511    3.378
  372.762   96.129    0.240    0.476    3.708
  373.012   94.759    0.240    0.480    3.980
  373.262   94.877    0.242    0.512    4.116
