~VERSION INFORMATION
 VERS.                 2.0:   CWLS LOG ASCII STANDARD -VERSION 2.0
 WRAP.                  NO:   ONE LINE PER DEPTH STEP
~WELL INFORMATION BLOCK
#MNEM.UNIT           DATA                    DESCRIPTION OF MNEMONIC
#---------    -------------------            -------------------------------
# Generated from Intellog Unique Number	CS_71_72/WELL/871
WELL.         PACIFIC PHILLIPS AEC WIAU      : Well_name    - WELL
LOC .         00/10-25-072-09W4/0            : Location     - LOCATION
UWI .         00/10-25-072-09W4/0            : Uwi          - UNIQUE WELL ID
ENTR.         SP                             : Entered      - ENTERED BY
SRVC.         SCHLUMBERGER                   : Scn          - SERVICE COMPANY
STRT.M        315                            : top_depth    - START DEPTH
STOP.M        520                            : bot_depth    - STOP DEPTH
STEP.M        0.25                           : increment    - STEP LENGTH
 NULL. -999.2500:NULL Value
~CURVE INFORMATION BLOCK
#MNEM UNIT       ERCB CURVE CODE    CURVE DESCRIPTION
#-----------   ------------------   ----------------------------------
DEPT.M        00 001 00 00         : DEPTH        - DEPTH
GR  .API      00 310 00 00         : GR           - GAMMA RAY
NPHI.V/V      00 330 00 00         : PHIN         - NEUTRON POROSITY (LIMESTONE)
DPHI.V/V      00 890 00 00         : PHID         - DENSITY POROSITY (LIMESTONE)
ILD .OHMM     00 120 00 00         : RESD         - DEEP RESISTIVITY (DIL)
~PARAMETER INFORMATION
#MNEM.UNIT           DATA             DESCRIPTION OF MNEMONIC
#---------         -----------     ------------------------------
GL  .M        682.3                : gl           - GROUND LEVEL ELEVATION
EREF.M        685.3                : kb           - ELEVATION OF DEPTH REFERENCE
DATM.M        682.3                : datum        - DATUM ELEVATION
TDD .M        530                  : tdd          - TOTAL DEPTH DRILLER
RUN .         ONE                  : Run          - RUN NUMBER
ENG .         BILL                 : Engineer     - RECORDING ENGINEER
WIT .         JIM                  : Witness      - WITNESSED BY
MUD .         GEL                  : Mud_type     - MUD TYPE
MATR.         LIMESTONE            : Logunit      - NEUTRON MATRIX
TMAX.C        16                   : BHT          - MAXIMUM RECORDED TEMPERATURE
BHTD.M        530                  : BHTDEP       - MAXIMUM RECORDED TEMPERATURE
MATR.         1                    : LOGUNIT      - NEUTRON MATRIX
RMT .C        25                   : MDTP         - TEMPERATURE OF MUD
NEUT.         1                    : NEUTRON      - NEUTRON TYPE
RESI.         0                    : RESIST       - RESISTIVITY TYPE
RMC .OHMM     0.25                 : RMC          - RESISTIVITY OF MUD CAKE
RMF .OHMM     0.25                 : RMF          - RESISTIVITY OF MUD FILTRATE
SUFT.C        15                   : SUFT         - SURFACE TEMPERATURE
~A  DEPTH       GR     PHIN     PHID     RESD
# ...
  445.500   68.236    0.434    0.224    5.570
  445.750   68.237    0.439    0.232    5.468
  446.000   70.649    0.453    0.227    4.806
  446.250   72.458    0.472    0.219    3.995
  446.500   73.061    0.503    0.243    3.576
  446.750   74.267    0.535    0.254    3.085
  447.000   75.474    0.557    0.268    2.866
  447.250   75.475    0.563    0.248    3.205
  447.500   74.272    0.532    0.238    3.650
  447.750   71.262    0.520    0.242    4.157
  448.000   69.455    0.504    0.259    4.562
  448.250   67.047    0.491    0.272    5.008
  448.500   64.639    0.478    0.255    5.103
  448.750   65.846    0.465    0.254    5.105
  449.000   67.052    0.480    0.259    5.603
  449.250   68.861    0.475    0.249    6.150
  449.500   67.657    0.442    0.157    7.004
  449.750   60.430    0.416    0.056    8.592
  450.000   55.612    0.295    0.023    9.604
  450.250   51.396    0.264    0.015   11.143
  450.500   53.205    0.372    0.095   10.743
  450.750   60.435    0.419    0.163    8.931
  451.000   67.063    0.441    0.184    7.424
  451.250   70.679    0.454    0.195    5.949
  451.500   72.488    0.459    0.202    5.734
  451.750   74.899    0.462    0.208    5.528
  452.000   78.516    0.458    0.220    5.429
  452.250   80.926    0.449    0.227    5.432
  452.500   80.928    0.443    0.219    5.434
  452.750   78.519    0.437    0.214    5.337
  453.000   77.316    0.449    0.210    5.339
  453.250   77.317    0.466    0.210    5.343
  453.500   77.319    0.475    0.214    5.344
  453.750   76.115    0.469    0.219    5.347
  454.000   75.514    0.466    0.218    5.349
  454.250   77.323    0.474    0.204    5.352
  454.500   79.735    0.470    0.220    5.454
  454.750   81.544    0.464    0.216    5.769
  455.000   82.147    0.477    0.219    5.989
  455.250   79.137    0.480    0.229    6.103
  455.500   77.331    0.452    0.231    6.455
  455.750   76.730    0.434    0.226    6.578
  456.000   78.538    0.424    0.220    6.704
  456.250   80.949    0.436    0.192    6.706
  456.500   83.361    0.454    0.208    6.467
  456.750   84.567    0.460    0.181    6.350
  457.000   83.364    0.457    0.197    5.900
  457.250   79.148    0.449    0.177    5.481
  457.500   76.740    0.472    0.179    4.817
  457.750   74.332    0.493    0.214    4.312
  458.000   71.321    0.488    0.209    3.652
  458.250   68.311    0.511    0.226    3.330
  458.500   67.710    0.547    0.249    2.981
  458.750   67.711    0.570    0.267    2.821
  459.000   69.520    0.558    0.255    2.670
  459.250   71.931    0.552    0.253    2.623
  459.500   76.150    0.534    0.258    2.623
  459.750   78.561    0.529    0.265    2.674
  460.000   79.767    0.540    0.238    2.828
  460.250   80.371    0.524    0.219    2.991
  460.500   79.168    0.535    0.229    3.283
  460.750   76.759    0.544    0.236    3.471
  461.000   74.352    0.523    0.219    3.811
  461.250   73.750    0.510    0.200    4.030
  461.500   73.752    0.487    0.216    4.183
  461.750   73.753    0.471    0.201    4.344
  462.000   73.152    0.471    0.213    4.426
  462.250   72.551    0.481    0.222    4.429
  462.500   70.746    0.482    0.213    4.431
  462.750   69.542    0.466    0.229    4.515
  463.000   65.930    0.463    0.238    4.603
  463.250   64.726    0.468    0.206    4.690
  463.500   62.920    0.468    0.222    4.780
  463.750   60.512    0.455    0.253    4.871
  464.000   58.706    0.447    0.272    5.058
  464.250   57.503    0.461    0.261    5.060
  464.500   56.902    0.475    0.233    5.156
  464.750   56.301    0.466    0.221    5.353
  465.000   56.302    0.455    0.236    5.876
  465.250   55.701    0.448    0.219    6.214
  465.500   51.486    0.425    0.180    7.210
  465.750   48.475    0.215    0.136    7.912
  466.000   46.067    0.191    0.011    9.886
  466.250   42.454    0.185    0.022   11.904
  466.500   43.058    0.210    0.044   13.065
  466.750   44.867    0.232    0.067   13.562
  467.000   46.073    0.247    0.087   12.600
  467.250   49.086    0.260    0.122   10.474
  467.500   55.715    0.311    0.169    8.547
  467.750   57.523    0.358    0.241    6.975
  468.000   58.729    0.419    0.265    6.130
  468.250   58.129    0.459    0.262    5.801
  468.500   56.925    0.469    0.263    5.593
  468.750   58.132    0.465    0.267    5.597
  469.000   59.337    0.460    0.268    5.704
  469.250   61.147    0.454    0.276    5.706
  469.500   61.148    0.452    0.265    5.815
  469.750   61.149    0.449    0.254    5.926
  470.000   59.946    0.449    0.241    5.929
  470.250   59.947    0.445    0.238    5.932
  470.500   61.154    0.440    0.232    5.935
  470.750   62.360    0.430    0.238    5.937
  471.000   62.964    0.426    0.244    5.940
  471.250   62.965    0.422    0.232    5.944
  471.500   62.365    0.419    0.242    5.946
  471.750   61.763    0.430    0.230    5.949
  472.000   62.970    0.436    0.224    5.951
  472.250   64.176    0.437    0.213    6.064
  472.500   65.383    0.432    0.208    6.181
  472.750   66.588    0.432    0.202    6.183
  473.000   67.192    0.452    0.206    6.186
  473.250   65.989    0.458    0.220    5.436
  473.500   65.990    0.443    0.234    4.603
  473.750   70.209    0.439    0.245    3.757
  474.000   73.825    0.445    0.236    3.302
  474.250   79.851    0.470    0.227    3.243
  474.500   82.864    0.492    0.215    3.304
  474.750   81.661    0.494    0.207    3.560
  475.000   77.446    0.495    0.201    3.908
  475.250   71.423    0.506    0.198    4.534
  475.500   67.810    0.481    0.198    4.884
  475.750   64.197    0.411    0.202    5.667
  476.000   58.777    0.366    0.213    6.697
  476.250   56.368    0.333    0.231    7.770
  476.500   56.972    0.333    0.242    9.532
  476.750   57.575    0.343    0.251   10.269
  477.000   57.578    0.349    0.249   10.661
  477.250   57.579    0.352    0.245   11.067
  477.500   58.183    0.337    0.234   10.475
  477.750   59.991    0.332    0.221   10.098
  478.000   64.812    0.342    0.210    9.382
  478.250   67.223    0.352    0.201    9.214
  478.500   69.032    0.368    0.195    9.392
  478.750   73.251    0.379    0.208    9.571
  479.000   73.854    0.381    0.221    9.753
  479.250   73.856    0.378    0.236    9.940
  479.500   76.869    0.377    0.244   10.320
  479.750   79.280    0.376    0.236   10.517
  480.000   81.691    0.382    0.220   10.719
  480.250   79.283    0.396    0.216   10.723
  480.500   75.671    0.413    0.225   10.727
  480.750   73.865    0.429    0.243   10.934
  481.000   71.456    0.390    0.254   11.352
  481.250   70.855    0.372    0.247   11.568
  481.500   69.652    0.361    0.220   12.463
  481.750   67.846    0.361    0.196   13.935
  482.000   64.233    0.371    0.187   16.167
  482.250   61.825    0.374    0.203   18.756
  482.500   60.019    0.374    0.224   22.170
  482.750   61.828    0.376    0.239   23.884
  483.000   63.034    0.381    0.242   23.896
  483.250   60.024    0.372    0.224   22.614
  483.500   63.037    0.360    0.218   21.402
  483.750   67.255    0.358    0.224   23.058
  484.000   70.871    0.365    0.210   26.754
  484.250   63.644    0.382    0.205   31.620
  484.500   52.802    0.391    0.234   36.682
  484.750   45.574    0.397    0.260   43.356
  485.000   39.552    0.383    0.271   33.469
  485.250   48.589    0.367    0.271   18.173
  485.500   61.242    0.359    0.265   12.788
  485.750   69.677    0.353    0.255   10.830
  486.000   80.522    0.368    0.234    9.342
  486.250   86.547    0.391    0.201    9.349
  486.500   90.766    0.408    0.178    9.705
  486.750   88.358    0.406    0.180   10.263
  487.000   79.925    0.394    0.175   10.854
  487.250   69.084    0.373    0.193   11.480
  487.500   64.868    0.362    0.210   11.701
  487.750   66.075    0.353    0.202   11.926
  488.000   66.678    0.349    0.175   11.496
  488.250   66.077    0.351    0.137   10.878
  488.500   66.078    0.341    0.108    9.740
  488.750   68.490    0.335    0.141    9.389
