~VERSION INFORMATION
 VERS.                 2.0:   CWLS LOG ASCII STANDARD -VERSION 2.0
 WRAP.                  NO:   ONE LINE PER DEPTH STEP
~WELL INFORMATION BLOCK
#MNEM.UNIT           DATA                    DESCRIPTION OF MNEMONIC
#---------    -------------------            -------------------------------
# Generated from Intellog Unique Number	CS_69_70/WELL/874
WELL.         ET AL HEART LAKE               : Well_name    - WELL
LOC .         00/10-30-069-11W4/0            : Location     - LOCATION
UWI .         00/10-30-069-11W4/0            : Uwi          - UNIQUE WELL ID
ENTR.         SP                             : Entered      - ENTERED BY
SRVC.         SCHLUMBERGER                   : Scn          - SERVICE COMPANY
STRT.F        1070                           : top_depth    - START DEPTH
STOP.F        1709.76                        : bot_depth    - STOP DEPTH
STEP.F        0.82                           : increment    - STEP LENGTH
 NULL. -999.2500:NULL Value
~CURVE INFORMATION BLOCK
#MNEM UNIT       ERCB CURVE CODE    CURVE DESCRIPTION
#-----------   ------------------   ----------------------------------
DEPT.F        00 001 00 00         : DEPTH        - DEPTH
GR  .API      00 310 00 00         : GR           - GAMMA RAY
NPHI.V/V      00 330 00 00         : PHIN         - NEUTRON POROSITY (SANDSTONE)
DPHI.V/V      00 890 00 00         : PHID         - DENSITY POROSITY (SANDSTONE)
ILD .OHMM     00 120 00 00         : RESD         - DEEP RESISTIVITY (DIL)
~PARAMETER INFORMATION
#MNEM.UNIT           DATA             DESCRIPTION OF MNEMONIC
#---------         -----------     ------------------------------
GL  .M        650.138              : gl           - GROUND LEVEL ELEVATION
EREF.M        652.668              : kb           - ELEVATION OF DEPTH REFERENCE
DATM.M        650.138              : datum        - DATUM ELEVATION
TDD .M        527.304              : tdd          - TOTAL DEPTH DRILLER
RUN .         ONE                  : Run          - RUN NUMBER
ENG .         BILL                 : Engineer     - RECORDING ENGINEER
WIT .         JIM                  : Witness      - WITNESSED BY
MUD .         GEL                  : Mud_type     - MUD TYPE
MATR.         SANDSTONE            : Logunit      - NEUTRON MATRIX
TMAX.C        20                   : BHT          - MAXIMUM RECORDED TEMPERATURE
BHTD.M        527.304              : BHTDEP       - MAXIMUM RECORDED TEMPERATURE
MATR.         1                    : LOGUNIT      - NEUTRON MATRIX
RMT .C        25                   : MDTP         - TEMPERATURE OF MUD
NEUT.         1                    : NEUTRON      - NEUTRON TYPE
RESI.         0                    : RESIST       - RESISTIVITY TYPE
RMC .OHMM     0.25                 : RMC          - RESISTIVITY OF MUD CAKE
RMF .OHMM     0.25                 : RMF          - RESISTIVITY OF MUD FILTRATE
SUFT.C        15                   : SUFT         - SURFACE TEMPERATURE
~A  DEPTH       GR     PHIN     PHID     RESD
 1070.000   94.606    0.454    0.194    3.833
 1070.820   95.871    0.432    0.189    3.915
 1071.640   96.561    0.436    0.199    4.001
 1072.460   96.600    0.450    0.218    4.087
 1073.280   96.677    0.478    0.241    3.876
 1074.100   96.754    0.498    0.242    3.608
 1074.920   97.425    0.507    0.238    3.362
 1075.740   97.502    0.475    0.233    3.246
 1076.560   99.381    0.459    0.228    3.080
 1077.380  100.052    0.447    0.215    3.030
 1078.200   99.555    0.451    0.211    3.040
 1079.020   99.018    0.462    0.224    2.994
 1079.840   97.926    0.477    0.237    3.000
 1080.660   97.429    0.486    0.235    3.006
 1081.480   97.467    0.496    0.212    3.018
 1082.300   97.563    0.504    0.210    3.024
 1083.120   98.254    0.509    0.220    3.086
 1083.940   98.312    0.500    0.223    3.153
 1084.760   99.002    0.492    0.209    3.283
 1085.580   99.635    0.485    0.210    3.289
 1086.400   99.751    0.478    0.215    3.300
 1087.220   99.828    0.456    0.223    3.313
 1088.040   99.311    0.446    0.219    3.320
 1088.860   97.011    0.451    0.214    3.265
 1089.690   93.523    0.460    0.214    3.274
 1090.510   91.779    0.483    0.221    3.283
 1091.330   87.103    0.490    0.280    3.233
 1092.150   80.050    0.500    0.301    3.244
 1092.970   74.186    0.403    0.320    3.250
 1093.790   67.727    0.377    0.300    3.448
 1094.610   66.616    0.384    0.275    3.585
 1095.430   80.378    0.392    0.261    3.730
 1096.250   86.397    0.398    0.233    3.884
 1097.070   92.415    0.402    0.211    3.965
 1097.890   96.651    0.405    0.209    4.053
 1098.710   99.124    0.406    0.213    4.061
 1099.530   99.201    0.406    0.217    4.153
 1100.350  100.486    0.406    0.217    4.236
 1101.170  101.138    0.407    0.218    4.414
 1101.990  102.403    0.409    0.220    4.590
 1102.810  103.669    0.412    0.221    4.779
 1103.630  104.934    0.410    0.221    4.882
 1104.450  105.644    0.405    0.218    4.895
 1105.270  105.740    0.404    0.212    5.000
 1106.090  105.204    0.401    0.208    5.013
 1106.910  104.706    0.400    0.204    5.023
 1107.730  103.556    0.397    0.195    5.134
 1108.550  101.257    0.396    0.196    5.244
 1109.370   97.175    0.400    0.242    5.261
 1110.190   93.668    0.409    0.268    5.279
 1111.010   87.803    0.417    0.286    5.093
 1111.830   78.968    0.413    0.303    4.924
 1112.650   73.698    0.404    0.298    4.670
 1113.470   72.012    0.396    0.281    4.429
 1114.290   70.900    0.388    0.259    4.279
 1115.110   69.176    0.394    0.247    4.134
 1115.930   64.480    0.409    0.248    4.143
 1116.750   58.022    0.397    0.273    4.154
 1117.570   49.186    0.377    0.302    4.088
 1118.390   50.452    0.368    0.287    4.024
 1119.210   57.065    0.366    0.275    3.748
 1120.030   76.174    0.370    0.264    3.492
 1120.850   81.618    0.367    0.251    3.371
 1121.670   87.042    0.373    0.237    3.139
 1122.490   93.674    0.385    0.228    3.266
 1123.310   99.099    0.407    0.209    3.527
 1124.130  103.335    0.428    0.201    3.880
 1124.950  110.561    0.442    0.218    4.190
 1125.770  116.005    0.455    0.222    4.441
 1126.590  114.319    0.483    0.218    4.621
 1127.410  111.406    0.495    0.215    4.471
 1128.230  108.493    0.514    0.221    4.316
 1129.060  103.222    0.519    0.231    3.663
 1129.880   95.556    0.521    0.246    3.225
 1130.700   85.533    0.499    0.273    3.057
 1131.520   74.915    0.449    0.289    3.011
 1132.340   69.625    0.418    0.295    3.017
 1133.160   67.364    0.419    0.280    3.141
 1133.980   67.422    0.423    0.280    3.653
 1134.800   67.519    0.429    0.280    4.576
 1135.620   69.378    0.431    0.283    4.941
 1136.440   72.426    0.435    0.285    5.241
 1137.260   75.454    0.439    0.288    5.563
 1138.080   77.314    0.443    0.292    5.574
 1138.900   76.797    0.443    0.296    5.694
 1139.720   75.686    0.429    0.298    5.820
 1140.540   82.912    0.407    0.276    5.720
 1141.360   87.148    0.414    0.259    5.630
 1142.180   94.968    0.425    0.243    5.350
 1143.000  102.195    0.436    0.229    5.357
 1143.820  106.412    0.439    0.210    5.276
 1144.640  111.855    0.434    0.202    5.186
 1145.460  113.715    0.438    0.195    5.207
 1146.280  114.425    0.440    0.188    5.224
 1147.100  115.077    0.442    0.178    5.231
 1147.920  115.767    0.448    0.169    5.149
 1148.740  115.806    0.454    0.160    4.978
 1149.560  116.496    0.446    0.159    4.899
 1150.380  118.394    0.449    0.165    4.822
 1151.200  119.027    0.461    0.206    4.743
 1152.020  117.935    0.462    0.213    4.668
 1152.840  114.428    0.440    0.217    4.768
 1153.660  110.346    0.423    0.230    5.149
 1154.480  106.839    0.389    0.263    5.782
 1155.300   99.192    0.362    0.332    5.789
 1156.120   90.356    0.328    0.381    5.809
 1156.940   85.680    0.306    0.392    5.713
 1157.760   91.105    0.310    0.357    5.524
 1158.580   96.529    0.341    0.329    5.340
 1159.400   97.795    0.365    0.304    5.347
 1160.220   96.089    0.374    0.289    5.263
 1161.040   94.978    0.396    0.276    5.280
 1161.860   95.074    0.402    0.270    5.291
 1162.680   95.784    0.396    0.265    5.411
 1163.500   95.823    0.394    0.265    5.422
 1164.320   94.731    0.398    0.273    5.650
 1165.140   94.194    0.399    0.281    5.763
 1165.960   94.291    0.401    0.285    5.778
 1166.780   94.981    0.402    0.278    5.695
 1167.600   95.614    0.403    0.275    5.601
 1168.430   98.700    0.403    0.268    5.509
 1169.250  101.154    0.403    0.266    5.422
 1170.070  103.588    0.404    0.269    5.546
 1170.890  107.863    0.405    0.276    5.557
 1171.710  109.090    0.408    0.278    5.676
 1172.530  109.761    0.411    0.285    5.687
 1173.350  108.075    0.417    0.297    5.702
 1174.170  105.181    0.420    0.300    5.721
 1174.990  101.713    0.431    0.290    5.631
 1175.810   98.800    0.435    0.276    5.441
 1176.630   95.887    0.427    0.254    5.767
 1177.450   91.211    0.405    0.196    6.472
 1178.270   89.505    0.375    0.120    6.984
 1179.090   92.553    0.287    0.084    7.138
 1179.910   95.620    0.323    0.127    7.021
 1180.730   96.886    0.355    0.243    6.545
 1181.550   96.369    0.384    0.292    6.203
 1182.370   95.277    0.432    0.297    5.779
 1183.190   94.146    0.439    0.297    5.576
 1184.010   93.629    0.439    0.295    5.194
 1184.830   92.518    0.438    0.293    5.106
 1185.650   92.020    0.438    0.296    4.933
 1186.470   90.296    0.438    0.297    5.045
 1187.290   86.808    0.440    0.289    5.153
 1188.110   85.716    0.443    0.273    5.264
 1188.930   86.406    0.431    0.255    5.373
 1189.750   87.039    0.404    0.205    5.488
 1190.570   89.493    0.393    0.196    5.503
 1191.390   93.135    0.417    0.223    5.420
 1192.210   95.608    0.434    0.249    5.239
 1193.030   96.892    0.450    0.285    5.059
 1193.850   97.544    0.458    0.287    4.976
 1194.670   97.621    0.449    0.281    4.810
 1195.490   95.322    0.437    0.284    4.826
 1196.310   88.882    0.427    0.291    4.744
 1197.130   85.950    0.421    0.302    4.672
 1197.950   78.303    0.420    0.313    4.599
 1198.770   70.656    0.416    0.326    4.526
 1199.590   63.009    0.405    0.305    4.458
 1200.410   60.691    0.397    0.297    4.467
 1201.230   59.579    0.392    0.300    4.396
 1202.050   63.260    0.391    0.305    4.327
 1202.870   67.477    0.387    0.313    4.423
 1203.690   78.268    0.383    0.315    4.517
 1204.510   81.354    0.380    0.272    4.788
 1205.330   80.799    0.383    0.267    4.983
 1206.150   79.687    0.404    0.272    5.282
 1206.980   78.595    0.435    0.278    5.398
 1207.800   78.059    0.448    0.288    5.416
 1208.620   77.561    0.449    0.293    5.424
 1209.440   78.213    0.452    0.299    5.442
 1210.260   78.885    0.458    0.307    5.452
 1211.080   78.962    0.457    0.318    5.271
 1211.900   79.652    0.449    0.321    5.188
