~VERSION INFORMATION
 VERS.                 2.0:   CWLS LOG ASCII STANDARD -VERSION 2.0
 WRAP.                  NO:   ONE LINE PER DEPTH STEP
~WELL INFORMATION BLOCK
#MNEM.UNIT           DATA                    DESCRIPTION OF MNEMONIC
#---------    -------------------            -------------------------------
# Generated from Intellog Unique Number	CW_76_78/WELL/2809
WELL.         UNO-TEX MARTEN HILLS 10-25     : Well_name    - WELL
LOC .         00/10-25-076-02W5/0            : Location     - LOCATION
UWI .         00/10-25-076-02W5/0            : Uwi          - UNIQUE WELL ID
ENTR.         JJ                             : Entered      - ENTERED BY
SRVC.         SCHLUMBERGER                   : Scn          - SERVICE COMPANY
DATE.         10 FEB 64                      : Date         - LOG DATE
STRT.M        609.6                          : top_depth    - START DEPTH
STOP.M        746.85                         : bot_depth    - STOP DEPTH
STEP.M        0.25                           : increment    - STEP LENGTH
 NULL. -999.2500:NULL Value
~CURVE INFORMATION BLOCK
#MNEM UNIT       ERCB CURVE CODE    CURVE DESCRIPTION
#-----------   ------------------   ----------------------------------
DEPT.M        00 001 00 00         : DEPTH        - DEPTH
ILD .OHMM     00 120 00 00         : RESD         - DEEP RESISTIVITY (DIL)
CALI.MM       00 280 01 00         : CAL          - CALIPER
GR  .API      00 310 00 00         : GR           - GAMMA RAY
DELT.US/F     00 520 00 00         : DELT         - SONIC TRAVEL TIME
~PARAMETER INFORMATION
#MNEM.UNIT           DATA             DESCRIPTION OF MNEMONIC
#---------         -----------     ------------------------------
GL  .M        801.929              : gl           - GROUND LEVEL ELEVATION
EREF.M        805.891              : kb           - ELEVATION OF DEPTH REFERENCE
DATM.M        805.891              : datum        - DATUM ELEVATION
TDD .M        994.258              : tdd          - TOTAL DEPTH DRILLER
RUN .         ONE                  : Run          - RUN NUMBER
ENG .         HARRISON             : Engineer     - RECORDING ENGINEER
WIT .         PASHAK               : Witness      - WITNESSED BY
BASE.         EDMONTON             : Branch       - HOME BASE OF LOGGING UNIT
MUD .         GEL                  : Mud_type     - MUD TYPE
MATR.         SANDSTONE            : Logunit      - NEUTRON MATRIX
TMAX.C        27.7778              : BHT          - MAXIMUM RECORDED TEMPERATURE
BHTD.M        993.953              : BHTDEP       - MAXIMUM RECORDED TEMPERATURE
RMT .C        15.5556              : MDTP         - TEMPERATURE OF MUD
MUDD.KG/M     1092                 : MWT          - MUD DENSITY
NEUT.         1                    : NEUTRON      - NEUTRON TYPE
RESI.         0                    : RESIST       - RESISTIVITY TYPE
RM  .OHMM     6.01                 : RM           - RESISTIVITY OF MUD
RMC .OHMM     4.3                  : RMC          - RESISTIVITY OF MUD CAKE
RMF .OHMM     1.44                 : RMF          - RESISTIVITY OF MUD FILTRATE
SUFT.C        5                    : SUFT         - SURFACE TEMPERATURE
~A  DEPTH     RESD      CAL       GR     DELT
# ...
  696.600   12.320  212.443   79.436  308.341
  696.850   11.434  212.710   82.004  327.930
  697.100   10.567  212.767   84.979  323.820
  697.350    9.782  212.930   83.903  320.571
  697.600    8.672  212.987   84.477  320.125
  697.850    7.828  213.467   88.949  321.211
  698.100    7.390  213.940   88.476  333.481
  698.350    7.155  215.263   88.656  358.868
  698.600    7.144  220.079   89.976  384.319
  698.850    7.236  225.094   91.698  366.160
  699.100    7.513  222.405   91.427  331.491
  699.350    7.807  207.043   86.266  364.199
  699.600    8.430  204.567   80.007  362.480
  699.850    9.051  203.784   80.284  348.922
  700.100    9.878  198.450   83.455  366.384
  700.350   10.521  204.950   86.227  370.461
  700.600   10.836  201.629   87.150  341.048
  700.850   10.703  200.213   84.231  277.147
  701.100   10.122  202.811   72.085  265.982
  701.350    8.851  206.447   70.865  325.526
  701.600    8.209  211.471   76.878  342.315
  701.850    7.831  212.583   80.749  347.331
  702.100    7.474  212.006   78.678  339.162
  702.350    7.222  203.084   80.555  286.313
  702.600    7.049  206.637   81.827  338.000
  702.850    6.934  207.955   83.201  337.351
  703.100    6.866  207.489   85.275  345.891
  703.350    6.874  211.452   88.744  352.766
  703.600    7.190  203.374   89.769  326.883
  703.850    7.793  207.444   87.600  360.460
  704.100    8.048  213.314   85.785  347.626
  704.350    7.733  200.272   79.770  333.662
  704.600    7.070  210.681   70.917  329.886
  704.850    6.002  192.048   63.411  320.778
  705.100    5.420  190.411   56.803  321.659
  705.350    4.981  189.741   48.446  345.185
  705.600    4.648  189.277   38.893  355.924
  705.850    4.575  189.214   32.732  338.695
  706.100    4.381  189.803   34.061  334.122
  706.350    4.188  190.494   35.731  345.258
  706.600    4.038  191.073   33.214  339.280
  706.850    3.929  189.977   29.747  332.835
  707.100    3.913  189.391   28.778  333.459
  707.350    3.842  190.717   29.657  333.075
  707.600    3.690  190.879   31.132  333.828
  707.850    3.639  189.245   31.659  330.913
  708.100    3.654  189.829   28.936  333.859
  708.350    3.664  189.994   26.018  329.688
  708.600    3.671  190.156   26.451  327.899
  708.850    3.727  189.692   27.823  329.322
  709.100    3.737  190.484   29.792  324.748
  709.350    3.725  190.328   30.567  328.761
  709.600    3.712  188.063   29.250  333.369
  709.850    3.703  188.759   27.979  342.444
  710.100    3.777  190.079   27.858  339.798
  710.350    3.786  188.443   28.829  335.686
  710.600    3.820  190.515   29.860  332.433
  710.850    3.809  191.840   30.181  333.995
  711.100    3.798  187.492   29.911  333.473
  711.350    3.766  187.830   28.591  339.754
  711.600    3.778  187.464   29.065  328.056
  711.850    3.787  188.386   33.284  335.595
  712.100    3.778  188.637   30.916  342.939
  712.350    3.790  189.125   28.350  331.434
  712.600    3.790  190.020   27.476  328.321
  712.850    3.854  191.027   27.505  329.340
  713.100    3.946  191.406   28.778  322.038
  713.350    4.016  191.362   30.008  324.384
  713.600    4.105  190.892   32.379  326.800
  713.850    4.105  190.302   38.589  327.879
  714.100    4.295  188.678   45.105  333.093
  714.350    4.360  188.211   43.135  343.628
  714.600    4.536  187.835   37.722  345.580
  714.850    4.626  187.273   37.352  339.208
  715.100    4.764  187.535   43.316  329.503
  715.350    4.874  188.010   47.583  342.172
  715.600    5.046  188.389   50.358  345.187
  715.850    5.046  189.514   47.538  339.013
  716.100    5.374  191.154   50.859  344.557
  716.350    5.687  191.830   51.982  339.377
  716.600    7.188  190.406   49.171  341.861
  716.850    8.217  189.200   50.389  344.008
  717.100   10.616  189.041   52.113  336.572
  717.350   11.336  192.277   51.692  318.745
  717.600   10.898  195.706   48.874  269.225
  717.850    7.830  198.612   46.855  253.799
  718.100    5.842  198.883   52.671  240.498
  718.350    4.327  202.001   62.130  265.420
  718.600    3.805  207.656   73.033  406.923
  718.850    3.369  212.578   84.136  428.911
  719.100    3.461  214.107   92.750  417.278
  719.350    4.166  219.869   97.212  398.716
  719.600    4.990  224.154   95.194  389.283
  719.850    6.673  228.230   84.046  378.312
  720.100    7.782  230.392   88.513  366.348
  720.350    9.178  231.823   94.980  371.823
  720.600   10.902  233.466   93.859  345.412
  720.850   12.279  204.107   82.559  205.474
  721.100   12.227  203.373   72.804  213.749
  721.350   10.586  201.115   55.719  294.529
  721.600    9.233  201.167   50.406  309.723
  721.850    8.691  201.763   51.086  322.263
  722.100    7.889  202.017   55.301  302.571
  722.350    7.451  203.658   64.860  359.784
  722.600    7.155  209.637   74.166  360.000
  722.850    6.981  216.132   81.180  353.290
  723.100    6.991  209.850   81.005  346.321
  723.350    7.085  219.525   73.197  324.968
  723.600    7.134  219.366   74.823  285.037
  723.850    7.209  231.569   80.887  363.953
  724.100    7.340  237.237   86.455  375.817
  724.350    7.757  238.551   93.466  349.806
  724.600    8.359  239.242   86.308  322.460
  724.850    8.634  227.257   77.058  258.960
  725.100    8.441  209.360   69.050  220.890
  725.350    8.023  194.949   58.995  263.321
  725.600    7.505  187.401   49.047  285.572
  725.850    6.883  191.476   43.981  306.968
  726.100    6.282  194.170   40.166  322.235
  726.350    5.885  194.225   42.637  327.578
  726.600    5.814  192.805   46.608  339.714
  726.850    5.701  201.416   52.223  331.810
  727.100    5.305  219.321   59.983  471.982
  727.350    4.745  227.514   67.943  410.478
  727.600    4.163  232.743   73.109  380.268
  727.850    3.704  225.201   73.390  408.583
  728.100    3.370  224.620   76.007  432.770
  728.350    3.155  213.486   86.312  398.963
  728.600    2.983  213.967  103.953  465.963
  728.850    2.834  220.162  112.615  427.896
  729.100    2.740  222.209  104.957  412.401
  729.350    2.729  227.241   90.364  419.341
  729.600    2.861  233.414   81.010  441.399
  729.850    3.178  220.907   87.723  389.284
  730.100    3.616  219.391   94.041  424.458
  730.350    3.933  225.350   97.460  353.630
  730.600    4.312  213.471   89.401  277.679
  730.850    4.484  197.688   71.516  292.214
  731.100    4.555  200.704   63.709  399.892
  731.350    4.566  214.707   75.463  422.879
  731.600    4.534  222.685   87.913  377.888
  731.850    4.446  220.833   87.542  366.850
  732.100    4.455  223.956   88.968  368.070
  732.350    4.607  231.193   94.331  375.147
  732.600    4.863  236.537  102.843  348.200
  732.850    5.201  237.327  103.964  342.757
  733.100    5.517  234.751   97.359  364.344
  733.350    5.872  233.114   93.543  354.443
  733.600    6.598  221.983   91.223  314.514
  733.850    6.932  225.518   89.054  337.767
  734.100    7.065  222.832   85.140  369.813
  734.350    6.894  210.751   77.884  280.613
  734.600    6.639  201.199   69.379  324.039
  734.850    6.384  195.753   68.357  331.508
  735.100    6.049  200.776   75.719  340.922
  735.350    5.813  212.238   83.282  380.890
  735.600    5.540  213.667   88.052  325.043
  735.850    5.324  212.775   90.270  324.531
  736.100    5.172  214.314   88.650  340.062
  736.350    5.080  212.470   92.475  340.473
  736.600    5.131  211.372   92.447  337.834
  736.850    5.469  218.177   84.241  418.814
  737.100    5.847  222.569   89.459  324.018
  737.350    6.184  211.219   93.325  321.306
  737.600    6.358  202.833   85.120  327.450
  737.850    6.285  201.409   79.260  331.929
  738.100    6.073  215.195   81.383  357.446
  738.350    6.021  212.402   83.306  381.568
  738.600    6.297  225.024   85.379  393.768
  738.850    6.735  227.941   93.488  295.050
  739.100    7.153  220.702   94.366  301.787
  739.350    7.307  201.219   86.606  295.951
  739.600    7.215  197.380   76.156  321.919
  739.850    7.021  201.659   73.689  321.686
