~VERSION INFORMATION
 VERS.                 2.0:   CWLS LOG ASCII STANDARD -VERSION 2.0
 WRAP.                  NO:   ONE LINE PER DEPTH STEP
~WELL INFORMATION BLOCK
#MNEM.UNIT           DATA                    DESCRIPTION OF MNEMONIC
#---------    -------------------            -------------------------------
# Generated from Intellog Unique Number	CW_79_81/WELL/901
WELL.         PARAMOUNT ET AL HORIZON        : Well_name    - WELL
LOC .         00/11-11-080-19W4/0            : Location     - LOCATION
UWI .         00/11-11-080-19W4/0            : Uwi          - UNIQUE WELL ID
ENTR.         MAX                            : Entered      - ENTERED BY
SRVC.         COMPUTALOG                     : Scn          - SERVICE COMPANY
STRT.M        185.928                        : top_depth    - START DEPTH
STOP.M        365.678                        : bot_depth    - STOP DEPTH
STEP.M        0.25                           : increment    - STEP LENGTH
 NULL. -999.2500:NULL Value
~CURVE INFORMATION BLOCK
#MNEM UNIT       ERCB CURVE CODE    CURVE DESCRIPTION
#-----------   ------------------   ----------------------------------
DEPT.M        00 001 00 00         : DEPTH        - DEPTH
ILD .OHMM     00 120 00 00         : RESD         - DEEP RESISTIVITY (DIL)
NPHI.V/V      00 330 00 00         : PHIN         - NEUTRON POROSITY (SANDSTONE)
DPHI.V/V      00 890 00 00         : PHID         - DENSITY POROSITY (SANDSTONE)
CALI.MM       00 280 01 00         : CAL          - CALIPER
GR  .API      00 310 00 00         : GR           - GAMMA RAY
~PARAMETER INFORMATION
#MNEM.UNIT           DATA             DESCRIPTION OF MNEMONIC
#---------         -----------     ------------------------------
GL  .M        563.88               : gl           - GROUND LEVEL ELEVATION
EREF.M        566.928              : kb           - ELEVATION OF DEPTH REFERENCE
DATM.M        563.88               : datum        - DATUM ELEVATION
TDD .M        366.674              : tdd          - TOTAL DEPTH DRILLER
RUN .         ONE                  : Run          - RUN NUMBER
ENG .         BILL                 : Engineer     - RECORDING ENGINEER
WIT .         JIM                  : Witness      - WITNESSED BY
MUD .         GEL                  : Mud_type     - MUD TYPE
MATR.         SANDSTONE            : Logunit      - NEUTRON MATRIX
TMAX.C        16.1111              : BHT          - MAXIMUM RECORDED TEMPERATURE
BHTD.M        366.674              : BHTDEP       - MAXIMUM RECORDED TEMPERATURE
RMT .C        20                   : MDTP         - TEMPERATURE OF MUD
MUDD.KG/M     9600                 : MWT          - MUD DENSITY
NEUT.         1                    : NEUTRON      - NEUTRON TYPE
RESI.         0                    : RESIST       - RESISTIVITY TYPE
RM  .OHMM     4.6                  : RM           - RESISTIVITY OF MUD
RMC .OHMM     0                    : RMC          - RESISTIVITY OF MUD CAKE
RMF .OHMM     3.9                  : RMF          - RESISTIVITY OF MUD FILTRATE
SUFT.C        -3.88889             : SUFT         - SURFACE TEMPERATURE
~A  DEPTH     RESD     PHIN     PHID      CAL       GR
  185.928    3.932    0.592    0.356  250.172   81.454
  186.178    4.253    0.532    0.321  239.503   76.357
  186.428    4.733    0.434    0.306  211.023   73.366
  186.678    5.927    0.469    0.294  188.648   70.974
  186.928    7.122    0.432    0.281  161.189   69.183
  187.178    8.356    0.412    0.265  159.683   68.292
  187.428    8.994    0.409    0.248  161.743   74.616
  187.678    9.316    0.432    0.252  164.815   74.630
  187.928    9.279    0.414    0.261  166.875   71.038
  188.178    9.282    0.391    0.255  167.911   70.449
  188.428    9.404    0.392    0.263  162.843   69.558
  188.678    9.526    0.422    0.292  158.289   68.669
  188.928    9.807    0.460    0.309  158.305   64.475
  189.178   10.168    0.458    0.319  158.326   59.076
  189.428   10.687    0.452    0.331  159.365   53.378
  189.678   11.286    0.472    0.328  160.409   50.387
  189.928   12.083    0.479    0.328  157.888   48.895
  190.178   13.159    0.482    0.331  153.326   49.208
  190.428   14.750    0.488    0.328  150.803   49.220
  190.678   15.906    0.500    0.325  150.312   46.227
  190.928   15.392    0.503    0.320  151.351   44.139
  191.178   14.402    0.503    0.315  151.884   45.653
  191.428   13.491    0.495    0.307  152.926   48.672
  191.678   12.819    0.486    0.313  152.944   48.984
  191.928   12.624    0.491    0.320  151.436   47.193
  192.178   12.747    0.484    0.321  147.902   45.402
  192.428   13.504    0.501    0.318  146.906   43.613
  192.678   13.586    0.510    0.318  147.942   41.219
  192.928   13.193    0.510    0.321  148.984   40.634
  193.178   13.037    0.502    0.321  149.511   40.944
  193.428   13.159    0.493    0.313  150.550   43.666
  193.678   13.360    0.495    0.294  150.062   44.577
  193.928   13.363    0.501    0.296  148.048   42.185
  194.178   12.731    0.476    0.303  146.031   40.997
  194.428   12.138    0.443    0.297  149.617   43.713
  194.678   11.904    0.431    0.287  153.203   53.343
  194.928   11.509    0.417    0.255  153.222   52.153
  195.178   10.758    0.427    0.264  152.228   47.958
  195.428   10.959    0.450    0.288  152.249   49.475
  195.678   11.756    0.453    0.304  152.267   52.493
  195.928   11.879    0.448    0.322  151.780   51.006
  196.178   11.484    0.469    0.325  151.292   51.017
  196.428   11.607    0.462    0.284  152.840   53.133
  196.678   12.007    0.464    0.272  156.432   53.747
  196.928   12.646    0.476    0.274  156.956   51.655
  197.178   12.767    0.461    0.285  155.962   47.458
  197.428   12.612    0.442    0.321  154.457   38.154
  197.678   12.536    0.480    0.324  153.457   39.669
  197.928   12.738    0.500    0.322  151.954   51.104
  198.178   13.138    0.525    0.332  149.939   46.909
  198.428   13.776    0.513    0.344  148.940   38.808
  198.678   14.851    0.490    0.348  152.015   37.316
  198.928   16.562    0.477    0.348  152.044   37.031
  199.178   18.670    0.470    0.347  150.533   37.044
  199.428   18.792    0.467    0.346  149.030   37.958
  199.678   17.643    0.493    0.348  148.542   38.869
  199.928   16.336    0.519    0.344  149.579   39.784
  200.178   14.274    0.514    0.325  149.602   40.702
  200.428   12.926    0.493    0.312  150.639   42.516
  200.678   11.937    0.499    0.313  153.719   45.833
  200.928   10.708    0.505    0.304  158.318   44.344
  201.178    7.693    0.532    0.291  159.357   48.563
  201.428    5.829    0.546    0.292  155.815   56.691
  201.678    4.800    0.555    0.286  153.801   64.820
  201.928    4.883    0.550    0.271  159.935   68.440
  202.178    5.243    0.494    0.272  161.477   69.054
  202.428    6.199    0.415    0.268  164.555   63.956
  202.678    7.552    0.389    0.268  166.614   54.951
  202.928    9.422    0.376    0.280  166.633   48.352
  203.178   12.642    0.374    0.255  166.148   46.562
  203.428   12.923    0.397    0.209  165.154   54.388
  203.678   11.536    0.422    0.206  163.134   65.222
  203.928    9.871    0.442    0.214  157.053   75.153
  204.178    9.080    0.440    0.239  154.527   86.287
  204.428    8.487    0.445    0.243  153.024   83.293
  204.678    8.093    0.446    0.247  153.042   75.491
  204.928    7.818    0.429    0.242  154.081   73.700
  205.178    7.464    0.413    0.232  157.153   74.013
  205.428    7.189    0.431    0.232  162.267   74.030
  205.678    7.073    0.459    0.235  164.326   76.145
  205.928    7.116    0.464    0.241  165.877   80.666
  206.178    7.317    0.448    0.243  166.910   84.585
  206.428    7.757    0.425    0.246  166.932   86.400
  206.678    8.872    0.382    0.256  165.431   86.716
  206.928   10.622    0.375    0.261  163.923   85.825
  207.178   12.373    0.389    0.254  163.944   81.929
  207.428   13.488    0.395    0.255  163.965   80.440
  207.678   14.286    0.411    0.267  162.971   82.857
  207.928   14.687    0.421    0.277  159.427   79.263
  208.178   15.047    0.423    0.283  152.326   80.780
  208.428   15.566    0.442    0.298  150.311   75.381
  208.678   16.363    0.441    0.310  149.821   69.683
  208.928   17.280    0.429    0.330  151.371   52.263
  209.178   17.124    0.414    0.340  154.443   39.351
  209.428   16.174    0.398    0.323  160.572   36.961
  209.678   15.144    0.401    0.309  160.084   41.781
  209.928   13.638    0.441    0.261  156.548   60.428
  210.178   12.052    0.431    0.231  158.605   77.273
  210.428   10.189    0.429    0.229  157.096   85.404
  210.678    9.119    0.436    0.223  156.102   83.008
  210.928    8.408    0.436    0.205  158.666   80.620
  211.178    8.212    0.419    0.210  160.722   82.434
  211.428    8.175    0.416    0.222  161.253   81.845
  211.678    8.218    0.416    0.222  161.788   79.752
  211.928    8.380    0.394    0.212  160.794   75.256
  212.178    8.502    0.382    0.205  162.339   77.675
  212.428    8.307    0.386    0.201  163.887   83.999
  212.678    7.873    0.443    0.195  162.888   89.724
  212.928    6.764    0.469    0.184  157.313   91.540
  213.178    5.972    0.494    0.151  159.370   97.862
  213.428    5.221    0.503    0.142  164.481   96.374
  213.678    4.509    0.512    0.187  163.481   90.976
  213.928    4.274    0.530    0.216  160.958  105.415
  214.178    4.277    0.537    0.216  157.419  114.144
  214.428    4.280    0.510    0.203  161.003  115.960
  214.678    4.243    0.502    0.201  164.592  110.562
  214.928    4.128    0.552    0.219  164.608  106.068
  215.178    4.011    0.564    0.230  161.578  103.073
  215.428    3.816    0.567    0.248  154.983   99.178
  215.678    3.739    0.564    0.256  157.549  101.597
  215.928    3.822    0.537    0.253  159.097  101.609
  216.178    4.142    0.480    0.238  159.120   97.115
  216.428    4.821    0.437    0.239  160.159   93.519
  216.678    6.015    0.422    0.249  160.180   89.324
  216.928    7.170    0.461    0.257  162.235   86.633
  217.178    8.166    0.489    0.244  164.801   89.049
  217.428    8.130    0.472    0.212  168.387   96.274
  217.678    7.895    0.470    0.223  164.334  103.802
  217.928    7.778    0.457    0.235  164.869  108.325
  218.178    7.980    0.413    0.243  168.957  108.337
  218.428    8.300    0.391    0.254  173.561  100.834
  218.678    9.575    0.376    0.263  172.567   90.928
  218.928    9.975    0.383    0.267  166.990   83.126
  219.178   11.169    0.411    0.276  160.906   82.239
  219.428   12.523    0.419    0.292  159.904   87.359
  219.678   12.804    0.408    0.305  159.416   89.178
  219.928   12.688    0.411    0.302  156.893   88.286
  220.178   12.174    0.423    0.294  153.351   86.198
  220.428   10.391    0.423    0.258  152.357   86.210
  220.678    9.242    0.443    0.237  154.417   86.822
  220.928    8.331    0.436    0.216  154.944   87.738
  221.178    8.136    0.402    0.180  155.474   88.953
  221.428    8.218    0.388    0.182  156.516   87.160
  221.678    8.976    0.380    0.213  158.061   79.959
  221.928   10.567    0.394    0.268  159.103   66.447
  222.178   12.914    0.418    0.299  158.106   57.142
