~VERSION INFORMATION
 VERS.                 2.0:   CWLS LOG ASCII STANDARD -VERSION 2.0
 WRAP.                  NO:   ONE LINE PER DEPTH STEP
~WELL INFORMATION BLOCK
#MNEM.UNIT           DATA                    DESCRIPTION OF MNEMONIC
#---------    -------------------            -------------------------------
# Generated from Intellog Unique Number	CN_91_93/WELL/3069
WELL.         CANADIAN SUPERIOR OIL LTD.     : Well_name    - WELL
LOC .         00/12-23-092-21W4/0            : Location     - LOCATION
UWI .         00/12-23-092-21W4/0            : Uwi          - UNIQUE WELL ID
ENTR.         JOETTE                         : Entered      - ENTERED BY
SRVC.         SCHLUMBERGER                   : Scn          - SERVICE COMPANY
DATE.         04/10/92                       : Date         - LOG DATE
STRT.M        50                             : top_depth    - START DEPTH
STOP.M        252                            : bot_depth    - STOP DEPTH
STEP.M        0.25                           : increment    - STEP LENGTH
 NULL. -999.2500:NULL Value
~CURVE INFORMATION BLOCK
#MNEM UNIT       ERCB CURVE CODE    CURVE DESCRIPTION
#-----------   ------------------   ----------------------------------
DEPT.M        00 001 00 00         : DEPTH        - DEPTH
CALI.MM       00 280 01 00         : CAL          - CALIPER
GR  .API      00 310 00 00         : GR           - GAMMA RAY
NPHI.V/V      00 330 00 00         : PHIN         - NEUTRON POROSITY (SANDSTONE)
DPHI.V/V      00 890 00 00         : PHID         - DENSITY POROSITY (SANDSTONE)
ILD .OHMM     00 120 00 00         : RESD         - DEEP RESISTIVITY (DIL)
~PARAMETER INFORMATION
#MNEM.UNIT           DATA             DESCRIPTION OF MNEMONIC
#---------         -----------     ------------------------------
GL  .M        534.92               : gl           - GROUND LEVEL ELEVATION
EREF.M        538.77               : kb           - ELEVATION OF DEPTH REFERENCE
DATM.M        538.77               : datum        - DATUM ELEVATION
TDD .M        253.1                : tdd          - TOTAL DEPTH DRILLER
RUN .         ONE                  : Run          - RUN NUMBER
ENG .         BILL                 : Engineer     - RECORDING ENGINEER
WIT .         JIM                  : Witness      - WITNESSED BY
MUD .         GEL                  : Mud_type     - MUD TYPE
MATR.         SANDSTONE            : Logunit      - NEUTRON MATRIX
TMAX.C        20                   : BHT          - MAXIMUM RECORDED TEMPERATURE
BHTD.M        253.1                : BHTDEP       - MAXIMUM RECORDED TEMPERATURE
RMT .C        14                   : MDTP         - TEMPERATURE OF MUD
MUDD.KG/M     1120                 : MWT          - MUD DENSITY
NEUT.         1                    : NEUTRON      - NEUTRON TYPE
RESI.         0                    : RESIST       - RESISTIVITY TYPE
RM  .OHMM     5.11                 : RM           - RESISTIVITY OF MUD
RMC .OHMM     3.3                  : RMC          - RESISTIVITY OF MUD CAKE
RMF .OHMM     3.3                  : RMF          - RESISTIVITY OF MUD FILTRATE
SUFT.C        4                    : SUFT         - SURFACE TEMPERATURE
~A  DEPTH      CAL       GR     PHIN     PHID     RESD
# ...
   86.500  268.258   27.636    0.429    0.351   39.502
   86.750  271.352   30.120    0.402    0.331   40.218
   87.000  270.265   32.603    0.377    0.316   38.664
   87.250  270.223   37.595    0.352    0.297   33.805
   87.500  278.543   50.111    0.372    0.286   27.389
   87.750  275.366   70.780    0.392    0.292   21.363
   88.000  265.918   73.878    0.415    0.284   16.662
   88.250  260.640   74.493    0.427    0.279   14.020
   88.500  262.689   75.088    0.431    0.278   12.490
   88.750  263.703   74.430    0.420    0.280   12.717
   89.000  264.707   74.418    0.420    0.285   14.797
   89.250  263.620   71.885    0.426    0.282   19.294
   89.500  260.443   66.210    0.419    0.272   24.684
   89.750  260.401   56.778    0.405    0.265   30.401
   90.000  262.419   47.347    0.384    0.277   36.043
   90.250  262.377   42.300    0.367    0.301   40.349
   90.500  262.356   44.150    0.398    0.328   42.675
   90.750  262.315   44.764    0.404    0.333   44.272
   91.000  261.207   45.360    0.413    0.348   44.248
   91.250  261.187   44.702    0.418    0.340   43.356
   91.500  262.180   42.802    0.397    0.328   42.493
   91.750  262.138   39.642    0.394    0.332   40.862
   92.000  264.187   37.735    0.387    0.335   40.059
   92.250  262.065   39.585    0.377    0.333   39.252
   92.500  260.968   38.933    0.389    0.337   39.199
   92.750  260.916   40.163    0.414    0.360   39.921
   93.000  260.875   41.392    0.418    0.355   40.644
   93.250  261.868   40.113    0.418    0.351   40.601
   93.500  261.847   38.840    0.414    0.334   39.803
   93.750  261.805   35.667    0.392    0.320   36.826
   94.000  259.674   35.642    0.381    0.324   35.422
   94.250  258.587   36.244    0.396    0.314   40.417
   94.500  258.545   38.727    0.384    0.310   43.568
   94.750  260.594   41.211    0.385    0.328   44.369
   95.000  263.688   43.694    0.396    0.341   43.486
   95.250  264.691   44.296    0.410    0.346   41.029
   95.500  265.695   44.271    0.428    0.349   37.980
   95.750  264.608   44.246    0.436    0.352   35.825
   96.000  263.511   44.221    0.448    0.353   35.121
   96.250  261.379   44.203    0.453    0.357   34.404
   96.500  260.282   44.165    0.440    0.355   34.376
   96.750  259.185   44.147    0.430    0.353   34.990
   97.000  259.164   44.122    0.419    0.348   34.953
   97.250  259.112   44.097    0.399    0.343   34.915
   97.500  259.081   45.326    0.403    0.339   35.558
   97.750  259.039   47.182    0.415    0.339   35.510
   98.000  260.033   49.032    0.418    0.342   35.472
   98.250  261.047   46.499    0.425    0.347   33.459
   98.500  262.029   45.853    0.436    0.348   32.192
   98.750  262.008   48.964    0.428    0.340   29.238
   99.000  259.856   53.328    0.423    0.327   27.066
   99.250  260.870   55.812    0.418    0.327   28.086
   99.500  265.009   63.305    0.414    0.334   28.595
   99.750  266.002   62.653    0.410    0.327   28.542
  100.000  264.915   57.618    0.407    0.324   27.461
  100.250  263.828   56.339    0.408    0.334   25.902
  100.500  260.651   61.331    0.412    0.336   24.438
  100.750  258.520   68.204    0.416    0.333   22.196
  101.000  257.443   69.427    0.403    0.321   19.407
  101.250  257.402   70.029    0.383    0.307   17.298
  101.500  257.360   71.258    0.380    0.286   11.151
  101.750  259.398   74.368    0.398    0.298    7.908
  102.000  261.447   84.377    0.425    0.307    4.635
  102.250  262.451   93.137    0.449    0.299    4.630
  102.500  260.319   98.749    0.477    0.286    5.489
  102.750  259.232   98.725    0.565    0.276    8.824
  103.000  259.190   96.818    0.546    0.259   10.074
  103.250  260.194   98.668    0.518    0.244   11.065
  103.500  262.243   99.904    0.474    0.221   11.479
  103.750  262.201   96.743    0.446    0.228   11.693
  104.000  261.114   94.837    0.466    0.245   11.677
  104.250  258.972   92.298    0.486    0.253   11.229
  104.500  257.885   92.900    0.457    0.250   10.595
  104.750  257.844   94.756    0.444    0.248    9.261
  105.000  257.802   92.229    0.451    0.248    9.794
  105.250  256.705   85.927    0.445    0.243   11.838
  105.500  256.664   87.784    0.449    0.245   13.003
  105.750  256.622   85.877    0.449    0.249   13.497
  106.000  256.591   82.717    0.444    0.254   14.267
  106.250  256.539   82.065    0.454    0.264   14.259
  106.500  257.542   82.667    0.439    0.264   14.240
  106.750  258.546   85.144    0.412    0.254   13.179
  107.000  260.595   86.367    0.389    0.237   12.203
  107.250  262.643   86.355    0.380    0.232   10.874
  107.500  263.657   86.957    0.391    0.235    9.876
  107.750  263.605   87.559    0.424    0.238   10.055
  108.000  261.463   86.280    0.459    0.240   10.238
  108.250  260.366   86.242    0.470    0.245   10.421
  108.500  260.345   88.105    0.462    0.252   10.216
  108.750  263.439   91.836    0.438    0.251    9.104
  109.000  264.442   93.065    0.437    0.256    7.807
  109.250  264.390   94.922    0.488    0.261    7.229
  109.500  264.349   95.530    0.477    0.255    6.319
  109.750  262.217   95.505    0.471    0.245    5.629
  110.000  261.130   94.853    0.473    0.267    5.017
  110.250  261.089   94.201    0.481    0.267    4.733
  110.500  262.103   95.430    0.517    0.262    4.728
  110.750  264.151   95.405    0.522    0.264    5.001
  111.000  265.145   94.753    0.494    0.262    6.522
  111.250  265.103   92.847    0.484    0.261    8.835
  111.500  265.061   86.545    0.463    0.253   10.878
  111.750  265.020   82.758    0.435    0.254   11.288
  112.000  266.023   83.987    0.440    0.230   11.492
  112.250  265.971   85.843    0.434    0.167   11.698
  112.500  263.829   82.683    0.460    0.206   11.691
  112.750  262.763   79.516    0.460    0.253   11.243
  113.000  260.631   82.000    0.422    0.187   10.211
  113.250  259.545   84.483    0.456    0.162    9.452
  113.500  259.493   85.085    0.474    0.198    7.804
  113.750  259.461   83.179    0.487    0.237    6.694
  114.000  259.409   81.273    0.490    0.273    5.853
  114.250  259.357   80.621    0.483    0.275    5.315
  114.500  259.326   83.731    0.481    0.263    5.111
  114.750  259.285   87.462    0.509    0.254    5.106
  115.000  260.288   89.319    0.530    0.259    5.401
  115.250  262.327   88.667    0.548    0.262    6.164
  115.500  262.275   86.760    0.541    0.258   10.097
  115.750  261.209   82.979    0.500    0.255   11.096
  116.000  261.167   79.192    0.447    0.262   13.405
  116.250  261.115   79.167    0.416    0.273   13.652
  116.500  261.073   78.515    0.418    0.275   13.899
  116.750  261.042   75.969    0.431    0.270   14.147
  117.000  260.980   73.442    0.441    0.270   14.128
  117.250  260.938   74.044    0.440    0.272   14.117
  117.500  260.886   77.782    0.426    0.271   13.575
  117.750  260.855   75.869    0.431    0.276   12.567
  118.000  260.814   73.342    0.439    0.275   11.856
  118.250  260.782   69.549    0.441    0.241   12.540
  118.500  261.786   71.411    0.437    0.191   13.510
  118.750  261.734   74.522    0.387    0.219   13.499
  119.000  261.692   75.751    0.399    0.260   13.488
  119.250  261.640   74.472    0.412    0.276   13.470
  119.500  261.609   71.926    0.420    0.258   13.456
  119.750  261.578   71.901    0.436    0.221   13.442
  120.000  261.505   73.136    0.312    0.180   12.682
  120.250  261.484   77.501    0.281    0.097   11.962
  120.500  260.387   83.747    0.289    0.069   11.506
  120.750  260.356   84.343    0.349    0.135   11.068
  121.000  258.214   80.562    0.390    0.257   10.637
  121.250  258.172   74.893    0.411    0.280   10.425
  121.500  259.176   73.614    0.408    0.269   10.221
  121.750  261.225   73.589    0.411    0.245    9.459
  122.000  262.228   74.191    0.437    0.221    8.756
  122.250  262.186   77.302    0.442    0.258    7.513
  122.500  262.145   82.920    0.434    0.248    6.204
  122.750  262.103   87.285    0.442    0.246    4.482
