~VERSION INFORMATION
 VERS.                 2.0:   CWLS LOG ASCII STANDARD -VERSION 2.0
 WRAP.                  NO:   ONE LINE PER DEPTH STEP
~WELL INFORMATION BLOCK
#MNEM.UNIT           DATA                    DESCRIPTION OF MNEMONIC
#---------    -------------------            -------------------------------
# Generated from Intellog Unique Number	CW_76_78/WELL/927
WELL.         10-31-077-03W5                 : Well_name    - WELL
LOC .         00/10-31-077-03W5/0            : Location     - LOCATION
UWI .         00/10-31-077-03W5/0            : Uwi          - UNIQUE WELL ID
ENTR.         JAYE                           : Entered      - ENTERED BY
SRVC.         SCHLUMBERGER                   : Scn          - SERVICE COMPANY
DATE.         7 DEC 73                       : Date         - LOG DATE
STRT.M        362.712                        : top_depth    - START DEPTH
STOP.M        641.962                        : bot_depth    - STOP DEPTH
STEP.M        0.25                           : increment    - STEP LENGTH
 NULL. -999.2500:NULL Value
~CURVE INFORMATION BLOCK
#MNEM UNIT       ERCB CURVE CODE    CURVE DESCRIPTION
#-----------   ------------------   ----------------------------------
DEPT.M        00 001 00 00         : DEPTH        - DEPTH
GR  .API      00 310 00 00         : GR           - GAMMA RAY
CALI.MM       00 280 01 00         : CAL          - CALIPER
DPHI.V/V      00 890 00 00         : PHID         - DENSITY POROSITY (SANDSTONE)
NPHI.V/V      00 330 00 00         : PHIN         - NEUTRON POROSITY (SANDSTONE)
ILD .OHMM     00 120 00 00         : RESD         - DEEP RESISTIVITY (DLL)
~PARAMETER INFORMATION
#MNEM.UNIT           DATA             DESCRIPTION OF MNEMONIC
#---------         -----------     ------------------------------
GL  .M        680.923              : gl           - GROUND LEVEL ELEVATION
EREF.M        683.971              : kb           - ELEVATION OF DEPTH REFERENCE
DATM.M        680.923              : datum        - DATUM ELEVATION
TDD .M        649.529              : tdd          - TOTAL DEPTH DRILLER
RUN .         ONE                  : Run          - RUN NUMBER
MATR.         SANDSTONE            : Logunit      - NEUTRON MATRIX
TMAX.C        35                   : BHT          - MAXIMUM RECORDED TEMPERATURE
BHTD.M        649.529              : BHTDEP       - MAXIMUM RECORDED TEMPERATURE
RMT .C        -3.88889             : MDTP         - TEMPERATURE OF MUD
MUDD.KG/M     0                    : MWT          - MUD DENSITY
NEUT.         0                    : NEUTRON      - NEUTRON TYPE
RESI.         1                    : RESIST       - RESISTIVITY TYPE
RM  .OHMM     1.65                 : RM           - RESISTIVITY OF MUD
RMC .OHMM     0.25                 : RMC          - RESISTIVITY OF MUD CAKE
RMF .OHMM     7.25                 : RMF          - RESISTIVITY OF MUD FILTRATE
SUFT.C        4.5                  : SUFT         - SURFACE TEMPERATURE
~A  DEPTH       GR      CAL     PHID     PHIN     RESD
  362.712   88.929  189.196    0.226    0.489    3.376
  362.962   87.899  189.232    0.216    0.506    3.428
  363.212   85.389  189.887    0.247    0.470    3.466
  363.462   82.267  189.809    0.248    0.543    3.501
  363.712   81.296  189.423    0.240    0.515    3.541
  363.962   83.102  189.034    0.255    0.503    3.563
  364.212   90.576  184.787    0.229    0.515    3.585
  364.462   90.101  184.295    0.243    0.515    3.600
  364.712   84.880  186.204    0.253    0.540    3.642
  364.962   81.817  186.550    0.257    0.530    3.644
  365.212   84.182  184.387    0.228    0.510    3.640
  365.462   84.873  181.704    0.201    0.536    3.635
  365.712   82.614  179.126    0.204    0.575    3.644
  365.962   80.782  178.217    0.207    0.532    3.647
  366.212   76.976  179.917    0.219    0.514    3.623
  366.462   77.920  180.365    0.203    0.555    3.625
  366.712   87.304  179.455    0.254    0.554    3.680
  366.962   85.536  177.297    0.246    0.517    3.854
  367.212   79.144  175.136    0.243    0.502    4.073
  367.462   75.652  173.599    0.253    0.517    5.106
  367.712   73.756  171.541    0.245    0.534    6.030
  367.962   65.825  169.070    0.240    0.433    7.783
  368.212   49.820  166.805    0.262    0.413   10.380
  368.462   44.291  164.954    0.257    0.375   11.418
  368.712   39.996  163.425    0.222    0.339   11.633
  368.962   35.884  162.510    0.208    0.325   10.964
  369.212   35.596  161.712    0.251    0.365   10.181
  369.462   38.201  161.423    0.244    0.374    9.628
  369.712   42.964  161.664    0.254    0.360    9.426
  369.962   43.228  161.593    0.255    0.354    9.536
  370.212   43.247  161.829    0.256    0.363    9.913
  370.462   45.114  162.388    0.251    0.373   10.230
  370.712   42.911  162.409    0.236    0.391   10.387
  370.962   39.540  162.967    0.234    0.415   10.336
  371.212   37.957  163.097    0.282    0.420   10.138
  371.462   39.147  163.135    0.265    0.407    9.855
  371.712   43.477  163.159    0.268    0.419    9.405
  371.962   43.372  163.295    0.276    0.385    8.992
  372.212   44.561  163.845    0.279    0.417    8.567
  372.462   47.352  164.399    0.270    0.440    8.088
  372.712   47.370  164.845    0.261    0.453    7.621
  372.962   47.759  165.400    0.273    0.419    7.341
  373.212   49.871  166.060    0.275    0.401    7.147
  373.462   53.154  166.083    0.275    0.408    7.138
  373.712   53.788  165.385    0.269    0.424    7.273
  373.962   50.664  164.586    0.277    0.419    7.562
  374.212   49.819  164.401    0.281    0.418    8.227
  374.462   46.325  164.221    0.277    0.415    8.983
  374.712   42.028  164.149    0.271    0.402    9.407
  374.962   39.458  164.495    0.269    0.389    9.395
  375.212   39.847  164.940    0.275    0.387    9.181
  375.462   43.746  165.283    0.269    0.396    8.924
  375.712   46.169  165.315    0.260    0.393    8.848
  375.962   46.185  165.137    0.261    0.415    9.031
  376.212   41.520  164.756    0.276    0.428    9.321
  376.462   35.498  164.676    0.272    0.403    9.637
  376.712   31.818  164.497    0.287    0.375    9.909
  376.962   34.055  164.423    0.282    0.381   10.100
  377.212   33.027  164.348    0.280    0.399   10.253
  377.462   31.688  164.171    0.274    0.392   10.297
  377.712   30.415  164.100    0.285    0.396   10.284
  377.962   29.936  163.916    0.286    0.396   10.216
  378.212   29.030  163.117    0.290    0.393   10.057
  378.462   29.233  162.205    0.293    0.379    9.773
  378.712   31.345  161.714    0.285    0.369    9.518
  378.962   38.758  161.742    0.275    0.380    9.250
  379.212   41.057  161.877    0.280    0.387    9.072
  379.462   39.965  163.159    0.277    0.387    8.849
  379.712   39.059  164.964    0.278    0.403    8.760
  379.962   39.077  165.102    0.286    0.406    8.779
  380.212   37.492  164.504    0.291    0.392    8.931
  380.462   38.373  164.227    0.282    0.387    9.085
  380.712   38.637  164.042    0.288    0.396    9.290
  380.962   36.683  163.968    0.297    0.393    9.413
  381.212   36.763  164.211    0.296    0.394    9.456
  381.462   37.150  164.236    0.279    0.389    9.445
  381.712   36.861  164.581    0.277    0.382    9.382
  381.962   36.449  165.866    0.278    0.376    9.370
  382.212   36.158  167.356    0.273    0.405    9.426
  382.462   35.990  168.116    0.280    0.393    9.571
  382.712   35.146  167.832    0.292    0.379    9.701
  382.962   31.590  167.659    0.298    0.393    9.884
  383.212   28.094  167.687    0.295    0.379   10.000
  383.462   27.003  167.823    0.284    0.370   10.041
  383.712   27.020  168.376    0.267    0.373    9.901
  383.962   27.777  168.720    0.256    0.383    9.783
  384.212   29.953  168.849    0.277    0.391    9.665
  384.462   31.944  168.151    0.269    0.399    9.515
  384.712   32.515  166.301    0.262    0.412    9.366
  384.962   32.225  164.350    0.267    0.412    9.069
  385.212   31.811  164.175    0.281    0.394    8.751
  385.462   33.000  165.453    0.282    0.362    8.247
  385.712   37.579  169.138    0.255    0.362    7.411
  385.962   40.249  170.840    0.245    0.378    6.638
  386.212   42.175  171.077    0.251    0.373    5.785
  386.462   48.603  171.318    0.275    0.402    5.266
  386.712   54.043  171.036    0.280    0.473    5.336
  386.962   58.684  170.752    0.252    0.468    5.763
  387.212   53.771  170.469    0.242    0.482    6.135
  387.462   50.769  170.395    0.259    0.503    6.286
  387.712   46.042  170.425    0.274    0.442    6.165
  387.962   42.979  170.664    0.259    0.417    6.058
  388.212   43.736  170.902    0.257    0.399    6.039
  388.462   53.367  171.037    0.237    0.432    6.076
  388.712   59.117  170.649    0.221    0.502    6.421
  388.962   59.319  169.739    0.231    0.504    7.298
  389.212   53.423  170.606    0.167    0.466    8.696
  389.462   54.487  171.784    0.125    0.365   11.022
  389.712   54.566  171.294    0.105    0.325   13.495
  389.962   47.928  170.074    0.022    0.117   12.927
  390.212   44.188  169.268    0.007    0.119   10.922
  390.462   46.978  168.461    0.048    0.153    9.447
  390.712   56.918  167.658    0.103    0.212    8.937
  390.962   68.338  166.853    0.197    0.453    8.812
  391.212   69.652  166.053    0.304    0.507    9.078
  391.462   67.634  165.559    0.299    0.513    9.858
  391.712   56.250  165.275    0.287    0.506   10.705
  391.962   48.996  165.200    0.294    0.485   11.211
  392.212   47.906  165.341    0.299    0.459   11.403
  392.462   48.911  165.473    0.297    0.440   11.430
  392.712   50.591  165.712    0.302    0.444   11.335
  392.962   50.424  166.263    0.297    0.459   11.177
  393.212   48.224  166.920    0.294    0.426   10.983
  393.462   48.859  167.573    0.296    0.411   10.951
  393.712   49.430  168.334    0.296    0.408   10.956
  393.962   48.956  169.724    0.298    0.420   10.984
  394.212   48.173  171.111    0.304    0.432   11.009
  394.462   47.883  171.452    0.319    0.440   11.119
  394.712   47.283  171.171    0.315    0.452   11.166
  394.962   47.240  172.042    0.314    0.462   11.213
  395.212   50.524  173.421    0.305    0.460   11.322
  395.462   49.432  175.538    0.298    0.465   11.432
  395.712   48.404  176.196    0.302    0.476   11.397
  395.962   48.852  174.139    0.307    0.477   11.282
  396.212   50.658  169.160    0.306    0.466   11.187
  396.462   52.771  165.747    0.304    0.451   11.113
  396.712   54.392  164.320    0.301    0.442   11.158
  396.962   55.705  164.350    0.292    0.434   11.347
  397.212   56.275  164.167    0.280    0.428   11.545
  397.462   56.108  164.096    0.279    0.428   12.245
  397.712   55.941  164.439    0.283    0.430   13.993
  397.962   54.357  165.100    0.265    0.392   16.916
  398.212   49.630  165.335    0.126    0.231   19.085
  398.462   45.025  165.260    0.112    0.119   19.342
  398.712   42.209  164.663    0.140    0.117   18.696
  398.962   43.953  164.066    0.187    0.161   17.459
