~VERSION INFORMATION
 VERS.                 2.0:   CWLS LOG ASCII STANDARD -VERSION 2.0
 WRAP.                  NO:   ONE LINE PER DEPTH STEP
~WELL INFORMATION BLOCK
#MNEM.UNIT           DATA                    DESCRIPTION OF MNEMONIC
#---------    -------------------            -------------------------------
# Generated from Intellog Unique Number	CW_70_72/WELL/1043
NULL.         -999.25                        : NULL_VALUE
WELL.         NORCEN WESTBURNE SPUR 10-26    : Well_name    - WELL              
LOC .         10-26-072-02W5                 : Location     - LOCATION          
UWI .         00/10-26-072-02W5/0            : Uwi          - UNIQUE WELL ID    
ENTR.         JAYE                           : Entered      - ENTERED BY        
SRVC.         COMPUTALOG                     : Scn          - SERVICE COMPANY   
DATE.         25 JAN 85                      : Date         - LOG DATE          
STRT.M        385                            : top_depth    - START DEPTH       
STOP.M        618                            : bot_depth    - STOP DEPTH        
STEP.M        0.25                           : increment    - STEP LENGTH       
~CURVE INFORMATION BLOCK
#MNEM UNIT       ERCB CURVE CODE    CURVE DESCRIPTION
#-----------   ------------------   ----------------------------------
DEPT.M        00 001 00 00         : DEPTH        - DEPTH                       
DPHI.V/V      00 890 00 00         : PHID         - DENSITY POROSITY (SANDSTONE)
NPHI.V/V      00 330 00 00         : PHIN         - NEUTRON POROSITY (SANDSTONE)
GR  .API      00 310 00 00         : GR           - GAMMA RAY                   
CALI.MM       00 280 01 00         : CAL          - CALIPER                     
ILD .OHMM     00 120 00 00         : RESD         - DEEP RESISTIVITY (DIL)      
~PARAMETER INFORMATION       
#MNEM.UNIT           DATA             DESCRIPTION OF MNEMONIC
#---------         -----------     ------------------------------
GL  .M        594.25               : gl           - GROUND LEVEL ELEVATION      
EREF.M        598.3                : kb           - ELEVATION OF DEPTH REFERENCE
DATM.M        594.25               : datum        - DATUM ELEVATION             
TDD .M        627                  : tdd          - TOTAL DEPTH DRILLER         
RUN .         ONE                  : Run          - RUN NUMBER                  
ENG .         HUDSON               : Engineer     - RECORDING ENGINEER          
WIT .         MCLEOD               : Witness      - WITNESSED BY                
BASE.         GRANDE PRAIRIE       : Branch       - HOME BASE OF LOGGING UNIT   
MUD .         GEL CHEM             : Mud_type     - MUD TYPE                    
MATR.         SANDSTONE            : Logunit      - NEUTRON MATRIX              
TMAX.C        36                   : BHT          - MAXIMUM RECORDED TEMPERATURE
BHTD.M        623.2                : BHTDEP       - MAXIMUM RECORDED TEMPERATURE
RMT .C        14                   : MDTP         - TEMPERATURE OF MUD          
MUDD.KG/M     1130                 : MWT          - MUD DENSITY                 
NEUT.         1                    : NEUTRON      - NEUTRON TYPE                
RESI.         0                    : RESIST       - RESISTIVITY TYPE            
RM  .OHMM     4                    : RM           - RESISTIVITY OF MUD          
RMC .OHMM     3.4                  : RMC          - RESISTIVITY OF MUD CAKE     
RMF .OHMM     3.5                  : RMF          - RESISTIVITY OF MUD FILTRATE 
SUFT.C        32                   : SUFT         - SURFACE TEMPERATURE         
~A  DEPTH     PHID     PHIN       GR      CAL     RESD
# ...
  567.500    0.104    0.357   98.920  202.794    6.597
  567.750    0.105    0.361   94.780  202.928    6.519
  568.000    0.090    0.356   92.464  202.957    6.453
  568.250    0.083    0.338   94.877  202.879    6.439
  568.500    0.093    0.337   96.092  202.912    6.470
  568.750    0.109    0.338   95.733  202.528    6.656
  569.000    0.114    0.336   94.237  202.446    6.832
  569.250    0.100    0.334   92.049  202.263    6.918
  569.500    0.074    0.331   89.040  202.504    6.681
  569.750    0.040    0.325   89.373  202.529    5.549
  570.000    0.031    0.321   97.775  202.352    4.548
  570.250    0.069    0.322   99.934  202.803    3.395
  570.500    0.110    0.339   98.249  203.671    2.416
  570.750    0.141    0.405   96.250  205.064    1.935
  571.000    0.196    0.475   94.189  208.454    1.657
  571.250    0.242    0.525   93.008  212.685    1.576
  571.500    0.241    0.517   99.077  214.922    1.545
  571.750    0.234    0.510   99.473  215.686    1.592
  572.000    0.223    0.498   99.364  215.925    1.737
  572.250    0.208    0.469  100.265  215.007    1.888
  572.500    0.190    0.469  103.245  211.151    2.060
  572.750    0.183    0.483  106.665  207.398    2.278
  573.000    0.177    0.495  109.708  209.950    2.543
  573.250    0.167    0.495  108.843  210.714    2.824
  573.500    0.148    0.432  105.015  210.115    3.056
  573.750    0.121    0.403  100.117  209.197    3.579
  574.000    0.097    0.388   96.480  208.595    4.566
  574.250    0.085    0.381   95.048  207.889    5.748
  574.500    0.075    0.372   93.427  207.289    5.934
  574.750    0.067    0.360   92.184  206.693    5.875
  575.000    0.055    0.353   94.786  206.827    5.827
  575.250    0.079    0.356   97.640  206.960    5.869
  575.500    0.088    0.370   98.165  206.989    5.943
  575.750    0.090    0.375   98.367  207.441    6.171
  576.000    0.085    0.354   98.196  207.574    6.481
  576.250    0.073    0.344   99.287  207.600    7.072
  576.500    0.059    0.366   98.989  207.320    7.642
  576.750    0.051    0.377   94.469  207.241    7.769
  577.000    0.030    0.297   87.742  207.378    7.100
  577.250    0.000    0.278   80.891  207.510    6.512
  577.500   -0.001    0.317   94.773  207.222    5.849
  577.750    0.063    0.382  100.967  206.726    5.691
  578.000    0.094    0.400  106.341  206.335    5.864
  578.250    0.094    0.391  102.642  206.050    6.194
  578.500    0.087    0.379   98.564  205.658    6.733
  578.750    0.077    0.365   96.310  204.954    7.289
  579.000    0.063    0.350   91.601  204.562    7.258
  579.250    0.048    0.327   94.456  204.171    7.023
  579.500    0.058    0.324  100.586  204.203    6.911
  579.750    0.073    0.337  105.521  204.237    7.203
  580.000    0.076    0.345  103.142  203.947    8.150
  580.250    0.067    0.346  103.161  203.973    9.934
  580.500    0.057    0.331   91.771  204.003   11.280
  580.750    0.083    0.273   78.490  203.404   13.107
  581.000    0.167    0.255   62.877  201.122   15.761
  581.250    0.246    0.232   52.181  198.427   18.846
  581.500    0.267    0.215   52.201  197.404   21.651
  581.750    0.277    0.244   56.062  197.011   21.514
  582.000    0.263    0.269   57.655  196.934   19.884
  582.250    0.249    0.286   58.745  196.966   18.412
  582.500    0.236    0.294   59.899  197.203   16.825
  582.750    0.222    0.304   60.796  197.439   15.909
  583.000    0.221    0.313   61.318  197.364   15.132
  583.250    0.223    0.322   61.779  197.604   14.505
  583.500    0.223    0.330   62.300  197.949   14.138
  583.750    0.216    0.343   62.693  198.190   13.729
  584.000    0.205    0.359   62.900  198.008   13.110
  584.250    0.199    0.349   62.919  197.727   12.513
  584.500    0.201    0.343   63.439  197.233   11.701
  584.750    0.203    0.353   64.150  196.945   10.978
  585.000    0.204    0.358   66.627  196.658    9.993
  585.250    0.206    0.358   69.542  196.475    8.873
  585.500    0.204    0.350   66.409  196.398    8.061
  585.750    0.201    0.343   64.789  196.113    7.480
  586.000    0.196    0.331   65.309  195.932    7.113
  586.250    0.194    0.322   66.210  195.960    6.752
  586.500    0.199    0.332   66.795  196.097    6.558
  586.750    0.201    0.332   67.759  196.551    6.541
  587.000    0.192    0.323   67.901  197.204    6.626
  587.250    0.183    0.309   67.352  198.814    6.749
  587.500    0.177    0.324   67.434  200.205    6.915
  587.750    0.174    0.325   67.957  201.495    7.017
  588.000    0.174    0.328   68.476  202.159    7.230
  588.250    0.175    0.331   68.934  202.605    7.351
  588.500    0.173    0.336   69.773  202.848    7.432
  588.750    0.167    0.338   70.421  202.455    7.485
  589.000    0.161    0.333   71.259  201.745    7.523
  589.250    0.154    0.319   71.844  200.096    7.475
  589.500    0.146    0.305   72.427  198.133    6.830
  589.750    0.134    0.292   75.597  196.693    6.146
  590.000    0.115    0.332   83.114  196.401    6.617
  590.250    0.099    0.394   98.003  197.902    7.486
  590.500    0.114    0.380   88.946  202.658    9.141
  590.750    0.081    0.296   74.405  206.467   10.868
  591.000    0.057    0.256   62.259  200.931   13.145
  591.250    0.057    0.249   61.649  197.493   14.731
  591.500    0.083    0.265   63.681  196.691   14.721
  591.750    0.097    0.272   69.371  196.296   10.801
  592.000    0.104    0.272   74.997  196.741    9.196
  592.250    0.105    0.296   81.695  197.087    7.438
  592.500    0.114    0.326   92.994  197.856    6.718
  592.750    0.129    0.355  103.347  198.719    5.797
  593.000    0.122    0.366  110.992  200.955    5.317
  593.250    0.112    0.375  106.409  204.031    4.971
  593.500    0.112    0.388  101.636  207.002    4.874
  593.750    0.126    0.405  101.528  209.553    5.070
  594.000    0.164    0.431  112.763  210.420    5.649
  594.250    0.178    0.417  104.588  208.560    6.564
  594.500    0.143    0.324   92.253  206.385    7.850
  594.750    0.123    0.308   81.494  204.108    9.639
  595.000    0.110    0.294   73.633  202.346   12.322
  595.250    0.103    0.279   66.215  200.800   13.677
  595.500    0.099    0.262   66.736  200.203   14.282
  595.750    0.117    0.317   76.459  199.810   13.352
  596.000    0.145    0.373   76.855  199.213    9.520
  596.250    0.155    0.345   64.710  199.131    7.079
  596.500    0.129    0.313   55.714  199.271    5.959
  596.750    0.141    0.337   47.287  199.296    4.997
  597.000    0.210    0.357   37.221  199.429    5.484
  597.250    0.212    0.318   33.206  199.251    6.144
  597.500    0.152    0.260   33.224  199.283    7.869
  597.750    0.084    0.183   28.326  199.310   10.897
  598.000    0.043    0.118   27.774  199.445   15.007
  598.250   -0.006    0.088   34.473  199.684   20.663
  598.500    0.002    0.103   34.364  200.030   27.493
  598.750    0.010    0.112   34.067  200.165   28.495
  599.000    0.002    0.109   39.693  200.400   24.213
  599.250    0.026    0.152   48.723  200.646   18.741
  599.500    0.050    0.205   60.654  200.986   13.620
  599.750    0.076    0.254   77.372  201.331   10.889
  600.000    0.131    0.298   72.852  201.361    7.974
  600.250    0.170    0.341   55.097  201.703    5.953
  600.500    0.184    0.312   39.484  202.156    4.925
  600.750    0.166    0.288   31.561  202.287    4.122
  601.000    0.180    0.278   26.725  202.322    3.371
  601.250    0.211    0.280   22.270  202.347    3.807
  601.500    0.184    0.254   20.585  202.170    4.998
  601.750    0.137    0.225   20.855  201.777    7.110
  602.000    0.062    0.196   23.582  201.384   10.347
  602.250    0.024    0.148   26.500  201.102   13.740
  602.500    0.002    0.101   29.543  200.918   19.619
  602.750   -0.011    0.083   31.955  200.947   32.322
  603.000   -0.020    0.081   34.367  201.188   42.677
  603.250   -0.023    0.092   37.220  201.529   37.110
  603.500   -0.006    0.103   41.271  202.086   26.008
  603.750    0.026    0.120   53.957  202.643   21.236
