~VERSION INFORMATION
 VERS.                 2.0:   CWLS LOG ASCII STANDARD -VERSION 2.0
 WRAP.                  NO:   ONE LINE PER DEPTH STEP
~WELL INFORMATION BLOCK
#MNEM.UNIT           DATA                    DESCRIPTION OF MNEMONIC
#---------    -------------------            -------------------------------
# Generated from Intellog Unique Number	CW_76_78/WELL/2581
WELL.         10-34-078-23W4                 : Well_name    - WELL
LOC .         00/10-34-078-23W4/0            : Location     - LOCATION
UWI .         00/10-34-078-23W4/0            : Uwi          - UNIQUE WELL ID
ENTR.         MAX                            : Entered      - ENTERED BY
SRVC.         SCHLUMBERGER                   : Scn          - SERVICE COMPANY
STRT.M        240.792                        : top_depth    - START DEPTH
STOP.M        488.792                        : bot_depth    - STOP DEPTH
STEP.M        0.25                           : increment    - STEP LENGTH
 NULL. -999.2500:NULL Value
~CURVE INFORMATION BLOCK
#MNEM UNIT       ERCB CURVE CODE    CURVE DESCRIPTION
#-----------   ------------------   ----------------------------------
DEPT.M        00 001 00 00         : DEPTH        - DEPTH
ILD .OHMM     00 120 00 00         : RESD         - DEEP RESISTIVITY (DIL)
NPHI.V/V      00 330 00 00         : PHIN         - NEUTRON POROSITY (SANDSTONE)
DPHI.V/V      00 890 00 00         : PHID         - DENSITY POROSITY (SANDSTONE)
CALI.MM       00 280 01 00         : CAL          - CALIPER
GR  .API      00 310 00 00         : GR           - GAMMA RAY
~PARAMETER INFORMATION
#MNEM.UNIT           DATA             DESCRIPTION OF MNEMONIC
#---------         -----------     ------------------------------
GL  .M        571.683              : gl           - GROUND LEVEL ELEVATION
EREF.M        574.731              : kb           - ELEVATION OF DEPTH REFERENCE
DATM.M        574.731              : datum        - DATUM ELEVATION
TDD .M        494.995              : tdd          - TOTAL DEPTH DRILLER
RUN .         ONE                  : Run          - RUN NUMBER
ENG .         BILL                 : Engineer     - RECORDING ENGINEER
WIT .         JIM                  : Witness      - WITNESSED BY
MUD .         GEL                  : Mud_type     - MUD TYPE
MATR.         SANDSTONE            : Logunit      - NEUTRON MATRIX
TMAX.F        79                   : BHT          - MAXIMUM RECORDED TEMPERATURE
BHTD.F        1624                 : BHTDEP       - MAXIMUM RECORDED TEMPERATURE
RMT .F        69                   : MDTP         - TEMPERATURE OF MUD
MUDD.LB/G     9.9                  : MWT          - MUD DENSITY
NEUT.         1                    : NEUTRON      - NEUTRON TYPE
RESI.         0                    : RESIST       - RESISTIVITY TYPE
RM  .OHMM     3.5                  : RM           - RESISTIVITY OF MUD
RMC .OHMM     4.1                  : RMC          - RESISTIVITY OF MUD CAKE
RMF .OHMM     2.85                 : RMF          - RESISTIVITY OF MUD FILTRATE
SUFT.F        25                   : SUFT         - SURFACE TEMPERATURE
~A  DEPTH     RESD     PHIN     PHID      CAL       GR
  240.792    3.634    0.557    0.251  198.705  111.159
  241.042    4.117    0.544    0.237  197.702  105.861
  241.292    4.885    0.543    0.245  196.696   94.975
  241.542    6.010    0.537    0.250  195.691   83.206
  241.792    7.001    0.514    0.252  194.687   75.261
  242.042    9.019    0.453    0.253  194.180   61.729
  242.292   10.898    0.480    0.261  193.674   59.370
  242.542   11.797    0.481    0.327  193.165   58.189
  242.792   12.311    0.478    0.332  192.659   56.420
  243.042   12.717    0.484    0.347  192.153   56.709
  243.292   12.923    0.471    0.340  191.148   56.703
  243.542   13.112    0.489    0.333  190.640   54.934
  243.792   13.319    0.499    0.349  190.133   54.046
  244.042   13.284    0.493    0.343  189.628   52.865
  244.292   13.356    0.480    0.341  189.619   51.094
  244.542   13.443    0.486    0.344  190.108   52.266
  244.792   13.398    0.500    0.344  190.598   52.554
  245.042   13.353    0.487    0.348  191.583   51.961
  245.292   13.440    0.479    0.349  191.576   51.075
  245.542   13.400    0.503    0.336  191.566   50.775
  245.792   13.360    0.484    0.340  190.560   52.534
  246.042   13.189    0.499    0.334  190.056   53.999
  246.292   12.794    0.514    0.346  189.548   56.347
  246.542   11.961    0.502    0.339  189.041   61.046
  246.792   10.789    0.499    0.332  189.034   64.571
  247.042    6.996    0.492    0.330  191.017   71.918
  247.292    4.372    0.485    0.327  194.991   82.205
  247.542    3.250    0.510    0.277  198.966   91.610
  247.792    2.957    0.547    0.261  201.447   95.427
  248.042    2.665    0.569    0.156  201.447   96.304
  248.292    2.539    0.582    0.237  201.924   96.592
  248.542    2.508    0.600    0.251  201.919   98.058
  248.792    2.546    0.606    0.260  201.909  100.406
  249.042    2.705    0.608    0.286  203.395   97.460
  249.292    3.067    0.616    0.294  205.378   94.808
  249.542    3.915    0.623    0.303  207.361   93.332
  249.792    5.476    0.620    0.308  206.854   89.505
  250.042   14.540    0.515    0.313  199.874   71.855
  250.292   27.005    0.502    0.316  195.882   62.145
  250.542   37.085    0.491    0.320  194.875   54.495
  250.792   42.795    0.489    0.328  194.368   57.724
  251.042   40.390    0.485    0.345  194.361   57.425
  251.292   38.121    0.470    0.350  194.353   55.067
  251.542   34.662    0.486    0.336  194.341   55.061
  251.792   31.529    0.499    0.353  194.334   57.114
  252.042   29.498    0.488    0.334  193.828   58.580
  252.292   26.821    0.467    0.336  192.821   57.105
  252.542   25.084    0.462    0.341  192.315   58.862
  252.792   23.657    0.478    0.332  192.302   58.565
  253.042   22.966    0.485    0.314  191.800   58.266
  253.292   22.638    0.487    0.315  191.800   56.200
  253.542   22.203    0.488    0.305  191.282   56.196
  253.792   21.935    0.489    0.309  190.779   55.897
  254.042   21.813    0.486    0.325  190.770   54.715
  254.292   21.788    0.471    0.326  190.760   54.416
  254.542   21.922    0.463    0.330  191.248   56.468
  254.792   22.049    0.461    0.335  191.248   57.347
  255.042   22.177    0.495    0.341  191.724   58.812
  255.292   22.127    0.497    0.332  192.220   56.453
  255.542   22.255    0.475    0.332  193.207   54.684
  255.792   22.392    0.462    0.337  193.197   54.679
  256.042   22.317    0.457    0.323  193.188   54.967
  256.292   22.258    0.462    0.311  193.188   54.963
  256.542   21.974    0.462    0.291  193.167   55.252
  256.792   20.747    0.446    0.318  192.664   55.834
  257.042   17.541    0.444    0.328  192.655   56.711
  257.292   13.906    0.449    0.324  192.640   57.589
  257.542   11.444    0.459    0.308  192.638   59.346
  257.792    8.824    0.466    0.311  192.131   60.813
  258.042    6.809    0.476    0.326  191.625   64.042
  258.292    5.353    0.479    0.301  191.615   68.743
  258.542    4.244    0.496    0.293  192.105   81.382
  258.792    3.862    0.520    0.280  192.595  105.785
  259.042    3.918    0.563    0.234  193.582  116.073
  259.292    4.165    0.566    0.244  195.563  118.420
  259.542    4.985    0.517    0.254  197.050  114.592
  259.792    5.204    0.496    0.231  198.035  108.705
  260.042    6.114    0.483    0.233  198.524  104.583
  260.292    6.560    0.483    0.250  198.516   99.873
  260.542    7.576    0.476    0.250  198.009   87.222
  260.792    8.663    0.485    0.264  197.503   73.102
  261.042   10.185    0.493    0.274  197.492   66.333
  261.292   11.642    0.461    0.271  196.987   63.093
  261.542   12.257    0.448    0.271  196.482   61.323
  261.792   12.337    0.446    0.243  195.476   62.200
  262.042   11.859    0.459    0.205  193.974   65.723
  262.292   10.986    0.461    0.219  192.471   72.188
  262.542    9.989    0.450    0.253  192.471   78.653
  262.792    9.260    0.450    0.262  191.456   82.764
  263.042    8.579    0.451    0.270  190.452   88.347
  263.292    7.384    0.470    0.270  190.941   91.870
  263.542    6.906    0.480    0.258  191.928   93.041
  263.792    6.284    0.471    0.265  193.414   94.506
  264.042    5.821    0.492    0.270  194.402   95.383
  264.292    5.806    0.502    0.258  195.885   93.907
  264.542    6.057    0.531    0.255  196.374   85.963
  264.792    6.440    0.499    0.260  196.864   78.017
  265.042    7.097    0.485    0.301  197.353   74.484
  265.292    7.899    0.487    0.287  197.343   74.479
  265.542    8.393    0.498    0.269  197.335   74.178
  265.792    8.288    0.504    0.278  197.326   73.586
  266.042    7.970    0.493    0.288  197.317   75.639
  266.292    7.516    0.477    0.298  197.309   79.750
  266.542    7.159    0.465    0.288  198.297   83.569
  266.792    6.884    0.501    0.258  200.777   90.621
  267.042    6.673    0.518    0.262  204.753   93.556
  267.292    6.841    0.533    0.282  209.226   94.434
  267.542    7.405    0.516    0.262  222.662   97.369
  267.792    8.012    0.503    0.258  229.624  101.187
  268.042    8.519    0.486    0.276  223.640  103.829
  268.292    9.395    0.467    0.255  213.174  101.764
  268.542   10.549    0.471    0.237  215.158   97.937
  268.792   11.736    0.466    0.232  222.617   87.345
  269.042   13.172    0.443    0.252  220.616   73.224
  269.292   14.389    0.428    0.289  214.632   67.338
  269.542   15.434    0.443    0.291  201.677   62.627
  269.792   15.961    0.415    0.318  195.194   59.386
  270.042   16.065    0.416    0.328  194.686   61.735
  270.292   15.578    0.448    0.317  194.686   68.493
  270.542   14.827    0.471    0.328  194.170   70.545
  270.792   14.133    0.455    0.311  193.666   75.834
  271.042   13.456    0.446    0.298  193.159   78.770
  271.292   12.466    0.469    0.291  193.150   87.293
  271.542   11.658    0.470    0.278  193.150   91.404
  271.792   10.899    0.443    0.266  193.625   93.163
  272.042   10.377    0.458    0.260  194.117   93.747
  272.292    9.975    0.461    0.264  194.117   94.624
  272.542    9.676    0.455    0.275  194.099   96.970
  272.792    9.213    0.451    0.262  194.094   99.025
  273.042    8.775    0.455    0.250  194.084   97.843
  273.292    8.358    0.465    0.241  194.084   93.132
  273.542    7.670    0.465    0.233  195.059   92.832
  273.792    6.979    0.496    0.280  197.543   99.591
  274.042    6.123    0.505    0.295  200.521  106.351
  274.292    4.989    0.533    0.244  203.999  116.049
  274.542    4.417    0.579    0.210  206.979  121.926
  274.792    3.942    0.525    0.176  211.451  120.450
  275.042    3.963    0.515    0.155  214.927  120.445
  275.292    3.991    0.542    0.155  217.906  125.144
  275.542    4.017    0.564    0.220  223.377  127.492
  275.792    4.002    0.569    0.218  230.836  128.369
  276.042    3.991    0.559    0.198  228.836  126.599
  276.292    3.835    0.570    0.213  222.851  124.535
  276.542    3.585    0.601    0.202  218.857  127.472
  276.792    3.510    0.608    0.243  217.354  130.406
  277.042    3.801    0.595    0.233  217.844  128.343
