~VERSION INFORMATION
 VERS.                 2.0:   CWLS LOG ASCII STANDARD -VERSION 2.0
 WRAP.                  NO:   ONE LINE PER DEPTH STEP
~WELL INFORMATION BLOCK
#MNEM.UNIT           DATA                    DESCRIPTION OF MNEMONIC
#---------    -------------------            -------------------------------
# Generated from Intellog Unique Number	CX_WELLS/WELL/2829
WELL.         BANKENO THORDARY               : Well_name    - WELL
LOC .         00/10-28-081-12W4/0            : Location     - LOCATION
UWI .         00/10-28-081-12W400            : Uwi          - UNIQUE WELL ID
ENTR.         T                              : Entered      - ENTERED BY
SRVC.         SCHLUMBERGER                   : Scn          - SERVICE COMPANY
STRT.M        300                            : top_depth    - START DEPTH
STOP.M        525                            : bot_depth    - STOP DEPTH
STEP.M        0.25                           : increment    - STEP LENGTH
 NULL. -999.2500:NULL Value
~CURVE INFORMATION BLOCK
#MNEM UNIT       ERCB CURVE CODE    CURVE DESCRIPTION
#-----------   ------------------   ----------------------------------
DEPT.M        00 001 00 00         : DEPTH        - DEPTH
GR  .API      00 310 00 00         : GR           - GAMMA RAY
NPHI.V/V      00 330 00 00         : PHIN         - NEUTRON POROSITY (SANDSTONE)
DPHI.V/V      00 890 00 00         : PHID         - DENSITY POROSITY (SANDSTONE)
ILD .OHMM     00 120 00 00         : RESD         - DEEP RESISTIVITY (OTHER)
~PARAMETER INFORMATION
#MNEM.UNIT           DATA             DESCRIPTION OF MNEMONIC
#---------         -----------     ------------------------------
GL  .M        732.4                : gl           - GROUND LEVEL ELEVATION
EREF.M        750.3                : kb           - ELEVATION OF DEPTH REFERENCE
DATM.M        750.3                : datum        - DATUM ELEVATION
TDD .M        637                  : tdd          - TOTAL DEPTH DRILLER
RUN .         ONE                  : Run          - RUN NUMBER
ENG .         BILL                 : Engineer     - RECORDING ENGINEER
WIT .         JIM                  : Witness      - WITNESSED BY
MUD .         GEL                  : Mud_type     - MUD TYPE
MATR.         SANDSTONE            : Logunit      - NEUTRON MATRIX
TMAX.C        22                   : BHT          - MAXIMUM RECORDED TEMPERATURE
BHTD.M        642                  : BHTDEP       - MAXIMUM RECORDED TEMPERATURE
MATR.         1                    : LOGUNIT      - NEUTRON MATRIX
RMT .C        22                   : MDTP         - TEMPERATURE OF MUD
NEUT.         1                    : NEUTRON      - NEUTRON TYPE
RESI.         0.3                  : RESIST       - RESISTIVITY TYPE
RMC .OHMM     0.25                 : RMC          - RESISTIVITY OF MUD CAKE
RMF .OHMM     0.25                 : RMF          - RESISTIVITY OF MUD FILTRATE
SUFT.C        4                    : SUFT         - SURFACE TEMPERATURE
~A  DEPTH       GR     PHIN     PHID     RESD
# ...
  387.000   67.722    0.418    0.298    5.617
  387.250   70.769    0.422    0.300    4.686
  387.500   73.827    0.432    0.301    4.360
  387.750   79.308    0.456    0.299    5.249
  388.000   81.752    0.461    0.293    6.433
  388.250   84.227    0.464    0.285    6.934
  388.500   84.268    0.466    0.268    7.616
  388.750   82.499    0.458    0.269    8.677
  389.000   80.117    0.447    0.272    9.188
  389.250   76.539    0.435    0.281    9.543
  389.500   71.754    0.440    0.291    9.732
  389.750   68.165    0.435    0.309    9.753
  390.000   66.397    0.428    0.321    9.946
  390.250   64.649    0.421    0.340    9.963
  390.500   64.097    0.426    0.356    9.989
  390.750   62.911    0.439    0.366   10.001
  391.000   60.539    0.447    0.374   10.018
  391.250   58.771    0.445    0.371   10.035
  391.500   60.622    0.446    0.367   10.057
  391.750   63.076    0.450    0.363    9.895
  392.000   66.134    0.453    0.359    9.912
  392.250   67.985    0.458    0.354    9.925
  392.500   69.836    0.467    0.348    9.761
  392.750   71.084    0.473    0.343    9.778
  393.000   71.125    0.469    0.341    9.616
  393.250   70.574    0.464    0.343    9.633
  393.500   70.615    0.458    0.344    9.649
  393.750   71.270    0.458    0.345    9.674
  394.000   71.914    0.454    0.345    9.682
  394.250   73.755    0.453    0.345    9.699
  394.500   74.400    0.447    0.345    9.723
  394.750   73.848    0.443    0.343    9.736
  395.000   71.466    0.440    0.340    9.748
  395.250   68.491    0.448    0.339    9.587
  395.500   64.923    0.460    0.339    9.604
  395.750   65.567    0.466    0.341    9.278
  396.000   66.826    0.468    0.348    8.800
  396.250   68.666    0.468    0.355    8.651
  396.500   69.904    0.468    0.344    8.350
  396.750   71.755    0.470    0.336    7.917
  397.000   73.003    0.474    0.335    7.369
  397.250   74.261    0.471    0.336    6.613
  397.500   74.312    0.459    0.336    5.720
  397.750   74.967    0.450    0.328    4.770
  398.000   77.411    0.442    0.306    3.978
  398.250   80.459    0.473    0.292    3.317
  398.500   85.930    0.505    0.281    2.618
  398.750   93.220    0.526    0.260    2.350
  399.000   96.881    0.552    0.254    2.188
  399.250  101.166    0.569    0.252    2.036
  399.500  101.800    0.553    0.245    1.931
  399.750  102.445    0.542    0.230    1.935
  400.000  101.883    0.537    0.213    1.972
  400.250  100.718    0.538    0.219    2.050
  400.500   98.960    0.542    0.227    2.294
  400.750   97.774    0.544    0.233    2.425
  401.000   94.819    0.540    0.241    2.816
  401.250   93.644    0.530    0.255    3.207
  401.500   92.468    0.523    0.268    3.584
  401.750   90.710    0.510    0.273    4.082
  402.000   88.348    0.499    0.276    4.651
  402.250   87.776    0.487    0.278    5.014
  402.500   86.600    0.479    0.284    5.115
  402.750   85.445    0.468    0.292    5.320
  403.000   84.873    0.460    0.296    5.423
  403.250   84.925    0.457    0.291    5.432
  403.500   84.966    0.464    0.282    5.057
  403.750   86.817    0.474    0.276    4.455
  404.000   88.668    0.488    0.275    4.226
  404.250   91.123    0.510    0.277    4.158
  404.500   92.974    0.512    0.266    4.087
  404.750   93.618    0.500    0.266    3.875
  405.000   94.263    0.505    0.272    3.413
  405.250   94.314    0.518    0.281    2.899
  405.500   94.356    0.519    0.277    2.330
  405.750   94.407    0.515    0.268    1.839
  406.000   94.428    0.505    0.266    1.533
  406.250   94.469    0.487    0.269    1.302
  406.500   93.917    0.478    0.270    1.213
  406.750   92.763    0.473    0.265    1.406
  407.000   91.597    0.468    0.262    1.960
  407.250   90.432    0.461    0.270    2.682
  407.500   88.663    0.452    0.271    3.287
  407.750   87.508    0.447    0.273    3.957
  408.000   86.333    0.445    0.278    4.590
  408.250   85.157    0.444    0.281    5.133
  408.500   82.796    0.441    0.284    5.742
  408.750   81.620    0.432    0.286    6.077
  409.000   80.465    0.435    0.290    6.317
  409.250   79.300    0.442    0.293    6.333
  409.500   78.738    0.453    0.294    6.336
  409.750   78.176    0.454    0.297    6.347
  410.000   78.228    0.437    0.293    6.242
  410.250   78.248    0.415    0.288    6.139
  410.500   78.300    0.413    0.283    5.936
  410.750   79.548    0.421    0.278    5.835
  411.000   79.589    0.431    0.273    5.737
  411.250   79.641    0.439    0.273    5.537
  411.500   79.671    0.440    0.274    5.349
  411.750   80.306    0.446    0.271    5.168
  412.000   80.960    0.448    0.263    4.990
  412.250   79.806    0.447    0.261    4.996
  412.500   77.434    0.445    0.261    4.825
  412.750   76.872    0.441    0.262    4.745
  413.000   78.723    0.434    0.262    4.501
  413.250   79.971    0.441    0.260    4.428
  413.500   80.615    0.448    0.255    4.432
  413.750   81.863    0.458    0.254    4.359
  414.000   82.497    0.464    0.255    4.289
  414.250   84.359    0.461    0.260    4.296
  414.500   85.607    0.459    0.262    4.383
  414.750   86.241    0.462    0.265    4.474
  415.000   86.292    0.468    0.267    4.560
  415.250   83.921    0.480    0.268    5.009
  415.500   80.935    0.482    0.268    5.813
  415.750   71.324    0.462    0.245    6.617
  416.000   53.267    0.441    0.205    7.540
  416.250   47.286    0.420    0.051    7.021
  416.500   55.763    0.370    0.039    6.417
  416.750   75.119    0.323    0.307    6.191
  417.000   85.416    0.436    0.316    5.455
  417.250   86.664    0.467    0.322    4.897
  417.500   84.895    0.481    0.304    4.905
  417.750   85.540    0.462    0.284    4.916
  418.000   87.412    0.444    0.277    5.015
  418.250   88.639    0.452    0.267    5.117
  418.500   89.887    0.466    0.248    5.125
  418.750   92.965    0.479    0.225    5.041
  419.000   94.816    0.446    0.225    4.779
  419.250   95.461    0.446    0.233    4.698
  419.500   94.899    0.453    0.239    4.456
  419.750   93.130    0.453    0.244    4.301
  420.000   92.568    0.454    0.246    4.155
  420.250   92.609    0.457    0.247    3.941
  420.500   92.640    0.481    0.246    3.873
  420.750   92.682    0.489    0.246    3.740
  421.000   92.733    0.494    0.248    3.748
  421.250   92.775    0.495    0.252    3.754
  421.500   91.609    0.495    0.261    3.901
  421.750   89.841    0.489    0.273    4.283
  422.000   85.045    0.475    0.281    4.880
  422.250   83.880    0.439    0.270    5.069
  422.500   83.318    0.408    0.231    5.570
  422.750   86.386    0.397    0.224    5.785
  423.000   88.841    0.409    0.249    5.905
  423.250   93.115    0.423    0.258    5.499
  423.500   95.569    0.447    0.246    5.305
  423.750   97.421    0.464    0.228    5.123
  424.000   98.065    0.470    0.216    4.949
  424.250   98.096    0.458    0.215    4.867
  424.500   96.328    0.463    0.217    4.787
  424.750   94.569    0.448    0.218    4.708
  425.000   94.611    0.430    0.222    4.718
  425.250   95.255    0.439    0.231    4.638
  425.500   95.889    0.440    0.237    4.644
  425.750   95.941    0.428    0.246    4.654
  426.000   94.776    0.423    0.255    4.662
  426.250   94.817    0.427    0.262    4.670
  426.500   95.472    0.431    0.261    4.593
  426.750   96.709    0.435    0.257    4.437
  427.000   97.354    0.440    0.256    4.286
  427.250   98.009    0.446    0.254    4.212
  427.500   98.060    0.454    0.252    4.067
  427.750   98.081    0.465    0.252    3.928
  428.000   96.936    0.471    0.252    3.793
  428.250   96.354    0.471    0.252    3.730
  428.500   94.585    0.471    0.254    3.669
  428.750   92.213    0.473    0.257    3.676
  429.000   90.445    0.471    0.258    3.893
  429.250   92.306    0.462    0.254    4.196
  429.500   94.761    0.453    0.250    4.523
  429.750   98.421    0.448    0.244    4.700
  430.000   99.066    0.444    0.235    4.538
  430.250   97.911    0.447    0.233    4.462
