~VERSION INFORMATION
 VERS.                 2.0:   CWLS LOG ASCII STANDARD -VERSION 2.0
 WRAP.                  NO:   ONE LINE PER DEPTH STEP
~WELL INFORMATION BLOCK
#MNEM.UNIT           DATA                    DESCRIPTION OF MNEMONIC
#---------    -------------------            -------------------------------
# Generated from Intellog Unique Number	CS_67_68/WELL/851
WELL.         ESSO RESOURCES CANADA LTD      : Well_name    - WELL
LOC .         00/12-18-068-07W4/0            : Location     - LOCATION
UWI .         00/12-18-068-07W4/0            : Uwi          - UNIQUE WELL ID
ENTR.         SP                             : Entered      - ENTERED BY
SRVC.         SCHLUMBERGER                   : Scn          - SERVICE COMPANY
STRT.M        290                            : top_depth    - START DEPTH
STOP.M        525                            : bot_depth    - STOP DEPTH
STEP.M        0.25                           : increment    - STEP LENGTH
 NULL. -999.2500:NULL Value
~CURVE INFORMATION BLOCK
#MNEM UNIT       ERCB CURVE CODE    CURVE DESCRIPTION
#-----------   ------------------   ----------------------------------
DEPT.M        00 001 00 00         : DEPTH        - DEPTH
ILD .OHMM     00 120 00 00         : RESD         - DEEP RESISTIVITY (DIL)
DPHI.V/V      00 890 00 00         : PHID         - DENSITY POROSITY (LIMESTONE)
NPHI.V/V      00 330 00 00         : PHIN         - NEUTRON POROSITY (LIMESTONE)
GR  .API      00 310 00 00         : GR           - GAMMA RAY
~PARAMETER INFORMATION
#MNEM.UNIT           DATA             DESCRIPTION OF MNEMONIC
#---------         -----------     ------------------------------
GL  .M        619.1                : gl           - GROUND LEVEL ELEVATION
EREF.M        623.3                : kb           - ELEVATION OF DEPTH REFERENCE
DATM.M        619.1                : datum        - DATUM ELEVATION
TDD .M        533                  : tdd          - TOTAL DEPTH DRILLER
RUN .         ONE                  : Run          - RUN NUMBER
ENG .         BILL                 : Engineer     - RECORDING ENGINEER
WIT .         JIM                  : Witness      - WITNESSED BY
MUD .         GEL                  : Mud_type     - MUD TYPE
MATR.         LIMESTONE            : Logunit      - NEUTRON MATRIX
TMAX.C        29                   : BHT          - MAXIMUM RECORDED TEMPERATURE
BHTD.M        533                  : BHTDEP       - MAXIMUM RECORDED TEMPERATURE
MATR.         1                    : LOGUNIT      - NEUTRON MATRIX
RMT .C        25                   : MDTP         - TEMPERATURE OF MUD
NEUT.         1                    : NEUTRON      - NEUTRON TYPE
RESI.         0                    : RESIST       - RESISTIVITY TYPE
RMC .OHMM     0.25                 : RMC          - RESISTIVITY OF MUD CAKE
RMF .OHMM     0.25                 : RMF          - RESISTIVITY OF MUD FILTRATE
SUFT.C        15                   : SUFT         - SURFACE TEMPERATURE
~A  DEPTH     RESD     PHID     PHIN       GR
# ...
  464.000    8.682    0.114    0.342   88.921
  464.250    9.455    0.169    0.349   94.436
  464.500   10.217    0.207    0.364   98.234
  464.750   11.315    0.233    0.383   85.053
  465.000   12.650    0.277    0.396   73.465
  465.250   13.983    0.301    0.391   65.066
  465.500   15.341    0.313    0.385   78.672
  465.750   17.150    0.323    0.407   90.501
  466.000   18.885    0.328    0.418   88.292
  466.250   21.231    0.332    0.432   85.225
  466.500   23.031    0.331    0.421   82.403
  466.750   19.749    0.321    0.405   82.034
  467.000   15.650    0.304    0.383   83.687
  467.250   13.320    0.290    0.366   86.934
  467.500   11.882    0.274    0.359   89.935
  467.750   10.639    0.265    0.365   88.462
  468.000    9.873    0.257    0.368   87.847
  468.250    9.129    0.257    0.372   90.971
  468.500    8.896    0.265    0.374   92.073
  468.750    8.817    0.252    0.378   92.623
  469.000    8.772    0.234    0.381  104.819
  469.250    8.201    0.220    0.373  109.108
  469.500    8.037    0.212    0.359  102.057
  469.750    7.967    0.205    0.352   97.335
  470.000    8.031    0.205    0.359   97.639
  470.250    8.219    0.217    0.365   88.075
  470.500    8.490    0.235    0.371   76.242
  470.750    8.737    0.268    0.377   66.003
  471.000    9.060    0.290    0.395   59.748
  471.250    9.376    0.306    0.406   65.325
  471.500    9.595    0.321    0.419   66.855
  471.750    9.564    0.281    0.401   71.818
  472.000    9.480    0.257    0.394   79.479
  472.250    9.360    0.265    0.405   77.270
  472.500    9.207    0.281    0.417   69.361
  472.750    9.092    0.298    0.426   61.083
  473.000    8.860    0.312    0.418   54.093
  473.250    8.554    0.325    0.418   60.160
  473.500    8.382    0.328    0.415   66.778
  473.750    8.032    0.329    0.402   65.121
  474.000    7.769    0.335    0.385   60.338
  474.250    7.542    0.326    0.373   58.190
  474.500    7.377    0.292    0.362   64.196
  474.750    7.395    0.270    0.344   68.055
  475.000    7.669    0.257    0.320   70.260
  475.250    8.041    0.238    0.279   66.519
  475.500    8.740    0.177    0.239   60.510
  475.750    9.394    0.011    0.240   57.259
  476.000    9.432   -0.005    0.282   64.184
  476.250    9.331    0.221    0.331   76.013
  476.500    9.076    0.236    0.352   84.102
  476.750    8.518    0.231    0.354   91.701
  477.000    7.965    0.229    0.348   98.136
  477.250    7.560    0.231    0.341  102.547
  477.500    7.189    0.231    0.336  104.262
  477.750    7.046    0.222    0.333  105.057
  478.000    6.958    0.214    0.331  104.994
  478.250    6.909    0.206    0.329  105.114
  478.500    6.912    0.199    0.328  105.603
  478.750    6.955    0.199    0.328  104.742
  479.000    7.011    0.204    0.330  106.395
  479.250    7.055    0.208    0.332  107.190
  479.500    7.112    0.211    0.338  107.556
  479.750    7.142    0.219    0.340  103.140
  480.000    7.186    0.230    0.338   97.254
  480.250    7.189    0.243    0.334   93.574
  480.500    7.152    0.250    0.331   90.998
  480.750    7.091    0.235    0.332   95.041
  481.000    7.067    0.221    0.344   99.759
  481.250    7.030    0.210    0.352  107.175
  481.500    7.021    0.214    0.357  114.222
  481.750    6.997    0.219    0.354  116.059
  482.000    6.988    0.221    0.341  110.478
  482.250    6.952    0.201    0.328  108.270
  482.500    6.943    0.187    0.319  107.349
  482.750    6.946    0.180    0.320  115.499
  483.000    6.923    0.176    0.344  120.279
  483.250    6.901    0.174    0.377  109.488
  483.500    6.931    0.179    0.406  100.659
  483.750    7.052    0.191    0.425   79.876
  484.000    7.150    0.211    0.434   59.523
  484.250    6.981    0.239    0.395   39.967
  484.500    6.651    0.270    0.375   30.892
  484.750    6.266    0.289    0.357   30.645
  485.000    6.048    0.302    0.330   43.700
  485.250    5.905    0.216    0.321   65.337
  485.500    5.909    0.186    0.329   99.172
  485.750    5.968    0.171    0.336  112.717
  486.000    6.027    0.167    0.344  119.520
  486.250    6.122    0.171    0.352  118.782
  486.500    6.125    0.172    0.351  118.780
  486.750    6.093    0.172    0.354  119.513
  487.000    5.972    0.184    0.363  121.044
  487.250    5.997    0.194    0.372  122.268
  487.500    6.336    0.176    0.378  120.734
  487.750    6.796    0.137    0.393  112.579
  488.000    7.235    0.165    0.376  106.263
  488.250    7.517    0.199    0.355   97.250
  488.500    7.464    0.207    0.343   88.544
  488.750    7.206    0.194    0.334   81.676
  489.000    6.827    0.212    0.334   80.877
  489.250    6.541    0.244    0.348   78.668
  489.500    6.291    0.265    0.356   70.575
  489.750    6.097    0.272    0.366   64.014
  490.000    5.819    0.280    0.373   57.882
  490.250    5.672    0.291    0.377   56.225
  490.500    5.684    0.299    0.368   55.365
  490.750    5.730    0.304    0.361   56.773
  491.000    5.820    0.281    0.354   62.532
  491.250    5.957    0.259    0.349   65.534
  491.500    6.049    0.245    0.345   67.923
  491.750    6.121    0.264    0.348   70.802
  492.000    6.159    0.256    0.351   71.965
  492.250    6.185    0.255    0.353   73.066
  492.500    6.188    0.258    0.353   74.352
  492.750    6.168    0.262    0.354   73.369
  493.000    6.114    0.267    0.357   69.199
  493.250    6.083    0.260    0.362   69.994
  493.500    6.007    0.254    0.369   70.543
  493.750    5.942    0.252    0.385   66.986
  494.000    5.867    0.274    0.399   64.164
  494.250    5.782    0.296    0.397   63.856
  494.500    5.667    0.288    0.383   66.367
  494.750    5.616    0.255    0.372   72.495
  495.000    5.525    0.243    0.365   78.684
  495.250    5.466    0.258    0.373   80.092
  495.500    5.428    0.281    0.380   73.838
  495.750    5.421    0.297    0.390   70.648
  496.000    5.528    0.269    0.377   73.344
  496.250    5.560    0.253    0.369   75.119
  496.500    5.690    0.240    0.365   68.987
  496.750    5.812    0.215    0.364   58.564
  497.000    5.804    0.186    0.377   48.754
  497.250    5.678    0.134    0.379   52.553
  497.500    5.564    0.234    0.375   58.681
  497.750    5.432    0.267    0.390   65.238
  498.000    5.334    0.291    0.419   70.753
  498.250    5.297    0.260    0.443   63.211
  498.500    5.289    0.282    0.460   54.750
  498.750    5.302    0.297    0.415   57.568
  499.000    5.365    0.266    0.392   67.006
  499.250    5.459    0.255    0.377   75.218
  499.500    5.555    0.252    0.366   79.262
  499.750    5.611    0.232    0.360   81.896
  500.000    5.645    0.212    0.371   86.062
  500.250    5.597    0.238    0.384   75.701
  500.500    5.517    0.278    0.400   61.661
  500.750    5.467    0.306    0.402   51.177
  501.000    5.388    0.311    0.382   48.907
  501.250    5.329    0.289    0.376   54.912
  501.500    5.292    0.262    0.391   62.205
  501.750    5.265    0.249    0.409   69.069
  502.000    5.258    0.263    0.419   70.354
  502.250    5.221    0.276    0.433   70.536
  502.500    5.204    0.270    0.434   71.944
  502.750    5.168    0.277    0.408   72.309
  503.000    5.151    0.273    0.389   74.392
  503.250    5.125    0.266    0.394   70.957
  503.500    5.099    0.272    0.402   64.580
  503.750    5.092    0.271    0.384   57.038
  504.000    5.085    0.289    0.375   59.794
  504.250    5.077    0.287    0.365   74.995
  504.500    5.080    0.249    0.360   80.387
  504.750    5.073    0.247    0.357   71.067
  505.000    5.094    0.254    0.362   67.939
  505.250    5.098    0.241    0.381   72.657
  505.500    5.005    0.237    0.408   76.149
  505.750    4.896    0.261    0.426   76.516
  506.000    4.736    0.262    0.441   66.092
  506.250    4.623    0.255    0.459   64.681
  506.500    4.480    0.290    0.466   50.948
  506.750    4.358    0.312    0.458   44.816
  507.000    4.327    0.317    0.439   44.507
  507.250    4.337    0.312    0.422   45.670
