~VERSION INFORMATION
 VERS.                 2.0:   CWLS LOG ASCII STANDARD -VERSION 2.0
 WRAP.                  NO:   ONE LINE PER DEPTH STEP
~WELL INFORMATION BLOCK
#MNEM.UNIT           DATA                    DESCRIPTION OF MNEMONIC
#---------    -------------------            -------------------------------
# Generated from Intellog Unique Number	CS_73_76/WELL/3267
WELL.         11-27-076-13W4                 : Well_name    - WELL
LOC .         00/11-27-076-13W4/0            : Location     - LOCATION
UWI .         00/11-27-076-13W4/0            : Uwi          - UNIQUE WELL ID
ENTR.         SP                             : Entered      - ENTERED BY
SRVC.         SCHLUMBERGER                   : Scn          - SERVICE COMPANY
STRT.M        310.896                        : top_depth    - START DEPTH
STOP.M        548.396                        : bot_depth    - STOP DEPTH
STEP.M        0.25                           : increment    - STEP LENGTH
 NULL. -999.2500:NULL Value
~CURVE INFORMATION BLOCK
#MNEM UNIT       ERCB CURVE CODE    CURVE DESCRIPTION
#-----------   ------------------   ----------------------------------
DEPT.M        00 001 00 00         : DEPTH        - DEPTH
GR  .API      00 310 00 00         : GR           - GAMMA RAY
DPHI.V/V      00 890 00 00         : PHID         - DENSITY POROSITY (SANDSTONE)
NPHI.V/V      00 330 00 00         : PHIN         - NEUTRON POROSITY (SANDSTONE)
ILD .OHMM     00 120 00 00         : RESD         - DEEP RESISTIVITY (DIL)
~PARAMETER INFORMATION
#MNEM.UNIT           DATA             DESCRIPTION OF MNEMONIC
#---------         -----------     ------------------------------
GL  .M        699.516              : gl           - GROUND LEVEL ELEVATION
EREF.M        702.564              : kb           - ELEVATION OF DEPTH REFERENCE
DATM.M        699.516              : datum        - DATUM ELEVATION
TDD .M        559.308              : tdd          - TOTAL DEPTH DRILLER
RUN .         ONE                  : Run          - RUN NUMBER
ENG .         BILL                 : Engineer     - RECORDING ENGINEER
WIT .         JIM                  : Witness      - WITNESSED BY
MUD .         GEL                  : Mud_type     - MUD TYPE
MATR.         SANDSTONE            : Logunit      - NEUTRON MATRIX
TMAX.C        32.2222              : BHT          - MAXIMUM RECORDED TEMPERATURE
BHTD.M        559.308              : BHTDEP       - MAXIMUM RECORDED TEMPERATURE
MATR.         1                    : LOGUNIT      - NEUTRON MATRIX
RMT .C        25                   : MDTP         - TEMPERATURE OF MUD
NEUT.         1                    : NEUTRON      - NEUTRON TYPE
RESI.         0                    : RESIST       - RESISTIVITY TYPE
RMC .OHMM     0.25                 : RMC          - RESISTIVITY OF MUD CAKE
RMF .OHMM     0.25                 : RMF          - RESISTIVITY OF MUD FILTRATE
SUFT.C        15                   : SUFT         - SURFACE TEMPERATURE
~A  DEPTH       GR     PHID     PHIN     RESD
# ...
  484.896   84.610    0.148    0.421    6.115
  485.146   84.980    0.151    0.388    6.189
  485.396   87.826    0.204    0.408    6.081
  485.646   89.409    0.214    0.446    5.734
  485.896   90.093    0.208    0.481    5.272
  486.146   87.355    0.201    0.531    4.653
  486.396   86.126    0.186    0.533    4.195
  486.646   83.438    0.194    0.565    3.985
  486.896   80.451    0.174    0.540    4.246
  487.146   78.043    0.160    0.464    4.620
  487.396   76.444    0.147    0.426    5.269
  487.646   77.763    0.137    0.397    5.849
  487.896   79.890    0.118    0.419    6.259
  488.146   81.850    0.163    0.442    6.520
  488.396   84.114    0.174    0.463    6.447
  488.646   84.160    0.177    0.480    6.271
  488.896   84.213    0.166    0.492    6.278
  489.146   82.582    0.167    0.475    6.253
  489.396   81.734    0.159    0.466    6.546
  489.646   81.773    0.165    0.462    6.826
  489.896   81.601    0.162    0.436    7.745
  490.146   79.059    0.146    0.412    9.018
  490.396   75.041    0.127    0.381   10.039
  490.646   74.651    0.107    0.368   10.590
  490.896   77.777    0.089    0.353   10.662
  491.146   82.047    0.063    0.365   10.213
  491.396   84.431    0.132    0.387    9.217
  491.646   85.285    0.142    0.435    7.951
  491.896   85.641    0.159    0.456    7.026
  492.146   85.727    0.169    0.458    6.567
  492.396   84.763    0.176    0.454    6.475
  492.646   81.492    0.169    0.453    6.942
  492.896   78.104    0.167    0.448    8.378
  493.146   73.570    0.176    0.454    9.511
  493.396   70.452    0.207    0.451   11.445
  493.646   67.262    0.218    0.426   13.456
  493.896   66.602    0.198    0.399   15.992
  494.146   67.508    0.179    0.378   16.878
  494.396   68.604    0.188    0.409   16.493
  494.646   70.844    0.215    0.443   15.504
  494.896   74.863    0.242    0.450   15.072
  495.146   77.992    0.252    0.435   15.884
  495.396   81.065    0.231    0.432   16.060
  495.646   81.699    0.244    0.422   16.173
  495.896   87.665    0.261    0.411   16.188
  496.146   91.326    0.244    0.426   15.563
  496.396   95.602    0.234    0.448   14.925
  496.646   96.799    0.222    0.464   13.961
  496.896   91.786    0.210    0.469   13.911
  497.146   84.237    0.224    0.457   14.502
  497.396   78.642    0.226    0.425   15.831
  497.646   77.518    0.235    0.409   16.866
  497.896   79.146    0.242    0.402   17.366
  498.146   81.750    0.233    0.403   17.750
  498.396   83.736    0.184    0.407   16.767
  498.646   87.247    0.160    0.396   14.309
  498.896   92.616    0.141    0.393   12.331
  499.146   99.250    0.127    0.400   10.445
  499.396  102.529    0.167    0.409    9.427
  499.646  103.589    0.176    0.413    8.613
  499.896  102.867    0.176    0.410    8.281
  500.146  102.682    0.175    0.420    7.877
  500.396  103.485    0.181    0.429    7.865
  500.646  104.100    0.186    0.429    7.861
  500.896  103.278    0.191    0.445    8.482
  501.146  102.238    0.180    0.447    8.819
  501.396  102.283    0.166    0.414    8.927
  501.646  101.345    0.141    0.408    8.932
  501.896   99.539    0.132    0.429    8.673
  502.146   98.188    0.128    0.440    8.449
  502.396   96.805    0.128    0.450    8.035
  502.646   97.005    0.147    0.450    7.813
  502.896   98.610    0.135    0.444    7.570
  503.146   98.637    0.149    0.436    7.552
  503.396   98.634    0.160    0.424    7.545
  503.646   99.039    0.153    0.413    7.650
  503.896  100.061    0.158    0.409    7.669
  504.146  101.011    0.153    0.427    7.824
  504.396  102.811    0.155    0.438    7.986
  504.646  103.164    0.158    0.446    7.775
  504.896  101.611    0.155    0.452    7.539
  505.146  100.985    0.156    0.457    7.537
  505.396  100.302    0.166    0.453    7.548
  505.646   97.756    0.171    0.440    7.786
  505.896   94.712    0.176    0.428    8.006
  506.146   91.668    0.169    0.413    8.424
  506.396   88.056    0.160    0.413    8.786
  506.646   85.048    0.172    0.422    9.297
  506.896   86.136    0.178    0.421    9.373
  507.146   89.572    0.181    0.426    9.568
  507.396   92.320    0.172    0.439    9.327
  507.646   94.937    0.173    0.452    8.708
  507.896   97.299    0.166    0.443    8.350
  508.146   98.542    0.153    0.449    8.036
  508.396   98.013    0.145    0.461    7.923
  508.646   96.355    0.146    0.467    7.922
  508.896   95.516    0.156    0.469    7.920
  509.146   97.059    0.143    0.454    7.920
  509.396   99.095    0.147    0.456    7.970
  509.646   99.639    0.148    0.451    8.222
  509.896   94.623    0.146    0.436    8.480
  510.146   87.456    0.146    0.416    8.841
  510.396   83.534    0.163    0.398    9.507
  510.646   80.188    0.165    0.412   10.751
  510.896   78.612    0.158    0.395   11.832
  511.146   75.249    0.163    0.363   12.492
  511.396   74.743    0.174    0.343   12.862
  511.646   78.343    0.150    0.356   13.217
  511.896   82.751    0.163    0.389   13.216
  512.146   83.093    0.186    0.413   12.959
  512.396   80.267    0.213    0.424   12.718
  512.646   77.470    0.221    0.411   13.139
  512.896   73.272    0.213    0.415   13.536
  513.146   71.479    0.223    0.448   13.950
  513.396   68.876    0.235    0.463   14.692
  513.646   67.926    0.233    0.439   14.367
  513.896   67.998    0.227    0.432   14.965
  514.146   66.364    0.227    0.444   15.726
  514.396   61.960    0.240    0.459   17.205
  514.646   53.233    0.249    0.464   18.226
  514.896   50.296    0.260    0.452   19.860
  515.146   49.214    0.273    0.424   22.754
  515.396   52.188    0.269    0.389   25.203
  515.646   56.654    0.253    0.389   27.187
  515.896   59.722    0.242    0.395   27.213
  516.146   59.801    0.236    0.415   24.205
  516.396   57.602    0.241    0.446   23.849
  516.646   53.580    0.256    0.467   25.445
  516.896   52.939    0.259    0.418   27.006
  517.146   54.861    0.273    0.384   28.559
  517.396   58.807    0.272    0.382   29.399
  517.646   62.650    0.251    0.393   29.381
  517.896   60.321    0.251    0.401   29.278
  518.146   62.724    0.251    0.409   26.740
  518.396   65.162    0.243    0.397   25.842
  518.646   66.632    0.249    0.409   25.022
  518.896   65.736    0.228    0.432   24.261
  519.146   63.399    0.253    0.445   23.572
  519.396   61.889    0.263    0.438   25.111
  519.646   60.912    0.266    0.432   27.127
  519.896   60.847    0.274    0.435   28.949
  520.146   60.198    0.278    0.451   30.497
  520.396   61.459    0.267    0.462   29.571
  520.646   65.296    0.247    0.422   26.138
  520.896   70.696    0.223    0.386   22.832
  521.146   74.411    0.185    0.396   20.510
  521.396   75.630    0.217    0.414   20.286
  521.646   75.926    0.243    0.396   20.024
  521.896   80.147    0.229    0.387   18.754
  522.146   85.125    0.202    0.386   18.021
  522.396   90.075    0.194    0.378   16.995
  522.646   92.189    0.183    0.394   15.576
  522.896   86.345    0.180    0.417   13.942
  523.146   77.866    0.199    0.431   13.082
  523.396   70.150    0.218    0.440   12.868
  523.646   45.976    0.240    0.446   14.857
  523.896   32.716    0.271    0.461   18.266
  524.146   26.493    0.302    0.451   32.198
  524.396   22.731    0.337    0.418   44.721
  524.646   26.611    0.337    0.410   56.391
  524.896   29.076    0.332    0.411   69.294
  525.146   30.994    0.327    0.432   80.582
  525.396   31.674    0.334    0.448   85.978
  525.646   29.900    0.339    0.461   91.252
  525.896   26.309    0.341    0.467   90.998
  526.146   24.265    0.340    0.463   90.961
  526.396   22.940    0.331    0.445   81.365
  526.646   22.362    0.326    0.431   76.049
  526.896   21.564    0.320    0.417   68.084
  527.146   21.180    0.316    0.405   61.989
  527.396   21.254    0.320    0.397   56.393
  527.646   20.556    0.325    0.400   52.328
  527.896   20.635    0.322    0.403   46.339
  528.146   20.925    0.321    0.411   39.516
