~VERSION INFORMATION
 VERS.                 2.0:   CWLS LOG ASCII STANDARD -VERSION 2.0
 WRAP.                  NO:   ONE LINE PER DEPTH STEP
~WELL INFORMATION BLOCK
#MNEM.UNIT           DATA                    DESCRIPTION OF MNEMONIC
#---------    -------------------            -------------------------------
# Generated from Intellog Unique Number	CS_71_72/WELL/868
WELL.         PEX PHILLIPS AEC GRIST         : Well_name    - WELL
LOC .         00/10-23-072-07W4/0            : Location     - LOCATION
UWI .         00/10-23-072-07W4/0            : Uwi          - UNIQUE WELL ID
ENTR.         SP                             : Entered      - ENTERED BY
SRVC.         SCHLUMBERGER                   : Scn          - SERVICE COMPANY
STRT.M        320                            : top_depth    - START DEPTH
STOP.M        547                            : bot_depth    - STOP DEPTH
STEP.M        0.25                           : increment    - STEP LENGTH
 NULL. -999.2500:NULL Value
~CURVE INFORMATION BLOCK
#MNEM UNIT       ERCB CURVE CODE    CURVE DESCRIPTION
#-----------   ------------------   ----------------------------------
DEPT.M        00 001 00 00         : DEPTH        - DEPTH
ILD .OHMM     00 120 00 00         : RESD         - DEEP RESISTIVITY (DIL)
DPHI.V/V      00 890 00 00         : PHID         - DENSITY POROSITY (LIMESTONE)
NPHI.V/V      00 330 00 00         : PHIN         - NEUTRON POROSITY (LIMESTONE)
GR  .API      00 310 00 00         : GR           - GAMMA RAY
~PARAMETER INFORMATION
#MNEM.UNIT           DATA             DESCRIPTION OF MNEMONIC
#---------         -----------     ------------------------------
GL  .M        691.2                : gl           - GROUND LEVEL ELEVATION
EREF.M        694.7                : kb           - ELEVATION OF DEPTH REFERENCE
DATM.M        691.2                : datum        - DATUM ELEVATION
TDD .M        550                  : tdd          - TOTAL DEPTH DRILLER
RUN .         ONE                  : Run          - RUN NUMBER
ENG .         BILL                 : Engineer     - RECORDING ENGINEER
WIT .         JIM                  : Witness      - WITNESSED BY
MUD .         GEL                  : Mud_type     - MUD TYPE
MATR.         LIMESTONE            : Logunit      - NEUTRON MATRIX
TMAX.C        24                   : BHT          - MAXIMUM RECORDED TEMPERATURE
BHTD.M        550                  : BHTDEP       - MAXIMUM RECORDED TEMPERATURE
MATR.         1                    : LOGUNIT      - NEUTRON MATRIX
RMT .C        25                   : MDTP         - TEMPERATURE OF MUD
NEUT.         1                    : NEUTRON      - NEUTRON TYPE
RESI.         0                    : RESIST       - RESISTIVITY TYPE
RMC .OHMM     0.25                 : RMC          - RESISTIVITY OF MUD CAKE
RMF .OHMM     0.25                 : RMF          - RESISTIVITY OF MUD FILTRATE
SUFT.C        15                   : SUFT         - SURFACE TEMPERATURE
~A  DEPTH     RESD     PHID     PHIN       GR
# ...
  407.000    7.881    0.310    0.449   58.166
  407.250    8.029    0.314    0.455   53.906
  407.500    8.028    0.315    0.457   52.691
  407.750    8.027    0.310    0.460   53.915
  408.000    7.878    0.308    0.448   56.360
  408.250    7.877    0.301    0.431   58.808
  408.500    7.876    0.305    0.424   57.592
  408.750    8.023    0.315    0.449   55.162
  409.000    8.326    0.321    0.447   55.165
  409.250    8.641    0.316    0.432   55.170
  409.500    9.137    0.318    0.434   55.178
  409.750    9.308    0.322    0.437   54.572
  410.000    9.841    0.310    0.455   51.533
  410.250   10.025    0.260    0.471   50.317
  410.500   10.024    0.087    0.236   48.494
  410.750   10.023    0.049    0.230   50.327
  411.000    9.837    0.159    0.315   54.603
  411.250    9.130    0.209    0.389   58.270
  411.500    8.633    0.256    0.437   60.105
  411.750    8.163    0.304    0.469   61.329
  412.000    8.011    0.319    0.476   62.552
  412.250    7.863    0.316    0.468   62.559
  412.500    7.717    0.305    0.460   60.736
  412.750    7.574    0.299    0.449   59.523
  413.000    7.573    0.300    0.444   59.528
  413.250    7.572    0.302    0.437   60.754
  413.500    7.571    0.305    0.433   61.371
  413.750    7.570    0.312    0.430   60.765
  414.000    7.430    0.317    0.427   60.162
  414.250    7.292    0.320    0.442   59.557
  414.500    7.025    0.307    0.440   60.173
  414.750    6.642    0.295    0.428   60.789
  415.000    6.165    0.290    0.433   65.065
  415.250    5.722    0.296    0.460   69.340
  415.500    5.212    0.290    0.463   71.173
  415.750    4.748    0.282    0.446   76.058
  416.000    4.407    0.265    0.444   79.722
  416.250    3.941    0.257    0.444   82.166
  416.500    3.797    0.262    0.477   79.733
  416.750    3.524    0.278    0.514   82.788
  417.000    3.332    0.277    0.536   88.285
  417.250    3.210    0.258    0.523   90.731
  417.500    3.092    0.251    0.534   92.566
  417.750    3.035    0.249    0.534   94.400
  418.000    2.923    0.260    0.529   95.013
  418.250    2.816    0.264    0.560   93.799
  418.500    2.764    0.269    0.549   93.808
  418.750    3.148    0.269    0.538   91.373
  419.000    3.722    0.286    0.554   87.721
  419.250    4.320    0.303    0.571   84.070
  419.500    5.203    0.315    0.583   82.853
  419.750    6.151    0.279    0.524   79.811
  420.000    7.273    0.262    0.487   77.990
  420.250    7.835    0.257    0.464   77.384
  420.500    7.981    0.260    0.455   77.390
  420.750    7.546    0.253    0.445   77.395
  421.000    7.269    0.245    0.436   78.011
  421.250    7.269    0.238    0.432   78.017
  421.500    7.002    0.235    0.436   78.023
  421.750    6.872    0.245    0.455   79.249
  422.000    6.745    0.241    0.468   80.473
  422.250    6.744    0.256    0.481   81.700
  422.500    6.870    0.251    0.491   82.315
  422.750    6.998    0.224    0.468   79.882
  423.000    7.263    0.236    0.465   76.842
  423.250    7.537    0.257    0.469   76.235
  423.500    7.822    0.264    0.463   78.682
  423.750    7.969    0.241    0.461   79.296
  424.000    8.270    0.236    0.467   79.914
  424.250    7.820    0.231    0.470   80.527
  424.500    7.533    0.219    0.473   83.584
  424.750    7.123    0.219    0.476   86.028
  425.000    6.735    0.225    0.479   86.643
  425.250    6.489    0.219    0.480   84.821
  425.500    6.135    0.216    0.473   84.215
  425.750    5.694    0.213    0.458   83.002
  426.000    5.285    0.218    0.446   83.009
  426.250    4.997    0.216    0.442   83.624
  426.500    4.553    0.202    0.446   86.070
  426.750    4.305    0.228    0.462   86.685
  427.000    3.996    0.248    0.481   86.080
  427.250    3.708    0.265    0.509   82.427
  427.500    3.442    0.287    0.550   83.655
  427.750    3.316    0.285    0.572   83.660
  428.000    3.254    0.268    0.567   81.227
  428.250    3.441    0.270    0.522   82.451
  428.500    3.571    0.272    0.492   86.726
  428.750    3.706    0.258    0.498   90.390
  429.000    3.637    0.249    0.537   89.787
  429.250    3.637    0.247    0.547   87.963
  429.500    3.636    0.275    0.550   86.142
  429.750    3.845    0.287    0.561   84.926
  430.000    4.219    0.301    0.574   81.273
  430.250    4.379    0.293    0.511   77.011
  430.500    4.806    0.226    0.489   75.188
  430.750    4.987    0.226    0.480   77.634
  431.000    4.987    0.250    0.483   78.860
  431.250    4.894    0.265    0.490   78.257
  431.500    4.803    0.278    0.475   77.040
  431.750    5.174    0.290    0.472   71.559
  432.000    5.894    0.300    0.487   71.566
  432.250    7.232    0.301    0.509   71.571
  432.500    7.791    0.292    0.477   67.309
  432.750    8.238    0.241    0.465   62.436
  433.000    9.383    0.056    0.233   55.124
  433.250    9.209    0.013    0.197   45.983
  433.500    8.547   -0.009    0.182   44.770
  433.750    7.643    0.037    0.259   62.460
  434.000    7.227    0.093    0.384   71.612
  434.250    6.343    0.185    0.450   75.276
  434.500    5.887    0.251    0.478   74.063
  434.750    5.778    0.300    0.476   70.410
  435.000    5.997    0.301    0.456   68.587
  435.250    6.704    0.303    0.450   65.543
  435.500    6.958    0.103    0.465   57.014
  435.750    7.495    0.084    0.443   49.701
  436.000    7.494    0.099    0.265   43.000
  436.250    7.220    0.183    0.265   55.204
  436.500    6.577    0.262    0.362   61.307
  436.750    6.104    0.299    0.402   65.580
  437.000    5.991    0.286    0.432   68.634
  437.250    5.880    0.279    0.450   71.081
  437.500    5.771    0.263    0.450   72.915
  437.750    5.879    0.249    0.458   75.971
  438.000    5.988    0.257    0.451   77.195
  438.250    6.100    0.271    0.434   79.030
  438.500    6.214    0.279    0.425   77.208
  438.750    6.330    0.284    0.435   74.166
  439.000    6.329    0.286    0.444   72.340
  439.250    6.448    0.285    0.451   69.909
  439.500    6.568    0.275    0.455   69.913
  439.750    6.567    0.263    0.454   70.531
  440.000    6.445    0.260    0.447   70.536
  440.250    6.209    0.273    0.439   71.151
  440.500    6.094    0.280    0.450   72.988
  440.750    5.870    0.285    0.457   74.823
  441.000    5.762    0.285    0.456   73.609
  441.250    5.761    0.281    0.440   72.396
  441.500    5.760    0.272    0.434   73.010
  441.750    5.760    0.258    0.433   75.456
  442.000    5.446    0.252    0.412   77.292
  442.250    5.345    0.280    0.426   76.687
  442.500    5.054    0.314    0.457   76.084
  442.750    4.779    0.333    0.482   76.090
  443.000    4.117    0.313    0.485   76.704
  443.250    3.821    0.331    0.479   79.151
  443.500    3.681    0.344    0.459   81.596
  443.750    3.546    0.304    0.450   82.820
  444.000    3.680    0.270    0.476   80.387
  444.250    3.891    0.297    0.501   78.563
  444.500    4.601    0.342    0.532   74.913
  444.750    5.049    0.320    0.519   73.699
  445.000    5.645    0.297    0.465   72.484
  445.250    6.081    0.285    0.451   72.492
  445.500    6.311    0.262    0.454   71.887
  445.750    5.967    0.252    0.456   73.720
  446.000    4.684    0.258    0.454   77.386
  446.250    3.816    0.250    0.453   79.220
  446.500    3.109    0.236    0.470   82.885
  446.750    2.679    0.252    0.493   85.330
  447.000    2.395    0.268    0.527   80.457
  447.250    2.351    0.283    0.554   83.513
  447.500    2.350    0.294    0.582   87.787
  447.750    2.350    0.282    0.540   87.183
  448.000    2.394    0.264    0.510   84.142
  448.250    2.531    0.249    0.495   84.146
  448.500    2.778    0.253    0.522   85.371
  448.750    3.224    0.257    0.541   82.331
  449.000    3.538    0.261    0.565   80.507
  449.250    4.030    0.269    0.554   78.073
  449.500    4.854    0.271    0.498   75.640
  449.750    5.427    0.274    0.458   73.815
  450.000    6.068    0.232    0.434   70.773
  450.250    6.416    0.198    0.438   70.168
