~VERSION INFORMATION
 VERS.                 2.0:   CWLS LOG ASCII STANDARD -VERSION 2.0
 WRAP.                  NO:   ONE LINE PER DEPTH STEP
~WELL INFORMATION BLOCK
#MNEM.UNIT           DATA                    DESCRIPTION OF MNEMONIC
#---------    -------------------            -------------------------------
# Generated from Intellog Unique Number	CS_73_76/WELL/1964
WELL.         AMOCO                          : Well_name    - WELL
LOC .         00/11-05-073-05W4/0            : Location     - LOCATION
UWI .         00/11-05-073-05W4/0            : Uwi          - UNIQUE WELL ID
ENTR.         T                              : Entered      - ENTERED BY
SRVC.         SCHLUMBERGER                   : Scn          - SERVICE COMPANY
STRT.M        325                            : top_depth    - START DEPTH
STOP.M        550                            : bot_depth    - STOP DEPTH
STEP.M        0.25                           : increment    - STEP LENGTH
 NULL. -999.2500:NULL Value
~CURVE INFORMATION BLOCK
#MNEM UNIT       ERCB CURVE CODE    CURVE DESCRIPTION
#-----------   ------------------   ----------------------------------
DEPT.M        00 001 00 00         : DEPTH        - DEPTH
GR  .API      00 310 00 00         : GR           - GAMMA RAY
NPHI.V/V      00 330 00 00         : PHIN         - NEUTRON POROSITY (SANDSTONE)
DPHI.V/V      00 890 00 00         : PHID         - DENSITY POROSITY (SANDSTONE)
ILD .OHMM     00 120 00 00         : RESD         - DEEP RESISTIVITY (DIL)
~PARAMETER INFORMATION
#MNEM.UNIT           DATA             DESCRIPTION OF MNEMONIC
#---------         -----------     ------------------------------
GL  .M        703.6                : gl           - GROUND LEVEL ELEVATION
EREF.M        708.1                : kb           - ELEVATION OF DEPTH REFERENCE
DATM.M        708.1                : datum        - DATUM ELEVATION
TDD .M        566                  : tdd          - TOTAL DEPTH DRILLER
RUN .         ONE                  : Run          - RUN NUMBER
ENG .         BILL                 : Engineer     - RECORDING ENGINEER
WIT .         JIM                  : Witness      - WITNESSED BY
MUD .         GEL                  : Mud_type     - MUD TYPE
MATR.         SANDSTONE            : Logunit      - NEUTRON MATRIX
TMAX.C        18                   : BHT          - MAXIMUM RECORDED TEMPERATURE
BHTD.M        566                  : BHTDEP       - MAXIMUM RECORDED TEMPERATURE
MATR.         1                    : LOGUNIT      - NEUTRON MATRIX
RMT .C        25                   : MDTP         - TEMPERATURE OF MUD
NEUT.         1                    : NEUTRON      - NEUTRON TYPE
RESI.         0                    : RESIST       - RESISTIVITY TYPE
RMC .OHMM     1.2                  : RMC          - RESISTIVITY OF MUD CAKE
RMF .OHMM     1.5                  : RMF          - RESISTIVITY OF MUD FILTRATE
SUFT.C        15                   : SUFT         - SURFACE TEMPERATURE
~A  DEPTH       GR     PHIN     PHID     RESD
  325.000  102.575    0.512    0.223    5.881
  325.250  100.220    0.485    0.221    6.124
  325.500   98.453    0.484    0.221    6.245
  325.750   99.096    0.485    0.222    6.256
  326.000   98.561    0.485    0.222    6.035
  326.250   97.983    0.486    0.222    5.714
  326.500   96.848    0.493    0.225    6.170
  326.750   96.281    0.506    0.227    6.789
  327.000   95.713    0.517    0.231    7.475
  327.250   95.157    0.525    0.233    7.915
  327.500   95.200    0.534    0.237    9.217
  327.750   95.243    0.537    0.240   12.945
  328.000   95.885    0.502    0.239   13.462
  328.250   92.342    0.447    0.239   14.272
  328.500   88.777    0.432    0.240   15.118
  328.750   85.822    0.392    0.240   16.640
  329.000   85.265    0.376    0.256   17.634
  329.250   84.109    0.409    0.280   18.331
  329.500   76.947    0.419    0.303   19.802
  329.750   60.203    0.438    0.307   21.400
  330.000   55.450    0.452    0.314   22.668
  330.250   56.092    0.295    0.307   23.565
  330.500   51.938    0.333    0.302   24.992
  330.750   39.402    0.347    0.311   25.498
  331.000   34.648    0.294    0.323   25.530
  331.250   33.471    0.291    0.314   25.593
  331.500   30.527    0.301    0.301   25.159
  331.750   28.161    0.319    0.267   24.712
  332.000   27.005    0.339    0.266   23.397
  332.250   42.646    0.358    0.270   20.939
  332.500   67.281    0.351    0.266   18.399
  332.750   72.131    0.340    0.256   17.743
  333.000   75.761    0.346    0.253   17.125
  333.250   80.011    0.369    0.261   16.834
  333.500   83.041    0.373    0.273   16.241
  333.750   87.891    0.384    0.275   15.958
  334.000   89.743    0.404    0.265   15.409
  334.250   86.189    0.418    0.254   15.428
  334.500   84.412    0.428    0.258   15.160
  334.750   82.057    0.428    0.282   15.185
  335.000   82.111    0.423    0.298   14.934
  335.250   83.363    0.427    0.297   14.965
  335.500   83.995    0.429    0.287   14.698
  335.750   84.648    0.431    0.274   14.729
  336.000   84.702    0.444    0.273   14.485
  336.250   84.135    0.450    0.278   14.239
  336.500   84.178    0.443    0.282   13.986
  336.750   84.809    0.432    0.278   13.504
  337.000   88.450    0.427    0.257   13.264
  337.250   86.705    0.415    0.242   13.039
  337.500   84.339    0.394    0.230   13.066
  337.750   79.607    0.378    0.233   13.589
  338.000   78.429    0.368    0.241   14.132
  338.250   76.074    0.359    0.238   14.418
  338.500   73.130    0.363    0.233   15.007
  338.750   70.165    0.366    0.245   15.020
  339.000   67.221    0.372    0.277   15.051
  339.250   76.246    0.377    0.291   14.802
  339.500   78.088    0.381    0.297   14.274
  339.750   79.340    0.391    0.298   13.771
  340.000   76.385    0.397    0.291   12.801
  340.250   72.820    0.404    0.283   12.340
  340.500   69.266    0.406    0.263   10.842
  340.750   66.922    0.373    0.252   10.456
  341.000   67.554    0.362    0.240    9.365
  341.250  105.389    0.391    0.219    9.028
  341.500  105.421    0.402    0.199    8.547
  341.750  107.263    0.434    0.175    7.649
  342.000  116.909    0.454    0.114    6.849
  342.250  121.748    0.467    0.159    6.015
  342.500  122.990    0.469    0.195    5.381
  342.750  124.843    0.477    0.200    4.998
  343.000  125.485    0.491    0.197    4.473
  343.250  126.139    0.499    0.190    4.003
  343.500  126.160    0.504    0.197    3.586
  343.750  125.025    0.511    0.211    3.393
  344.000  124.447    0.521    0.220    3.213
  344.250  123.302    0.532    0.226    3.217
  344.500  121.546    0.531    0.228    3.675
  344.750  118.592    0.498    0.229    5.067
  345.000  116.236    0.491    0.230    7.817
  345.250  112.072    0.483    0.231    9.271
  345.500  106.719    0.452    0.236   10.796
  345.750  100.766    0.389    0.251   11.662
  346.000   93.615    0.375    0.272   12.364
  346.250   85.853    0.359    0.289   12.614
  346.500   81.699    0.349    0.307   12.629
  346.750   78.145    0.343    0.324   12.420
  347.000   76.389    0.344    0.333   12.436
  347.250   76.432    0.348    0.340   11.997
  347.500   75.876    0.346    0.340   11.794
  347.750   74.720    0.351    0.335   11.378
  348.000   73.564    0.381    0.324   10.982
  348.250   73.617    0.395    0.304   10.791
  348.500   74.270    0.434    0.308   10.818
  348.750   74.891    0.446    0.313   10.827
  349.000   74.934    0.446    0.306   10.845
  349.250   74.988    0.446    0.289   11.073
  349.500   73.832    0.442    0.246   11.096
  349.750   72.665    0.428    0.295   10.903
  350.000   70.910    0.408    0.313   10.714
  350.250   69.754    0.396    0.312   10.532
  350.500   73.404    0.390    0.310   10.354
  350.750   78.244    0.376    0.305   10.186
  351.000   83.083    0.375    0.304   10.005
  351.250   83.126    0.391    0.297    9.835
  351.500   77.773    0.409    0.290    9.489
  351.750   68.823    0.405    0.288    9.328
  352.000   60.462    0.394    0.292    8.999
  352.250   55.708    0.384    0.298    9.018
  352.500   48.557    0.376    0.302    9.029
  352.750   45.002    0.363    0.310    9.055
  353.000   42.048    0.368    0.315    9.059
  353.250   43.290    0.372    0.317    9.074
  353.500   46.352    0.376    0.317    9.089
  353.750   49.371    0.383    0.313    9.104
  354.000   54.821    0.390    0.299    8.957
  354.250   63.257    0.402    0.279    8.972
  354.500   66.897    0.419    0.253    8.983
  354.750   62.144    0.414    0.282    8.838
  355.000   58.600    0.388    0.301    8.688
  355.250   60.442    0.378    0.298    8.696
  355.500   62.872    0.373    0.272    8.714
  355.750   67.123    0.378    0.267    8.890
  356.000   70.163    0.386    0.262    9.077
  356.250   70.795    0.392    0.253    9.096
  356.500   70.838    0.400    0.263    9.104
  356.750   70.881    0.406    0.271    9.119
  357.000   70.335    0.404    0.274    9.134
  357.250   69.190    0.373    0.284    8.979
  357.500   69.244    0.371    0.307    8.830
  357.750   69.876    0.379    0.297    8.677
  358.000   72.306    0.400    0.268    8.540
  358.250   77.145    0.405    0.261    8.392
  358.500   80.796    0.409    0.252    8.399
  358.750   85.025    0.415    0.242    8.413
  359.000   88.665    0.425    0.234    8.434
  359.250   91.706    0.434    0.225    8.441
  359.500   89.362    0.441    0.214    8.459
  359.750   86.996    0.444    0.224    8.319
  360.000   84.041    0.436    0.250    8.329
  360.250   82.285    0.430    0.276    8.339
  360.500   79.930    0.417    0.285    8.052
  360.750   87.778    0.414    0.305    7.912
  361.000   96.214    0.421    0.311    7.775
  361.250  102.253    0.420    0.310    7.364
  361.500  110.090    0.413    0.297    7.239
  361.750  117.948    0.417    0.263    6.981
  362.000  118.601    0.430    0.216    6.863
  362.250  117.434    0.438    0.211    6.752
  362.500  115.079    0.470    0.221    6.760
  362.750  112.713    0.498    0.224    6.769
  363.000  104.962    0.526    0.229    6.659
  363.250  101.408    0.521    0.228    6.544
  363.500  102.650    0.487    0.223    6.430
  363.750  105.712    0.479    0.221    6.090
  364.000  107.532    0.471    0.234    5.873
  364.250  108.785    0.463    0.250    5.563
  364.500  105.220    0.456    0.257    5.469
  364.750   98.668    0.447    0.267    5.688
  365.000   96.923    0.433    0.277    5.805
  365.250   96.356    0.428    0.284    5.922
  365.500   97.020    0.433    0.285    5.824
  365.750   98.240    0.434    0.276    5.725
  366.000  101.881    0.435    0.269    5.626
  366.250  106.731    0.441    0.256    5.638
  366.500  106.763    0.445    0.245    5.645
  366.750  103.808    0.444    0.242    5.659
  367.000  100.254    0.442    0.239    5.668
  367.250   98.498    0.445    0.238    5.788
  367.500   93.145    0.448    0.226    5.793
  367.750   86.593    0.452    0.213    5.917
  368.000   81.840    0.450    0.126    5.922
  368.250   84.891    0.441    0.137    5.718
