~VERSION INFORMATION
 VERS.                 2.0:   CWLS LOG ASCII STANDARD -VERSION 2.0
 WRAP.                  NO:   ONE LINE PER DEPTH STEP
~WELL INFORMATION BLOCK
#MNEM.UNIT           DATA                    DESCRIPTION OF MNEMONIC
#---------    -------------------            -------------------------------
# Generated from Intellog Unique Number	CS_69_70/WELL/865
WELL.         ASHLAND OIL CANADA             : Well_name    - WELL
LOC .         00/10-10-069-18W4/0            : Location     - LOCATION
UWI .         00/10-10-069-18W4/0            : Uwi          - UNIQUE WELL ID
ENTR.         SP                             : Entered      - ENTERED BY
SRVC.         SCHLUMBERGER                   : Scn          - SERVICE COMPANY
STRT.M        259.08                         : top_depth    - START DEPTH
STOP.M        487.33                         : bot_depth    - STOP DEPTH
STEP.M        0.25                           : increment    - STEP LENGTH
 NULL. -999.2500:NULL Value
~CURVE INFORMATION BLOCK
#MNEM UNIT       ERCB CURVE CODE    CURVE DESCRIPTION
#-----------   ------------------   ----------------------------------
DEPT.M        00 001 00 00         : DEPTH        - DEPTH
GR  .API      00 310 00 00         : GR           - GAMMA RAY
DPHI.V/V      00 890 00 00         : PHID         - DENSITY POROSITY (SANDSTONE)
NPHI.V/V      00 330 00 00         : PHIN         - NEUTRON POROSITY (SANDSTONE)
ILD .OHMM     00 120 00 00         : RESD         - DEEP RESISTIVITY (DIL)
~PARAMETER INFORMATION
#MNEM.UNIT           DATA             DESCRIPTION OF MNEMONIC
#---------         -----------     ------------------------------
GL  .M        549.859              : gl           - GROUND LEVEL ELEVATION
EREF.M        553.822              : kb           - ELEVATION OF DEPTH REFERENCE
DATM.M        549.859              : datum        - DATUM ELEVATION
TDD .M        548.64               : tdd          - TOTAL DEPTH DRILLER
RUN .         ONE                  : Run          - RUN NUMBER
ENG .         BILL                 : Engineer     - RECORDING ENGINEER
WIT .         JIM                  : Witness      - WITNESSED BY
MUD .         GEL                  : Mud_type     - MUD TYPE
MATR.         SANDSTONE            : Logunit      - NEUTRON MATRIX
TMAX.C        21.6667              : BHT          - MAXIMUM RECORDED TEMPERATURE
BHTD.M        548.64               : BHTDEP       - MAXIMUM RECORDED TEMPERATURE
MATR.         1                    : LOGUNIT      - NEUTRON MATRIX
RMT .C        25                   : MDTP         - TEMPERATURE OF MUD
NEUT.         1                    : NEUTRON      - NEUTRON TYPE
RESI.         0                    : RESIST       - RESISTIVITY TYPE
RMC .OHMM     0.25                 : RMC          - RESISTIVITY OF MUD CAKE
RMF .OHMM     0.25                 : RMF          - RESISTIVITY OF MUD FILTRATE
SUFT.C        15                   : SUFT         - SURFACE TEMPERATURE
~A  DEPTH       GR     PHID     PHIN     RESD
# ...
  389.580   98.235    0.295    0.504    5.213
  389.830   97.182    0.291    0.496    5.208
  390.080   98.196    0.300    0.489    5.169
  390.330   99.309    0.297    0.485    5.125
  390.580  100.064    0.284    0.485    5.140
  390.830   98.365    0.275    0.494    4.987
  391.080   94.906    0.280    0.505    4.871
  391.330   92.303    0.289    0.514    4.691
  391.580   89.737    0.319    0.519    4.607
  391.830   87.469    0.354    0.506    4.677
  392.080   85.975    0.363    0.512    4.760
  392.330   86.597    0.331    0.516    4.941
  392.580   89.637    0.305    0.511    5.086
  392.830   92.214    0.312    0.505    5.214
  393.080   94.390    0.331    0.521    5.289
  393.330   95.967    0.309    0.534    5.379
  393.580   96.620    0.291    0.539    5.457
  393.830   95.189    0.276    0.526    5.640
  394.080   97.211    0.305    0.535    5.943
  394.330   98.572    0.314    0.543    6.205
  394.580   99.194    0.324    0.522    6.358
  394.830   98.412    0.336    0.500    6.401
  395.080   94.152    0.339    0.487    6.365
  395.330   91.978    0.318    0.479    6.290
  395.580   95.309    0.323    0.472    6.191
  395.830   97.724    0.302    0.469    6.171
  396.080   99.397    0.307    0.478    6.054
  396.330   99.449    0.304    0.487    5.892
  396.580  101.540    0.296    0.491    5.813
  396.830  103.510    0.307    0.493    5.735
  397.080  103.621    0.298    0.479    5.643
  397.330  103.133    0.294    0.484    5.579
  397.580  102.507    0.279    0.495    5.626
  397.830  102.182    0.272    0.506    5.638
  398.080  100.904    0.284    0.516    5.633
  398.330   97.440    0.292    0.514    5.574
  398.580   93.055    0.274    0.500    5.358
  398.830   89.742    0.257    0.490    5.058
  399.080   87.389    0.289    0.493    4.841
  399.330   86.008    0.316    0.491    4.733
  399.580   85.892    0.375    0.472    4.712
  399.830   85.099    0.389    0.461    4.678
  400.080   83.166    0.394    0.464    4.741
  400.330   78.778    0.409    0.481    4.741
  400.580   78.699    0.410    0.499    4.800
  400.830   79.281    0.390    0.460    4.756
  401.080   79.703    0.373    0.419    4.735
  401.330   79.544    0.346    0.414    4.660
  401.580   78.852    0.331    0.436    4.594
  401.830   79.996    0.359    0.452    4.424
  402.080   82.689    0.346    0.462    4.179
  402.330   86.152    0.345    0.470    3.890
  402.580   89.990    0.368    0.484    3.596
  402.830   94.775    0.387    0.508    3.387
  403.080  101.553    0.344    0.568    3.194
  403.330  106.751    0.333    0.609    3.057
  403.580  109.469    0.361    0.617    3.005
  403.830  110.383    0.380    0.618    3.030
  404.080  110.457    0.405    0.619    3.115
  404.330  109.646    0.352    0.620    3.288
  404.580  104.620    0.316    0.619    3.586
  404.830  104.609    0.289    0.617    3.892
  405.080  104.717    0.291    0.618    4.093
  405.330  104.689    0.305    0.532    4.397
  405.580  103.629    0.282    0.499    4.637
  405.830   97.172    0.306    0.480    4.766
  406.080   93.314    0.303    0.465    4.863
  406.330   92.266    0.302    0.461    4.907
  406.580   92.940    0.315    0.461    4.947
  406.830   94.273    0.320    0.449    4.957
  407.080   95.228    0.316    0.459    4.916
  407.330   95.494    0.327    0.484    4.874
  407.580   94.904    0.309    0.502    4.794
  407.830   93.747    0.292    0.492    4.758
  408.080   92.441    0.316    0.479    4.741
  408.330   91.619    0.336    0.501    4.689
  408.580   91.007    0.323    0.518    4.658
  408.830   90.179    0.303    0.526    4.627
  409.080   88.467    0.320    0.509    4.661
  409.330   84.515    0.355    0.496    4.715
  409.580   81.151    0.367    0.524    4.744
  409.830   78.924    0.346    0.492    4.855
  410.080   76.473    0.352    0.458    4.949
  410.330   73.173    0.303    0.428    4.907
  410.580   65.115    0.177    0.374    4.731
  410.830   58.419    0.142    0.386    4.465
  411.080   70.063    0.338    0.427    4.128
  411.330   75.878    0.366    0.466    3.842
  411.580   86.101    0.429    0.496    3.646
  411.830   68.646    0.464    0.504    3.508
  412.080   64.106    0.483    0.512    3.384
  412.330   65.749    0.470    0.520    3.302
  412.580   66.806    0.474    0.531    3.221
  412.830   67.182    0.489    0.535    3.177
  413.080   62.098    0.498    0.518    3.136
  413.330   59.511    0.489    0.532    3.193
  413.580   60.028    0.512    0.566    3.343
  413.830   59.971    0.469    0.561    3.505
  414.080   58.491    0.436    0.534    3.602
  414.330   56.660    0.451    0.508    3.590
  414.580   55.575    0.365    0.487    3.531
  414.830   55.073    0.262    0.343    3.406
  415.080   55.898    0.210    0.307    3.192
  415.330   57.666    0.199    0.367    3.002
  415.580   59.468    0.381    0.408    2.868
  415.830   60.595    0.438    0.437    2.732
  416.080   61.472    0.457    0.463    2.621
  416.330   62.123    0.436    0.441    2.579
  416.580   62.637    0.452    0.438    2.575
  416.830   62.154    0.471    0.446    2.545
  417.080   59.818    0.447    0.450    2.549
  417.330   58.705    0.409    0.455    2.570
  417.580   59.874    0.402    0.462    2.624
  417.830   62.345    0.463    0.474    2.650
  418.080   65.255    0.474    0.479    2.678
  418.330   66.703    0.462    0.498    2.698
  418.580   67.357    0.456    0.498    2.771
  418.830   68.143    0.453    0.493    2.797
  419.080   70.069    0.461    0.488    2.833
  419.330   73.396    0.449    0.486    2.909
  419.580   75.937    0.450    0.484    3.037
  419.830   78.266    0.438    0.499    3.159
  420.080   80.402    0.422    0.518    3.211
  420.330   82.229    0.402    0.525    3.307
  420.580   82.016    0.371    0.535    3.342
  420.830   81.001    0.368    0.505    3.448
  421.080   80.953    0.348    0.487    3.600
  421.330   81.159    0.353    0.473    3.726
  421.580   81.856    0.371    0.465    3.993
  421.830   83.889    0.370    0.468    4.296
  422.080   86.493    0.379    0.471    4.579
  422.330   88.787    0.334    0.462    4.811
  422.580   89.615    0.305    0.453    4.957
  422.830   86.332    0.306    0.449    4.937
  423.080   88.471    0.298    0.452    4.943
  423.330   89.430    0.283    0.454    4.959
  423.580   89.269    0.285    0.462    4.972
  423.830   89.782    0.295    0.477    5.023
  424.080   91.266    0.282    0.488    5.105
  424.330   93.235    0.263    0.498    5.213
  424.580   95.067    0.252    0.509    5.276
  424.830   96.535    0.283    0.502    5.367
  425.080   98.600    0.301    0.483    5.462
  425.330  100.474    0.280    0.472    5.568
  425.580   99.581    0.266    0.470    5.621
  425.830  100.238    0.280    0.472    5.647
  426.080  100.281    0.292    0.467    5.517
  426.330  101.091    0.285    0.455    5.077
  426.580  101.157    0.284    0.453    4.449
  426.830   99.259    0.303    0.466    3.900
  427.080   95.852    0.315    0.472    3.480
  427.330   92.501    0.293    0.454    3.228
  427.580   89.547    0.278    0.450    3.196
  427.830   88.936    0.263    0.467    3.219
  428.080   94.967    0.268    0.492    3.238
  428.330  103.747    0.290    0.567    3.297
  428.580  108.999    0.349    0.608    3.352
  428.830  114.977    0.328    0.615    3.370
  429.080  111.934    0.311    0.610    3.418
  429.330  105.357    0.300    0.603    3.539
  429.580  103.598    0.310    0.609    3.696
  429.830  106.721    0.292    0.613    3.837
  430.080  110.301    0.313    0.608    4.029
  430.330  113.264    0.322    0.589    4.184
  430.580  113.971    0.313    0.577    4.410
  430.830  112.945    0.318    0.570    4.634
  431.080  110.384    0.318    0.548    4.782
  431.330  107.664    0.302    0.512    4.925
  431.580  105.721    0.279    0.467    5.050
  431.830  104.598    0.271    0.453    5.134
  432.080  104.841    0.283    0.465    5.193
  432.330  106.761    0.263    0.482    5.283
  432.580  108.758    0.256    0.496    5.350
  432.830  109.450    0.253    0.528    5.387
