~VERSION INFORMATION
 VERS.                 2.0:   CWLS LOG ASCII STANDARD -VERSION 2.0
 WRAP.                  NO:   ONE LINE PER DEPTH STEP
~WELL INFORMATION BLOCK
#MNEM.UNIT           DATA                    DESCRIPTION OF MNEMONIC
#---------    -------------------            -------------------------------
# Generated from Intellog Unique Number	CW_82_90/WELL/901
WELL.         HB ET AL MUSKWA 10-23          : Well_name    - WELL
LOC .         00/10-23-083-03W5/0            : Location     - LOCATION
UWI .         00/10-23-083-03W5/0            : Uwi          - UNIQUE WELL ID
ENTR.         JAYE                           : Entered      - ENTERED BY
SRVC.         WESTERN ATLAS                  : Scn          - SERVICE COMPANY
DATE.         14 MAR 77                      : Date         - LOG DATE
STRT.M        274.32                         : top_depth    - START DEPTH
STOP.M        472.32                         : bot_depth    - STOP DEPTH
STEP.M        0.25                           : increment    - STEP LENGTH
 NULL. -999.2500:NULL Value
~CURVE INFORMATION BLOCK
#MNEM UNIT       ERCB CURVE CODE    CURVE DESCRIPTION
#-----------   ------------------   ----------------------------------
DEPT.M        00 001 00 00         : DEPTH        - DEPTH
CALI.MM       00 280 01 00         : CAL          - CALIPER
GR  .API      00 310 00 00         : GR           - GAMMA RAY
NPHI.V/V      00 330 00 00         : PHIN         - NEUTRON POROSITY (SANDSTONE)
DPHI.V/V      00 890 00 00         : PHID         - DENSITY POROSITY (SANDSTONE)
ILD .OHMM     00 120 00 00         : RESD         - DEEP RESISTIVITY (DLL)
~PARAMETER INFORMATION
#MNEM.UNIT           DATA             DESCRIPTION OF MNEMONIC
#---------         -----------     ------------------------------
GL  .M        624.352              : gl           - GROUND LEVEL ELEVATION
EREF.M        627.522              : kb           - ELEVATION OF DEPTH REFERENCE
DATM.M        624.352              : datum        - DATUM ELEVATION
TDD .M        475.488              : tdd          - TOTAL DEPTH DRILLER
RUN .         ONE                  : Run          - RUN NUMBER
ENG .         GORDON               : Engineer     - RECORDING ENGINEER
WIT .         ROKOSH               : Witness      - WITNESSED BY
BASE.         EDMONTON             : Branch       - HOME BASE OF LOGGING UNIT
MUD .         GEL CHEM             : Mud_type     - MUD TYPE
MATR.         SANDSTONE            : Logunit      - NEUTRON MATRIX
TMAX.C        21.1111              : BHT          - MAXIMUM RECORDED TEMPERATURE
BHTD.M        475.488              : BHTDEP       - MAXIMUM RECORDED TEMPERATURE
RMT .C        18.3333              : MDTP         - TEMPERATURE OF MUD
MUDD.KG/M     9200                 : MWT          - MUD DENSITY
NEUT.         0                    : NEUTRON      - NEUTRON TYPE
RESI.         1                    : RESIST       - RESISTIVITY TYPE
RM  .OHMM     3.2                  : RM           - RESISTIVITY OF MUD
RMC .OHMM     2                    : RMC          - RESISTIVITY OF MUD CAKE
RMF .OHMM     2.2                  : RMF          - RESISTIVITY OF MUD FILTRATE
SUFT.C        -17.7778             : SUFT         - SURFACE TEMPERATURE
~A  DEPTH      CAL       GR     PHIN     PHID     RESD
# ...
  420.320  203.672   95.674    0.353    0.147    7.893
  420.570  206.347   92.971    0.346    0.144    7.901
  420.820  207.246   89.900    0.340    0.140    7.896
  421.070  207.418   89.539    0.338    0.133    7.846
  421.320  207.909   92.508    0.336    0.126    7.942
  421.570  208.502   94.303    0.327    0.113    8.918
  421.820  209.512   94.560    0.318    0.107   10.490
  422.070  210.104   92.782    0.316    0.100   11.734
  422.320  209.764   87.617    0.306    0.093   12.793
  422.570  207.859   84.299    0.293    0.082   13.413
  422.820  206.168   80.671    0.280    0.076   13.455
  423.070  205.294   76.059    0.277    0.068   13.103
  423.320  204.538   83.403    0.312    0.098   12.522
  423.570  204.194   88.650    0.309    0.109   11.280
  423.820  203.752   91.803    0.306    0.116    9.127
  424.070  202.158   91.134    0.326    0.132    8.871
  424.320  200.148   97.738    0.341    0.149    9.406
  424.570  196.788   97.993    0.332    0.152    9.538
  424.820  196.542   98.435    0.324    0.146    9.623
  425.070  197.766   94.685    0.317    0.139    9.631
  425.320  200.231   89.025    0.309    0.133    9.660
  425.570  203.112   84.598    0.316    0.139    8.866
  425.820  205.165   86.456    0.362    0.143    8.288
  426.070  206.068   91.891    0.362    0.146    7.995
  426.320  205.615   94.795    0.356    0.145    7.800
  426.570  204.859   96.471    0.353    0.143    7.638
  426.820  205.136   96.108    0.350    0.141    7.491
  427.070  204.789   97.967    0.347    0.139    7.270
  427.320  204.973   99.888    0.349    0.139    7.156
  427.570  205.038  100.083    0.351    0.139    7.047
  427.820  204.698   99.846    0.355    0.137    6.964
  428.070  203.521   99.423    0.360    0.134    7.246
  428.320  202.248   99.371    0.348    0.134    7.914
  428.570  202.105  101.229    0.338    0.135    8.360
  428.820  202.080  103.212    0.330    0.136    8.653
  429.070  202.354  104.268    0.324    0.138    8.567
  429.320  203.264  102.922    0.323    0.141    7.906
  429.570  204.896  104.535    0.331    0.146    7.189
  429.820  207.360  108.611    0.349    0.153    6.833
  430.070  206.603  112.565    0.349    0.155    6.447
  430.320  204.387  113.068    0.339    0.153    6.266
  430.570  203.314  109.811    0.330    0.146    6.414
  430.820  203.286  107.109    0.322    0.142    6.713
  431.070  203.253  106.811    0.309    0.138    7.293
  431.320  202.693  107.252    0.299    0.131    7.717
  431.570  202.457  106.214    0.292    0.123    8.506
  431.820  200.868   99.383    0.281    0.112    9.515
  432.070  199.167   95.325    0.273    0.101   12.096
  432.320  198.093   92.131    0.271    0.105   13.433
  432.570  197.239   92.572    0.296    0.110   16.669
  432.820  195.957   92.951    0.285    0.104   19.316
  433.070  197.487   91.235    0.277    0.084   18.914
  433.320  201.098   87.855    0.269    0.072   17.165
  433.570  201.787   87.805    0.263    0.095   14.710
  433.820  201.428   92.376    0.273    0.110   11.969
  434.070  201.108   95.404    0.286    0.129    9.436
  434.320  200.548   98.803    0.307    0.145    8.724
  434.570  200.211  101.893    0.314    0.161    9.424
  434.820  197.570  100.795    0.307    0.166   10.009
  435.070  200.348   99.264    0.302    0.159   10.973
  435.320  202.927   98.533    0.304    0.153   11.634
  435.570  203.614   98.666    0.304    0.146   11.391
  435.820  203.070   99.168    0.308    0.151   10.338
  436.070  202.830  101.089    0.315    0.166    9.042
  436.320  202.581  103.440    0.330    0.177    8.251
  436.570  201.412  105.852    0.338    0.184    7.628
  436.820  199.929  109.497    0.340    0.189    6.834
  437.070  200.934  114.562    0.355    0.185    6.226
  437.320  205.371  117.159    0.364    0.179    5.842
  437.570  208.256  118.895    0.358    0.173    5.552
  437.820  208.226  120.013    0.358    0.168    5.259
  438.070  207.563  120.946    0.373    0.166    4.999
  438.320  206.910  122.559    0.378    0.165    4.912
  438.570  205.738  125.467    0.372    0.165    4.901
  438.820  206.332  126.954    0.355    0.165    4.942
  439.070  208.271  127.394    0.350    0.165    5.077
  439.320  209.806  127.835    0.361    0.164    5.474
  439.570  211.021  128.092    0.356    0.163    6.046
  439.820  209.119  127.485    0.345    0.158    6.651
  440.070  203.868  120.655    0.325    0.151    8.693
  440.320  202.392  116.412    0.311    0.138   10.948
  440.570  202.051  105.207    0.299    0.124   11.437
  440.820  202.959  101.272    0.293    0.123   12.583
  441.070  204.275   97.892    0.289    0.121   14.449
  441.320  205.286   95.990    0.293    0.118   16.043
  441.570  206.590   96.433    0.303    0.102   16.515
  441.820  207.094   95.332    0.297    0.093   15.961
  442.070  207.473   93.802    0.289    0.084   13.679
  442.320  208.068   96.276    0.293    0.095   11.295
  442.570  208.249  104.174    0.309    0.105    9.503
  442.820  208.428  107.512    0.325    0.109    8.188
  443.070  207.982  110.479    0.334    0.113    7.322
  443.320  207.534  114.371    0.338    0.119    7.223
  443.570  206.249  118.386    0.345    0.126    7.339
  443.820  204.237  117.718    0.347    0.120    7.239
  444.070  203.069  114.955    0.338    0.115    6.794
  444.320  202.101  112.992    0.329    0.123    6.445
  444.570  202.061  116.268    0.337    0.150    5.914
  444.820  202.029  119.112    0.353    0.159    5.407
  445.070  202.319  123.189    0.359    0.159    5.314
  445.320  203.329  125.663    0.367    0.153    5.552
  445.570  204.751  124.626    0.369    0.150    5.704
  445.820  205.964  121.246    0.364    0.145    5.828
  446.070  207.387  115.525    0.360    0.138    5.878
  446.320  208.397  113.008    0.357    0.133    5.907
  446.570  209.078  112.401    0.355    0.133    5.869
  446.820  209.276  117.588    0.360    0.139    5.779
  447.070  209.449  121.295    0.366    0.144    5.765
  447.320  207.846  123.522    0.369    0.142    5.718
  447.570  207.206  125.935    0.361    0.138    5.578
  447.820  206.964  127.300    0.363    0.135    5.381
  448.070  207.039  124.229    0.359    0.135    5.115
  448.320  207.924  123.808    0.357    0.134    4.711
  448.570  208.319  125.913    0.351    0.133    4.528
  448.820  209.128  127.525    0.347    0.130    4.856
  449.070  209.825  128.460    0.342    0.122    5.091
  449.320  210.417  128.347    0.335    0.114    5.622
  449.570  210.903  127.863    0.324    0.105    6.060
  449.820  210.355  124.975    0.289    0.097    6.669
  450.070  210.634  115.186    0.280    0.093    7.405
  450.320  211.851  117.475    0.298    0.102    7.896
  450.570  210.154  120.320    0.309    0.111    8.495
  450.820  209.709  121.255    0.305    0.105   10.235
  451.070  206.244  113.499    0.292    0.100   12.354
  451.320  206.000  104.819    0.280    0.093   17.321
  451.570  206.178   99.467    0.269    0.084   19.451
  451.820  204.484   92.699    0.260    0.075   18.799
  452.070  203.306   90.491    0.252    0.059   16.112
  452.320  202.234   90.500    0.269    0.083   11.688
  452.570  202.407   90.512    0.302    0.112    8.814
  452.820  202.692   92.737    0.336    0.130    7.652
  453.070  203.805   97.430    0.343    0.158    7.789
  453.320  204.810  101.138    0.341    0.159    7.626
  453.570  205.819  104.476    0.340    0.156    7.664
  453.820  205.684  105.102    0.341    0.152    8.172
  454.070  204.717  103.632    0.330    0.149    8.584
  454.320  203.545  101.053    0.323    0.148    9.445
  454.570  202.675   98.043    0.322    0.145   10.584
  454.820  202.021   96.697    0.323    0.139   11.907
  455.070  202.096   95.228    0.319    0.130   12.324
  455.320  202.380   93.883    0.316    0.126   13.044
  455.570  201.825   92.536    0.312    0.138   13.108
  455.820  201.481   91.189    0.306    0.136   12.528
  456.070  201.553   90.153    0.300    0.133   11.604
  456.320  201.212   90.163    0.300    0.137   10.630
  456.570  201.078   90.910    0.309    0.147    9.664
