~VERSION INFORMATION
 VERS.                 2.0:   CWLS LOG ASCII STANDARD -VERSION 2.0
 WRAP.                  NO:   ONE LINE PER DEPTH STEP
~WELL INFORMATION BLOCK
#MNEM.UNIT           DATA                    DESCRIPTION OF MNEMONIC
#---------    -------------------            -------------------------------
# Generated from Intellog Unique Number	CW_82_90/WELL/3450
WELL.         SHERRITT LIEGE 11-18           : Well_name    - WELL
LOC .         00/11-18-090-22W4/0            : Location     - LOCATION
UWI .         00/11-18-090-22W4/0            : Uwi          - UNIQUE WELL ID
ENTR.         JJ                             : Entered      - ENTERED BY
SRVC.         WESTERN ATLAS                  : Scn          - SERVICE COMPANY
DATE.         4 FEB 89                       : Date         - LOG DATE
STRT.M        80                             : top_depth    - START DEPTH
STOP.M        240                            : bot_depth    - STOP DEPTH
STEP.M        0.25                           : increment    - STEP LENGTH
 NULL. -999.2500:NULL Value
~CURVE INFORMATION BLOCK
#MNEM UNIT       ERCB CURVE CODE    CURVE DESCRIPTION
#-----------   ------------------   ----------------------------------
DEPT.M        00 001 00 00         : DEPTH        - DEPTH
DPHI.V/V      00 890 00 00         : PHID         - DENSITY POROSITY (SANDSTONE)
NPHI.V/V      00 330 00 00         : PHIN         - NEUTRON POROSITY (SANDSTONE)
GR  .API      00 310 00 00         : GR           - GAMMA RAY
CALI.MM       00 280 01 00         : CAL          - CALIPER
ILD .OHMM     00 120 00 00         : RESD         - DEEP RESISTIVITY (DIL)
~PARAMETER INFORMATION
#MNEM.UNIT           DATA             DESCRIPTION OF MNEMONIC
#---------         -----------     ------------------------------
GL  .M        510                  : gl           - GROUND LEVEL ELEVATION
EREF.M        513.9                : kb           - ELEVATION OF DEPTH REFERENCE
DATM.M        513.9                : datum        - DATUM ELEVATION
TDD .M        240                  : tdd          - TOTAL DEPTH DRILLER
RUN .         ONE                  : Run          - RUN NUMBER
ENG .         SMYTHE               : Engineer     - RECORDING ENGINEER
WIT .         WILLIAMS             : Witness      - WITNESSED BY
BASE.         MED HAT              : Branch       - HOME BASE OF LOGGING UNIT
MUD .         GEL CAUSTIC          : Mud_type     - MUD TYPE
MATR.         SANDSTONE            : Logunit      - NEUTRON MATRIX
TMAX.C        16                   : BHT          - MAXIMUM RECORDED TEMPERATURE
BHTD.M        239.7                : BHTDEP       - MAXIMUM RECORDED TEMPERATURE
RMT .C        15                   : MDTP         - TEMPERATURE OF MUD
MUDD.KG/M     1130                 : MWT          - MUD DENSITY
NEUT.         1                    : NEUTRON      - NEUTRON TYPE
RESI.         0                    : RESIST       - RESISTIVITY TYPE
RM  .OHMM     4.5                  : RM           - RESISTIVITY OF MUD
RMC .OHMM     3.9                  : RMC          - RESISTIVITY OF MUD CAKE
RMF .OHMM     0                    : RMF          - RESISTIVITY OF MUD FILTRATE
SUFT.C        5                    : SUFT         - SURFACE TEMPERATURE
~A  DEPTH     PHID     PHIN       GR      CAL     RESD
# ...
  116.500    0.319    0.431   95.716  168.646    3.860
  116.750    0.314    0.414   96.745  167.416    4.229
  117.000    0.308    0.427  101.064  166.488    4.774
  117.250    0.315    0.417   98.681  165.462    5.329
  117.500    0.316    0.414   94.958  165.149    5.743
  117.750    0.302    0.416   91.418  165.542    5.735
  118.000    0.291    0.405   86.415  166.445    5.439
  118.250    0.288    0.384   82.997  168.365    5.215
  118.500    0.272    0.390   86.950  170.790    5.103
  118.750    0.271    0.410   94.316  172.302    5.013
  119.000    0.268    0.405  105.580  172.597    4.870
  119.250    0.262    0.416  105.513  172.890    4.792
  119.500    0.273    0.415  104.227  172.067    4.742
  119.750    0.271    0.419   99.041  170.430    4.684
  120.000    0.263    0.434  105.432  168.186    4.652
  120.250    0.254    0.446  106.400  168.377    4.620
  120.500    0.256    0.442  106.454  171.514    4.538
  120.750    0.268    0.427  105.777  175.464    4.541
  121.000    0.279    0.422  104.064  177.585    4.621
  121.250    0.273    0.448  101.621  175.745    4.674
  121.500    0.257    0.445  100.884  175.735    4.678
  121.750    0.246    0.439  104.837  179.480    4.672
  122.000    0.256    0.397   98.799  183.123    4.675
  122.250    0.276    0.397  101.228  179.355    4.661
  122.500    0.271    0.414  108.777  174.675    4.629
  122.750    0.252    0.446  109.684  170.296    4.564
  123.000    0.238    0.450  109.616  169.779    4.516
  123.250    0.241    0.447  110.463  170.478    4.427
  123.500    0.288    0.452  105.095  170.061    4.245
  123.750    0.289    0.441  107.342  169.238    4.178
  124.000    0.266    0.431  113.916  169.430    4.211
  124.250    0.248    0.423  111.959  170.230    4.317
  124.500    0.273    0.435  108.541  170.218    4.432
  124.750    0.298    0.448  104.330  170.310    4.681
  125.000    0.328    0.438   96.343  171.416    4.888
  125.250    0.361    0.438   84.943  173.131    5.047
  125.500    0.338    0.432   91.334  163.474    5.231
  125.750    0.296    0.418   93.215  160.009    5.596
  126.000    0.305    0.418   82.973  163.044    5.843
  126.250    0.319    0.425   72.975  165.775    6.158
  126.500    0.307    0.423   73.395  163.327    6.406
  126.750    0.292    0.409   78.627  159.458    6.728
  127.000    0.305    0.388   74.478  165.133    6.769
  127.250    0.309    0.386   79.041  172.535    6.094
  127.500    0.299    0.403   86.406  175.875    5.486
  127.750    0.299    0.406   83.475  174.847    4.966
  128.000    0.310    0.420   84.321  170.570    4.414
  128.250    0.299    0.440   96.317  168.226    3.930
  128.500    0.285    0.454  104.900  167.501    3.740
  128.750    0.295    0.450  107.331  167.797    3.606
  129.000    0.303    0.441  104.461  169.106    3.575
  129.250    0.309    0.448  100.676  171.430    3.611
  129.500    0.315    0.476   95.734  173.144    3.728
  129.750    0.315    0.457   92.561  175.772    4.185
  130.000    0.311    0.444   92.371  176.372    4.611
  130.250    0.309    0.435   95.289  175.346    5.044
  130.500    0.303    0.418   90.469  172.898    5.375
  130.750    0.293    0.402   83.578  170.552    5.644
  131.000    0.264    0.394   84.606  169.423    5.644
  131.250    0.264    0.402   87.281  168.901    6.364
  131.500    0.278    0.407   85.324  169.907    6.534
  131.750    0.280    0.404   85.440  172.332    6.799
  132.000    0.271    0.393   89.088  174.252    6.930
  132.250    0.274    0.385   91.397  170.992    7.024
  132.500    0.279    0.386   93.827  169.762    7.029
  132.750    0.290    0.391   94.734  169.955    6.916
  133.000    0.304    0.402   91.499  175.121    6.632
  133.250    0.276    0.408   90.395  178.463    6.185
  133.500    0.261    0.415   94.166  179.972    6.053
  133.750    0.277    0.407  101.958  180.572    6.053
  134.000    0.290    0.390   97.016  179.951    6.053
  134.250    0.276    0.402   96.462  180.041    6.460
  134.500    0.270    0.412   93.835  178.610    6.671
  134.750    0.297    0.412   89.137  164.688    6.926
  135.000    0.297    0.405   87.729  161.424    7.085
  135.250    0.297    0.394   85.834  161.111    7.509
  135.500    0.336    0.388   90.823  162.214    8.137
  135.750    0.301    0.373   90.511  163.526    8.720
  136.000    0.300    0.366   87.093  166.864    9.090
  136.250    0.255    0.376   83.065  169.596    9.162
  136.500    0.255    0.382   79.890  174.559    9.101
  136.750    0.265    0.374   82.686  179.117    9.005
  137.000    0.265    0.370   84.507  184.285    8.604
  137.250    0.282    0.365   85.963  189.149    7.919
  137.500    0.276    0.373   90.526  190.660    7.089
  137.750    0.275    0.407   93.992  185.879    6.139
  138.000    0.292    0.418   88.441  179.672    5.276
  138.250    0.296    0.410   89.104  176.819    4.468
  138.500    0.309    0.412   91.047  175.791    4.214
  138.750    0.281    0.436   92.442  176.491    4.255
  139.000    0.276    0.443   95.543  180.440    4.386
  139.250    0.268    0.436   93.769  184.086    4.372
  139.500    0.294    0.452   95.712  180.419    3.936
  139.750    0.292    0.483  100.153  178.579    3.651
  140.000    0.292    0.471  102.461  179.280    3.613
  140.250    0.265    0.465  103.978  181.399    3.655
  140.500    0.279    0.463  106.591  177.430    3.733
  140.750    0.278    0.458  109.022  171.529    3.848
  141.000    0.253    0.450  106.517  166.948    3.922
  141.250    0.252    0.444  101.941  163.282    4.057
  141.500    0.284    0.474  103.030  162.357    4.285
  141.750    0.290    0.486  103.390  162.346    4.441
  142.000    0.281    0.478   98.936  163.655    4.560
  142.250    0.264    0.461   93.140  167.601    4.632
  142.500    0.270    0.445   89.418  170.536    4.660
  142.750    0.291    0.432   89.533  172.251    4.620
  143.000    0.303    0.425   95.254  173.560    4.521
  143.250    0.303    0.406   97.257  173.650    4.376
  143.500    0.269    0.420   97.555  173.335    4.266
  143.750    0.271    0.433  100.047  173.732    4.175
  144.000    0.275    0.438  108.509  175.954    4.139
  144.250    0.272    0.445  106.248  176.959    4.133
  144.500    0.273    0.426  100.148  174.506    4.213
  144.750    0.283    0.414   98.375  173.584    4.161
  145.000    0.275    0.395   99.221  172.759    3.953
  145.250    0.275    0.416  103.662  172.140    3.927
  145.500    0.275    0.441  106.640  171.417    3.944
  145.750    0.273    0.443  105.538  170.695    4.179
  146.000    0.265    0.448  105.713  170.380    4.546
  146.250    0.265    0.444  103.636  169.964    5.019
  146.500    0.277    0.417   98.815  169.243    5.592
  146.750    0.276    0.386   96.372  166.995    6.673
  147.000    0.247    0.366   91.796  166.375    7.687
  147.250    0.210    0.348   86.245  167.787    8.315
  147.500    0.158    0.346   82.156  170.111    8.554
  147.750    0.248    0.344   77.398  173.552    7.831
  148.000    0.250    0.363   81.656  176.183    7.050
  148.250    0.279    0.380   87.741  177.898    6.335
  148.500    0.280    0.405   90.050  175.550    5.609
  148.750    0.282    0.436   91.323  172.799    4.957
  149.000    0.282    0.464   99.054  170.958    4.657
  149.250    0.270    0.470  106.480  170.034    4.326
  149.500    0.270    0.469  104.767  169.310    3.925
  149.750    0.276    0.467   97.815  169.096    3.742
  150.000    0.273    0.462  102.560  169.798    3.581
  150.250    0.269    0.458  105.905  171.206    3.485
  150.500    0.268    0.457  109.858  170.486    3.488
  150.750    0.277    0.457  111.375  168.342    3.772
  151.000    0.291    0.452  104.301  165.997    4.370
  151.250    0.291    0.443  100.212  161.009    4.978
  151.500    0.277    0.444   94.296  157.242    5.588
  151.750    0.266    0.423   92.339  154.183    6.402
  152.000    0.296    0.399   89.043  152.548    7.160
  152.250    0.296    0.407   83.371  152.335    7.312
  152.500    0.289    0.402   76.783  153.744    6.474
  152.750    0.298    0.410   81.955  156.271    5.720
