~VERSION INFORMATION
 VERS.                 2.0:   CWLS LOG ASCII STANDARD -VERSION 2.0
 WRAP.                  NO:   ONE LINE PER DEPTH STEP
~WELL INFORMATION BLOCK
#MNEM.UNIT           DATA                    DESCRIPTION OF MNEMONIC
#---------    -------------------            -------------------------------
# Generated from Intellog Unique Number	CS_69_70/WELL/887
WELL.         BRALORNE RESOURCES LIMITED     : Well_name    - WELL
LOC .         00/11-15-069-10W4/0            : Location     - LOCATION
UWI .         00/11-15-069-10W4/0            : Uwi          - UNIQUE WELL ID
ENTR.         SP                             : Entered      - ENTERED BY
SRVC.         SCHLUMBERGER                   : Scn          - SERVICE COMPANY
STRT.M        381                            : top_depth    - START DEPTH
STOP.M        600.25                         : bot_depth    - STOP DEPTH
STEP.M        0.25                           : increment    - STEP LENGTH
 NULL. -999.2500:NULL Value
~CURVE INFORMATION BLOCK
#MNEM UNIT       ERCB CURVE CODE    CURVE DESCRIPTION
#-----------   ------------------   ----------------------------------
DEPT.M        00 001 00 00         : DEPTH        - DEPTH
GR  .API      00 310 00 00         : GR           - GAMMA RAY
DPHI.V/V      00 890 00 00         : PHID         - DENSITY POROSITY (SANDSTONE)
NPHI.V/V      00 330 00 00         : PHIN         - NEUTRON POROSITY (SANDSTONE)
ILD .OHMM     00 120 00 00         : RESD         - DEEP RESISTIVITY (DIL)
~PARAMETER INFORMATION
#MNEM.UNIT           DATA             DESCRIPTION OF MNEMONIC
#---------         -----------     ------------------------------
GL  .M        708.05               : gl           - GROUND LEVEL ELEVATION
EREF.M        712.47               : kb           - ELEVATION OF DEPTH REFERENCE
DATM.M        708.05               : datum        - DATUM ELEVATION
TDD .M        605.638              : tdd          - TOTAL DEPTH DRILLER
RUN .         ONE                  : Run          - RUN NUMBER
ENG .         BILL                 : Engineer     - RECORDING ENGINEER
WIT .         JIM                  : Witness      - WITNESSED BY
MUD .         GEL                  : Mud_type     - MUD TYPE
MATR.         SANDSTONE            : Logunit      - NEUTRON MATRIX
TMAX.C        15.5556              : BHT          - MAXIMUM RECORDED TEMPERATURE
BHTD.M        605.638              : BHTDEP       - MAXIMUM RECORDED TEMPERATURE
MATR.         1                    : LOGUNIT      - NEUTRON MATRIX
RMT .C        25                   : MDTP         - TEMPERATURE OF MUD
NEUT.         1                    : NEUTRON      - NEUTRON TYPE
RESI.         0                    : RESIST       - RESISTIVITY TYPE
RMC .OHMM     0.25                 : RMC          - RESISTIVITY OF MUD CAKE
RMF .OHMM     0.25                 : RMF          - RESISTIVITY OF MUD FILTRATE
SUFT.C        15                   : SUFT         - SURFACE TEMPERATURE
~A  DEPTH       GR     PHID     PHIN     RESD
# ...
  511.500  102.057    0.214    0.445    4.664
  511.750  102.741    0.213    0.443    4.389
  512.000  103.671    0.228    0.454    4.102
  512.250  105.227    0.239    0.469    3.833
  512.500  106.371    0.234    0.491    3.546
  512.750  104.371    0.226    0.512    3.321
  513.000  108.620    0.253    0.525    3.136
  513.250  111.705    0.253    0.534    2.943
  513.500  112.435    0.245    0.540    2.677
  513.750  112.248    0.256    0.528    2.575
  514.000  112.067    0.258    0.516    2.436
  514.250  112.392    0.256    0.522    2.286
  514.500  111.730    0.258    0.540    2.186
  514.750  111.062    0.263    0.545    2.145
  515.000  113.551    0.266    0.561    2.134
  515.250  115.167    0.285    0.577    2.184
  515.500  115.952    0.273    0.572    2.302
  515.750  115.840    0.267    0.550    2.380
  516.000  115.128    0.262    0.533    2.491
  516.250  112.465    0.252    0.520    2.645
  516.500  107.716    0.245    0.508    2.796
  516.750  108.641    0.238    0.506    2.990
  517.000  109.235    0.242    0.519    3.164
  517.250  107.706    0.246    0.528    3.398
  517.500  104.383    0.257    0.517    3.637
  517.750  100.898    0.260    0.497    3.784
  518.000   98.284    0.226    0.478    3.766
  518.250   95.432    0.244    0.467    3.893
  518.500   93.770    0.251    0.473    4.073
  518.750   91.948    0.261    0.488    4.323
  519.000   89.800    0.263    0.505    4.496
  519.250   88.143    0.255    0.489    4.746
  519.500   89.291    0.242    0.472    4.932
  519.750   92.300    0.205    0.458    4.980
  520.000   93.546    0.201    0.467    4.971
  520.250   95.284    0.222    0.478    4.909
  520.500   98.196    0.223    0.474    4.810
  520.750  100.572    0.220    0.463    4.764
  521.000  101.942    0.219    0.459    4.852
  521.250  102.411    0.227    0.459    4.961
  521.500   99.927    0.240    0.452    5.325
  521.750   97.099    0.250    0.454    5.902
  522.000   95.127    0.236    0.459    6.418
  522.250   92.580    0.220    0.446    6.758
  522.500   89.903    0.183    0.430    7.225
  522.750   87.865    0.152    0.411    7.337
  523.000   89.801    0.132    0.399    6.829
  523.250   93.601    0.183    0.381    6.283
  523.500   98.305    0.216    0.419    5.833
  523.750  102.648    0.230    0.437    5.497
  524.000  103.980    0.231    0.460    5.235
  524.250  104.771    0.227    0.450    5.034
  524.500  103.999    0.222    0.438    4.893
  524.750  103.970    0.210    0.429    4.824
  525.000  104.513    0.217    0.436    4.744
  525.250  105.052    0.230    0.441    4.787
  525.500  105.430    0.227    0.435    4.764
  525.750  105.561    0.226    0.429    4.725
  526.000  105.556    0.228    0.424    4.673
  526.250  105.960    0.230    0.417    4.624
  526.500  105.836    0.228    0.417    4.564
  526.750  104.910    0.225    0.435    4.511
  527.000  103.648    0.225    0.447    4.513
  527.250  102.342    0.236    0.449    4.511
  527.500  102.140    0.229    0.444    4.497
  527.750  103.766    0.228    0.450    4.448
  528.000  108.650    0.237    0.456    4.426
  528.250  112.319    0.228    0.463    4.405
  528.500  114.607    0.222    0.465    4.386
  528.750  113.994    0.216    0.461    4.387
  529.000  108.781    0.221    0.464    4.365
  529.250  104.251    0.239    0.449    4.344
  529.500  102.398    0.258    0.424    4.293
  529.750  102.990    0.264    0.415    4.285
  530.000  103.461    0.247    0.423    4.280
  530.250  103.545    0.239    0.427    4.275
  530.500  103.289    0.263    0.422    4.269
  530.750  102.593    0.255    0.417    4.277
  531.000  101.949    0.247    0.410    4.245
  531.250  100.489    0.240    0.404    4.223
  531.500   98.327    0.217    0.412    4.194
  531.750   94.973    0.211    0.428    4.125
  532.000   92.640    0.230    0.445    3.820
  532.250   91.610    0.247    0.469    3.311
  532.500   93.870    0.255    0.449    3.094
  532.750  100.368    0.230    0.438    2.882
  533.000  103.729    0.201    0.469    2.550
  533.250  102.217    0.222    0.493    2.452
  533.500  100.191    0.244    0.517    2.300
  533.750   99.146    0.258    0.525    2.201
  534.000   98.504    0.276    0.517    2.194
  534.250   96.486    0.269    0.507    2.303
  534.500   93.773    0.265    0.500    2.481
  534.750   90.774    0.233    0.493    2.692
  535.000   86.882    0.244    0.463    2.955
  535.250   86.445    0.258    0.432    3.280
  535.500   90.563    0.263    0.412    3.562
  535.750   93.117    0.225    0.407    3.684
  536.000   95.526    0.193    0.426    3.666
  536.250   97.693    0.190    0.442    3.637
  536.500  100.059    0.215    0.452    3.650
  536.750   95.402    0.222    0.444    3.876
  537.000   93.291    0.231    0.437    4.117
  537.250   95.242    0.231    0.432    4.351
  537.500   95.615    0.223    0.424    4.668
  537.750   92.950    0.238    0.424    4.869
  538.000   90.102    0.194    0.417    5.173
  538.250   88.477    0.164    0.398    5.294
  538.500   89.594    0.131    0.385    5.154
  538.750   92.310    0.129    0.376    4.883
  539.000   95.995    0.154    0.394    4.557
  539.250   99.775    0.171    0.399    4.131
  539.500  104.289    0.153    0.399    3.702
  539.750  109.213    0.146    0.414    3.345
  540.000  111.883    0.177    0.429    3.110
  540.250  112.641    0.201    0.447    2.916
  540.500  113.625    0.187    0.469    2.795
  540.750  116.644    0.172    0.486    2.689
  541.000  119.192    0.177    0.480    2.674
  541.250  118.548    0.187    0.474    2.660
  541.500  117.048    0.211    0.477    2.689
  541.750  116.902    0.210    0.481    2.700
  542.000  117.079    0.218    0.485    2.728
  542.250  115.262    0.208    0.488    2.716
  542.500  113.456    0.226    0.490    2.620
  542.750  115.845    0.219    0.482    2.523
  543.000  118.524    0.214    0.467    2.430
  543.250  121.196    0.208    0.481    2.381
  543.500  122.401    0.204    0.503    2.372
  543.750  122.803    0.226    0.518    2.426
  544.000  122.143    0.207    0.496    2.594
  544.250  120.984    0.231    0.489    2.839
  544.500  110.641    0.233    0.488    3.169
  544.750   99.445    0.201    0.497    3.754
  545.000   88.222    0.194    0.470    4.593
  545.250   80.307    0.197    0.438    5.350
  545.500   80.335    0.181    0.415    6.098
  545.750   82.962    0.157    0.387    6.723
  546.000   80.891    0.178    0.413    7.086
  546.250   75.445    0.093    0.396    7.398
  546.500   72.012    0.063    0.320    7.420
  546.750   71.822    0.091    0.307    7.394
  547.000   71.915    0.203    0.357    7.370
  547.250   72.039    0.220    0.373    7.338
  547.500   72.533    0.232    0.383    7.355
  547.750   74.955    0.241    0.392    7.465
  548.000   75.680    0.248    0.396    7.713
  548.250   73.525    0.234    0.400    8.052
  548.500   72.325    0.233    0.404    8.437
  548.750   71.484    0.233    0.408    8.877
  549.000   70.657    0.209    0.370    9.114
  549.250   70.765    0.164    0.305    8.902
  549.500   77.553    0.051    0.285    8.457
  549.750   86.090    0.044    0.306    7.900
  550.000   93.698    0.160    0.385    6.589
  550.250   97.879    0.214    0.417    6.124
  550.500   99.802    0.233    0.427    6.502
  550.750   99.955    0.245    0.429    7.061
  551.000   99.682    0.256    0.421    7.759
  551.250   96.239    0.260    0.410    8.342
  551.500   91.264    0.262    0.400    8.360
  551.750   93.933    0.267    0.392    7.828
  552.000  100.068    0.272    0.384    7.437
  552.250  105.675    0.258    0.380    7.057
  552.500  109.473    0.233    0.389    6.844
  552.750  111.902    0.207    0.395    6.714
  553.000  105.547    0.221    0.392    6.786
  553.250   97.381    0.237    0.384    7.008
  553.500   92.707    0.247    0.384    7.128
  553.750   92.604    0.250    0.393    7.147
  554.000   91.567    0.252    0.404    6.693
  554.250   87.217    0.255    0.412    5.818
  554.500   79.383    0.269    0.407    4.823
  554.750   73.637    0.279    0.397    4.334
