~VERSION INFORMATION
 VERS.                 2.0:   CWLS LOG ASCII STANDARD -VERSION 2.0
 WRAP.                  NO:   ONE LINE PER DEPTH STEP
~WELL INFORMATION BLOCK
#MNEM.UNIT           DATA                    DESCRIPTION OF MNEMONIC
#---------    -------------------            -------------------------------
# Generated from Intellog Unique Number	CW_79_81/WELL/2484
WELL.         11-12-081-25W4                 : Well_name    - WELL
LOC .         00/11-12-081-25W4/0            : Location     - LOCATION
UWI .         00/11-12-081-25W4/0            : Uwi          - UNIQUE WELL ID
ENTR.         MAX                            : Entered      - ENTERED BY
SRVC.         SCHLUMBERGER                   : Scn          - SERVICE COMPANY
STRT.M        250                            : top_depth    - START DEPTH
STOP.M        464.75                         : bot_depth    - STOP DEPTH
STEP.M        0.25                           : increment    - STEP LENGTH
 NULL. -999.2500:NULL Value
~CURVE INFORMATION BLOCK
#MNEM UNIT       ERCB CURVE CODE    CURVE DESCRIPTION
#-----------   ------------------   ----------------------------------
DEPT.M        00 001 00 00         : DEPTH        - DEPTH
ILD .OHMM     00 120 00 00         : RESD         - DEEP RESISTIVITY (DIL)
NPHI.V/V      00 330 00 00         : PHIN         - NEUTRON POROSITY (SANDSTONE)
DPHI.V/V      00 890 00 00         : PHID         - DENSITY POROSITY (SANDSTONE)
GR  .API      00 310 00 00         : GR           - GAMMA RAY
CALI.MM       00 280 01 00         : CAL          - CALIPER
~PARAMETER INFORMATION
#MNEM.UNIT           DATA             DESCRIPTION OF MNEMONIC
#---------         -----------     ------------------------------
GL  .M        605.55               : gl           - GROUND LEVEL ELEVATION
EREF.M        609.55               : kb           - ELEVATION OF DEPTH REFERENCE
DATM.M        605.55               : datum        - DATUM ELEVATION
TDD .M        511                  : tdd          - TOTAL DEPTH DRILLER
RUN .         ONE                  : Run          - RUN NUMBER
ENG .         BILL                 : Engineer     - RECORDING ENGINEER
WIT .         JIM                  : Witness      - WITNESSED BY
MUD .         GEL                  : Mud_type     - MUD TYPE
MATR.         SANDSTONE            : Logunit      - NEUTRON MATRIX
TMAX.C        34.2                 : BHT          - MAXIMUM RECORDED TEMPERATURE
BHTD.M        511                  : BHTDEP       - MAXIMUM RECORDED TEMPERATURE
MATR.         1                    : LOGUNIT      - NEUTRON MATRIX
RMT .C        13.3                 : MDTP         - TEMPERATURE OF MUD
NEUT.         1                    : NEUTRON      - NEUTRON TYPE
RESI.         0                    : RESIST       - RESISTIVITY TYPE
RMC .OHMM     7                    : RMC          - RESISTIVITY OF MUD CAKE
RMF .OHMM     6.8                  : RMF          - RESISTIVITY OF MUD FILTRATE
SUFT.C        -20                  : SUFT         - SURFACE TEMPERATURE
~A  DEPTH     RESD     PHIN     PHID       GR      CAL
  250.000    3.137    0.528    0.332   75.559  225.559
  250.250    3.138    0.542    0.318   76.515  221.451
  250.500    3.121    0.543    0.306   76.512  220.305
  250.750    3.076    0.536    0.292   75.432  220.264
  251.000    3.026    0.525    0.283   73.475  220.617
  251.250    3.076    0.510    0.291   70.853  221.127
  251.500    3.351    0.489    0.305   68.391  221.896
  251.750    4.360    0.459    0.308   62.979  221.861
  252.000    6.003    0.414    0.319   53.348  218.016
  252.250    9.000    0.378    0.327   44.656  212.315
  252.500   14.572    0.363    0.329   39.246  207.200
  252.750   20.403    0.369    0.331   36.689  205.428
  253.000   21.210    0.384    0.339   36.906  204.570
  253.250   20.597    0.390    0.346   36.885  203.751
  253.500   20.339    0.392    0.350   36.863  203.227
  253.750   20.195    0.388    0.350   37.072  202.995
  254.000   20.052    0.379    0.347   37.573  202.859
  254.250   19.879    0.370    0.346   38.396  202.340
  254.500   19.732    0.369    0.347   39.104  201.893
  254.750   19.882    0.376    0.348   39.784  201.460
  255.000   20.034    0.375    0.353   40.115  201.323
  255.250   20.113    0.373    0.356   40.329  201.483
  255.500   20.118    0.375    0.354   40.540  201.840
  255.750   20.123    0.382    0.359   40.746  202.180
  256.000   20.128    0.382    0.369   40.719  202.144
  256.250   20.133    0.385    0.365   40.696  202.094
  256.500   20.249    0.388    0.361   41.377  202.058
  256.750   20.329    0.388    0.374   42.058  202.025
  257.000   20.297    0.386    0.415   42.973  202.674
  257.250   20.091    0.384    0.493   46.412  208.862
  257.500   19.790    0.395    0.516   52.002  226.312
  257.750   19.360    0.460    0.571   60.179  253.613
  258.000   18.414    0.479    0.592   72.574  269.776
  258.250   17.629    0.476    0.537   82.978  270.323
  258.500   17.089    0.464    0.428   81.199  251.838
  258.750   16.426    0.452    0.347   52.710  211.630
  259.000   16.180    0.448    0.278   50.972  209.958
  259.250   16.187    0.459    0.271   50.951  209.537
  259.500   16.189    0.473    0.285   51.108  209.104
  259.750   16.430    0.477    0.296   51.087  208.870
  260.000   17.135    0.473    0.293   50.770  209.031
  260.250   18.827    0.476    0.273   50.513  209.762
  260.500   20.032    0.479    0.267   51.714  209.721
  260.750   20.483    0.467    0.256   54.029  209.683
  261.000   20.489    0.463    0.249   56.176  210.526
  261.250   19.736    0.462    0.240   58.616  211.463
  261.500   18.728    0.460    0.226   61.112  212.007
  261.750   18.654    0.457    0.210   62.283  212.124
  262.000   19.695    0.480    0.220   60.065  212.901
  262.250   21.812    0.501    0.298   49.967  212.863
  262.500   26.991    0.498    0.335   43.557  212.241
  262.750   33.835    0.483    0.344   39.901  211.419
  263.000   38.782    0.468    0.336   38.121  210.693
  263.250   39.310    0.460    0.322   37.389  210.015
  263.500   39.017    0.451    0.306   37.367  208.755
  263.750   41.081    0.454    0.285   37.112  207.939
  264.000   43.260    0.471    0.288   36.677  208.289
  264.250   45.403    0.477    0.302   36.420  210.201
  264.500   47.307    0.470    0.317   36.339  212.702
  264.750   49.181    0.465    0.332   35.977  213.606
  265.000   51.526    0.465    0.346   35.468  214.375
  265.250   52.304    0.469    0.352   35.908  214.731
  265.500   52.221    0.470    0.354   36.880  215.078
  265.750   52.040    0.475    0.352   37.444  215.426
  266.000   52.051    0.482    0.349   37.366  215.682
  266.250   51.985    0.475    0.344   37.056  215.723
  266.500   51.600    0.479    0.331   36.790  216.086
  266.750   50.858    0.466    0.332   36.764  216.434
  267.000   49.845    0.461    0.341   37.092  216.784
  267.250   48.947    0.470    0.347   37.419  217.140
  267.500   48.422    0.485    0.347   37.571  217.595
  267.750   48.583    0.485    0.343   37.645  218.493
  268.000   49.352    0.483    0.338   38.109  219.270
  268.250   50.834    0.483    0.330   36.675  221.575
  268.500   52.936    0.476    0.331   35.774  223.000
  268.750   55.147    0.482    0.332   35.283  223.545
  269.000   57.337    0.503    0.330   35.085  222.820
  269.250   60.417    0.514    0.325   35.060  219.959
  269.500   62.806    0.504    0.324   35.038  219.512
  269.750   64.695    0.497    0.324   35.010  218.700
  270.000   65.558    0.492    0.326   34.636  217.589
  270.250   65.330    0.491    0.326   33.912  216.182
  270.500   64.629    0.493    0.321   33.070  214.872
  270.750   64.448    0.486    0.318   32.715  214.437
  271.000   63.485    0.484    0.329   33.426  214.389
  271.250   61.647    0.491    0.329   34.577  213.967
  271.500   59.867    0.504    0.327   35.723  213.833
  271.750   58.359    0.516    0.331   36.639  213.597
  272.000   57.096    0.519    0.337   37.262  213.263
  272.250   55.428    0.496    0.339   37.601  213.135
  272.500   53.363    0.477    0.333   37.091  212.688
  272.750   51.815    0.466    0.333   36.833  212.255
  273.000   49.473    0.471    0.333   37.630  211.833
  273.250   45.364    0.482    0.334   39.130  211.215
  273.500   40.022    0.491    0.336   40.981  210.296
  273.750   32.638    0.492    0.341   43.071  209.075
  274.000   25.324    0.486    0.337   44.267  209.039
  274.250   19.721    0.475    0.327   44.483  208.996
  274.500   16.371    0.464    0.303   42.938  208.661
  274.750   14.843    0.452    0.266   41.624  208.429
  275.000   14.392    0.439    0.233   41.598  208.494
  275.250   14.207    0.436    0.255   42.883  208.998
  275.500   14.320    0.465    0.327   42.371  209.764
  275.750   15.521    0.469    0.342   41.645  210.123
  276.000   17.098    0.466    0.345   41.270  210.480
  276.250   19.788    0.463    0.345   41.597  211.027
  276.500   24.069    0.464    0.346   42.627  211.669
  276.750   26.918    0.466    0.344   44.447  212.176
  277.000   20.737    0.463    0.341   46.619  212.953
  277.250   13.901    0.468    0.330   49.410  212.914
  277.500    8.549    0.486    0.310   53.252  212.876
  277.750    5.853    0.502    0.287   57.565  213.421
  278.000    4.453    0.506    0.264   60.530  214.356
  278.250    3.611    0.478    0.239   58.409  214.786
  278.500    3.347    0.442    0.235   54.973  215.157
  278.750    3.654    0.383    0.238   45.809  214.727
  279.000    5.465    0.338    0.230   37.528  214.588
  279.250   10.761    0.325    0.225   30.943  214.743
  279.500   25.725    0.337    0.229   26.935  215.193
  279.750   41.051    0.342    0.244   26.438  215.849
  280.000   49.931    0.344    0.234   26.414  215.398
  280.250   60.211    0.357    0.236   26.159  214.582
  280.500   60.355    0.383    0.243   26.426  213.471
  280.750   50.496    0.412    0.261   27.809  212.062
  281.000   38.325    0.441    0.293   30.603  210.651
  281.250   27.509    0.470    0.340   35.376  209.747
  281.500   23.480    0.486    0.335   38.273  209.304
  281.750   20.679    0.507    0.341   39.194  208.875
  282.000   16.655    0.511    0.345   40.635  208.449
  282.250   12.348    0.507    0.337   42.252  208.215
  282.500    9.604    0.498    0.317   43.344  208.174
  282.750    8.638    0.478    0.288   43.045  208.212
  283.000    7.428    0.448    0.282   43.994  208.579
  283.250    5.739    0.438    0.290   47.488  208.540
  283.500    5.134    0.445    0.291   49.748  207.913
  283.750    5.045    0.472    0.303   50.309  207.289
  284.000    5.309    0.503    0.321   49.114  206.959
  284.250    5.972    0.499    0.331   46.556  206.827
  284.500    6.660    0.503    0.337   46.778  206.380
  284.750    7.012    0.495    0.339   46.994  206.349
  285.000    7.068    0.497    0.339   47.557  206.895
  285.250    6.675    0.497    0.339   48.471  208.805
  285.500    6.038    0.492    0.338   49.677  211.303
  285.750    5.434    0.496    0.336   51.346  212.045
  286.000    5.152    0.512    0.337   52.786  212.005
  286.250    4.748    0.507    0.338   51.825  210.791
