~VERSION INFORMATION
 VERS.                 2.0:   CWLS LOG ASCII STANDARD -VERSION 2.0
 WRAP.                  NO:   ONE LINE PER DEPTH STEP
~WELL INFORMATION BLOCK
#MNEM.UNIT           DATA                    DESCRIPTION OF MNEMONIC
#---------    -------------------            -------------------------------
# Generated from Intellog Unique Number	CW_70_72/WELL/1051
NULL.         -999.25                        : NULL_VALUE
WELL.         DECALTA ET AL SMITH 11-03      : Well_name    - WELL              
LOC .         11-03-071-01W5                 : Location     - LOCATION          
UWI .         00/11-03-071-01W5/0            : Uwi          - UNIQUE WELL ID    
ENTR.         JAYE                           : Entered      - ENTERED BY        
SRVC.         SCHLUMBERGER                   : Scn          - SERVICE COMPANY   
DATE.         1 NOV 77                       : Date         - LOG DATE          
STRT.M        384.048                        : top_depth    - START DEPTH       
STOP.M        644.298                        : bot_depth    - STOP DEPTH        
STEP.M        0.25                           : increment    - STEP LENGTH       
~CURVE INFORMATION BLOCK
#MNEM UNIT       ERCB CURVE CODE    CURVE DESCRIPTION
#-----------   ------------------   ----------------------------------
DEPT.M        00 001 00 00         : DEPTH        - DEPTH                       
DPHI.V/V      00 890 00 00         : PHID         - DENSITY POROSITY (SANDSTONE)
NPHI.V/V      00 330 00 00         : PHIN         - NEUTRON POROSITY (SANDSTONE)
GR  .API      00 310 00 00         : GR           - GAMMA RAY                   
CALI.MM       00 280 01 00         : CAL          - CALIPER                     
ILD .OHMM     00 120 00 00         : RESD         - DEEP RESISTIVITY (DIL)      
~PARAMETER INFORMATION       
#MNEM.UNIT           DATA             DESCRIPTION OF MNEMONIC
#---------         -----------     ------------------------------
GL  .M        572.11               : gl           - GROUND LEVEL ELEVATION      
EREF.M        575.158              : kb           - ELEVATION OF DEPTH REFERENCE
DATM.M        572.11               : datum        - DATUM ELEVATION             
TDD .M        649.224              : tdd          - TOTAL DEPTH DRILLER         
RUN .         ONE                  : Run          - RUN NUMBER                  
ENG .         KUBICA               : Engineer     - RECORDING ENGINEER          
WIT .         RIES                 : Witness      - WITNESSED BY                
BASE.         EDM                  : Branch       - HOME BASE OF LOGGING UNIT   
MUD .         GEL                  : Mud_type     - MUD TYPE                    
MATR.         SANDSTONE            : Logunit      - NEUTRON MATRIX              
TMAX.C        26.6667              : BHT          - MAXIMUM RECORDED TEMPERATURE
BHTD.M        651.358              : BHTDEP       - MAXIMUM RECORDED TEMPERATURE
RMT .C        8.88889              : MDTP         - TEMPERATURE OF MUD          
MUDD.KG/M     1116                 : MWT          - MUD DENSITY                 
NEUT.         1                    : NEUTRON      - NEUTRON TYPE                
RESI.         0                    : RESIST       - RESISTIVITY TYPE            
RM  .OHMM     4.03                 : RM           - RESISTIVITY OF MUD          
RMC .OHMM     0                    : RMC          - RESISTIVITY OF MUD CAKE     
RMF .OHMM     4.38                 : RMF          - RESISTIVITY OF MUD FILTRATE 
SUFT.C        0                    : SUFT         - SURFACE TEMPERATURE         
~A  DEPTH     PHID     PHIN       GR      CAL     RESD
# ...
  493.548    0.264    0.410  102.101  164.518    2.183
  493.798    0.267    0.418  105.043  164.383    2.229
  494.048    0.247    0.435  103.887  164.458    2.260
  494.298    0.275    0.427   98.940  164.529    2.277
  494.548    0.274    0.416   94.180  164.604    2.282
  494.798    0.271    0.405   92.898  164.890    2.296
  495.048    0.272    0.395   97.209  164.860    2.416
  495.298    0.274    0.395   99.903  163.036    2.567
  495.548    0.286    0.408   98.122  162.267    2.626
  495.798    0.293    0.416   99.203  163.389    2.612
  496.048    0.282    0.406  101.026  164.731    2.559
  496.298    0.278    0.415  102.233  165.540    2.517
  496.548    0.292    0.423  102.378  165.930    2.471
  496.798    0.296    0.425  102.340  165.787    2.509
  497.048    0.300    0.423  101.433  165.444    2.601
  497.298    0.308    0.423   99.402  165.099    2.672
  497.548    0.307    0.425   97.877  164.543    2.698
  497.798    0.283    0.429   97.707  164.301    2.693
  498.048    0.280    0.438   95.747  164.163    2.649
  498.298    0.290    0.442   93.782  164.234    2.606
  498.548    0.285    0.425   92.499  164.310    2.587
  498.798    0.258    0.414   92.526  164.486    2.568
  499.048    0.260    0.408   93.978  164.770    2.555
  499.298    0.266    0.405   97.977  164.742    2.546
  499.548    0.277    0.409   98.871  165.028    2.537
  499.798    0.256    0.429  102.061  165.100    2.491
  500.048    0.249    0.415  104.136  165.066    2.454
  500.298    0.249    0.407  105.649  165.142    2.423
  500.548    0.272    0.417  104.804  164.896    2.401
  500.798    0.279    0.422  104.081  164.340    2.375
  501.048    0.257    0.418  105.656  164.097    2.394
  501.298    0.244    0.402  104.312  164.068    2.491
  501.548    0.258    0.379  100.857  164.349    2.737
  501.798    0.200    0.355   96.902  164.636    3.007
  502.048    0.169    0.334   94.133  164.710    3.267
  502.298    0.159    0.343   96.454  164.680    3.368
  502.548    0.241    0.372   98.898  164.645    3.350
  502.798    0.272    0.408  101.907  165.035    3.228
  503.048    0.279    0.432  104.041  165.530    3.018
  503.298    0.271    0.428  105.124  165.075    2.875
  503.548    0.259    0.414  107.380  164.626    2.764
  503.798    0.249    0.403  110.016  163.752    2.699
  504.048    0.242    0.410  115.132  162.773    2.699
  504.298    0.233    0.418  124.289  161.792    2.767
  504.548    0.215    0.420  122.324  160.080    2.874
  504.798    0.211    0.398  110.791  157.733    2.979
  505.048    0.218    0.386  105.969  155.277    3.060
  505.298    0.231    0.385  113.880  154.510    3.172
  505.548    0.238    0.377  119.185  155.526    3.209
  505.798    0.218    0.389  122.877  157.283    3.228
  506.048    0.199    0.390  124.578  159.255    3.278
  506.298    0.190    0.371  119.876  161.854    3.392
  506.548    0.195    0.360  117.228  163.827    3.529
  506.798    0.200    0.368  115.635  164.843    3.659
  507.048    0.215    0.379  117.148  164.180    3.722
  507.298    0.227    0.381  119.911  163.729    3.751
  507.548    0.225    0.379  124.403  163.483    3.759
  507.798    0.211    0.376  128.838  163.772    3.733
  508.048    0.195    0.373  130.043  163.946    3.706
  508.298    0.199    0.381  128.947  164.130    3.679
  508.548    0.208    0.397  128.226  164.620    3.673
  508.798    0.208    0.399  122.908  164.592    3.661
  509.048    0.192    0.367  115.538  164.668    3.655
  509.298    0.177    0.362  120.716  164.739    3.615
  509.548    0.197    0.379  125.650  164.601    3.583
  509.798    0.203    0.405  129.587  164.781    3.544
  510.048    0.205    0.401  131.102  164.642    3.525
  510.298    0.215    0.400  131.495  164.403    3.486
  510.548    0.211    0.402  132.702  163.634    3.481
  510.798    0.199    0.402  133.466  162.867    3.475
  511.048    0.192    0.401  133.678  162.304    3.490
  511.298    0.192    0.400  135.691  162.278    3.537
  511.548    0.201    0.408  138.447  162.455    3.578
  511.798    0.207    0.421  137.539  162.737    3.620
  512.048    0.218    0.427  136.444  163.125    3.648
  512.298    0.206    0.431  136.095  163.408    3.677
  512.548    0.181    0.430  135.373  163.381    3.706
  512.798    0.181    0.427  134.030  164.192    3.749
  513.048    0.190    0.423  132.809  165.002    3.807
  513.298    0.192    0.419  132.151  165.075    3.844
  513.548    0.177    0.414  132.112  165.152    3.911
  513.798    0.196    0.408  133.559  165.331    3.972
  514.048    0.185    0.411  137.253  165.509    4.033
  514.298    0.176    0.421  138.018  165.475    4.088
  514.548    0.199    0.423  133.696  165.023    4.159
  514.798    0.193    0.419  131.419  164.992    4.199
  515.048    0.175    0.410  128.834  164.962    4.248
  515.298    0.195    0.400  124.941  165.138    4.314
  515.548    0.200    0.387  118.195  164.895    4.447
  515.798    0.183    0.374  122.940  164.551    4.507
  516.048    0.129    0.372  131.287  164.202    4.525
  516.298    0.148    0.400  140.072  164.377    4.493
  516.548    0.160    0.401  135.248  164.665    4.452
  516.798    0.171    0.397  126.263  164.950    4.379
  517.048    0.168    0.392  109.635  165.235    4.332
  517.298    0.181    0.385  102.018  165.517    4.316
  517.548    0.169    0.379   96.697  165.800    4.408
  517.798    0.148    0.365   90.197  165.768    4.595
  518.048    0.118    0.342  100.657  165.843    5.012
  518.298    0.179    0.346  112.610  165.706    5.314
  518.548    0.199    0.352  121.952  165.675    5.276
  518.798    0.169    0.337  131.482  165.533    5.007
  519.048    0.177    0.364  139.705  165.615    4.560
  519.298    0.181    0.384  144.080  165.898    4.368
  519.548    0.165    0.401  131.428  166.288    4.329
  519.798    0.153    0.419  123.561  166.565    4.346
  520.048    0.159    0.422  117.369  166.644    4.514
  520.298    0.199    0.408  120.998  166.822    4.813
  520.548    0.202    0.405  122.387  166.896    5.200
  520.798    0.192    0.407  121.044  166.867    5.693
  521.048    0.158    0.393  116.967  166.724    6.151
  521.298    0.110    0.370  115.561  166.488    6.733
  521.548    0.135    0.362  113.906  166.138    7.152
  521.798    0.166    0.353  101.566  166.214    7.626
  522.048    0.160    0.344   91.773  166.284    8.056
  522.298    0.113    0.331   98.571  166.255    8.043
  522.548    0.135    0.342  109.404  166.221    7.002
  522.798    0.169    0.375  115.263  166.400    6.130
  523.048    0.192    0.388  119.757  166.473    5.624
  523.298    0.196    0.377  124.193  166.231    5.297
  523.548    0.198    0.367  127.450  166.202    4.981
  523.798    0.174    0.374  131.390  165.958    4.817
  524.048    0.179    0.392  134.269  165.718    4.720
  524.298    0.174    0.397  136.904  165.578    4.651
  524.548    0.174    0.400  133.881  165.339    4.609
  524.798    0.180    0.404  128.622  164.983    4.610
  525.048    0.162    0.394  126.040  164.850    4.699
  525.298    0.150    0.384  128.548  164.716    4.817
  525.548    0.145    0.366  128.756  164.793    4.928
  525.798    0.136    0.359  128.160  164.651    4.995
  526.048    0.133    0.372  132.341  164.412    5.025
  526.298    0.154    0.388  136.778  164.268    4.998
  526.548    0.159    0.401  140.716  164.242    4.925
  526.798    0.160    0.412  143.161  164.312    4.890
  527.048    0.166    0.424  145.609  164.494    4.855
  527.298    0.158    0.405  146.191  164.560    4.875
  527.548    0.154    0.386  144.847  164.851    4.839
  527.798    0.156    0.413  143.377  165.245    4.716
  528.048    0.165    0.439  139.178  166.575    4.603
  528.298    0.162    0.451  134.543  167.072    4.468
  528.548    0.164    0.410  136.796  167.251    4.354
  528.798    0.161    0.390  140.739  167.009    4.282
  529.048    0.155    0.386  145.237  166.877    4.212
  529.298    0.148    0.396  147.621  166.526    4.181
  529.548    0.174    0.406  137.704  166.076    4.128
  529.798    0.158    0.415  125.612  165.411    4.200
