~VERSION INFORMATION
 VERS.                 2.0:   CWLS LOG ASCII STANDARD -VERSION 2.0
 WRAP.                  NO:   ONE LINE PER DEPTH STEP
~WELL INFORMATION BLOCK
#MNEM.UNIT           DATA                    DESCRIPTION OF MNEMONIC
#---------    -------------------            -------------------------------
# Generated from Intellog Unique Number	CS_77_79/WELL/3302
WELL.         MEGA ENGINEERING LTD.          : Well_name    - WELL
LOC .         00/11-15-077-11W4/0            : Location     - LOCATION
UWI .         00/11-15-077-11W4/0            : Uwi          - UNIQUE WELL ID
ENTR.         JOETTE                         : Entered      - ENTERED BY
SRVC.         SCHLUMBERGER                   : Scn          - SERVICE COMPANY
DATE.         08-26-92                       : Date         - LOG DATE
STRT.M        275                            : top_depth    - START DEPTH
STOP.M        510                            : bot_depth    - STOP DEPTH
STEP.M        0.25                           : increment    - STEP LENGTH
 NULL. -999.2500:NULL Value
~CURVE INFORMATION BLOCK
#MNEM UNIT       ERCB CURVE CODE    CURVE DESCRIPTION
#-----------   ------------------   ----------------------------------
DEPT.M        00 001 00 00         : DEPTH        - DEPTH
GR  .API      00 310 00 00         : GR           - GAMMA RAY
NPHI.V/V      00 330 00 00         : PHIN         - NEUTRON POROSITY (SANDSTONE)
DPHI.V/V      00 890 00 00         : PHID         - DENSITY POROSITY (SANDSTONE)
ILD .OHMM     00 120 00 00         : RESD         - DEEP RESISTIVITY (DIL)
~PARAMETER INFORMATION
#MNEM.UNIT           DATA             DESCRIPTION OF MNEMONIC
#---------         -----------     ------------------------------
GL  .M        679.49               : gl           - GROUND LEVEL ELEVATION
EREF.M        688.29               : kb           - ELEVATION OF DEPTH REFERENCE
DATM.M        688.29               : datum        - DATUM ELEVATION
TDD .M        521.4                : tdd          - TOTAL DEPTH DRILLER
RUN .         ONE                  : Run          - RUN NUMBER
ENG .         BILL                 : Engineer     - RECORDING ENGINEER
WIT .         JIM                  : Witness      - WITNESSED BY
MUD .         GEL                  : Mud_type     - MUD TYPE
MATR.         SANDSTONE            : Logunit      - NEUTRON MATRIX
TMAX.C        27                   : BHT          - MAXIMUM RECORDED TEMPERATURE
BHTD.M        521.4                : BHTDEP       - MAXIMUM RECORDED TEMPERATURE
MATR.         1                    : LOGUNIT      - NEUTRON MATRIX
RMT .C        12                   : MDTP         - TEMPERATURE OF MUD
NEUT.         1                    : NEUTRON      - NEUTRON TYPE
RESI.         0                    : RESIST       - RESISTIVITY TYPE
RMC .OHMM     2.4                  : RMC          - RESISTIVITY OF MUD CAKE
RMF .OHMM     3.5                  : RMF          - RESISTIVITY OF MUD FILTRATE
SUFT.C        5                    : SUFT         - SURFACE TEMPERATURE
~A  DEPTH       GR     PHIN     PHID     RESD
# ...
  449.000   56.569    0.171    0.340   42.660
  449.250   48.360    0.139    0.371   51.303
  449.500   38.988    0.112    0.398   58.373
  449.750   36.657    0.101    0.403   62.837
  450.000   34.338    0.087    0.412   63.999
  450.250   35.540    0.144    0.416   63.995
  450.500   39.087    0.172    0.406   59.431
  450.750   41.464    0.197    0.382   57.268
  451.000   36.200    0.225    0.367   58.331
  451.250   34.463    0.220    0.396   60.515
  451.500   36.847    0.186    0.420   62.787
  451.750   35.103    0.099    0.413   68.848
  452.000   40.420    0.085    0.406   75.499
  452.250   39.270    0.087    0.411   81.273
  452.500   28.716    0.067    0.436   84.323
  452.750   24.047    0.050    0.442   87.484
  453.000   27.600    0.041    0.436   89.103
  453.250   27.038    0.043    0.422   89.090
  453.500   28.828    0.047    0.408   89.079
  453.750   30.618    0.061    0.410   87.439
  454.000   33.576    0.057    0.417   85.827
  454.250   30.076    0.052    0.422   85.822
  454.500   24.819    0.058    0.436   84.242
  454.750   23.088    0.059    0.456   82.689
  455.000   21.926    0.049    0.454   81.167
  455.250   21.952    0.039    0.443   81.160
  455.500   27.856    0.035    0.444   79.666
  455.750   24.355    0.048    0.443   78.197
  456.000   27.334    0.056    0.435   76.757
  456.250   29.110    0.066    0.428   73.966
  456.500   32.670    0.077    0.401   69.971
  456.750   37.398    0.085    0.403   64.982
  457.000   38.600    0.083    0.416   62.621
  457.250   24.513    0.074    0.427   57.093
  457.500   18.074    0.073    0.435   50.166
  457.750   20.451    0.086    0.436   44.900
  458.000   24.011    0.109    0.428   26.284
  458.250   25.212    0.195    0.407   19.202
  458.500   31.116    0.279    0.333   14.555
  458.750   34.088    0.321    0.309   12.100
  459.000   28.237    0.326    0.306   10.632
  459.250   25.905    0.324    0.300   10.058
  459.500   29.458    0.314    0.268   10.244
  459.750   58.286    0.327    0.255   10.434
  460.000   38.328    0.355    0.298   10.825
  460.250   29.537    0.345    0.323   10.431
  460.500   24.280    0.338    0.333   10.239
  460.750   25.482    0.337    0.331   10.238
  461.000   25.508    0.337    0.326   10.428
  461.250   24.940    0.335    0.328   11.647
  461.500   23.797    0.331    0.329   12.309
  461.750   28.519    0.324    0.327   13.251
  462.000   27.964    0.326    0.326   14.531
  462.250   29.166    0.327    0.321   15.934
  462.500   31.537    0.329    0.313   17.473
  462.750   36.853    0.333    0.303   19.517
  463.000   42.169    0.335    0.309   22.207
  463.250   29.271    0.335    0.316   24.806
  463.500   30.466    0.336    0.322   35.879
  463.750   31.080    0.337    0.327   41.585
  464.000   33.457    0.331    0.334   49.096
  464.250   39.949    0.336    0.337   54.839
  464.500   42.914    0.342    0.329   57.953
  464.750   42.941    0.347    0.322   57.949
  465.000   41.791    0.346    0.317   60.122
  465.250   34.764    0.340    0.320   61.231
  465.500   34.203    0.335    0.324   62.368
  465.750   33.060    0.330    0.329   62.357
  466.000   31.911    0.326    0.331   63.509
  466.250   29.592    0.333    0.332   64.687
  466.500   29.024    0.347    0.327   65.884
  466.750   27.875    0.349    0.325   67.102
  467.000   27.307    0.345    0.326   67.098
  467.250   32.042    0.339    0.330   67.086
  467.500   29.710    0.329    0.333   65.853
  467.750   27.392    0.331    0.335   64.639
  468.000   26.236    0.335    0.334   63.451
  468.250   24.499    0.337    0.331   61.144
  468.500   26.295    0.341    0.329   58.922
  468.750   28.666    0.351    0.330   54.718
  469.000   35.746    0.349    0.334   51.765
  469.250   61.053    0.344    0.332   46.333
  469.500   68.133    0.333    0.249   38.518
  469.750   77.564    0.321    0.213   30.861
  470.000   87.596    0.303    0.188   21.331
  470.250   83.501    0.316    0.210   19.447
  470.500   81.764    0.322    0.220   17.406
  470.750   88.844    0.327    0.234   16.773
  471.000   80.053    0.320    0.177   16.464
  471.250   80.674    0.310    0.100   16.462
  471.500   75.984    0.278    0.061   16.460
  471.750   82.483    0.284    0.069   16.765
  472.000   70.159    0.311    0.146   17.394
  472.250   50.788    0.321    0.198   18.724
  472.500   39.647    0.337    0.245   20.915
  472.750   31.444    0.350    0.279   24.693
  473.000   44.989    0.347    0.326   29.696
  473.250   60.886    0.337    0.274   33.170
  473.500   65.614    0.327    0.261   29.146
  473.750   69.755    0.343    0.255   24.681
  474.000   75.078    0.359    0.284   26.568
  474.250   43.951    0.369    0.303   28.602
  474.500   38.093    0.369    0.310   31.365
  474.750   33.430    0.367    0.328   36.352
  475.000   35.795    0.357    0.329   43.716
  475.250   41.111    0.352    0.327   45.355
  475.500   44.076    0.343    0.318   42.907
  475.750   44.697    0.340    0.312   40.591
  476.000   44.129    0.351    0.310   37.696
  476.250   44.743    0.350    0.315   39.109
  476.500   48.883    0.342    0.320   47.033
  476.750   60.665    0.335    0.291   55.526
  477.000   71.873    0.386    0.283   59.776
  477.250   58.955    0.404    0.312   63.172
  477.500   45.462    0.391    0.339   65.538
  477.750   39.610    0.369    0.345   67.993
  478.000   45.514    0.360    0.345   67.989
  478.250   51.418    0.354    0.340   67.977
  478.500   47.924    0.351    0.336   67.973
  478.750   43.830    0.354    0.330   67.965
  479.000   45.038    0.367    0.336   66.710
  479.250   40.355    0.361    0.343   66.706
  479.500   38.031    0.355    0.343   65.478
  479.750   39.239    0.348    0.341   63.095
  480.000   36.914    0.348    0.333   61.935
  480.250   38.109    0.353    0.325   59.680
  480.500   45.777    0.349    0.316   57.513
  480.750   62.855    0.344    0.308   53.411
  481.000   68.766    0.340    0.292   48.694
  481.250   74.076    0.334    0.285   46.068
  481.500   81.743    0.337    0.280   40.479
  481.750   78.831    0.342    0.272   40.472
  482.000   77.094    0.342    0.278   41.222
  482.250   77.714    0.339    0.279   38.283
  482.500   77.146    0.344    0.269   35.555
  482.750   96.576    0.340    0.269   34.900
  483.000  101.892    0.335    0.281   38.269
  483.250   91.338    0.335    0.298   39.705
  483.500   79.014    0.334    0.324   44.351
  483.750   60.231    0.344    0.333   51.401
  484.000   49.678    0.341    0.339   58.487
  484.250   47.353    0.339    0.341   64.135
  484.500   44.440    0.342    0.342   66.537
  484.750   36.825    0.345    0.343   67.769
  485.000   30.967    0.342    0.341   67.763
  485.250   33.939    0.342    0.330   69.015
  485.500   37.492    0.336    0.310   71.605
  485.750   74.548    0.325    0.214   77.083
  486.000   97.505    0.328    0.184   27.410
  486.250   99.889    0.335    0.180   22.787
  486.500   89.916    0.347    0.200   18.597
  486.750   75.829    0.353    0.214   18.254
  487.000   74.680    0.341    0.234   19.292
  487.250   88.832    0.331    0.233   22.360
  487.500   90.609    0.337    0.227   22.773
  487.750   90.047    0.350    0.221   18.932
  488.000   85.959    0.359    0.214   16.634
  488.250   81.871    0.360    0.221   17.580
  488.500   84.248    0.361    0.229   19.278
  488.750   90.152    0.366    0.258   27.374
  489.000   83.713    0.402    0.288   36.104
  489.250   68.450    0.360    0.327   37.458
  489.500   50.843    0.343    0.302   29.462
  489.750   76.738    0.343    0.276   26.369
  490.000   96.749    0.347    0.215   26.366
  490.250   69.150    0.340    0.166   27.355
  490.500   58.589    0.346    0.181   32.295
  490.750   65.675    0.348    0.269   36.073
  491.000   60.405    0.323    0.288   34.125
  491.250   70.430    0.329    0.286   31.113
  491.500   76.922    0.339    0.271   29.981
  491.750   89.292    0.346    0.238   31.685
  492.000   61.692    0.354    0.294   33.486
  492.250   79.352    0.361    0.305   37.404
