~VERSION INFORMATION
 VERS.                 2.0:   CWLS LOG ASCII STANDARD -VERSION 2.0
 WRAP.                  NO:   ONE LINE PER DEPTH STEP
~WELL INFORMATION BLOCK
#MNEM.UNIT           DATA                    DESCRIPTION OF MNEMONIC
#---------    -------------------            -------------------------------
# Generated from Intellog Unique Number	CW_73_75/WELL/2750
WELL.         QUINTANA CEGO BLANCHE 14-15    : Well_name    - WELL
LOC .         00/14-15-073-03W5/0            : Location     - LOCATION
UWI .         00/14-15-073-03W5/0            : Uwi          - UNIQUE WELL ID
ENTR.         JAYE                           : Entered      - ENTERED BY
SRVC.         SCHLUMBERGER                   : Scn          - SERVICE COMPANY
DATE.         31 JAN 81                      : Date         - LOG DATE
STRT.M        400                            : top_depth    - START DEPTH
STOP.M        640                            : bot_depth    - STOP DEPTH
STEP.M        0.25                           : increment    - STEP LENGTH
 NULL. -999.2500:NULL Value
~CURVE INFORMATION BLOCK
#MNEM UNIT       ERCB CURVE CODE    CURVE DESCRIPTION
#-----------   ------------------   ----------------------------------
DEPT.M        00 001 00 00         : DEPTH        - DEPTH
DPHI.V/V      00 890 00 00         : PHID         - DENSITY POROSITY (SANDSTONE)
NPHI.V/V      00 330 00 00         : PHIN         - NEUTRON POROSITY (SANDSTONE)
GR  .API      00 310 00 00         : GR           - GAMMA RAY
CALI.MM       00 280 01 00         : CAL          - CALIPER
ILD .OHMM     00 120 00 00         : RESD         - DEEP RESISTIVITY (DIL)
~PARAMETER INFORMATION
#MNEM.UNIT           DATA             DESCRIPTION OF MNEMONIC
#---------         -----------     ------------------------------
GL  .M        608.48               : gl           - GROUND LEVEL ELEVATION
EREF.M        612.88               : kb           - ELEVATION OF DEPTH REFERENCE
DATM.M        608.48               : datum        - DATUM ELEVATION
TDD .M        1585                 : tdd          - TOTAL DEPTH DRILLER
RUN .         ONE                  : Run          - RUN NUMBER
ENG .         VERKAIK              : Engineer     - RECORDING ENGINEER
WIT .         WALSH                : Witness      - WITNESSED BY
BASE.         EDM                  : Branch       - HOME BASE OF LOGGING UNIT
MUD .         GEL CHEM             : Mud_type     - MUD TYPE
MATR.         SANDSTONE            : Logunit      - NEUTRON MATRIX
TMAX.C        47.8                 : BHT          - MAXIMUM RECORDED TEMPERATURE
BHTD.M        1585                 : BHTDEP       - MAXIMUM RECORDED TEMPERATURE
RMT .C        16.7                 : MDTP         - TEMPERATURE OF MUD
MUDD.KG/M     1070                 : MWT          - MUD DENSITY
NEUT.         1                    : NEUTRON      - NEUTRON TYPE
RESI.         0                    : RESIST       - RESISTIVITY TYPE
RM  .OHMM     0.52                 : RM           - RESISTIVITY OF MUD
RMC .OHMM     0                    : RMC          - RESISTIVITY OF MUD CAKE
RMF .OHMM     0.5                  : RMF          - RESISTIVITY OF MUD FILTRATE
SUFT.C        0                    : SUFT         - SURFACE TEMPERATURE
~A  DEPTH     PHID     PHIN       GR      CAL     RESD
# ...
  509.500    0.299    0.425   60.127  220.036    4.703
  509.750    0.299    0.420   59.635  220.250    4.771
  510.000    0.297    0.428   59.888  220.363    4.876
  510.250    0.298    0.442   60.763  220.577    4.966
  510.500    0.297    0.444   61.885  220.794    5.075
  510.750    0.295    0.436   60.959  221.007    5.157
  511.000    0.293    0.443   58.852  221.121    5.241
  511.250    0.294    0.450   57.987  221.128    5.326
  511.500    0.299    0.446   58.365  221.136    5.373
  511.750    0.305    0.437   60.544  221.145    5.389
  512.000    0.309    0.433   62.225  221.153    5.343
  512.250    0.312    0.442   61.982  221.160    5.319
  512.500    0.315    0.445   60.372  221.067    5.304
  512.750    0.314    0.420   60.005  221.180    5.300
  513.000    0.301    0.425   60.568  221.292    5.295
  513.250    0.291    0.471   60.698  221.507    5.290
  513.500    0.298    0.452   60.517  221.516    5.296
  513.750    0.302    0.435   60.149  221.314    5.312
  514.000    0.306    0.431   59.594  221.220    5.327
  514.250    0.313    0.431   59.600  220.918    5.303
  514.500    0.328    0.457   59.916  221.028    5.268
  514.750    0.324    0.483   59.858  221.140    5.225
  515.000    0.322    0.481   59.428  221.252    5.191
  515.250    0.334    0.473   58.502  221.261    5.206
  515.500    0.318    0.457   56.332  221.374    5.212
  515.750    0.314    0.446   55.530  221.588    5.197
  516.000    0.320    0.448   56.156  221.802    5.302
  516.250    0.300    0.475   57.155  221.812    5.501
  516.500    0.272    0.431   56.228  222.027    5.622
  516.750    0.229    0.381   55.115  222.449    5.575
  517.000    0.241    0.348   56.797  222.560    5.415
  517.250    0.265    0.386   59.598  222.362    5.250
  517.500    0.290    0.428   60.844  222.371    5.040
  517.750    0.294    0.429   61.036  222.171    4.906
  518.000    0.291    0.398   61.103  221.974    4.792
  518.250    0.273    0.413   60.922  221.981    4.707
  518.500    0.289    0.431   60.679  221.886    4.623
  518.750    0.307    0.455   60.310  221.792    4.577
  519.000    0.313    0.450   59.694  221.593    4.504
  519.250    0.301    0.437   59.078  221.600    4.458
  519.500    0.296    0.430   58.462  221.711    4.387
  519.750    0.300    0.426   58.218  221.720    4.384
  520.000    0.293    0.423   58.161  221.418    4.405
  520.250    0.286    0.422   58.415  221.116    4.435
  520.500    0.290    0.419   59.290  221.021    4.465
  520.750    0.294    0.405   61.530  221.028    4.503
  521.000    0.281    0.391   69.361  221.038    4.534
  521.250    0.262    0.428   74.149  221.045    4.556
  521.500    0.265    0.469   70.489  221.262    4.603
  521.750    0.276    0.456   66.519  221.374    4.652
  522.000    0.286    0.440   63.791  221.278    4.701
  522.250    0.292    0.431   63.858  221.285    4.759
  522.500    0.301    0.438   67.776  221.398    4.828
  522.750    0.305    0.448   68.837  221.407    4.916
  523.000    0.285    0.455   67.228  221.517    5.024
  523.250    0.287    0.454   69.033  221.629    5.145
  523.500    0.282    0.446   72.330  221.948    5.268
  523.750    0.278    0.434   70.906  222.163    5.384
  524.000    0.274    0.434   68.365  222.275    5.451
  524.250    0.265    0.436   65.637  222.283    5.488
  524.500    0.266    0.442   65.021  222.501    5.473
  524.750    0.264    0.451   67.200  222.610    5.397
  525.000    0.268    0.439   68.633  222.619    5.202
  525.250    0.282    0.420   69.260  222.731    5.015
  525.500    0.298    0.442   67.525  222.844    4.788
  525.750    0.294    0.460   65.232  223.059    4.633
  526.000    0.295    0.471   66.168  223.169    4.492
  526.250    0.295    0.477   68.348  223.385    4.396
  526.500    0.293    0.469   70.650  223.498    4.392
  526.750    0.292    0.449   72.332  223.609    4.540
  527.000    0.295    0.443   70.909  223.823    4.728
  527.250    0.302    0.445   69.734  223.937    4.806
  527.500    0.305    0.453   70.174  224.049    4.546
  527.750    0.307    0.468   70.365  224.160    4.244
  528.000    0.315    0.487   67.451  224.272    3.917
  528.250    0.317    0.477   60.561  224.175    3.636
  528.500    0.306    0.460   63.113  224.183    3.420
  528.750    0.297    0.471   69.826  224.089    3.265
  529.000    0.287    0.462   69.768  223.890    3.160
  529.250    0.294    0.461   69.773  223.797    3.110
  529.500    0.296    0.475   72.884  223.598    3.113
  529.750    0.296    0.479   68.293  223.603    3.128
  530.000    0.301    0.474   64.323  223.407    3.191
  530.250    0.292    0.464   60.911  223.415    3.243
  530.500    0.285    0.453   64.084  223.423    3.283
  530.750    0.283    0.441   67.257  223.429    3.305
  531.000    0.288    0.477   66.579  223.441    3.346
  531.250    0.283    0.496   66.708  223.449    3.375
  531.500    0.280    0.472   68.142  223.664    3.405
  531.750    0.279    0.454   70.258  223.670    3.454
  532.000    0.270    0.431   73.368  223.678    3.543
  532.250    0.257    0.427   74.740  223.687    3.683
  532.500    0.258    0.446   71.701  223.697    3.807
  532.750    0.269    0.460   70.464  223.807    4.003
  533.000    0.254    0.458   71.774  223.815    4.177
  533.250    0.228    0.442   78.052  224.030    4.293
  533.500    0.232    0.450   73.398  225.798    4.463
  533.750    0.249    0.450   70.546  227.773    4.596
  534.000    0.243    0.443   74.216  228.818    4.715
  534.250    0.208    0.440   77.575  229.655    4.791
  534.500    0.191    0.426   77.269  229.972    4.824
  534.750    0.187    0.413   78.082  230.394    4.921
  535.000    0.201    0.426   81.192  230.610    5.020
  535.250    0.225    0.431   83.744  230.722    5.111
  535.500    0.221    0.442   82.879  230.732    5.194
  535.750    0.220    0.451   76.362  230.844    5.319
  536.000    0.207    0.419   68.293  231.059    5.488
  536.250    0.178    0.356   67.676  231.169    5.556
  536.500    0.161    0.315   71.036  231.591    5.458
  536.750    0.193    0.356   74.830  231.806    5.291
  537.000    0.217    0.376   85.021  232.126    5.101
  537.250    0.235    0.392   88.131  232.342    4.879
  537.500    0.207    0.412   83.479  232.454    4.740
  537.750    0.200    0.432   81.495  232.668    4.673
  538.000    0.214    0.449   79.575  232.781    4.652
  538.250    0.232    0.440   78.835  233.098    4.648
  538.500    0.247    0.420   79.709  233.417    4.679
  538.750    0.223    0.414   82.261  233.840    4.693
  539.000    0.210    0.428   85.433  234.573    4.689
  539.250    0.201    0.444   85.004  235.617    4.685
  539.500    0.179    0.456   83.083  236.453    4.663
  539.750    0.200    0.465   82.964  237.289    4.642
  540.000    0.209    0.443   84.459  238.850    4.638
  540.250    0.198    0.441   85.147  241.550    4.634
  540.500    0.202    0.434   82.854  244.250    4.604
  540.750    0.207    0.430   82.362  243.430    4.557
  541.000    0.206    0.443   85.287  240.022    4.494
  541.250    0.201    0.463   88.521  237.029    4.464
  541.500    0.192    0.461   90.886  235.692    4.503
  541.750    0.196    0.449   90.146  235.285    4.637
  542.000    0.206    0.469   85.493  235.087    4.784
  542.250    0.218    0.483   83.324  235.406    5.067
  542.500    0.230    0.496   75.751  235.827    5.410
  542.750    0.237    0.502   72.029  236.146    5.873
  543.000    0.242    0.497   67.376  236.983    6.198
  543.250    0.240    0.474   64.523  237.612    6.216
  543.500    0.238    0.451   68.753  238.241    6.003
  543.750    0.218    0.435   72.298  239.182    5.776
  544.000    0.198    0.419   76.029  240.432    5.568
  544.250    0.179    0.445   80.258  241.786    5.378
  544.500    0.195    0.468   84.176  243.554    5.203
  544.750    0.210    0.469   79.957  245.219    5.083
  545.000    0.194    0.444   75.738  246.573    4.974
  545.250    0.177    0.433   77.917  248.341    4.850
  545.500    0.184    0.437   80.282  250.316    4.692
  545.750    0.200    0.446   80.784  252.809    4.489
