~VERSION INFORMATION
 VERS.                 2.0:   CWLS LOG ASCII STANDARD -VERSION 2.0
 WRAP.                  NO:   ONE LINE PER DEPTH STEP
~WELL INFORMATION BLOCK
#MNEM.UNIT           DATA                    DESCRIPTION OF MNEMONIC
#---------    -------------------            -------------------------------
# Generated from Intellog Unique Number	CN_91_93/WELL/2707
WELL.         10-14-091-20W4                 : Well_name    - WELL
LOC .         00/10-14-091-20W4/0            : Location     - LOCATION
UWI .         00/10-14-091-20W4/0            : Uwi          - UNIQUE WELL ID
ENTR.         JOETTE                         : Entered      - ENTERED BY
SRVC.         SCHLUMBERGER                   : Scn          - SERVICE COMPANY
DATE.         02/09/92                       : Date         - LOG DATE
STRT.F        230                            : top_depth    - START DEPTH
STOP.F        759.856                        : bot_depth    - STOP DEPTH
STEP.F        0.82                           : increment    - STEP LENGTH
 NULL. -999.2500:NULL Value
~CURVE INFORMATION BLOCK
#MNEM UNIT       ERCB CURVE CODE    CURVE DESCRIPTION
#-----------   ------------------   ----------------------------------
DEPT.F        00 001 00 00         : DEPTH        - DEPTH
GR  .API      00 310 00 00         : GR           - GAMMA RAY
CALI.IN       00 280 01 00         : CAL          - CALIPER
NPHI.V/V      00 330 00 00         : PHIN         - NEUTRON POROSITY (SANDSTONE)
DPHI.V/V      00 890 00 00         : PHID         - DENSITY POROSITY (SANDSTONE)
ILD .OHMM     00 120 00 00         : RESD         - DEEP RESISTIVITY (DIL)
~PARAMETER INFORMATION
#MNEM.UNIT           DATA             DESCRIPTION OF MNEMONIC
#---------         -----------     ------------------------------
GL  .M        508.102              : gl           - GROUND LEVEL ELEVATION
EREF.M        508.559              : kb           - ELEVATION OF DEPTH REFERENCE
DATM.M        508.559              : datum        - DATUM ELEVATION
TDD .M        234.696              : tdd          - TOTAL DEPTH DRILLER
RUN .         ONE                  : Run          - RUN NUMBER
ENG .         BILL                 : Engineer     - RECORDING ENGINEER
WIT .         JIM                  : Witness      - WITNESSED BY
MUD .         GEL                  : Mud_type     - MUD TYPE
MATR.         SANDSTONE            : Logunit      - NEUTRON MATRIX
TMAX.F        60                   : BHT          - MAXIMUM RECORDED TEMPERATURE
BHTD.F        770                  : BHTDEP       - MAXIMUM RECORDED TEMPERATURE
RMT .F        77                   : MDTP         - TEMPERATURE OF MUD
MUDD.LB/G     9.66666              : MWT          - MUD DENSITY
NEUT.         1                    : NEUTRON      - NEUTRON TYPE
RESI.         0                    : RESIST       - RESISTIVITY TYPE
RM  .OHMM     4.5                  : RM           - RESISTIVITY OF MUD
RMC .OHMM     4.5                  : RMC          - RESISTIVITY OF MUD CAKE
RMF .OHMM     4.5                  : RMF          - RESISTIVITY OF MUD FILTRATE
SUFT.F        39.2                 : SUFT         - SURFACE TEMPERATURE
~A  DEPTH       GR      CAL     PHIN     PHID     RESD
# ...
  589.252  109.453    8.708    0.494    0.197    6.055
  590.072  101.681    8.709    0.445    0.182    8.065
  590.892  101.999    8.709    0.448    0.166   10.552
  591.713  100.139    8.710    0.443    0.143   12.399
  592.533   93.923    8.710    0.422    0.102   11.856
  593.353  101.708    8.710    0.439    0.081   10.365
  594.173  106.071    8.690    0.478    0.142    9.143
  594.993  103.279    8.690    0.485    0.164    8.821
  595.814  102.974    8.691    0.494    0.187    8.587
  596.634  105.782    8.692    0.484    0.179    8.664
  597.454  105.166    8.692    0.467    0.190    8.981
  598.274  105.485    8.692    0.481    0.191    9.911
  599.094  102.690    8.693    0.461    0.157   12.623
  599.915   92.741    8.693    0.365    0.101   14.700
  600.735   95.462    8.324    0.352    0.048   14.077
  601.555   97.309    8.265    0.376    0.147   13.586
  602.375   96.125    8.247    0.425    0.206   12.542
  603.196   94.940    8.247    0.421    0.202   11.997
  604.016   97.396    8.231    0.409    0.192   11.787
  604.836   99.555    8.232    0.398    0.177   11.787
  605.656  101.711    8.236    0.413    0.206   11.790
  606.476  102.350    8.237    0.409    0.209   12.111
  607.297  101.472    8.237    0.405    0.201   12.664
  608.117   98.454    8.240    0.405    0.198   13.360
  608.937   91.190    8.240    0.416    0.198   14.606
  609.757   76.320    8.205    0.425    0.189   16.696
  610.577   73.004    8.185    0.357    0.124   17.771
  611.398   73.947    8.185    0.326    0.076   17.616
  612.218   77.318    8.190    0.321    0.067   19.780
  613.038   71.574    8.171    0.374    0.179   24.064
  613.858   69.471    8.174    0.405    0.170   24.940
  614.678   60.387    8.175    0.364    0.127   24.286
  615.499   61.931    8.175    0.369    0.120   23.860
  616.319   65.001    8.179    0.368    0.134   23.863
  617.139   66.549    8.180    0.382    0.141   23.654
  617.959   69.312    8.180    0.373    0.142   20.154
  618.780   75.730    8.184    0.353    0.154   16.134
  619.600   71.198    8.184    0.353    0.191   15.296
  620.420   67.579    8.189    0.396    0.258   15.435
  621.240   67.910    8.190    0.443    0.221   16.725
  622.060   75.841    8.192    0.431    0.179   15.999
  622.881   83.164    8.193    0.384    0.155   13.155
  623.701   87.147    8.196    0.373    0.199   11.823
  624.521   87.782    8.199    0.389    0.209   11.310
  625.341   80.819    8.219    0.424    0.194   11.514
  626.161   82.674    8.323    0.442    0.152   12.148
  626.982   91.213    8.385    0.419    0.127   12.258
  627.802   96.715    8.448    0.418    0.116   11.417
  628.622   97.959    8.491    0.444    0.164   10.824
  629.442   97.686    8.493    0.452    0.193   11.119
  630.262   94.066    8.474    0.487    0.189   11.730
  631.083   91.362    8.436    0.455    0.180   12.266
  631.903   93.817    8.418    0.385    0.179   11.629
  632.723   95.977    8.480    0.413    0.162   10.735
  633.543   91.749    8.543    0.474    0.173   10.361
  634.364   93.904    8.525    0.454    0.139   10.548
  635.184   96.671    8.486    0.441    0.145   11.030
  636.004   97.003    8.447    0.459    0.156   11.330
  636.824   95.822    8.429    0.466    0.151   11.433
  637.644   99.493    8.429    0.453    0.155   11.133
  638.465  104.084    8.433    0.447    0.178   10.649
  639.285   95.297    8.495    0.446    0.202   10.187
  640.105   96.236    8.518    0.448    0.194    9.745
  640.925   93.836    8.520    0.463    0.193    9.660
  641.745   97.204    8.523    0.438    0.191    9.661
  642.566   96.630    8.503    0.426    0.174    9.748
  643.386   97.266    8.505    0.442    0.187    9.748
  644.206   94.558    8.507    0.457    0.190    9.926
  645.026   94.285    8.529    0.478    0.188   10.196
  645.846   95.529    8.529    0.442    0.161   10.289
  646.667  104.980    8.533    0.402    0.112   10.569
  647.487  109.871    8.494    0.394    0.086   11.051
  648.307  108.689    8.456    0.436    0.119   11.659
  649.127  108.413    8.437    0.477    0.180   11.252
  649.948  112.389    8.440    0.459    0.142   10.387
  650.768  120.023    8.462    0.443    0.118    9.589
  651.588  104.852    8.465    0.468    0.129    9.091
  652.408   90.590    8.466    0.482    0.111    8.852
  653.228   88.490    8.487    0.434    0.078    9.257
  654.049   94.905    8.672    0.416    0.110    9.257
  654.869   96.756    8.796    0.453    0.163    9.768
  655.689  103.167    8.838    0.439    0.168   10.213
  656.509  109.278    8.840    0.439    0.175   10.306
  657.329  105.057    8.821    0.427    0.187   10.125
  658.150  102.950    8.763    0.410    0.189   10.037
  658.970  103.896    8.746    0.385    0.194   10.128
  659.790  105.143    8.726    0.460    0.155   11.372
  660.610  103.948    8.728    0.460    0.133   13.470
  661.430   96.073    8.791    0.435    0.074   14.085
  662.251   96.408    8.691    0.380    0.028   13.473
  663.071  108.290    8.551    0.319    0.027   10.786
  663.891  116.833    8.858    0.443    0.078   10.226
  664.711  118.384    8.879    0.442    0.181    9.610
  665.531  117.199    8.800    0.431    0.181    9.030
  666.352  119.658    8.742    0.449    0.174    8.561
  667.172  122.726    8.743    0.454    0.187    8.190
  667.992  121.234    8.786    0.431    0.191    7.765
  668.812  121.265    8.929    0.444    0.207    6.979
  669.633  119.469    9.155    0.461    0.208    6.272
  670.453  111.590    9.238    0.482    0.206    6.054
  671.273  108.886    9.219    0.499    0.221    6.163
  672.093  108.917    8.957    0.480    0.212    6.798
  672.913  115.632    8.655    0.468    0.215    7.301
  673.734  119.003    8.698    0.476    0.223    7.433
  674.554  112.344    8.903    0.466    0.210    6.923
  675.374  111.466    8.965    0.451    0.206    6.334
  676.194  110.890    8.886    0.440    0.188    6.113
  677.014  110.610    8.827    0.477    0.175    6.114
  677.835  110.330    8.991    0.489    0.181    6.280
  678.655  110.669    8.892    0.438    0.178    6.805
  679.475  111.304    8.691    0.458    0.180    7.573
  680.295  113.760    8.957    0.468    0.200    9.806
  681.115  110.752    9.080    0.449    0.181   13.634
  681.936   96.490    8.980    0.467    0.148   16.149
  682.756   80.408    8.699    0.404    0.078   22.057
  683.576   61.897    8.518    0.364    0.073   29.860
  684.396   44.288    8.601    0.426    0.119   33.529
  685.217   36.116    8.644    0.481    0.270   38.325
  686.037   34.323    8.585    0.477    0.296   46.211
  686.857   34.952    8.506    0.426    0.280   57.227
  687.677   36.499    8.447    0.383    0.279   69.004
  688.497   39.874    8.530    0.428    0.297   72.801
  689.318   43.249    8.734    0.458    0.294   76.124
  690.138   42.365    8.939    0.518    0.301   75.458
  690.958   39.353    9.144    0.535    0.323   62.042
  691.778   36.959    8.923    0.484    0.307   47.083
  692.598   36.977    8.641    0.477    0.296   36.698
  693.419   37.920    8.501    0.461    0.267   33.576
  694.239   40.687    8.422    0.497    0.259   29.910
  695.059   45.882    8.424    0.470    0.251   26.644
  695.879   51.992    8.426    0.468    0.236   23.524
  696.699   55.667    8.428    0.464    0.226   20.770
  697.520   58.431    8.490    0.475    0.223   18.502
  698.340   56.949    8.472    0.453    0.229   16.928
  699.160   57.578    8.433    0.430    0.229   16.338
  699.980   60.953    8.374    0.431    0.191   16.195
  700.801   59.765    8.336    0.460    0.205   16.342
  701.621   64.048    8.297    0.496    0.229   16.342
  702.441   64.079    8.299    0.471    0.235   16.493
  703.261   56.200    8.260    0.457    0.259   17.245
  704.081   55.927    8.242    0.453    0.276   17.245
  704.902   57.178    8.242    0.436    0.264   17.560
  705.722   67.233    8.206    0.421    0.256   17.560
  706.542   65.744    8.187    0.436    0.254   20.988
  707.362   61.517    8.187    0.453    0.252   20.988
  708.182   57.897    8.171    0.462    0.253   24.864
