~VERSION INFORMATION
 VERS.                 2.0:   CWLS LOG ASCII STANDARD -VERSION 2.0
 WRAP.                  NO:   ONE LINE PER DEPTH STEP
~WELL INFORMATION BLOCK
#MNEM.UNIT           DATA                    DESCRIPTION OF MNEMONIC
#---------    -------------------            -------------------------------
# Generated from Intellog Unique Number	CW_82_90/WELL/1032
WELL.         13-33-083-23W4                 : Well_name    - WELL
LOC .         00/13-33-083-23W4/0            : Location     - LOCATION
UWI .         00/13-33-083-23W4/0            : Uwi          - UNIQUE WELL ID
ENTR.         JAYE                           : Entered      - ENTERED BY
SRVC.         SCHLUMBERGER                   : Scn          - SERVICE COMPANY
DATE.         21 FEB 86                      : Date         - LOG DATE
STRT.M        200                            : top_depth    - START DEPTH
STOP.M        425                            : bot_depth    - STOP DEPTH
STEP.M        0.25                           : increment    - STEP LENGTH
 NULL. -999.2500:NULL Value
~CURVE INFORMATION BLOCK
#MNEM UNIT       ERCB CURVE CODE    CURVE DESCRIPTION
#-----------   ------------------   ----------------------------------
DEPT.M        00 001 00 00         : DEPTH        - DEPTH
CALI.MM       00 280 01 00         : CAL          - CALIPER
GR  .API      00 310 00 00         : GR           - GAMMA RAY
NPHI.V/V      00 330 00 00         : PHIN         - NEUTRON POROSITY (SANDSTONE)
DPHI.V/V      00 890 00 00         : PHID         - DENSITY POROSITY (SANDSTONE)
ILD .OHMM     00 120 00 00         : RESD         - DEEP RESISTIVITY (DIL)
~PARAMETER INFORMATION
#MNEM.UNIT           DATA             DESCRIPTION OF MNEMONIC
#---------         -----------     ------------------------------
GL  .M        593.3                : gl           - GROUND LEVEL ELEVATION
EREF.M        596.9                : kb           - ELEVATION OF DEPTH REFERENCE
DATM.M        593.3                : datum        - DATUM ELEVATION
TDD .M        424                  : tdd          - TOTAL DEPTH DRILLER
RUN .         ONE                  : Run          - RUN NUMBER
ENG .         MURRAY               : Engineer     - RECORDING ENGINEER
WIT .         KOSS                 : Witness      - WITNESSED BY
BASE.         S.L.                 : Branch       - HOME BASE OF LOGGING UNIT
MUD .         GEL CHEM             : Mud_type     - MUD TYPE
MATR.         SANDSTONE            : Logunit      - NEUTRON MATRIX
TMAX.C        22                   : BHT          - MAXIMUM RECORDED TEMPERATURE
BHTD.M        424                  : BHTDEP       - MAXIMUM RECORDED TEMPERATURE
RMT .C        10                   : MDTP         - TEMPERATURE OF MUD
MUDD.KG/M     1120                 : MWT          - MUD DENSITY
NEUT.         1                    : NEUTRON      - NEUTRON TYPE
RESI.         0                    : RESIST       - RESISTIVITY TYPE
RM  .OHMM     4.3                  : RM           - RESISTIVITY OF MUD
RMC .OHMM     0                    : RMC          - RESISTIVITY OF MUD CAKE
RMF .OHMM     3.8                  : RMF          - RESISTIVITY OF MUD FILTRATE
SUFT.C        0                    : SUFT         - SURFACE TEMPERATURE
~A  DEPTH      CAL       GR     PHIN     PHID     RESD
# ...
  346.000  237.964   71.666    0.381    0.193   16.929
  346.250  227.332   72.427    0.388    0.180   15.860
  346.500  225.724   78.137    0.434    0.182   14.995
  346.750  228.117   80.815    0.456    0.176   14.074
  347.000  232.251   86.772    0.456    0.181   13.612
  347.250  235.356   87.906    0.445    0.210   13.621
  347.500  238.361   89.903    0.433    0.218   13.475
  347.750  237.880   92.336    0.443    0.213   13.331
  348.000  237.091   94.458    0.453    0.211   13.265
  348.250  237.233   93.856    0.426    0.213   13.271
  348.500  237.462   91.403    0.417    0.211   13.530
  348.750  237.907   91.301    0.420    0.208   13.848
  349.000  239.171   91.564    0.413    0.204   13.855
  349.250  240.944   93.256    0.413    0.197   13.786
  349.500  243.440   93.519    0.430    0.205   13.561
  349.750  245.928   93.538    0.449    0.214   13.416
  350.000  248.214   89.288    0.446    0.205   13.628
  350.250  249.892   86.465    0.434    0.172   13.660
  350.500  250.433   88.092    0.404    0.173   13.464
  350.750  251.290   92.006    0.408    0.196   13.271
  351.000  251.418   97.221    0.425    0.200   13.154
  351.250  251.965   95.138    0.449    0.195   13.062
  351.500  252.409   93.364    0.446    0.199   13.094
  351.750  252.956   96.474    0.452    0.204   13.150
  352.000  253.499   97.671    0.460    0.207   13.183
  352.250  253.734   94.161    0.451    0.205   13.165
  352.500  253.772   92.510    0.440    0.198   13.124
  352.750  253.902   93.148    0.434    0.191   13.180
  353.000  254.136   95.457    0.431    0.198   12.845
  353.250  253.861   96.651    0.443    0.204   12.520
  353.500  252.969   96.422    0.457    0.196   12.384
  353.750  246.233   95.825    0.456    0.182   12.274
  354.000  245.750   97.266    0.445    0.170   12.213
  354.250  247.729   97.284    0.428    0.175   12.382
  354.500  246.431   94.085    0.423    0.193   12.791
  354.750  244.821   93.115    0.441    0.207   13.364
  355.000  242.806   93.568    0.443    0.215   13.964
  355.250  242.323   93.959    0.434    0.228   14.292
  355.500  242.864   94.037    0.428    0.215   14.381
  355.750  245.463   95.606    0.448    0.190   14.497
  356.000  247.442   97.415    0.444    0.179   14.864
  356.250  247.988   85.126    0.439    0.189   15.738
  356.500  246.682   82.546    0.430    0.186   16.381
  356.750  245.075   84.669    0.415    0.160   17.375
  357.000  243.670   89.451    0.405    0.168   18.189
  357.250  243.394   93.677    0.412    0.212   18.650
  357.500  243.323   96.048    0.420    0.224   18.347
  357.750  242.329   87.961    0.414    0.225   17.949
  358.000  239.901   83.467    0.398    0.243   17.624
  358.250  237.884   85.651    0.386    0.249   17.337
  358.500  239.454   88.083    0.386    0.241   17.185
  358.750  239.280   88.966    0.395    0.236   17.129
  359.000  236.644   87.439    0.410    0.238   17.043
  359.250  233.811   83.312    0.418    0.235   16.859
  359.500  236.811   81.847    0.402    0.225   16.523
  359.750  242.074   85.332    0.373    0.179   15.832
  360.000  246.415   91.967    0.381    0.169   15.027
  360.250  248.805   97.925    0.395    0.206   14.480
  360.500  250.064  100.603    0.407    0.206   13.875
  360.750  251.429   88.004    0.429    0.203   13.522
  361.000  248.898   83.137    0.438    0.209   14.101
  361.250  245.954   82.664    0.465    0.217   15.098
  361.500  244.757   82.184    0.490    0.225   16.817
  361.750  244.996   76.823    0.475    0.229   19.054
  362.000  245.438   73.441    0.407    0.144   21.955
  362.250  245.773   67.829    0.260    0.071   24.874
  362.500  246.216   64.635    0.266    0.052   38.304
  362.750  246.661   64.838    0.267    0.040   39.427
  363.000  246.791   65.536    0.253    0.042   37.774
  363.250  246.724   75.391    0.265    0.052   31.725
  363.500  246.549   81.472    0.373    0.141   25.951
  363.750  246.380   85.634    0.444    0.173   20.444
  364.000  246.509   88.746    0.440    0.202   16.849
  364.250  246.745   90.374    0.431    0.222   15.116
  364.500  247.294   89.158    0.456    0.227   14.730
  364.750  248.347   90.783    0.474    0.214   14.572
  365.000  247.664   91.238    0.453    0.201   14.203
  365.250  242.566   89.893    0.421    0.189   14.051
  365.500  242.600   87.808    0.418    0.194   13.926
  365.750  244.372   88.203    0.418    0.201   14.065
  366.000  246.661   88.962    0.417    0.197   14.262
  366.250  247.416   89.165    0.417    0.197   14.349
  366.500  246.422   89.370    0.434    0.192   14.466
  366.750  245.735   89.823    0.475    0.179   14.528
  367.000  244.126   90.397    0.468    0.164   14.591
  367.250  242.819   91.282    0.453    0.153   14.766
  367.500  242.031   93.837    0.425    0.152   14.801
  367.750  242.063   94.909    0.423    0.159   14.291
  368.000  243.635   96.846    0.440    0.175   13.770
  368.250  246.845   99.524    0.427    0.204   13.395
  368.500  249.848   97.130    0.415    0.200   13.250
  368.750  251.010   96.716    0.433    0.196   13.109
  369.000  251.144   96.735    0.445    0.179   13.215
  369.250  251.492   96.384    0.436    0.163   13.348
  369.500  251.721   94.734    0.430    0.166   13.430
  369.750  251.865   93.636    0.440    0.180   13.363
  370.000  251.896   95.760    0.452    0.180   13.371
  370.250  252.122   98.252    0.455    0.173   13.378
  370.500  250.719   97.408    0.448    0.157   13.385
  370.750  249.726   96.994    0.436    0.165   13.342
  371.000  250.067   96.268    0.431    0.180   13.453
  371.250  251.123   96.846    0.450    0.187   13.434
  371.500  251.768   98.719    0.451    0.182   13.365
  371.750  252.007  100.532    0.443    0.170   13.149
  372.000  251.011  101.666    0.429    0.160   12.959
  372.250  250.021  102.179    0.452    0.181   12.653
  372.500  249.748   99.352    0.452    0.182   12.331
  372.750  249.679   99.310    0.438    0.157   11.836
  373.000  249.499  101.555    0.428    0.158   11.405
  373.250  249.638   99.780    0.440    0.188   12.144
  373.500  249.460   92.623    0.429    0.190   12.880
  373.750  249.389   87.817    0.393    0.163   13.766
  374.000  247.574   87.159    0.349    0.130   14.519
  374.250  247.401   95.712    0.372    0.120   15.056
  374.500  248.869  101.421    0.404    0.174   15.643
  374.750  249.521  101.378    0.423    0.186   16.191
  375.000  249.244   87.173    0.413    0.188   16.950
  375.250  247.118   85.273    0.402    0.170   17.642
  375.500  246.431   85.725    0.395    0.157   18.538
  375.750  246.053   88.218    0.389    0.174   19.591
  376.000  244.552   89.784    0.384    0.212   20.276
  376.250  242.633   90.297    0.380    0.222   20.908
  376.500  243.996   90.319    0.389    0.220   22.135
  376.750  245.259   88.047    0.391    0.207   23.879
  377.000  245.292   82.126    0.394    0.191   26.351
  377.250  243.681   75.157    0.391    0.170   30.136
  377.500  243.303   75.795    0.371    0.165   34.017
  377.750  244.873   75.196    0.375    0.168   36.560
  378.000  246.548   74.162    0.364    0.182   38.053
  378.250  248.014   71.953    0.336    0.141   40.136
  378.500  248.969   66.900    0.270    0.079   42.813
  378.750  248.285   64.879    0.266    0.063   46.893
  379.000  247.294   64.156    0.267    0.064   48.624
  379.250  245.476   62.504    0.277    0.084   46.240
  379.500  242.634   57.514    0.356    0.128   42.588
  379.750  242.667   57.779    0.351    0.145   41.115
  380.000  243.830   64.292    0.319    0.118   41.138
  380.250  244.681   68.149    0.265    0.096   42.023
  380.500  244.921   68.351    0.271    0.067   41.263
  380.750  244.746   67.011    0.288    0.054   39.684
  381.000  244.157   69.256    0.331    0.063   35.400
  381.250  242.139   77.934    0.361    0.189   28.848
  381.500  239.506   84.758    0.420    0.221   21.967
  381.750  238.203   81.993    0.411    0.227   19.339
  382.000  237.725   77.806    0.401    0.224   18.289
  382.250  236.625   74.424    0.395    0.212   17.855
