~VERSION INFORMATION
 VERS.                 2.0:   CWLS LOG ASCII STANDARD -VERSION 2.0
 WRAP.                  NO:   ONE LINE PER DEPTH STEP
~WELL INFORMATION BLOCK
#MNEM.UNIT           DATA                    DESCRIPTION OF MNEMONIC
#---------    -------------------            -------------------------------
# Generated from Intellog Unique Number	CW_76_78/WELL/1028
WELL.         11-27-077-23W4                 : Well_name    - WELL
LOC .         00/11-27-077-23W4/0            : Location     - LOCATION
UWI .         00/11-27-077-23W4/0            : Uwi          - UNIQUE WELL ID
ENTR.         jj                             : Entered      - ENTERED BY
SRVC.         WESTERN ATLAS                  : Scn          - SERVICE COMPANY
DATE.         12 MARCH 67                    : Date         - LOG DATE
STRT.M        472.578                        : top_depth    - START DEPTH
STOP.M        612.828                        : bot_depth    - STOP DEPTH
STEP.M        0.25                           : increment    - STEP LENGTH
 NULL. -999.2500:NULL Value
~CURVE INFORMATION BLOCK
#MNEM UNIT       ERCB CURVE CODE    CURVE DESCRIPTION
#-----------   ------------------   ----------------------------------
DEPT.M        00 001 00 00         : DEPTH        - DEPTH
GR  .API      00 310 00 00         : GR           - GAMMA RAY
DELT.US/F     00 520 00 00         : DELT         - SONIC TRAVEL TIME
ILD .OHMM     00 120 00 00         : RESD         - DEEP RESISTIVITY (DIL)
~PARAMETER INFORMATION
#MNEM.UNIT           DATA             DESCRIPTION OF MNEMONIC
#---------         -----------     ------------------------------
GL  .M        651.571              : gl           - GROUND LEVEL ELEVATION
EREF.M        655.93               : kb           - ELEVATION OF DEPTH REFERENCE
DATM.M        651.571              : datum        - DATUM ELEVATION
TDD .M        613.867              : tdd          - TOTAL DEPTH DRILLER
RUN .         ONE                  : Run          - RUN NUMBER
ENG .         MANLY                : Engineer     - RECORDING ENGINEER
WIT .         SAMIS                : Witness      - WITNESSED BY
MUD .         WATER GEL            : Mud_type     - MUD TYPE
MATR.         SANDSTONE            : Logunit      - NEUTRON MATRIX
TMAX.C        27.2222              : BHT          - MAXIMUM RECORDED TEMPERATURE
BHTD.M        612.648              : BHTDEP       - MAXIMUM RECORDED TEMPERATURE
RMT .C        15.5556              : MDTP         - TEMPERATURE OF MUD
MUDD.KG/M     1176                 : MWT          - MUD DENSITY
NEUT.         1                    : NEUTRON      - NEUTRON TYPE
RESI.         0                    : RESIST       - RESISTIVITY TYPE
RM  .OHMM     3                    : RM           - RESISTIVITY OF MUD
RMC .OHMM     3.32                 : RMC          - RESISTIVITY OF MUD CAKE
RMF .OHMM     2.72                 : RMF          - RESISTIVITY OF MUD FILTRATE
SUFT.C        4.5                  : SUFT         - SURFACE TEMPERATURE
~A  DEPTH       GR     DELT     RESD
  472.578   96.043  140.708    4.692
  472.828   90.235  140.923    5.191
  473.078   81.294  140.733    5.888
  473.328   75.004  140.042    6.931
  473.578   72.320  138.142    7.876
  473.828   71.806  132.620    7.387
  474.078   74.901  125.185    6.701
  474.328   85.461  119.762    6.066
  474.578   90.482  119.476    5.677
  474.828   90.449  120.896    5.388
  475.078   87.769  124.635    5.243
  475.328   84.604  127.466    5.100
  475.578   85.770  131.808    4.958
  475.828   88.393  133.736    4.914
  476.078   89.314  134.558    4.969
  476.328   89.526  135.275    5.025
  476.578   90.696  135.790    5.080
  476.828   89.697  136.408    5.184
  477.078   84.855  136.924    5.289
  477.328   81.449  136.936    5.392
  477.578   81.176  136.346    5.546
  477.828   82.587  135.554    5.701
  478.078   83.990  134.663    5.903
  478.328   84.687  133.870    6.206
  478.578   84.409  132.879    6.607
  478.828   84.862  132.287    7.204
  479.078   85.066  132.401    8.494
  479.328   83.829  131.408    9.043
  479.578   83.079  129.610    9.296
  479.828   78.469  126.705    9.400
  480.078   77.710  124.301    9.356
  480.328   80.570  119.585    9.116
  480.578   83.902  118.694    8.726
  480.828   85.553  118.201    8.041
  481.078   87.205  118.619    7.502
  481.328   88.375  121.551    6.965
  481.578   88.583  124.384    6.526
  481.828   86.621  125.707    6.137
  482.078   86.356  127.228    5.846
  482.328   86.323  129.659    5.654
  482.578   87.975  131.483    5.512
  482.828   91.784  132.705    5.512
  483.078   91.519  133.828    5.426
  483.328   89.320  134.347    5.332
  483.578   86.636  134.558    5.332
  483.828   83.230  134.672    5.296
  484.078   83.923  134.687    5.250
  484.328   83.168  134.598    5.256
  484.578   85.542  134.412    5.261
  484.828   88.393  134.325    5.267
  485.078   91.007  134.338    5.274
  485.328   90.734  134.152    5.278
  485.578   89.497  134.164    5.284
  485.828   91.394  134.179    5.284
  486.078   89.432  134.191    5.299
  486.328   87.474  134.305    5.350
  486.578   89.125  134.419    5.355
  486.828   88.844  134.535    5.361
  487.078   88.097  134.548    5.416
  487.328   89.508  134.560    5.620
  487.578   89.953  133.969    5.774
  487.828   88.476  132.777    5.828
  488.078   87.003  131.784    5.933
  488.328   86.248  130.591    5.988
  488.578   86.456  129.796    5.993
  488.828   87.867  128.805    5.852
  489.078   89.278  128.314    5.612
  489.328   90.449  127.925    5.467
  489.578   90.889  127.938    5.226
  489.828   91.814  129.159    4.936
  490.078   93.470  130.582    4.793
  490.328   94.881  134.421    4.701
  490.578   95.081  136.246    4.755
  490.828   96.023  138.174    4.909
  491.078   94.783  138.488    5.013
  491.328   92.829  138.000    5.217
  491.578   89.186  136.504    5.371
  491.828   88.187  134.803    5.525
  492.078   85.988  133.307    5.727
  492.328   84.266  131.410    6.078
  492.578   84.719  131.323    7.665
  492.828   84.446  130.934    9.152
  493.078   80.318  130.947    9.997
  493.328   74.269  130.456   10.595
  493.578   70.381  124.731   10.403
  493.828   72.274  119.108    9.668
  494.078   76.576  117.511    8.291
  494.328   79.668  116.619    7.903
  494.578   82.042  116.231    8.204
  494.828   81.768  118.257    8.654
  495.078   77.163  124.914   10.043
  495.328   69.670  128.450   11.776
  495.578   63.613  127.155   19.288
  495.828   57.087  118.714   20.331
  496.078   53.676  109.769   19.201
  496.328   55.087   97.501   17.429
  496.578   60.838   94.494   15.854
  496.828   63.934   97.629   15.072
  497.078   62.694  102.676   14.879
  497.328   62.901  104.704   14.439
  497.578   65.039  105.925   13.309
  497.828   70.300  107.750   11.191
  498.078   77.968  109.574   10.012
  498.328   80.819  114.621    8.437
  498.578   82.952  116.245    7.406
  498.828   82.923  122.904    6.770
  499.078   81.683  126.741    6.578
  499.328   81.409  127.162    6.485
  499.578   81.862  126.973    6.490
  499.828   83.995  126.686    6.545
  500.078   86.128  126.293    6.651
  500.328   88.501  125.904    6.656
  500.578   90.149  125.416    6.611
  500.828   88.917  125.027    6.420
  501.078   86.959  124.838    6.178
  501.328   88.129  124.853    5.938
  501.578   92.188  124.965    5.796
  501.828   98.167  125.683    5.752
  502.078   96.209  126.904    5.659
  502.328   94.495  127.825    5.614
  502.578   93.019  128.746    5.620
  502.828   90.812  128.960    5.627
  503.078   87.895  128.368    5.582
  503.328   84.966  127.075    5.588
  503.578   85.419  126.887    5.594
  503.828   86.112  126.899    5.550
  504.078   86.075  127.315    5.556
  504.328   83.628  128.134    5.511
  504.578   84.806  128.752    5.468
  504.828   87.902  129.069    5.424
  505.078   87.620  129.081    5.333
  505.328   87.114  128.997    5.338
  505.578   87.563  128.806    5.294
  505.828   89.936  128.419    5.298
  506.078   88.937  128.028    5.308
  506.328   88.937  127.840    5.310
  506.578   88.630  127.755    5.316
  506.828   87.635  127.768    5.316
  507.078   87.606  127.480    5.331
  507.328   87.329  127.090    5.332
  507.578   86.814  126.903    5.290
  507.828   86.300  127.116    5.245
  508.078   86.023  127.733    5.202
  508.328   90.326  128.855    5.158
  508.578   94.865  129.472    5.164
  508.828   92.658  129.387    5.120
  509.078   93.356  129.199    5.126
  509.328   91.397  129.113    5.082
  509.578   91.361  129.123    5.038
  509.828   90.361  129.137    4.945
  510.078   91.054  129.352    4.803
  510.328   93.191  129.467    4.709
  510.578   91.715  129.682    4.764
  510.828   87.819  129.996    4.870
  511.078   88.035  130.215    4.870
  511.328   89.442  130.125    4.930
  511.578   91.579  130.039    5.035
  511.828   90.343  130.254    5.040
  512.078   91.032  130.771    5.045
  512.328   93.402  131.187    5.052
  512.578   94.335  131.301    5.057
  512.828   91.888  131.213    5.408
  513.078   90.415  130.725    6.006
  513.328   87.495  130.033    6.605
  513.578   84.570  129.038    7.153
  513.828   82.135  126.636    7.702
  514.078   80.650  124.234    8.400
  514.328   80.862  122.737    8.899
  514.578   80.829  121.947    9.299
  514.828   77.663  121.455    9.651
  515.078   74.025  120.060    9.805
  515.328   68.694  116.048    9.811
  515.578   67.694  112.839    9.322
  515.828   69.105  111.747    8.390
  516.078   72.686  111.457    7.654
  516.328   80.599  112.277    6.969
  516.578   87.304  113.096    6.333
  516.828   93.528  115.223    5.894
  517.078   96.142  119.666    6.049
  517.328   85.990  121.793    7.832
  517.578   80.426  124.827   10.602
  517.828   73.655  127.559   14.411
  518.078   65.922  122.839   15.700
  518.328   62.756  111.580   15.756
  518.578   65.856  104.547   15.317
  518.828   72.080   98.521   13.595
  519.078   79.503   98.534   13.056
  519.328   83.325  101.567   11.926
  519.578   86.902  110.540   10.302
  519.828   86.383  112.868    8.728
  520.078   85.869  114.795    8.190
  520.328   87.044  115.917    7.850
  520.578   89.662  116.937    7.559
  520.828   96.127  117.655    7.368
  521.078   98.260  118.876    7.719
  521.328   90.041  119.795    8.169
  521.578   85.436  119.104    8.569
  521.828   84.681  119.218    9.217
  522.078   84.644  118.930   10.310
  522.328   84.852  117.836   11.056
  522.578   80.728  116.139   12.000
  522.828   77.085  114.037   13.931
  523.078   77.293  110.327   14.827
  523.328   79.422  105.106   14.932
  523.578   76.020  100.086   14.789
  523.828   72.137   95.671   13.757
  524.078   73.788   93.471   12.628
  524.328   76.643   95.799   12.089
  524.578   80.702   98.831   11.009
  524.828   87.170  106.698    9.928
  525.078   90.502  119.396    8.846
  525.328   92.635  118.200    8.260
  525.578   93.084  118.918    7.278
  525.828   91.611  119.636    6.938
  526.078   90.363  120.659    5.907
  526.328   89.608  121.478    5.715
  526.578   89.343  122.295    5.375
