~Version Information Block
VERS .                 2.00:  CWLS LOG ASCII STANDARD - VERSION 2.00
WRAP.                  NO:
~Well Information Block
#MNEM.UNIT        Data Type   Information
#---------- ----------------  -----------
STRT.M           130.2000:
STOP.M           354.0000:
STEP.M             0.3000:
NULL.           -999.2500:
COMP.  :COMPANY
WELL.  :WELL
FLD.   :FIELD
LOC.   :LOCATION
CTRY.  :COUNTRY
PROV.  :PROVINCE
SRVC.  :SERVICE COMPANY
DATE.  :LOG DATE
UWI.   00/10-08-083-05W4/0:UNIQUE WELL ID
~Parameter Information Block
#MNEM.UNIT            Value   Description
#---------- ----------------  -----------
PROJECT.             SURMOUNT:  
SET  .                  RAW:  
~Curve Information Block
#MNEM.UNIT          API CODE    Curve Description
#-----------    ------------    -------------------------------------
DEPT.M                      :   DEPTH
DPHI .V/V                   :   DPHI
DT   .us/m                  :   DT
GR   .API                   :   GR
ILD  .Ohmm                  :   ILD
NPHI .V/V                   :   NPHI
PHID .                      :   Created by graphical digitiser entry.
RHOB .gm/c3                 :   RHOB
~A  Depth           DPHI          DT          GR         ILD        NPHI        PHID        RHOB
130.2000       -999.2500   -999.2500     46.8328     14.8103   -999.2500   -999.2500   -999.2500
130.5000       -999.2500   -999.2500     51.2975     14.4141   -999.2500      0.3088   2140.4253
130.8000       -999.2500   -999.2500     58.3389     14.2886   -999.2500      0.2619   2217.8247
131.1000       -999.2500   -999.2500     61.0177     14.1637      0.4383      0.2934   2165.8938
131.4000       -999.2500   -999.2500     65.8661     13.8130      0.4433      0.3106   2137.4429
131.7000       -999.2500   -999.2500     72.6847     13.3805      0.4504      0.2909   2170.0486
132.0000       -999.2500   -999.2500     71.9808     12.9786      0.4265      0.3010   2153.3284
132.3000       -999.2500   -999.2500     66.2792     12.5905      0.4220      0.3077   2142.3252
132.6000       -999.2500   -999.2500     64.3243     12.2814      0.4179      0.2967   2160.4004
132.9000       -999.2500   -999.2500     63.5610     12.0124      0.4634      0.2707   2203.3662
133.2000       -999.2500   -999.2500     61.1176     11.4857      0.4262      0.2734   2198.8645
133.5000       -999.2500   -999.2500     60.1164     10.7392      0.4186      0.3129   2133.7458
133.8000       -999.2500   -999.2500     61.2349     10.0468      0.4145      0.3263   2111.6553
134.1000       -999.2500   -999.2500     63.9666      9.4041      0.4217      0.3219   2118.8879
134.4000       -999.2500   -999.2500     69.5988      8.6086      0.4433      0.3052   2146.3965
134.7000       -999.2500   -999.2500     80.8414      7.7176      0.4627      0.2827   2183.4736
135.0000       -999.2500   -999.2500     86.5977      7.0258      0.4458      0.2735   2198.6689
135.3000       -999.2500   -999.2500     87.5508      7.2538      0.4538      0.2776   2191.9719
135.6000       -999.2500   -999.2500     86.4271      7.9552      0.4509      0.2744   2197.1807
135.9000       -999.2500   -999.2500     81.2555      8.7513      0.4497      0.2882   2174.4121
136.2000       -999.2500   -999.2500     76.9904      8.5110      0.4456      0.2971   2159.7551
136.5000       -999.2500   -999.2500     77.6461      7.7369      0.4564      0.2933   2166.1343
136.8000       -999.2500   -999.2500     80.6074      6.9479      0.4583      0.2952   2162.9348
137.1000       -999.2500   -999.2500     84.2428      6.1009      0.4746      0.2930   2166.5066
137.4000       -999.2500   -999.2500     89.4148      5.5075      0.5005      0.2913   2169.3484
137.7000       -999.2500   -999.2500     94.3292      5.2093      0.5024      0.2776   2191.9182
138.0000       -999.2500   -999.2500     96.4370      4.9893      0.4766      0.2882   2174.5007
138.3000       -999.2500   -999.2500     96.2628      5.2393      0.4511      0.2989   2156.8276
138.6000       -999.2500   -999.2500     95.1167      5.7906      0.4459      0.2989   2156.8206
138.9000       -999.2500   -999.2500     89.1588      6.4699      0.4564      0.2903   2171.0371
139.2000       -999.2500   -999.2500     82.7052      7.4929      0.4710      0.2957   2162.0732
139.5000       -999.2500   -999.2500     77.2721      8.9038      0.4642      0.3130   2133.5476
139.8000       -999.2500   -999.2500     71.8281     11.5459      0.4398      0.3290   2107.0979
140.1000       -999.2500   -999.2500     67.0743     14.5789      0.4343      0.3335   2099.6799
140.4000       -999.2500   -999.2500     61.2422     16.5210      0.4131      0.3380   2092.2219
140.7000       -999.2500   -999.2500     56.2874     17.1523      0.3986      0.3499   2072.7212
141.0000       -999.2500   -999.2500     54.4335     17.1006      0.3956      0.3496   2073.1995
141.3000       -999.2500   -999.2500     55.2295     16.9090      0.3901      0.3550   2064.2144
141.6000       -999.2500   -999.2500     57.0477     16.7304      0.4048      0.3575   2060.0669
141.9000       -999.2500   -999.2500     57.4767     16.5694      0.4195      0.3606   2055.0532
142.2000       -999.2500   -999.2500     53.3287     16.4140      0.4062      0.3615   2053.4829
142.5000       -999.2500   -999.2500     51.8972     16.4013      0.4171      0.3519   2069.4456
142.8000       -999.2500   -999.2500     52.4041     16.4820      0.4050      0.3504   2071.7593
143.1000       -999.2500   -999.2500     51.9242     16.5829      0.3794      0.3537   2066.4497
143.4000       -999.2500   -999.2500     45.9070     16.7980      0.3554      0.3483   2075.2344
143.7000       -999.2500   -999.2500     36.1164     17.0679      0.3462      0.3404   2088.3535
144.0000       -999.2500   -999.2500     33.2639     17.3377      0.3523      0.3186   2124.3110
144.3000       -999.2500   -999.2500     34.9559     17.3751      0.3570      0.2971   2159.8557
144.6000       -999.2500   -999.2500     34.9902     16.6596      0.3320      0.2753   2195.8101
144.9000       -999.2500   -999.2500     32.9524     14.4126      0.3404      0.2570   2225.9260
145.2000       -999.2500   -999.2500     31.2515     12.2126      0.3833      0.2717   2201.6218
145.5000       -999.2500   -999.2500     31.5588     11.0084      0.3853      0.2898   2171.7876
145.8000       -999.2500   -999.2500     35.1511     10.2923      0.4050      0.2900   2171.5674
146.1000       -999.2500   -999.2500     41.3892     10.1584      0.4176      0.3224   2117.9668
146.4000       -999.2500   -999.2500     49.1539     10.3886      0.4334      0.3355   2096.4998
146.7000       -999.2500   -999.2500     55.2657     11.6831      0.3924      0.3152   2129.8584
147.0000       -999.2500   -999.2500     51.9237     13.1021      0.3808      0.3342   2098.4934
147.3000       -999.2500   -999.2500     47.2245     13.8746      0.3901      0.3492   2073.8381
147.6000       -999.2500   -999.2500     45.9830     14.2561      0.3997      0.3302   2105.1819
147.9000       -999.2500   -999.2500     47.3636     14.3188      0.3857      0.2865   2177.3152
148.2000       -999.2500   -999.2500     48.0003     14.2637      0.4056      0.2563   2227.0874
148.5000       -999.2500   -999.2500     43.5017     14.2095      0.4254      0.2877   2175.3591
148.8000       -999.2500   -999.2500     36.9753     14.1554      0.3975      0.3311   2103.6619
149.1000       -999.2500   -999.2500     37.9975     14.9891      0.4033      0.3397   2089.4902
149.4000       -999.2500   -999.2500     42.7161     15.8655      0.3992      0.3451   2080.5840
149.7000       -999.2500   -999.2500     45.7795     16.0937      0.3870      0.3436   2083.1230
150.0000       -999.2500   -999.2500     44.4074     16.1268      0.3829      0.3431   2083.9028
150.3000       -999.2500   -999.2500     40.6904     16.2138      0.3785      0.3503   2072.0127
150.6000       -999.2500   -999.2500     37.7753     16.2997      0.3717      0.3571   2060.7744
150.9000       -999.2500   -999.2500     33.7129     16.1333      0.3811      0.3524   2068.5625
151.2000       -999.2500   -999.2500     35.5672     15.8459      0.3931      0.3615   2053.5642
151.5000       -999.2500   -999.2500     40.4870     15.2194      0.3948      0.3687   2041.6676
151.8000       -999.2500   -999.2500     44.3161     14.2153      0.4080      0.3729   2034.6680
152.1000       -999.2500   -999.2500     47.4363     12.9025      0.4019      0.3663   2045.6536
152.4000       -999.2500   -999.2500     52.3185     12.0080      0.4042      0.3512   2070.5315
152.7000       -999.2500   -999.2500     58.1971     12.6407      0.4194      0.3447   2081.2639
153.0000       -999.2500   -999.2500     58.8825     14.2589      0.4249      0.3445   2081.5469
153.3000       -999.2500   -999.2500     56.2014     15.5682      0.4107      0.3504   2071.8359
153.6000       -999.2500   -999.2500     53.0700     15.6410      0.4015      0.3650   2047.7157
153.9000       -999.2500   -999.2500     52.7602     14.1268      0.3944      0.3764   2029.0225
154.2000       -999.2500   -999.2500     55.0213     12.6125      0.3898      0.3745   2032.0291
154.5000       -999.2500   -999.2500     57.6108     12.0785      0.3955      0.3674   2043.7948
154.8000       -999.2500   -999.2500     58.2397     12.6323      0.4003      0.3594   2056.9683
