~VERSION INFORMATION
 VERS.                 2.0:   CWLS LOG ASCII STANDARD -VERSION 2.0
 WRAP.                  NO:   ONE LINE PER DEPTH STEP
~WELL INFORMATION BLOCK
#MNEM.UNIT           DATA                    DESCRIPTION OF MNEMONIC
#---------    -------------------            -------------------------------
# Generated from Intellog Unique Number	CW_76_78/WELL/875
WELL.         ASHLAND ET AL PORTAGE 10-12    : Well_name    - WELL
LOC .         00/10-12-077-19W4/0            : Location     - LOCATION
UWI .         00/10-12-077-19W4/0            : Uwi          - UNIQUE WELL ID
ENTR.         JAYE                           : Entered      - ENTERED BY
SRVC.         WESTERN ATLAS                  : Scn          - SERVICE COMPANY
DATE.         21 JAN 72                      : Date         - LOG DATE
STRT.M        198.12                         : top_depth    - START DEPTH
STOP.M        377.87                         : bot_depth    - STOP DEPTH
STEP.M        0.25                           : increment    - STEP LENGTH
 NULL. -999.2500:NULL Value
~CURVE INFORMATION BLOCK
#MNEM UNIT       ERCB CURVE CODE    CURVE DESCRIPTION
#-----------   ------------------   ----------------------------------
DEPT.M        00 001 00 00         : DEPTH        - DEPTH
ILD .OHMM     00 120 00 00         : RESD         - DEEP RESISTIVITY (DIL)
NPHI.V/V      00 330 00 00         : PHIN         - NEUTRON POROSITY (SANDSTONE)
DPHI.V/V      00 890 00 00         : PHID         - DENSITY POROSITY (SANDSTONE)
GR  .API      00 310 00 00         : GR           - GAMMA RAY
CALI.MM       00 280 01 00         : CAL          - CALIPER
~PARAMETER INFORMATION
#MNEM.UNIT           DATA             DESCRIPTION OF MNEMONIC
#---------         -----------     ------------------------------
GL  .M        556.26               : gl           - GROUND LEVEL ELEVATION
EREF.M        561.137              : kb           - ELEVATION OF DEPTH REFERENCE
DATM.M        556.26               : datum        - DATUM ELEVATION
TDD .M        399.288              : tdd          - TOTAL DEPTH DRILLER
RUN .         ONE                  : Run          - RUN NUMBER
MATR.         SANDSTONE            : Logunit      - NEUTRON MATRIX
TMAX.C        22.2222              : BHT          - MAXIMUM RECORDED TEMPERATURE
BHTD.M        399.288              : BHTDEP       - MAXIMUM RECORDED TEMPERATURE
RMT .C        23.3333              : MDTP         - TEMPERATURE OF MUD
MUDD.KG/M     0                    : MWT          - MUD DENSITY
NEUT.         1                    : NEUTRON      - NEUTRON TYPE
RESI.         0                    : RESIST       - RESISTIVITY TYPE
RM  .OHMM     2.2                  : RM           - RESISTIVITY OF MUD
RMC .OHMM     2.6                  : RMC          - RESISTIVITY OF MUD CAKE
RMF .OHMM     1.6                  : RMF          - RESISTIVITY OF MUD FILTRATE
SUFT.C        -17.7778             : SUFT         - SURFACE TEMPERATURE
~A  DEPTH     RESD     PHIN     PHID       GR      CAL
# ...
  307.620    7.099    0.409    0.227   98.133  163.398
  307.870    7.982    0.368    0.261   98.230  160.966
  308.120    9.076    0.354    0.268   98.582  161.246
  308.370    9.908    0.368    0.264   99.423  162.141
  308.620   10.365    0.362    0.249   98.847  164.307
  308.870   10.487    0.346    0.177   96.910  166.148
  309.120   10.591    0.344    0.138   93.430  166.330
  309.370   10.876    0.330    0.126   95.387  165.245
  309.620   11.128    0.299    0.115   91.046  163.854
  309.870   11.012    0.276    0.198   93.987  164.654
  310.120   10.998    0.253    0.248   98.351  166.504
  310.370   11.441    0.244    0.232   91.106  168.456
  310.620   12.375    0.233    0.178   83.675  170.088
  310.870   14.334    0.219   -0.003   77.046  170.893
  311.120   16.602    0.201    0.006   77.950  170.644
  311.370   18.190    0.189    0.021   83.796  168.731
  311.620   17.802    0.193    0.081   93.410  167.853
  311.870   14.857    0.266    0.170  104.626  169.285
  312.120   12.284    0.375    0.166  111.891  170.813
  312.370   10.659    0.368    0.158  109.338  170.160
  312.620    9.282    0.366    0.172  111.050  166.250
  312.870    8.189    0.381    0.173  113.435  165.798
  313.120    7.581    0.394    0.185  116.071  166.917
  313.370    7.338    0.398    0.201  113.639  167.815
  313.620    7.247    0.395    0.220  108.369  168.410
  313.870    7.213    0.384    0.211  111.870  168.477
  314.120    7.230    0.366    0.200  111.600  168.654
  314.370    7.302    0.367    0.192  108.494  168.826
  314.620    7.389    0.393    0.188  110.759  169.001
  314.870    7.420    0.394    0.192  111.169  168.872
  315.120    7.424    0.391    0.196  108.615  169.135
  315.370    7.443    0.393    0.198  108.535  169.841
  315.620    7.475    0.389    0.197  111.351  170.743
  315.870    7.522    0.414    0.192  114.481  171.653
  316.120    7.597    0.410    0.184  115.817  171.921
  316.370    7.616    0.406    0.195  113.018  172.202
  316.620    7.622    0.385    0.210  112.569  172.386
  316.870    7.640    0.410    0.196  110.011  172.652
  317.120    7.673    0.414    0.188  108.078  172.643
  317.370    7.663    0.406    0.182  108.554  172.609
  317.620    7.668    0.399    0.176  110.632  172.651
  317.870    7.560    0.404    0.179  112.769  172.408
  318.120    7.412    0.405    0.182  114.171  172.397
  318.370    7.241    0.417    0.174  113.777  172.357
  318.620    7.007    0.404    0.188  111.657  172.105
  318.870    6.321    0.421    0.203  108.058  172.059
  319.120    5.798    0.410    0.207  108.161  172.039
  319.370    5.328    0.400    0.224  113.139  172.093
  319.620    4.914    0.418    0.215  115.096  172.691
  319.870    4.854    0.417    0.205  115.691  173.276
  320.120    5.087    0.405    0.199  118.018  174.604
  320.370    5.441    0.430    0.203  121.146  175.927
  320.620    5.777    0.428    0.227  120.816  177.362
  320.870    6.134    0.410    0.233  114.813  179.096
  321.120    6.500    0.394    0.221  111.510  180.104
  321.370    6.838    0.388    0.217  108.217  175.049
  321.620    7.113    0.395    0.224  111.902  168.010
  321.870    7.387    0.395    0.216  114.598  165.464
  322.120    7.571    0.395    0.198  116.366  165.969
  322.370    7.746    0.388    0.180  116.227  166.545
  322.620    7.911    0.406    0.166  114.474  167.253
  322.870    7.857    0.417    0.186  114.699  167.523
  323.120    7.676    0.385    0.191  118.568  167.919
  323.370    7.456    0.370    0.191  114.165  167.770
  323.620    7.282    0.388    0.202  113.402  167.852
  323.870    7.101    0.404    0.209  117.334  167.933
  324.120    7.014    0.414    0.207  114.103  167.879
  324.370    6.967    0.399    0.207  111.738  167.524
  324.620    6.971    0.402    0.204  112.639  167.182
  324.870    7.028    0.378    0.199  114.285  167.236
  325.120    7.098    0.387    0.195  114.512  167.200
  325.370    7.181    0.388    0.192  113.937  167.065
  325.620    7.375    0.385    0.190  112.184  166.405
  325.870    7.573    0.383    0.187  112.473  165.010
  326.120    7.878    0.376    0.185  111.712  163.508
  326.370    7.986    0.379    0.180  113.604  163.260
  326.620    7.758    0.382    0.181  113.523  165.010
  326.870    7.398    0.375    0.193  113.749  166.857
  327.120    6.976    0.382    0.187  116.753  168.491
  327.370    6.652    0.386    0.183  119.576  170.230
  327.620    6.332    0.385    0.183  120.172  171.663
  327.870    6.117    0.378    0.184  119.468  171.417
  328.120    5.932    0.370    0.188  116.731  170.337
  328.370    5.891    0.367    0.202  116.093  168.636
  328.620    5.961    0.372    0.204  115.520  166.918
  328.870    6.121    0.366    0.209  114.823  165.208
  329.120    6.403    0.362    0.218  113.812  163.820
  329.370    6.749    0.357    0.213  108.538  163.464
  329.620    7.113    0.344    0.173  102.404  164.158
  329.870    7.537    0.334    0.126   95.159  165.802
  330.120    8.121    0.328    0.101   89.024  167.865
  330.370    8.932    0.336    0.091   87.590  168.984
  330.620    9.732    0.348    0.290   87.315  168.726
  330.870   10.257    0.368    0.299   83.776  167.330
  331.120    9.252    0.387    0.295   80.048  164.593
  331.370    8.192    0.404    0.286   78.424  164.018
  331.620    7.108    0.395    0.274   85.258  163.685
  331.870    6.520    0.400    0.285   84.498  163.852
  332.120    6.322    0.421    0.289   86.511  164.019
  332.370    6.267    0.414    0.297   86.306  164.103
  332.620    6.272    0.408    0.307   82.952  163.743
  332.870    6.299    0.410    0.329   82.442  163.507
  333.120    6.338    0.434    0.319   84.268  162.940
  333.370    6.390    0.426    0.293   83.627  162.901
  333.620    6.393    0.405    0.284   82.930  162.461
  333.870    6.409    0.391    0.288   81.738  162.213
  334.120    6.389    0.376    0.294   82.519  161.973
  334.370    6.381    0.378    0.297   81.013  161.818
  334.620    6.362    0.396    0.304   80.128  161.787
  334.870    6.342    0.409    0.318   79.675  161.857
  335.120    6.312    0.409    0.307   82.130  162.547
  335.370    6.281    0.432    0.291   81.859  163.454
  335.620    6.285    0.436    0.289   82.269  164.465
  335.870    6.289    0.436    0.295   85.398  165.478
  336.120    6.304    0.425    0.290   88.154  165.963
  336.370    6.343    0.417    0.285   85.723  166.447
  336.620    6.406    0.424    0.315   80.392  167.156
  336.870    6.616    0.419    0.307   77.778  167.532
  337.120    6.768    0.412    0.293   78.747  167.700
  337.370    7.186    0.404    0.307   78.787  167.568
  337.620    7.757    0.412    0.298   76.790  167.433
  337.870    8.610    0.394    0.287   76.400  167.178
  338.120    9.754    0.346    0.245   74.280  167.153
  338.370   11.702    0.339    0.247   71.726  166.815
  338.620   13.630    0.317    0.264   69.605  166.560
  338.870   12.526    0.287    0.265   66.311  166.304
  339.120   11.660    0.374    0.269   68.518  166.064
  339.370   10.479    0.395    0.271   74.423  165.605
  339.620    9.177    0.377    0.263   75.265  163.809
  339.870    8.156    0.372    0.252   77.839  163.259
  340.120    7.440    0.377    0.247   79.485  163.204
  340.370    7.108    0.367    0.247   81.564  163.701
  340.620    7.034    0.380    0.254   84.200  164.393
  340.870    7.183    0.391    0.263   84.240  164.359
  341.120    7.418    0.377    0.268   81.131  164.224
  341.370    7.660    0.368    0.263   78.827  164.293
  341.620    7.793    0.371    0.250   80.906  164.369
  341.870    7.929    0.379    0.246   82.860  164.736
  342.120    8.068    0.374    0.241   82.959  165.022
  342.370    8.209    0.376    0.234   81.520  165.401
  342.620    8.259    0.368    0.238   77.485  165.674
  342.870    8.233    0.377    0.240   78.022  165.960
  343.120    8.209    0.376    0.242   81.094  166.023
  343.370    8.078    0.369    0.244   82.549  166.727
  343.620    7.847    0.370    0.244   84.934  166.796
  343.870    7.594    0.372    0.242   88.743  166.352
