~VERSION INFORMATION
 VERS.                 2.0:   CWLS LOG ASCII STANDARD -VERSION 2.0
 WRAP.                  NO:   ONE LINE PER DEPTH STEP
~WELL INFORMATION BLOCK
#MNEM.UNIT           DATA                    DESCRIPTION OF MNEMONIC
#---------    -------------------            -------------------------------
# Generated from Intellog Unique Number	CW_73_75/WELL/1042
WELL.         AMOCO MARTEN HILLS 83 11-19    : Well_name    - WELL
LOC .         00/11-19-075-01W5/0            : Location     - LOCATION
UWI .         00/11-19-075-01W5/0            : Uwi          - UNIQUE WELL ID
ENTR.         JAYE                           : Entered      - ENTERED BY
SRVC.         SCHLUMBERGER                   : Scn          - SERVICE COMPANY
DATE.         13 FEB 77                      : Date         - LOG DATE
STRT.M        560.832                        : top_depth    - START DEPTH
STOP.M        749.832                        : bot_depth    - STOP DEPTH
STEP.M        0.25                           : increment    - STEP LENGTH
 NULL. -999.2500:NULL Value
~CURVE INFORMATION BLOCK
#MNEM UNIT       ERCB CURVE CODE    CURVE DESCRIPTION
#-----------   ------------------   ----------------------------------
DEPT.M        00 001 00 00         : DEPTH        - DEPTH
ILD .OHMM     00 120 00 00         : RESD         - DEEP RESISTIVITY (DIL)
NPHI.V/V      00 330 00 00         : PHIN         - NEUTRON POROSITY (SANDSTONE)
DPHI.V/V      00 890 00 00         : PHID         - DENSITY POROSITY (SANDSTONE)
GR  .API      00 310 00 00         : GR           - GAMMA RAY
CALI.MM       00 280 01 00         : CAL          - CALIPER
~PARAMETER INFORMATION
#MNEM.UNIT           DATA             DESCRIPTION OF MNEMONIC
#---------         -----------     ------------------------------
GL  .M        840.791              : gl           - GROUND LEVEL ELEVATION
EREF.M        845.515              : kb           - ELEVATION OF DEPTH REFERENCE
DATM.M        840.791              : datum        - DATUM ELEVATION
TDD .M        748.223              : tdd          - TOTAL DEPTH DRILLER
RUN .         ONE                  : Run          - RUN NUMBER
ENG .         PIMM                 : Engineer     - RECORDING ENGINEER
WIT .         BRAUN                : Witness      - WITNESSED BY
BASE.         EDM                  : Branch       - HOME BASE OF LOGGING UNIT
MUD .         GEL                  : Mud_type     - MUD TYPE
MATR.         SANDSTONE            : Logunit      - NEUTRON MATRIX
TMAX.C        33.3333              : BHT          - MAXIMUM RECORDED TEMPERATURE
BHTD.M        748.284              : BHTDEP       - MAXIMUM RECORDED TEMPERATURE
RMT .C        22.2222              : MDTP         - TEMPERATURE OF MUD
MUDD.KG/M     1152                 : MWT          - MUD DENSITY
NEUT.         1                    : NEUTRON      - NEUTRON TYPE
RESI.         0                    : RESIST       - RESISTIVITY TYPE
RM  .OHMM     3.83                 : RM           - RESISTIVITY OF MUD
RMC .OHMM     0                    : RMC          - RESISTIVITY OF MUD CAKE
RMF .OHMM     0                    : RMF          - RESISTIVITY OF MUD FILTRATE
SUFT.C        -17.7778             : SUFT         - SURFACE TEMPERATURE
~A  DEPTH     RESD     PHIN     PHID       GR      CAL
# ...
  633.832    4.915    0.403    0.247   72.643  226.391
  634.082    5.144    0.398    0.215   70.996  226.917
  634.332    5.423    0.394    0.217   69.043  227.442
  634.582    5.521    0.390    0.208   66.722  226.931
  634.832    5.467    0.385    0.197   65.564  224.452
  635.082    5.257    0.381    0.162   67.710  223.735
  635.332    4.954    0.390    0.190   71.506  223.327
  635.582    4.694    0.420    0.196   75.120  225.924
  635.832    4.455    0.428    0.203   76.715  228.106
  636.082    4.214    0.425    0.208   78.248  229.875
  636.332    3.963    0.431    0.212   78.192  230.193
  636.582    3.903    0.443    0.216   78.991  230.407
  636.832    3.995    0.447    0.209   80.525  230.932
  637.082    4.212    0.435    0.209   82.242  230.837
  637.332    4.599    0.427    0.230   80.717  230.014
  637.582    5.096    0.426    0.223   77.601  234.891
  637.832    5.752    0.435    0.233   74.731  241.113
  638.082    6.281    0.431    0.239   70.453  228.586
  638.332    6.300    0.404    0.220   68.928  222.792
  638.582    6.159    0.374    0.224   71.563  220.417
  638.832    5.814    0.358    0.216   74.320  221.150
  639.082    5.550    0.387    0.190   74.080  222.194
  639.332    5.277    0.419    0.221   74.879  222.925
  639.582    5.074    0.431    0.197   76.535  223.658
  639.832    4.961    0.438    0.206   77.640  223.977
  640.082    4.849    0.419    0.243   78.134  223.880
  640.332    4.777    0.412    0.236   78.138  223.990
  640.582    4.730    0.408    0.215   78.020  224.308
  640.832    4.650    0.418    0.200   78.697  225.146
  641.082    4.596    0.422    0.199   77.356  225.255
  641.332    4.560    0.430    0.221   75.770  225.055
  641.582    4.532    0.448    0.234   76.936  224.544
  641.832    4.505    0.414    0.253   78.714  225.380
  642.082    4.461    0.401    0.243   78.107  226.839
  642.332    4.459    0.407    0.226   77.438  228.295
  642.582    4.457    0.424    0.216   77.871  229.649
  642.832    4.421    0.428    0.203   78.242  230.071
  643.082    4.428    0.430    0.189   77.145  230.596
  643.332    4.499    0.432    0.216   80.269  231.639
  643.582    4.640    0.440    0.233   80.580  233.304
  643.832    4.918    0.463    0.239   79.605  232.171
  644.082    5.157    0.438    0.226   77.346  225.860
  644.332    5.438    0.418    0.213   73.741  220.584
  644.582    5.743    0.425    0.207   69.586  215.724
  644.832    5.945    0.425    0.286   67.510  215.731
  645.082    5.985    0.411    0.284   66.108  216.773
  645.332    6.071    0.400    0.290   64.949  218.749
  645.582    6.226    0.416    0.291   62.874  221.035
  645.832    6.492    0.436    0.285   59.880  221.767
  646.082    6.807    0.432    0.296   56.703  221.775
  646.332    7.324    0.426    0.284   51.631  221.679
  646.582    7.361    0.416    0.273   51.634  221.686
  646.832    7.130    0.391    0.262   53.352  221.900
  647.082    6.957    0.394    0.251   55.742  222.115
  647.332    6.979    0.409    0.288   58.376  222.019
  647.582    7.358    0.418    0.284   61.011  221.818
  647.832    8.064    0.411    0.274   61.566  221.515
  648.082    8.740    0.375    0.259   62.122  221.315
  648.332    8.623    0.345    0.219   62.125  221.531
  648.582    7.604    0.338    0.181   61.885  222.158
  648.832    6.115    0.400    0.172   62.929  222.683
  649.082    5.353    0.443    0.274   66.481  223.105
  649.332    4.738    0.454    0.268   71.319  223.631
  649.582    4.271    0.447    0.216   74.137  223.638
  649.832    4.002    0.435    0.248   74.753  223.955
  650.082    3.942    0.409    0.245   73.962  224.170
  650.332    4.042    0.408    0.219   74.272  224.488
  650.582    4.238    0.418    0.208   75.745  225.634
  650.832    4.936    0.446    0.230   77.707  229.785
  651.082    6.109    0.423    0.248   77.160  230.103
  651.332    7.786    0.403    0.266   72.148  223.170
  651.582    9.287    0.383    0.279   65.240  219.345
  651.832   11.793    0.362    0.262   61.084  219.767
  652.082   16.604    0.326    0.260   58.213  221.225
  652.332   22.120    0.287    0.245   53.874  222.371
  652.582   29.359    0.236    0.228   49.719  222.792
  652.832   33.381    0.206    0.193   47.337  223.007
  653.082   32.936    0.172    0.129   45.812  223.015
  653.332   30.187    0.164    0.096   46.122  222.814
  653.582   26.865    0.211    0.114   46.861  222.718
  653.832   24.625    0.244    0.151   48.211  222.829
  654.082   22.907    0.295    0.182   50.540  223.148
  654.332   20.498    0.319    0.263   55.255  223.465
  654.582   18.076    0.344    0.243   60.214  223.575
  654.832   15.851    0.370    0.252   63.093  223.687
  655.082   15.018    0.385    0.304   62.425  223.901
  655.332   14.362    0.376    0.257   60.043  224.323
  655.582   13.066    0.369    0.234   55.949  225.055
  655.832   11.607    0.364    0.209   57.543  225.683
  656.082   10.067    0.368    0.224   61.157  225.587
  656.332    8.247    0.387    0.242   65.260  225.698
  656.582    6.868    0.414    0.253   69.670  225.809
  656.832    6.090    0.414    0.266   70.652  225.816
  657.082    5.341    0.406    0.252   68.026  225.824
  657.332    4.735    0.397    0.233   66.990  225.830
  657.582    4.301    0.402    0.221   70.237  226.149
  657.832    3.785    0.407    0.213   76.297  226.777
  658.082    3.469    0.402    0.205   81.746  231.032
  658.332    3.404    0.411    0.224   85.727  233.525
  658.582    3.596    0.434    0.216   86.832  233.947
  658.832    3.847    0.428    0.203   85.307  233.747
  659.082    4.185    0.419    0.200   82.252  232.927
  659.332    4.528    0.412    0.201   80.605  231.794
  659.582    4.863    0.402    0.199   80.181  229.936
  659.832    5.260    0.430    0.178   79.145  228.078
  660.082    5.775    0.422    0.207   75.785  225.807
  660.332    6.579    0.409    0.232   70.223  224.779
  660.582    7.591    0.392    0.198   66.067  225.304
  660.832    8.108    0.374    0.170   64.848  227.177
  661.082    8.104    0.356    0.160   65.892  228.840
  661.332    7.607    0.370    0.168   69.690  230.090
  661.582    6.845    0.344    0.162   71.774  230.616
  661.832    6.047    0.365    0.171   73.307  230.727
  662.082    5.584    0.389    0.188   76.125  231.045
  662.332    5.204    0.409    0.220   80.290  231.260
  662.582    5.059    0.414    0.219   82.435  231.473
  662.832    5.047    0.421    0.205   84.642  231.170
  663.082    5.129    0.421    0.186   86.726  230.245
  663.332    5.240    0.403    0.175   88.382  228.284
  663.582    5.238    0.387    0.207   84.654  227.773
  663.832    5.120    0.382    0.207   84.108  227.987
  664.082    4.915    0.380    0.189   85.091  228.928
  664.332    4.605    0.386    0.187   85.157  229.970
  664.582    4.300    0.400    0.184   84.427  230.496
  664.832    4.127    0.413    0.191   83.697  230.814
  665.082    4.102    0.427    0.189   83.824  231.235
  665.332    4.199    0.466    0.182   86.703  231.243
  665.582    4.468    0.487    0.213   91.173  230.835
  665.832    4.941    0.464    0.262   86.406  229.393
  666.082    5.406    0.424    0.235   81.516  227.744
  666.332    6.135    0.418    0.207   75.525  227.232
  666.582    6.798    0.414    0.210   74.551  226.721
  666.832    7.368    0.404    0.218   70.334  225.900
  667.082    7.528    0.389    0.229   66.790  225.390
  667.332    7.455    0.375    0.179   69.854  225.085
  667.582    7.329    0.376    0.195   71.815  225.093
  667.832    7.178    0.377    0.228   72.065  224.997
  668.082    7.082    0.376    0.235   71.396  225.418
  668.332    7.027    0.374    0.206   71.645  227.704
  668.582    7.009    0.368    0.166   72.934  229.783
  668.832    6.967    0.366    0.168   74.161  230.516
  669.082    6.761    0.370    0.163   75.328  230.626
  669.332    6.538    0.376    0.179   74.292  230.634
  669.582    6.252    0.373    0.155   72.095  230.745
  669.832    5.848    0.395    0.157   73.261  230.648
  670.082    5.550    0.403    0.161   77.608  230.242
