~VERSION INFORMATION
 VERS.                 2.0:   CWLS LOG ASCII STANDARD -VERSION 2.0
 WRAP.                  NO:   ONE LINE PER DEPTH STEP
~WELL INFORMATION BLOCK
#MNEM.UNIT           DATA                    DESCRIPTION OF MNEMONIC
#---------    -------------------            -------------------------------
# Generated from Intellog Unique Number	CS_73_76/WELL/2209
WELL.         PEX WAPPAU                     : Well_name    - WELL
LOC .         00/12-10-074-11W4/0            : Location     - LOCATION
UWI .         00/12-10-074-11W4/0            : Uwi          - UNIQUE WELL ID
ENTR.         SP                             : Entered      - ENTERED BY
SRVC.         SCHLUMBERGER                   : Scn          - SERVICE COMPANY
STRT.M        330                            : top_depth    - START DEPTH
STOP.M        530                            : bot_depth    - STOP DEPTH
STEP.M        0.25                           : increment    - STEP LENGTH
 NULL. -999.2500:NULL Value
~CURVE INFORMATION BLOCK
#MNEM UNIT       ERCB CURVE CODE    CURVE DESCRIPTION
#-----------   ------------------   ----------------------------------
DEPT.M        00 001 00 00         : DEPTH        - DEPTH
ILD .OHMM     00 120 00 00         : RESD         - DEEP RESISTIVITY (DIL)
DPHI.V/V      00 890 00 00         : PHID         - DENSITY POROSITY (LIMESTONE)
NPHI.V/V      00 330 00 00         : PHIN         - NEUTRON POROSITY (LIMESTONE)
GR  .API      00 310 00 00         : GR           - GAMMA RAY
~PARAMETER INFORMATION
#MNEM.UNIT           DATA             DESCRIPTION OF MNEMONIC
#---------         -----------     ------------------------------
GL  .M        656.9                : gl           - GROUND LEVEL ELEVATION
EREF.M        660.1                : kb           - ELEVATION OF DEPTH REFERENCE
DATM.M        656.9                : datum        - DATUM ELEVATION
TDD .M        780                  : tdd          - TOTAL DEPTH DRILLER
RUN .         ONE                  : Run          - RUN NUMBER
ENG .         BILL                 : Engineer     - RECORDING ENGINEER
WIT .         JIM                  : Witness      - WITNESSED BY
MUD .         GEL                  : Mud_type     - MUD TYPE
MATR.         LIMESTONE            : Logunit      - NEUTRON MATRIX
TMAX.C        21                   : BHT          - MAXIMUM RECORDED TEMPERATURE
BHTD.M        780                  : BHTDEP       - MAXIMUM RECORDED TEMPERATURE
MATR.         1                    : LOGUNIT      - NEUTRON MATRIX
RMT .C        25                   : MDTP         - TEMPERATURE OF MUD
NEUT.         1                    : NEUTRON      - NEUTRON TYPE
RESI.         0                    : RESIST       - RESISTIVITY TYPE
RMC .OHMM     0.25                 : RMC          - RESISTIVITY OF MUD CAKE
RMF .OHMM     0.25                 : RMF          - RESISTIVITY OF MUD FILTRATE
SUFT.C        15                   : SUFT         - SURFACE TEMPERATURE
~A  DEPTH     RESD     PHID     PHIN       GR
# ...
  417.000    6.481    0.256    0.458   84.569
  417.250    6.361    0.248    0.469   88.871
  417.500    6.242    0.243    0.476   88.870
  417.750    6.126    0.243    0.481   88.255
  418.000    6.012    0.244    0.454   86.410
  418.250    6.012    0.245    0.470   83.335
  418.500    6.012    0.238    0.454   80.875
  418.750    5.900    0.234    0.460   79.645
  419.000    5.900    0.235    0.466   79.030
  419.250    5.900    0.232    0.433   79.644
  419.500    5.899    0.224    0.416   79.643
  419.750    5.899    0.232    0.436   79.642
  420.000    5.790    0.252    0.443   77.797
  420.250    5.789    0.277    0.447   76.567
  420.500    5.682    0.303    0.449   74.107
  420.750    5.681    0.303    0.450   71.033
  421.000    5.681    0.288    0.464   68.573
  421.250    5.681    0.305    0.460   66.728
  421.500    5.681    0.298    0.469   70.415
  421.750    5.681    0.289    0.481   71.030
  422.000    5.681    0.297    0.500   69.799
  422.250    5.681    0.304    0.485   69.184
  422.500    5.680    0.304    0.471   68.568
  422.750    5.680    0.299    0.462   66.723
  423.000    5.680    0.292    0.455   63.649
  423.250    5.680    0.286    0.454   61.804
  423.500    5.680    0.292    0.446   63.032
  423.750    5.680    0.298    0.450   63.646
  424.000    5.787    0.304    0.468   63.031
  424.250    5.787    0.308    0.476   62.415
  424.500    5.787    0.305    0.464   62.415
  424.750    5.897    0.301    0.457   63.029
  425.000    5.896    0.296    0.471   64.257
  425.250    6.008    0.289    0.481   64.871
  425.500    6.008    0.302    0.490   64.256
  425.750    6.122    0.315    0.503   62.411
  426.000    6.121    0.320    0.490   60.566
  426.250    6.237    0.304    0.479   60.565
  426.500    6.355    0.308    0.474   63.638
  426.750    6.355    0.299    0.480   65.482
  427.000    6.475    0.283    0.484   64.866
  427.250    6.475    0.277    0.467   63.636
  427.500    6.475    0.280    0.458   65.479
  427.750    6.475    0.286    0.453   68.552
  428.000    6.475    0.297    0.462   70.396
  428.250    6.475    0.298    0.465   70.395
  428.500    6.475    0.291    0.456   69.165
  428.750    6.474    0.287    0.454   69.164
  429.000    6.474    0.282    0.462   70.393
  429.250    6.474    0.270    0.470   70.392
  429.500    6.474    0.270    0.486   69.776
  429.750    6.474    0.277    0.492   69.776
  430.000    6.474    0.280    0.462   71.619
  430.250    6.353    0.282    0.462   72.848
  430.500    6.353    0.278    0.467   71.618
  430.750    6.353    0.270    0.468   68.543
  431.000    6.234    0.261    0.472   66.083
  431.250    6.118    0.255    0.478   67.312
  431.500    6.004    0.259    0.481   69.770
  431.750    5.783    0.274    0.474   72.843
  432.000    5.783    0.271    0.465   74.072
  432.250    5.570    0.265    0.458   75.301
  432.500    5.364    0.260    0.459   75.915
  432.750    5.071    0.251    0.485   82.061
  433.000    4.884    0.245    0.510   86.364
  433.250    4.704    0.256    0.524   87.593
  433.500    4.616    0.260    0.533   81.445
  433.750    5.892    0.248    0.542   67.305
  434.000    8.738    0.104    0.313   59.927
  434.250   10.742    0.054    0.240   54.393
  434.500   11.579    0.009    0.221   51.933
  434.750   11.798    0.174    0.238   55.006
  435.000   11.152    0.222    0.301   61.767
  435.250    9.597    0.249    0.354   64.841
  435.500    9.243    0.206    0.383   70.373
  435.750    8.902    0.162    0.389   67.913
  436.000    8.902    0.131    0.291   58.076
  436.250    8.736    0.098    0.223   52.543
  436.500    8.736    0.055    0.202   50.083
  436.750    8.104    0.018    0.272   64.222
  437.000    7.660    0.079    0.362   72.213
  437.250    6.844    0.147    0.410   77.745
  437.500    6.469    0.202    0.454   82.662
  437.750    6.115    0.206    0.432   86.349
  438.000    5.672    0.212    0.420   88.808
  438.250    5.463    0.217    0.431   88.807
  438.500    5.262    0.233    0.437   85.732
  438.750    4.973    0.243    0.452   83.887
  439.000    4.701    0.254    0.472   78.969
  439.250    4.361    0.258    0.484   82.041
  439.500    4.280    0.264    0.496   85.115
  439.750    4.280    0.259    0.501   88.187
  440.000    4.279    0.247    0.501   87.572
  440.250    4.360    0.245    0.507   87.571
  440.500    4.613    0.229    0.502   86.341
  440.750    5.261    0.204    0.491   83.881
  441.000    5.565    0.196    0.483   81.421
  441.250    5.887    0.211    0.472   81.421
  441.500    6.228    0.225    0.469   80.805
  441.750    6.346    0.236    0.467   80.190
  442.000    6.112    0.222    0.485   83.262
  442.250    5.998    0.207    0.490   85.106
  442.500    5.670    0.216    0.459   86.334
  442.750    5.564    0.218    0.446   86.949
  443.000    5.564    0.217    0.453   86.333
  443.250    5.669    0.228    0.477   86.333
  443.500    5.669    0.218    0.493   86.331
  443.750    5.777    0.233    0.466   86.331
  444.000    5.777    0.238    0.455   86.330
  444.250    5.776    0.216    0.456   86.329
  444.500    5.776    0.205    0.458   84.484
  444.750    5.563    0.198    0.452   77.107
  445.000    5.358    0.204    0.440   75.876
  445.250    5.258    0.210    0.455   82.638
  445.500    4.970    0.219    0.460   83.252
  445.750    4.611    0.223    0.457   82.022
  446.000    4.043    0.231    0.456   82.021
  446.250    3.612    0.253    0.480   77.102
  446.500    3.227    0.279    0.530   75.257
  446.750    2.625    0.289    0.569   75.256
  447.000    2.435    0.286    0.555   75.870
  447.250    2.345    0.281    0.535   74.025
  447.500    2.259    0.280    0.520   75.254
  447.750    2.259    0.282    0.528   78.327
  448.000    2.217    0.285    0.541   80.785
  448.250    2.217    0.285    0.553   83.858
  448.500    2.217    0.279    0.560   85.087
  448.750    2.259    0.265    0.569   85.086
  449.000    2.301    0.259    0.583   83.241
  449.250    2.481    0.263    0.558   79.552
  449.500    3.050    0.253    0.515   75.863
  449.750    3.287    0.238    0.490   74.632
  450.000    3.820    0.226    0.480   75.861
  450.250    4.118    0.228    0.473   75.246
  450.500    4.439    0.214    0.469   72.786
  450.750    4.609    0.204    0.462   73.400
  451.000    4.696    0.205    0.489   73.399
  451.250    4.875    0.217    0.526   73.398
  451.500    5.062    0.203    0.514   69.094
  451.750    5.255    0.130    0.429   67.249
  452.000    4.967    0.135    0.401   71.551
  452.250    4.522    0.168    0.397   73.395
  452.500    4.195    0.199    0.438   77.698
  452.750    3.891    0.219    0.462   81.385
  453.000    3.819    0.226    0.489   83.229
  453.250    3.610    0.226    0.489   82.613
  453.500    3.610    0.226    0.499   80.768
  453.750    3.678    0.241    0.511   77.694
  454.000    3.819    0.248    0.505   77.693
  454.250    3.819    0.258    0.490   77.078
  454.500    3.965    0.267    0.482   71.544
  454.750    4.040    0.272    0.477   69.699
  455.000    4.116    0.243    0.471   70.928
  455.250    4.116    0.217    0.463   73.386
  455.500    4.039    0.230    0.460   78.303
  455.750    3.890    0.235    0.472   82.606
  456.000    3.964    0.240    0.497   80.146
  456.250    4.194    0.247    0.524   67.236
  456.500    4.693    0.251    0.470   61.702
  456.750    5.155    0.229    0.438   58.627
  457.000    5.352    0.213    0.420   63.544
  457.250    5.155    0.204    0.409   70.306
  457.500    4.272    0.218    0.406   74.609
  457.750    3.541    0.218    0.401   84.444
  458.000    3.105    0.213    0.411   87.517
  458.250    2.880    0.213    0.479   88.131
  458.500    2.723    0.218    0.526   87.515
  458.750    2.774    0.222    0.547   88.129
  459.000    2.935    0.231    0.556   88.743
  459.250    3.347    0.243    0.540   87.513
  459.500    3.475    0.237    0.510   86.283
  459.750    3.676    0.229    0.488   83.208
  460.000    3.608    0.225    0.481   81.363
  460.250    3.540    0.229    0.473   80.133
