~VERSION INFORMATION
 VERS.                 2.0:   CWLS LOG ASCII STANDARD -VERSION 2.0
 WRAP.                  NO:   ONE LINE PER DEPTH STEP
~WELL INFORMATION BLOCK
#MNEM.UNIT           DATA                    DESCRIPTION OF MNEMONIC
#---------    -------------------            -------------------------------
# Generated from Intellog Unique Number	CS_77_79/WELL/1014
WELL.         ICGR CHARD                     : Well_name    - WELL
LOC .         00/12-20-079-05W4/0            : Location     - LOCATION
UWI .         00/12-20-079-05W4/0            : Uwi          - UNIQUE WELL ID
ENTR.         JHS                            : Entered      - ENTERED BY
SRVC.         SCHLUMBERGER                   : Scn          - SERVICE COMPANY
STRT.M        105                            : top_depth    - START DEPTH
STOP.M        325                            : bot_depth    - STOP DEPTH
STEP.M        0.25                           : increment    - STEP LENGTH
 NULL. -999.2500:NULL Value
~CURVE INFORMATION BLOCK
#MNEM UNIT       ERCB CURVE CODE    CURVE DESCRIPTION
#-----------   ------------------   ----------------------------------
DEPT.M        00 001 00 00         : DEPTH        - DEPTH
DPHI.V/V      00 890 00 00         : PHID         - DENSITY POROSITY (LIMESTONE)
NPHI.V/V      00 330 00 00         : PHIN         - NEUTRON POROSITY (LIMESTONE)
GR  .API      00 310 00 00         : GR           - GAMMA RAY
ILD .OHMM     00 120 00 00         : RESD         - DEEP RESISTIVITY (DIL)
RHOB.KG/M3    00 350 00 00         : DENS         - BULK DENSITY
~PARAMETER INFORMATION
#MNEM.UNIT           DATA             DESCRIPTION OF MNEMONIC
#---------         -----------     ------------------------------
GL  .M        478.6                : gl           - GROUND LEVEL ELEVATION
EREF.M        481.6                : kb           - ELEVATION OF DEPTH REFERENCE
DATM.M        481.6                : datum        - DATUM ELEVATION
TDD .M        335                  : tdd          - TOTAL DEPTH DRILLER
RUN .         ONE                  : Run          - RUN NUMBER
ENG .         BILL                 : Engineer     - RECORDING ENGINEER
WIT .         JIM                  : Witness      - WITNESSED BY
MUD .         GEL                  : Mud_type     - MUD TYPE
MATR.         LIMESTONE            : Logunit      - NEUTRON MATRIX
TMAX.C        25                   : BHT          - MAXIMUM RECORDED TEMPERATURE
BHTD.M        335                  : BHTDEP       - MAXIMUM RECORDED TEMPERATURE
MATR.         1                    : LOGUNIT      - NEUTRON MATRIX
RMT .C        25                   : MDTP         - TEMPERATURE OF MUD
NEUT.         1                    : NEUTRON      - NEUTRON TYPE
RESI.         0                    : RESIST       - RESISTIVITY TYPE
RMC .OHMM     0.25                 : RMC          - RESISTIVITY OF MUD CAKE
RMF .OHMM     0.25                 : RMF          - RESISTIVITY OF MUD FILTRATE
SUFT.C        15                   : SUFT         - SURFACE TEMPERATURE
~A  DEPTH     PHID     PHIN       GR     RESD     DENS
# ...
  141.500    0.349    0.445   52.908   15.327    0.000
  141.750    0.352    0.414   51.729   15.054    0.000
  142.000    0.350    0.410   52.358   14.506    0.000
  142.250    0.345    0.416   57.841   13.469    0.000
  142.500    0.341    0.394   61.491   12.740    0.000
  142.750    0.311    0.395   67.572   12.053    0.000
  143.000    0.277    0.416   69.414   11.402    0.000
  143.250    0.282    0.458   64.001   10.991    0.000
  143.500    0.332    0.444   59.200   10.792    0.000
  143.750    0.351    0.438   58.623   11.210    0.000
  144.000    0.354    0.438   60.471   12.089    0.000
  144.250    0.347    0.453   60.505   13.535    0.000
  144.500    0.322    0.440   59.324   13.799    0.000
  144.750    0.307    0.417   61.769   12.114    0.000
  145.000    0.302    0.396   71.479   10.632    0.000
  145.250    0.285    0.400   78.766    9.687    0.000
  145.500    0.264    0.453   81.826    8.346    0.000
  145.750    0.262    0.458   83.668    7.464    0.000
  146.000    0.269    0.458   89.140    7.061    0.000
  146.250    0.274    0.467   95.825    6.804    0.000
  146.500    0.249    0.454   98.281    6.438    0.000
  146.750    0.241    0.465   96.500    6.205    0.000
  147.000    0.227    0.482   97.127    5.980    0.000
  147.250    0.218    0.481  100.794    5.552    0.000
  147.500    0.218    0.480  102.031    5.155    0.000
  147.750    0.224    0.477  102.670    4.785    0.000
  148.000    0.238    0.507  102.700    4.361    0.000
  148.250    0.254    0.536  100.913    4.049    0.000
  148.500    0.258    0.544   99.127    3.830    0.000
  148.750    0.245    0.559   96.139    3.691    0.000
  149.000    0.241    0.567   93.157    3.558    0.000
  149.250    0.257    0.560   91.969    3.494    0.000
  149.500    0.266    0.538   93.201    3.431    0.000
  149.750    0.246    0.528   98.075    3.498    0.000
  150.000    0.246    0.553   98.721    3.704    0.000
  150.250    0.258    0.568   96.932    3.775    0.000
  150.500    0.256    0.550   92.124    4.148    0.000
  150.750    0.246    0.522   88.525    4.821    0.000
  151.000    0.248    0.495   87.945    5.398    0.000
  151.250    0.254    0.503   86.764    5.714    0.000
  151.500    0.276    0.517   83.171    5.612    0.000
  151.750    0.293    0.509   85.618    5.209    0.000
  152.000    0.270    0.496   94.720    4.658    0.000
  152.250    0.248    0.519  101.404    4.166    0.000
  152.500    0.239    0.541  105.070    3.726    0.000
  152.750    0.238    0.573  101.466    3.460    0.000
  153.000    0.231    0.562   97.262    3.462    0.000
  153.250    0.227    0.526   94.882    3.596    0.000
  153.500    0.244    0.555   93.100    3.666    0.000
  153.750    0.261    0.564   93.131    3.737    0.000
  154.000    0.257    0.519   93.158    3.810    0.000
  154.250    0.247    0.527   96.217    3.813    0.000
  154.500    0.246    0.581   99.873    3.815    0.000
  154.750    0.259    0.581  101.113    3.609    0.000
  155.000    0.274    0.553  102.350    3.479    0.000
  155.250    0.285    0.549  101.179    3.481    0.000
  155.500    0.286    0.526   96.972    3.616    0.000
  155.750    0.282    0.550   89.746    3.826    0.000
  156.000    0.258    0.541   88.561    4.284    0.000
  156.250    0.238    0.490   94.042    4.797    0.000
  156.500    0.228    0.470   95.278    5.370    0.000
  156.750    0.232    0.464   86.845    5.684    0.000
  157.000    0.254    0.452   87.482    5.795    0.000
  157.250    0.260    0.460   88.722    5.907    0.000
  157.500    0.254    0.486   88.142    5.802    0.000
  157.750    0.243    0.519   83.943    5.698    0.000
  158.000    0.234    0.525   81.554    5.492    0.000
  158.250    0.246    0.494   82.793    5.195    0.000
  158.500    0.266    0.491   87.055    4.734    0.000
  158.750    0.251    0.513   91.925    4.234    0.000
  159.000    0.245    0.547   97.404    4.005    0.000
  159.250    0.264    0.555   98.035    3.860    0.000
  159.500    0.278    0.528   93.231    3.863    0.000
  159.750    0.270    0.514   91.445    4.012    0.000
  160.000    0.285    0.526   89.062    4.492    0.000
  160.250    0.253    0.548   84.248    4.844    0.000
  160.500    0.253    0.504   78.231    5.630    0.000
  160.750    0.276    0.464   75.841    6.303    0.000
  161.000    0.299    0.453   70.432    7.056    0.000
  161.250    0.312    0.446   66.830    8.050    0.000
  161.500    0.303    0.462   68.079    8.520    0.000
  161.750    0.293    0.456   72.941    8.686    0.000
  162.000    0.293    0.450   79.027    8.373    0.000
  162.250    0.288    0.467   79.055    8.224    0.000
  162.500    0.282    0.486   74.848    8.228    0.000
  162.750    0.284    0.458   79.125    8.389    0.000
  163.000    0.273    0.431   80.963    8.713    0.000
  163.250    0.288    0.454   77.966    8.884    0.000
  163.500    0.296    0.472   74.974    8.725    0.000
  163.750    0.278    0.447   78.631    8.568    0.000
  164.000    0.269    0.447   79.268    8.105    0.000
  164.250    0.269    0.486   76.294    7.812    0.000
  164.500    0.267    0.501   77.518    7.672    0.000
  164.750    0.264    0.475   79.964    7.535    0.000
  165.000    0.253    0.457   81.213    7.400    0.000
  165.250    0.240    0.457   80.029    7.404    0.000
  165.500    0.241    0.456   78.251    7.270    0.000
  165.750    0.256    0.441   77.067    7.007    0.000
  166.000    0.274    0.435   75.293    6.754    0.000
  166.250    0.287    0.455   75.320    6.758    0.000
  166.500    0.290    0.489   78.980    6.891    0.000
  166.750    0.266    0.490   80.817    6.894    0.000
  167.000    0.260    0.491   81.455    6.771    0.000
  167.250    0.256    0.497   82.095    6.776    0.000
  167.500    0.245    0.493   83.338    6.781    0.000
  167.750    0.238    0.471   80.944    6.784    0.000
  168.000    0.253    0.484   78.561    6.787    0.000
  168.250    0.256    0.505   78.585    6.793    0.000
  168.500    0.243    0.509   82.242    6.796    0.000
  168.750    0.239    0.494   82.881    6.799    0.000
  169.000    0.240    0.483   78.073    6.933    0.000
  169.250    0.246    0.481   83.550    7.202    0.000
  169.500    0.260    0.466   85.997    7.623    0.000
  169.750    0.272    0.448   81.188    8.068    0.000
  170.000    0.278    0.426   77.589    8.701    0.000
  170.250    0.278    0.419   78.225    9.209    0.000
  170.500    0.273    0.434   73.424    9.566    0.000
  170.750    0.262    0.441   69.828    9.394    0.000
  171.000    0.256    0.451   70.459    8.887    0.000
  171.250    0.257    0.444   77.747    8.098    0.000
  171.500    0.242    0.452   86.848    7.242    0.000
  171.750    0.233    0.468   90.515    6.238    0.000
  172.000    0.264    0.481   91.750    4.627    0.000
  172.250    0.278    0.525   96.619    3.768    0.000
  172.500    0.275    0.569   93.638    3.307    0.000
  172.750    0.269    0.574   87.619    3.188    0.000
  173.000    0.259    0.589   86.441    3.311    0.000
  173.250    0.250    0.603   87.064    3.707    0.000
  173.500    0.240    0.573   90.727    4.557    0.000
  173.750    0.254    0.531   87.730    6.039    0.000
  174.000    0.284    0.469   76.877    7.565    0.000
  174.250    0.288    0.458   72.072    9.127    0.000
  174.500    0.256    0.488   75.730   10.608    0.000
  174.750    0.165    0.450   66.685   11.656    0.000
  175.000    0.000    0.294   54.014   11.884    0.000
  175.250    0.000    0.266   64.330   11.455    0.000
  175.500    0.101    0.334   76.457   10.439    0.000
  175.750    0.160    0.483   76.493    9.690    0.000
  176.000    0.256    0.483   80.148    8.505    0.000
  176.250    0.268    0.474   88.042    7.467    0.000
  176.500    0.253    0.486   89.280    7.198    0.000
  176.750    0.243    0.474   82.666    7.067    0.000
  177.000    0.247    0.492   84.508    7.071    0.000
  177.250    0.252    0.512   88.775    6.944    0.000
  177.500    0.256    0.479   89.403    6.949    0.000
  177.750    0.249    0.468   88.228    6.824    0.000
