~VERSION INFORMATION
 VERS.                 2.0:   CWLS LOG ASCII STANDARD -VERSION 2.0
 WRAP.                  NO:   ONE LINE PER DEPTH STEP
~WELL INFORMATION BLOCK
#MNEM.UNIT           DATA                    DESCRIPTION OF MNEMONIC
#---------    -------------------            -------------------------------
# Generated from Intellog Unique Number	CW_76_78/WELL/879
WELL.         NORTHSTAR ET AL MARTEN HILLS 1 : Well_name    - WELL
LOC .         00/10-18-076-03W5/0            : Location     - LOCATION
UWI .         00/10-18-076-03W5/0            : Uwi          - UNIQUE WELL ID
ENTR.         JAYE                           : Entered      - ENTERED BY
SRVC.         COMPUTALOG                     : Scn          - SERVICE COMPANY
DATE.         13 MAR 81                      : Date         - LOG DATE
STRT.M        575                            : top_depth    - START DEPTH
STOP.M        790                            : bot_depth    - STOP DEPTH
STEP.M        0.25                           : increment    - STEP LENGTH
 NULL. -999.2500:NULL Value
~CURVE INFORMATION BLOCK
#MNEM UNIT       ERCB CURVE CODE    CURVE DESCRIPTION
#-----------   ------------------   ----------------------------------
DEPT.M        00 001 00 00         : DEPTH        - DEPTH
ILD .OHMM     00 120 00 00         : RESD         - DEEP RESISTIVITY (DIL)
NPHI.V/V      00 330 00 00         : PHIN         - NEUTRON POROSITY (SANDSTONE)
DPHI.V/V      00 890 00 00         : PHID         - DENSITY POROSITY (SANDSTONE)
GR  .API      00 310 00 00         : GR           - GAMMA RAY
CALI.MM       00 280 01 00         : CAL          - CALIPER
~PARAMETER INFORMATION
#MNEM.UNIT           DATA             DESCRIPTION OF MNEMONIC
#---------         -----------     ------------------------------
GL  .M        861                  : gl           - GROUND LEVEL ELEVATION
EREF.M        865.1                : kb           - ELEVATION OF DEPTH REFERENCE
DATM.M        861                  : datum        - DATUM ELEVATION
TDD .M        798                  : tdd          - TOTAL DEPTH DRILLER
RUN .         ONE                  : Run          - RUN NUMBER
ENG .         GUNDERSON            : Engineer     - RECORDING ENGINEER
WIT .         FITZSIMMONS          : Witness      - WITNESSED BY
BASE.         EDM                  : Branch       - HOME BASE OF LOGGING UNIT
MUD .         GEL CHEM             : Mud_type     - MUD TYPE
MATR.         SANDSTONE            : Logunit      - NEUTRON MATRIX
TMAX.C        27                   : BHT          - MAXIMUM RECORDED TEMPERATURE
BHTD.M        799.6                : BHTDEP       - MAXIMUM RECORDED TEMPERATURE
RMT .C        16                   : MDTP         - TEMPERATURE OF MUD
MUDD.KG/M     1140                 : MWT          - MUD DENSITY
NEUT.         1                    : NEUTRON      - NEUTRON TYPE
RESI.         0                    : RESIST       - RESISTIVITY TYPE
RM  .OHMM     3.8                  : RM           - RESISTIVITY OF MUD
RMC .OHMM     3                    : RMC          - RESISTIVITY OF MUD CAKE
RMF .OHMM     0                    : RMF          - RESISTIVITY OF MUD FILTRATE
SUFT.C        0                    : SUFT         - SURFACE TEMPERATURE
~A  DEPTH     RESD     PHIN     PHID       GR      CAL
# ...
  757.500   20.128    0.378    0.155   96.165  200.218
  757.750   19.122    0.369    0.147   86.701  200.673
  758.000   17.853    0.368    0.142   79.221  201.333
  758.250   16.889    0.364    0.137   81.540  202.203
  758.500   16.014    0.357    0.137   90.121  203.478
  758.750   14.927    0.336    0.141   91.511  205.068
  759.000   14.486    0.319    0.132   88.621  207.073
  759.250   13.381    0.331    0.125   93.976  208.559
  759.500   12.342    0.344    0.112  101.069  209.221
  759.750   11.492    0.339    0.102  103.016  209.982
  760.000   10.675    0.318    0.120  102.667  210.435
  760.250   10.022    0.310    0.135   99.157  210.994
  760.500    9.418    0.310    0.137   92.731  211.447
  760.750    8.716    0.314    0.126   85.624  211.589
  761.000    7.775    0.323    0.117   87.013  211.423
  761.250    6.613    0.335    0.124  100.309  211.772
  761.500    5.837    0.354    0.115  109.570  212.332
  761.750    5.414    0.371    0.102  114.432  212.885
  762.000    5.376    0.382    0.109  117.866  213.236
  762.250    5.626    0.373    0.133  123.904  213.380
  762.500    6.278    0.339    0.129  130.501  212.904
  762.750    6.757    0.351    0.123  125.073  212.014
  763.000    7.204    0.362    0.120  120.816  210.814
  763.250    7.552    0.373    0.118  112.900  209.718
  763.500    7.851    0.380    0.126  107.342  209.135
  763.750    8.158    0.371    0.130  105.198  208.657
  764.000    8.424    0.361    0.124  100.817  208.078
  764.250    8.649    0.367    0.117   97.307  207.089
  764.500    8.677    0.360    0.117  102.170  206.300
  764.750    8.163    0.361    0.106  101.635  205.620
  765.000    7.502    0.372    0.099   99.673  205.345
  765.250    6.988    0.415    0.114  102.241  204.975
  765.500    6.524    0.435    0.113  107.968  204.910
  765.750    6.060    0.418    0.110  102.846  205.062
  766.000    5.775    0.399    0.100   96.606  205.193
  766.250    5.590    0.385    0.092   96.140  205.236
  766.500    5.577    0.388    0.087   98.578  205.167
  766.750    5.688    0.406    0.101  105.421  204.900
  767.000    5.954    0.390    0.106  111.586  204.837
  767.250    6.737    0.361    0.096  118.803  204.982
  767.500    7.577    0.336    0.078  109.463  204.097
  767.750    9.041    0.363    0.106  108.742  204.024
  768.000   10.416    0.377    0.151  115.897  204.068
  768.250   14.506    0.338    0.210  114.743  204.415
  768.500   19.229    0.292    0.277   79.422  184.610
  768.750   20.111    0.240    0.288   64.004  186.716
  769.000   20.286    0.253    0.288   50.634  195.960
  769.250   20.380    0.281    0.283   48.244  196.207
  769.500   20.482    0.336    0.269   46.589  195.936
  769.750   20.535    0.366    0.257   43.761  195.766
  770.000   20.587    0.388    0.245   43.041  196.840
  770.250   20.590    0.406    0.246   42.448  195.534
  770.500   20.611    0.418    0.258   41.726  194.341
  770.750   20.581    0.415    0.267   40.942  193.651
  771.000   20.265    0.395    0.271   41.217  193.692
  771.250   19.209    0.386    0.271   41.240  195.594
  771.500   16.504    0.383    0.277   40.890  197.284
  771.750   14.726    0.386    0.273   40.418  198.667
  772.000   12.711    0.391    0.267   39.759  199.949
  772.250   10.901    0.404    0.265   35.691  200.917
  772.500    9.238    0.391    0.274   34.104  201.694
  772.750    8.544    0.376    0.265   34.314  202.139
  773.000    7.825    0.366    0.258   37.254  202.183
  773.250    6.934    0.356    0.257   32.748  202.218
  773.500    6.404    0.367    0.274   33.273  202.257
  773.750    5.849    0.360    0.285   35.465  202.398
  774.000    5.500    0.365    0.273   38.030  202.449
  774.250    5.273    0.358    0.262   39.913  202.481
  774.500    5.072    0.391    0.258   35.784  202.110
  774.750    4.952    0.390    0.268   32.273  201.936
  775.000    4.840    0.383    0.267   32.730  201.671
  775.250    4.729    0.368    0.263   34.057  201.397
  775.500    4.659    0.359    0.267   32.963  201.333
  775.750    4.670    0.374    0.267   35.162  201.373
  776.000    4.617    0.377    0.263   38.035  201.515
  776.250    4.587    0.368    0.258   42.152  201.969
  776.500    4.582    0.347    0.253   44.843  202.323
  776.750    4.569    0.355    0.239   47.037  202.463
  777.000    4.491    0.366    0.235   49.108  202.302
  777.250    4.428    0.375    0.232   51.177  201.929
  777.500    4.350    0.377    0.228   57.774  201.553
  777.750    4.238    0.365    0.220   62.757  201.278
  778.000    4.127    0.353    0.213   58.877  201.219
  778.250    4.040    0.335    0.211   55.926  201.256
  778.500    3.896    0.339    0.211   54.830  201.604
  778.750    3.809    0.354    0.211   59.568  197.719
  779.000    3.812    0.362    0.210   63.436  193.418
  779.250    3.832    0.369    0.209   61.787  192.012
  779.500    3.819    0.373    0.201   64.105  192.154
  779.750    3.831    0.368    0.199   69.088  193.848
  780.000    3.884    0.362    0.202   71.656  193.685
  780.250    3.977    0.353    0.196   65.602  193.312
  780.500    4.128    0.356    0.185   63.021  193.555
  780.750    4.411    0.350    0.172   68.316  195.050
  781.000    4.250    0.332    0.157   70.078  197.255
  781.250    3.671    0.313    0.141   71.898  199.666
  781.500    3.403    0.311    0.140   77.194  202.809
  781.750    3.078    0.348    0.142   86.952  204.914
  782.000    2.827    0.376    0.142  113.020  206.508
  782.250    2.650    0.433    0.137  141.941  207.588
  782.500    2.703    0.415    0.134  143.082  208.135
  782.750    2.773    0.393    0.129  137.030  208.589
  783.000    2.817    0.371    0.127  141.273  208.945
  783.250    2.935    0.376    0.130  145.013  209.394
  783.500    3.316    0.419    0.127  146.650  209.741
  783.750    3.812    0.453    0.120  140.906  210.609
  784.000    4.234    0.494    0.105  131.506  214.265
  784.250    4.812    0.449    0.090  120.925  217.100
  784.500    6.104    0.098    0.069  102.594  211.453
  784.750   16.883    0.081   -0.006   77.070  206.117
  785.000   18.019    0.066   -0.039   52.041  200.058
  785.250   17.645    0.065   -0.052   40.783  200.821
  785.500   16.631    0.065   -0.053   42.045  201.793
  785.750   15.420    0.066   -0.056   41.758  202.870
  786.000   14.931    0.082   -0.058   42.899  203.628
  786.250   15.270    0.096   -0.059   49.372  203.875
  786.500   15.988    0.115    0.013   58.262  203.710
  786.750   16.517    0.117    0.030   60.333  204.578
  787.000   17.012    0.114    0.026   55.148  204.617
  787.250   17.746    0.118    0.019   55.296  204.659
  787.500   17.627    0.133    0.013   58.482  204.491
  787.750   16.809    0.135    0.011   57.578  204.532
  788.000   16.681    0.135    0.027   53.631  204.671
  788.250   16.661    0.134    0.042   57.067  204.302
  788.500   16.689    0.135    0.032   61.989  204.028
  788.750   16.643    0.140    0.021   62.075  203.965
  789.000   16.588    0.146    0.024   61.603  203.908
  789.250   16.362    0.151    0.032   63.921  204.043
  789.500   16.563    0.150    0.033   65.929  204.084
  789.750   16.903    0.147    0.038   66.759  204.436
  790.000   17.357    0.143    0.044   60.397  204.786
