~VERSION INFORMATION
 VERS.                 2.0:   CWLS LOG ASCII STANDARD -VERSION 2.0
 WRAP.                  NO:   ONE LINE PER DEPTH STEP
~WELL INFORMATION BLOCK
#MNEM.UNIT           DATA                    DESCRIPTION OF MNEMONIC
#---------    -------------------            -------------------------------
# Generated from Intellog Unique Number	CW_82_90/WELL/3436
WELL.         CDN SUP LIEGE                  : Well_name    - WELL
LOC .         00/10-03-090-19W4/0            : Location     - LOCATION
UWI .         00/10-03-090-19W4/0            : Uwi          - UNIQUE WELL ID
ENTR.         MAX                            : Entered      - ENTERED BY
SRVC.         COMPUTALOG                     : Scn          - SERVICE COMPANY
STRT.M        115                            : top_depth    - START DEPTH
STOP.M        250                            : bot_depth    - STOP DEPTH
STEP.M        0.25                           : increment    - STEP LENGTH
 NULL. -999.2500:NULL Value
~CURVE INFORMATION BLOCK
#MNEM UNIT       ERCB CURVE CODE    CURVE DESCRIPTION
#-----------   ------------------   ----------------------------------
DEPT.M        00 001 00 00         : DEPTH        - DEPTH
ILD .OHMM     00 120 00 00         : RESD         - DEEP RESISTIVITY (DIL)
CALI.MM       00 280 01 00         : CAL          - CALIPER
DPHI.V/V      00 890 00 00         : PHID         - DENSITY POROSITY (LIMESTONE)
NPHI.V/V      00 330 00 00         : PHIN         - NEUTRON POROSITY (LIMESTONE)
GR  .API      00 310 00 00         : GR           - GAMMA RAY
~PARAMETER INFORMATION
#MNEM.UNIT           DATA             DESCRIPTION OF MNEMONIC
#---------         -----------     ------------------------------
GL  .M        511                  : gl           - GROUND LEVEL ELEVATION
EREF.M        514.8                : kb           - ELEVATION OF DEPTH REFERENCE
DATM.M        514.8                : datum        - DATUM ELEVATION
TDD .M        250                  : tdd          - TOTAL DEPTH DRILLER
RUN .         ONE                  : Run          - RUN NUMBER
ENG .         BILL                 : Engineer     - RECORDING ENGINEER
WIT .         JIM                  : Witness      - WITNESSED BY
MUD .         GEL                  : Mud_type     - MUD TYPE
MATR.         LIMESTONE            : Logunit      - NEUTRON MATRIX
TMAX.C        18                   : BHT          - MAXIMUM RECORDED TEMPERATURE
BHTD.M        2072                 : BHTDEP       - MAXIMUM RECORDED TEMPERATURE
MATR.         1                    : LOGUNIT      - NEUTRON MATRIX
RMT .C        25                   : MDTP         - TEMPERATURE OF MUD
NEUT.         1                    : NEUTRON      - NEUTRON TYPE
RESI.         0                    : RESIST       - RESISTIVITY TYPE
RMC .OHMM     6                    : RMC          - RESISTIVITY OF MUD CAKE
RMF .OHMM     5                    : RMF          - RESISTIVITY OF MUD FILTRATE
SUFT.C        1                    : SUFT         - SURFACE TEMPERATURE
~A  DEPTH     RESD      CAL     PHID     PHIN       GR
# ...
  188.000   18.205  160.363    0.143    0.312   83.434
  188.250   18.043  160.365    0.117    0.316   86.145
  188.500   17.882  160.869    0.136    0.329   89.759
  188.750   17.723  160.872    0.185    0.356   91.265
  189.000   17.731  160.374    0.196    0.368   87.952
  189.250   17.903  160.376    0.180    0.372   82.831
  189.500   19.290  160.379    0.128    0.360   80.121
  189.750   21.373  160.382    0.101    0.336   78.615
  190.000   23.683  160.384    0.122    0.315   78.012
  190.250   25.757  161.389    0.115    0.300   81.626
  190.500   29.897  161.893    0.085    0.291   82.530
  190.750   29.631  161.896    0.073    0.287   83.735
  191.000   27.011  162.399    0.066    0.289   85.241
  191.250   21.223  162.402    0.080    0.309   87.952
  191.500   18.816  162.906    0.144    0.319   98.494
  191.750   18.304  162.909    0.195    0.334  104.217
  192.000   18.829  163.413    0.222    0.354  100.301
  192.250   20.102  163.415    0.241    0.370   93.976
  192.500   21.065  163.418    0.236    0.373   87.651
  192.750   22.075  163.420    0.190    0.346   82.530
  193.000   23.132  162.922    0.013    0.265   79.819
  193.250   24.698  162.424   -0.003    0.249   85.542
  193.500   24.479  162.427    0.010    0.258   94.277
  193.750   21.500  162.429    0.075    0.283   96.385
  194.000   17.861  163.434    0.153    0.306   91.265
  194.250   15.256  163.437    0.112    0.342   90.663
  194.500   12.557  163.439    0.079    0.354   97.590
  194.750   11.132  163.442    0.121    0.367  106.325
  195.000   10.931  163.946    0.162    0.377  109.337
  195.250   11.140  165.452    0.211    0.397  109.639
  195.500   11.459  167.459    0.196    0.408  105.723
  195.750   11.571  163.453    0.148    0.415  105.422
  196.000   11.575  162.954    0.138    0.403  108.735
  196.250   11.262  164.961    0.157    0.387  111.446
  196.500   11.161  163.962    0.183    0.387  112.651
  196.750   11.165  164.466    0.197    0.405  109.639
  197.000   11.379  165.470    0.195    0.398  110.241
  197.250   11.490  163.970    0.160    0.391  112.048
  197.500   11.819  164.975    0.162    0.391  112.349
  197.750   11.934  163.976    0.169    0.407  112.349
  198.000   11.828  164.980    0.186    0.408  115.361
  198.250   11.190  166.487    0.203    0.407  120.181
  198.500   10.588  166.489    0.204    0.406  125.301
  198.750   10.493  166.492    0.201    0.405  122.892
  199.000   10.304  164.490    0.199    0.406  115.964
  199.250   10.308  164.493    0.186    0.412  115.663
  199.500   10.312  162.992    0.166    0.418  117.169
  199.750   10.220  166.503    0.180    0.418  118.072
  200.000   10.224  168.009    0.193    0.399  116.265
  200.250   10.323  166.508    0.188    0.404  110.843
  200.500   11.332  164.005    0.154    0.415  106.627
  200.750   12.673  162.505    0.130    0.415   99.398
  201.000   13.158  163.008    0.130    0.378  105.422
  201.250   13.163  163.512    0.111    0.388  111.446
  201.500   12.569  165.519    0.118    0.402  115.964
  201.750   10.539  168.028    0.155    0.415  119.578
  202.000   10.158  167.529    0.189    0.426  119.277
  202.250    9.976  168.033    0.174    0.430  117.771
  202.500    9.705  165.029    0.101    0.418  118.373
  202.750    9.708  169.040    0.127    0.409  115.964
  203.000    9.894  170.546    0.132    0.394  112.048
  203.250   10.661  164.536    0.111    0.390  113.554
  203.500   10.665  168.547    0.143    0.393  117.771
  203.750    9.997  172.559    0.178    0.390  120.482
  204.000    9.909  173.564    0.194    0.394  121.386
  204.250   10.098  174.068    0.200    0.401  121.386
  204.500   10.484  174.070    0.189    0.404  120.482
  204.750   10.886  174.073    0.140    0.405  114.458
  205.000   11.093  167.060    0.113    0.385  111.145
  205.250   11.306  166.060    0.088    0.372  112.048
  205.500   12.070  164.560    0.119    0.356  113.554
  205.750   12.187  165.064    0.176    0.366  120.181
  206.000   11.967  167.572    0.197    0.380  124.398
  206.250   12.084  168.076    0.196    0.377  122.289
  206.500   12.430  172.087    0.192    0.365  115.663
  206.750   13.269  169.584    0.182    0.347  100.904
  207.000   13.523  169.587    0.144    0.331   94.277
  207.250   13.403  169.590    0.093    0.329  109.036
  207.500   13.039  168.090    0.103    0.334  117.771
  207.750   11.347  164.584    0.141    0.344  125.301
  208.000   10.441  167.594    0.171    0.365  128.012
  208.250   10.063  168.098    0.180    0.385  125.301
  208.500    9.974  169.102    0.188    0.395  124.699
  208.750    9.978  165.597    0.195    0.393  126.506
  209.000    9.889  165.600    0.195    0.401  133.133
  209.250    9.711  167.106    0.192    0.405  137.349
  209.500    9.535  166.607    0.183    0.395  120.783
  209.750    9.277  164.606    0.161    0.392  112.651
  210.000    8.378  164.107    0.077    0.405  117.771
  210.250    7.224  167.618    0.113    0.413  128.916
  210.500    7.431  170.627    0.190    0.413  135.843
  210.750    7.933  169.628    0.203    0.428  138.855
  211.000    8.548  170.633    0.205    0.438  139.157
  211.250    8.875  170.134    0.205    0.444  135.241
  211.500    9.045  170.137    0.196    0.439  122.289
  211.750    9.391  167.133    0.175    0.418  107.229
  212.000    9.222  163.628    0.105    0.416  107.229
  212.250    8.565  164.633    0.100    0.422  115.964
  212.500    8.178  166.640    0.149    0.411  124.398
  212.750    7.883  166.642    0.186    0.399  125.602
  213.000    7.598  169.652    0.186    0.404  127.711
  213.250    7.531  168.652    0.186    0.410  129.217
  213.500    7.533  173.165    0.186    0.400  130.120
  213.750    7.607  173.167    0.188    0.396  132.831
  214.000    7.825  173.671    0.195    0.397  135.843
  214.250    7.974  173.674    0.194    0.421  135.241
  214.500    7.904  173.176    0.186    0.439  130.723
  214.750    7.760  171.675    0.155    0.437  127.410
  215.000    7.764  168.671    0.061    0.424  128.614
  215.250    7.912  168.173    0.101    0.420  131.024
  215.500    7.989  168.677    0.146    0.420  134.036
  215.750    8.141  168.679    0.188    0.421  135.843
  216.000    8.692  168.181    0.185    0.422  139.157
  216.250    9.279  168.184    0.183    0.421  134.639
  216.500    9.724  168.186    0.159    0.405  129.217
  216.750    9.819  167.187    0.105    0.380  125.602
  217.000    9.822  164.183    0.051    0.341  124.096
  217.250   10.103  162.181    0.086    0.344  124.398
  217.500   10.201  166.192    0.124    0.346  123.193
  217.750   10.205  168.199    0.157    0.346  115.663
  218.000   10.114  165.196    0.137    0.337  108.735
  218.250    9.481  161.691    0.011    0.329  108.735
  218.500    8.805  161.694    0.041    0.337  115.964
  218.750    8.727  164.703    0.093    0.351  124.398
  219.000    8.811  166.710    0.150    0.366  127.108
  219.250    8.734  164.708    0.181    0.380  125.000
  219.500    8.656  165.212    0.180    0.378  125.904
  219.750    8.500  165.716    0.176    0.369  127.410
  220.000    8.269  166.219    0.173    0.367  126.807
  220.250    7.680  167.225    0.174    0.372  125.301
  220.500    7.066  167.227    0.153    0.377  122.892
  220.750    6.442  169.735    0.136    0.378  119.880
  221.000    6.095  167.733    0.110    0.379  121.084
  221.250    6.097  163.226    0.129    0.388  130.422
  221.500    6.631  164.231    0.155    0.407  136.747
  221.750    7.212  164.735    0.189    0.419  119.277
  222.000    7.844  165.239    0.194    0.419  109.940
  222.250    8.691  165.242    0.152    0.369  111.145
  222.500    9.810  164.242    0.047    0.352  112.048
  222.750   10.473  164.746    0.092    0.344  111.446
  223.000   10.477  169.258    0.132    0.335  103.313
  223.250   10.099  172.769    0.183    0.335   98.193
  223.500    9.121  169.765    0.192    0.365   94.879
  223.750    8.792  166.260    0.200    0.380   91.566
  224.000    8.165  164.258    0.206    0.388   88.554
  224.250    7.582  166.766    0.209    0.382   91.265
