~VERSION INFORMATION
 VERS.                 2.0:   CWLS LOG ASCII STANDARD -VERSION 2.0
 WRAP.                  NO:   ONE LINE PER DEPTH STEP
~WELL INFORMATION BLOCK
#MNEM.UNIT           DATA                    DESCRIPTION OF MNEMONIC
#---------    -------------------            -------------------------------
# Generated from Intellog Unique Number	CS_69_70/WELL/903
NULL.         -999.25                        : NULL_VALUE
WELL.         SULPETRO ET AL IPIATIK         : Well_name    - WELL              
LOC .         00/13-33-070-09W4/0            : Location     - LOCATION          
UWI .         00/13-33-070-09W4/0            : Uwi          - UNIQUE WELL ID    
ENTR.         SP                             : Entered      - ENTERED BY        
SRVC.         SCHLUMBERGER                   : Scn          - SERVICE COMPANY   
STRT.M        250                            : top_depth    - START DEPTH       
STOP.M        450                            : bot_depth    - STOP DEPTH        
STEP.M        0.25                           : increment    - STEP LENGTH       
~CURVE INFORMATION BLOCK
#MNEM UNIT       ERCB CURVE CODE    CURVE DESCRIPTION
#-----------   ------------------   ----------------------------------
DEPT.M        00 001 00 00         : DEPTH        - DEPTH                       
ILD .OHMM     00 120 00 00         : RESD         - DEEP RESISTIVITY (DIL)      
DPHI.V/V      00 890 00 00         : PHID         - DENSITY POROSITY (LIMESTONE)
NPHI.V/V      00 330 00 00         : PHIN         - NEUTRON POROSITY (LIMESTONE)
GR  .API      00 310 00 00         : GR           - GAMMA RAY                   
~PARAMETER INFORMATION       
#MNEM.UNIT           DATA             DESCRIPTION OF MNEMONIC
#---------         -----------     ------------------------------
GL  .M        601.29               : gl           - GROUND LEVEL ELEVATION      
EREF.M        604.09               : kb           - ELEVATION OF DEPTH REFERENCE
DATM.M        601.29               : datum        - DATUM ELEVATION             
TDD .M        457.3                : tdd          - TOTAL DEPTH DRILLER         
RUN .         ONE                  : Run          - RUN NUMBER                  
ENG .         BILL                 : Engineer     - RECORDING ENGINEER          
WIT .         JIM                  : Witness      - WITNESSED BY                
MUD .         GEL                  : Mud_type     - MUD TYPE                    
MATR.         LIMESTONE            : Logunit      - NEUTRON MATRIX              
TMAX.C        26.8                 : BHT          - MAXIMUM RECORDED TEMPERATURE
BHTD.M        457.3                : BHTDEP       - MAXIMUM RECORDED TEMPERATURE
MATR.         1                    : LOGUNIT      - NEUTRON MATRIX              
RMT .C        25                   : MDTP         - TEMPERATURE OF MUD          
NEUT.         1                    : NEUTRON      - NEUTRON TYPE                
RESI.         0                    : RESIST       - RESISTIVITY TYPE            
RMC .OHMM     0.25                 : RMC          - RESISTIVITY OF MUD CAKE     
RMF .OHMM     0.25                 : RMF          - RESISTIVITY OF MUD FILTRATE 
SUFT.C        15                   : SUFT         - SURFACE TEMPERATURE         
~A  DEPTH     RESD     PHID     PHIN       GR
# ...
  380.500    5.115    0.221    0.377  108.760
  380.750    4.882    0.220    0.408  110.048
  381.000    4.488    0.216    0.431  112.065
  381.250    3.931    0.226    0.400  114.934
  381.500    3.385    0.246    0.379  117.439
  381.750    2.899    0.254    0.391  119.276
  382.000    2.577    0.245    0.412  119.708
  382.250    2.374    0.237    0.406  119.723
  382.500    2.317    0.240    0.399  119.121
  382.750    2.322    0.237    0.411  113.116
  383.000    2.383    0.235    0.422  114.464
  383.250    2.446    0.233    0.435  118.669
  383.500    2.671    0.230    0.489  117.707
  383.750    2.916    0.228    0.449  116.017
  384.000    3.219    0.227    0.422  111.227
  384.250    3.607    0.233    0.395  106.619
  384.500    4.065    0.243    0.379  102.985
  384.750    4.497    0.245    0.368  101.171
  385.000    4.818    0.245    0.354   98.690
  385.250    5.049    0.251    0.389  101.740
  385.500    5.300    0.264    0.409   97.497
  385.750    5.595    0.262    0.417   94.347
  386.000    5.743    0.256    0.417   97.459
  386.250    5.851    0.250    0.417  101.668
  386.500    5.754    0.243    0.445  103.136
  386.750    5.668    0.240    0.456  103.570
  387.000    5.668    0.236    0.422  103.463
  387.250    5.743    0.234    0.386  102.440
  387.500    5.961    0.232    0.367  101.841
  387.750    6.258    0.222    0.363  101.610
  388.000    6.400    0.209    0.356  101.621
  388.250    6.594    0.199    0.354  101.332
  388.500    6.681    0.193    0.367  101.035
  388.750    6.656    0.200    0.357  100.379
  389.000    6.545    0.205    0.351  101.909
  389.250    6.305    0.208    0.362  106.600
  389.500    6.017    0.209    0.381  109.954
  389.750    5.818    0.209    0.390  109.419
  390.000    5.721    0.207    0.388  106.818
  390.250    5.658    0.208    0.390  105.247
  390.500    5.553    0.212    0.401  105.685
  390.750    5.501    0.215    0.415  106.548
  391.000    5.481    0.217    0.426  107.834
  391.250    5.440    0.219    0.435  111.010
  391.500    5.440    0.222    0.379  112.841
  391.750    5.420    0.223    0.351  113.216
  392.000    5.430    0.221    0.358  111.343
  392.250    5.460    0.218    0.376  109.044
  392.500    5.471    0.215    0.392  107.718
  392.750    5.430    0.211    0.397  106.822
  393.000    5.379    0.210    0.374  106.409
  393.250    5.300    0.216    0.383  106.481
  393.500    5.163    0.223    0.395  106.855
  393.750    4.955    0.228    0.382  108.747
  394.000    4.782    0.227    0.362  123.892
  394.250    4.650    0.238    0.362  132.291
  394.500    4.676    0.253    0.371  120.389
  394.750    4.738    0.260    0.375  108.793
  395.000    4.773    0.257    0.408  101.631
  395.250    4.800    0.253    0.440  108.086
  395.500    4.800    0.247    0.460  104.571
  395.750    4.773    0.238    0.435  100.267
  396.000    4.720    0.228    0.422  106.600
  396.250    4.642    0.218    0.414  110.986
  396.500    4.488    0.217    0.398  108.325
  396.750    4.103    0.216    0.377  106.329
  397.000    3.607    0.215    0.353  105.065
  397.250    2.965    0.214    0.345  105.137
  397.500    2.607    0.230    0.373  104.666
  397.750    2.396    0.239    0.402  104.922
  398.000    2.296    0.244    0.435  105.049
  398.250    2.365    0.243    0.435  105.241
  398.500    2.626    0.241    0.477  105.497
  398.750    2.965    0.242    0.507  106.055
  399.000    3.280    0.247    0.527  105.822
  399.250    3.527    0.254    0.491  100.606
  399.500    3.773    0.261    0.473   96.484
  399.750    3.924    0.266    0.416   93.153
  400.000    3.983    0.264    0.379   93.286
  400.250    4.027    0.247    0.351   98.647
  400.500    4.035    0.239    0.340  102.669
  400.750    4.035    0.235    0.336  107.544
  401.000    3.983    0.230    0.337  112.720
  401.250    3.960    0.225    0.357  114.979
  401.500    3.916    0.219    0.389  108.731
  401.750    3.880    0.213    0.410  102.299
  402.000    3.983    0.217    0.414  101.158
  402.250    4.260    0.222    0.395  101.350
  402.500    4.694    0.226    0.392  100.935
  402.750    4.882    0.217    0.309   94.990
  403.000    5.144    0.162    0.246   86.067
  403.250    5.310    0.075    0.190   76.474
  403.500    5.390    0.003    0.189   60.562
  403.750    5.430    0.021    0.303   62.517
  404.000    5.390    0.077    0.351   75.414
  404.250    5.144    0.180    0.381   87.946
  404.500    4.581    0.212    0.406   94.460
  404.750    4.165    0.216    0.421   92.649
  405.000    3.902    0.215    0.424   91.993
  405.250    3.682    0.214    0.391   93.704
  405.500    3.607    0.212    0.363   97.423
  405.750    3.398    0.211    0.367  102.965
  406.000    3.360    0.210    0.372  109.663
  406.250    3.107    0.208    0.365  114.111
  406.500    2.965    0.207    0.358  115.459
  406.750    2.926    0.207    0.387  117.234
  407.000    2.888    0.207    0.420  118.461
  407.250    2.878    0.207    0.446  118.959
  407.500    2.867    0.208    0.460  118.421
  407.750    2.872    0.209    0.470  116.790
  408.000    2.948    0.210    0.474  116.620
  408.250    3.032    0.208    0.402  115.902
  408.500    2.982    0.207    0.385  114.697
  408.750    2.835    0.205    0.374  113.918
  409.000    2.809    0.204    0.368  114.174
  409.250    2.819    0.209    0.415  119.107
  409.500    2.932    0.218    0.440  126.169
  409.750    3.107    0.223    0.465  122.655
  410.000    3.392    0.219    0.455  118.594
  410.250    3.873    0.220    0.419  102.377
  410.500    4.308    0.221    0.385   89.138
  410.750    4.836    0.219    0.365   83.861
  411.000    5.290    0.216    0.351   86.000
  411.250    5.481    0.210    0.344   90.326
  411.500    5.400    0.206    0.336   93.438
  411.750    5.202    0.202    0.333   95.698
  412.000    4.882    0.201    0.348   97.775
  412.250    4.430    0.205    0.375  101.251
  412.500    4.308    0.211    0.398  105.760
  412.750    4.927    0.220    0.417  109.357
  413.000    5.410    0.225    0.427   97.881
  413.250    6.017    0.234    0.406   86.708
  413.500    6.557    0.241    0.380   77.120
  413.750    7.105    0.244    0.349   74.697
  414.000    7.543    0.244    0.338   78.539
  414.250    7.845    0.242    0.324   81.527
  414.500    7.918    0.239    0.312   83.119
  414.750    8.067    0.235    0.306   82.645
  415.000    8.235    0.232    0.302   81.439
  415.250    8.406    0.229    0.299   80.538
  415.500    8.840    0.218    0.311   81.340
  415.750    9.280    0.195    0.326   83.543
  416.000    9.597    0.175    0.333   84.767
  416.250    9.797    0.159    0.325   80.706
  416.500    9.797    0.174    0.320   76.465
  416.750    9.385    0.201    0.314   74.893
  417.000    9.092    0.214    0.310   73.627
  417.250    8.500    0.203    0.306   82.816
  417.500    8.189    0.198    0.320   91.825
  417.750    7.786    0.218    0.334   95.845
  418.000    7.376    0.236    0.347   97.315
  418.250    7.159    0.236    0.338  100.062
  418.500    7.079    0.202    0.337  109.372
  418.750    7.253    0.211    0.350  117.832
  419.000    7.571    0.221    0.343  114.866
  419.250    7.963    0.227    0.336  107.826
  419.500    8.189    0.234    0.347  102.913
  419.750    8.359    0.236    0.361  103.958
  420.000    8.516    0.238    0.366  105.489
  420.250    8.406    0.233    0.339  107.870
  420.500    8.516    0.226    0.311  111.528
  420.750    8.548    0.229    0.306  112.026
  421.000    8.564    0.237    0.327  104.198
  421.250    8.548    0.241    0.340   99.650
  421.500    8.516    0.240    0.352   98.020
  421.750    8.469    0.240    0.341   99.430
  422.000    8.343    0.241    0.333  102.117
  422.250    8.219    0.240    0.347  104.070
  422.500    8.037    0.233    0.362  107.607
  422.750    7.815    0.225    0.364  115.398
  423.000    7.571    0.218    0.348  124.101
  423.250    7.172    0.211    0.359  131.041
  423.500    7.132    0.209    0.389  127.101
  423.750    7.743    0.235    0.379  115.929
