~VERSION INFORMATION
 VERS.                 2.0:   CWLS LOG ASCII STANDARD -VERSION 2.0
 WRAP.                  NO:   ONE LINE PER DEPTH STEP
~WELL INFORMATION BLOCK
#MNEM.UNIT           DATA                    DESCRIPTION OF MNEMONIC
#---------    -------------------            -------------------------------
# Generated from Intellog Unique Number	CS_67_68/WELL/2202
WELL.         BVX LAC LA BICHE               : Well_name    - WELL
LOC .         00/11-03-067-13W4/0            : Location     - LOCATION
UWI .         00/11-03-067-13W4/0            : Uwi          - UNIQUE WELL ID
ENTR.         SP                             : Entered      - ENTERED BY
SRVC.         SCHLUMBERGER                   : Scn          - SERVICE COMPANY
STRT.M        310                            : top_depth    - START DEPTH
STOP.M        495                            : bot_depth    - STOP DEPTH
STEP.M        0.25                           : increment    - STEP LENGTH
 NULL. -999.2500:NULL Value
~CURVE INFORMATION BLOCK
#MNEM UNIT       ERCB CURVE CODE    CURVE DESCRIPTION
#-----------   ------------------   ----------------------------------
DEPT.M        00 001 00 00         : DEPTH        - DEPTH
ILD .OHMM     00 120 00 00         : RESD         - DEEP RESISTIVITY (DIL)
DPHI.V/V      00 890 00 00         : PHID         - DENSITY POROSITY (LIMESTONE)
NPHI.V/V      00 330 00 00         : PHIN         - NEUTRON POROSITY (LIMESTONE)
GR  .API      00 310 00 00         : GR           - GAMMA RAY
CALI.MM       00 280 01 00         : CAL          - CALIPER
~PARAMETER INFORMATION
#MNEM.UNIT           DATA             DESCRIPTION OF MNEMONIC
#---------         -----------     ------------------------------
GL  .M        577.4                : gl           - GROUND LEVEL ELEVATION
EREF.M        580.3                : kb           - ELEVATION OF DEPTH REFERENCE
DATM.M        580.3                : datum        - DATUM ELEVATION
TDD .M        498                  : tdd          - TOTAL DEPTH DRILLER
RUN .         ONE                  : Run          - RUN NUMBER
ENG .         BILL                 : Engineer     - RECORDING ENGINEER
WIT .         JIM                  : Witness      - WITNESSED BY
MUD .         GEL                  : Mud_type     - MUD TYPE
MATR.         LIMESTONE            : Logunit      - NEUTRON MATRIX
TMAX.C        22                   : BHT          - MAXIMUM RECORDED TEMPERATURE
BHTD.M        495                  : BHTDEP       - MAXIMUM RECORDED TEMPERATURE
MATR.         1                    : LOGUNIT      - NEUTRON MATRIX
RMT .C        25                   : MDTP         - TEMPERATURE OF MUD
NEUT.         1                    : NEUTRON      - NEUTRON TYPE
RESI.         0                    : RESIST       - RESISTIVITY TYPE
RMC .OHMM     0.25                 : RMC          - RESISTIVITY OF MUD CAKE
RMF .OHMM     0.25                 : RMF          - RESISTIVITY OF MUD FILTRATE
SUFT.C        15                   : SUFT         - SURFACE TEMPERATURE
~A  DEPTH     RESD     PHID     PHIN       GR      CAL
# ...
  383.000    3.717    0.257    0.422  102.488  166.821
  383.250    3.924    0.287    0.436   94.796  161.375
  383.500    4.204    0.314    0.458   88.740  158.151
  383.750    4.462    0.297    0.467   87.655  156.645
  384.000    4.737    0.280    0.449   86.144  155.744
  384.250    4.991    0.270    0.429   81.604  156.358
  384.500    5.258    0.282    0.431   76.639  157.477
  384.750    5.551    0.243    0.438   75.493  159.000
  385.000    6.014    0.216    0.417   75.073  160.324
  385.250    6.825    0.181    0.387   73.805  160.633
  385.500    8.406    0.164    0.291   70.901  160.037
  385.750   11.089    0.125    0.208   67.997  159.236
  386.000   16.113    0.068    0.190   66.426  158.337
  386.250   19.086    0.032    0.181   65.643  158.243
  386.500   20.449    0.015    0.175   64.800  158.454
  386.750   15.137    0.006    0.169   61.411  159.269
  387.000    8.080    0.002    0.163   58.688  160.388
  387.250    5.838    0.013    0.171   65.845  162.317
  387.500    4.655    0.032    0.205   77.608  162.425
  387.750    3.917    0.059    0.324   85.552  162.031
  388.000    3.447    0.100    0.367   92.285  161.735
  388.250    3.267    0.172    0.398   93.502  161.442
  388.500    3.292    0.212    0.431   91.507  161.146
  388.750    3.566    0.229    0.428   89.815  160.145
  389.000    3.900    0.241    0.437   88.304  159.243
  389.250    4.186    0.197    0.432   84.612  158.747
  389.500    4.218    0.181    0.414   85.405  158.453
  389.750    4.103    0.237    0.395   88.623  158.258
  390.000    3.925    0.271    0.404   90.688  157.761
  390.250    3.811    0.283    0.427   92.087  153.830
  390.500    3.763    0.291    0.445   90.941  152.930
  390.750    3.763    0.301    0.460   88.642  154.049
  391.000    3.771    0.296    0.468   87.193  156.279
  391.250    3.871    0.304    0.469   83.926  158.815
  391.500    4.026    0.311    0.455   82.900  160.438
  391.750    4.095    0.300    0.443   80.965  161.658
  392.000    4.081    0.300    0.444   80.304  162.373
  392.250    3.992    0.292    0.451   82.430  162.079
  392.500    3.819    0.275    0.439   84.798  161.582
  392.750    3.660    0.260    0.423   84.015  161.691
  393.000    3.553    0.249    0.412   83.051  161.599
  393.250    3.463    0.243    0.419   86.692  161.507
  393.500    3.419    0.240    0.426   90.273  161.111
  393.750    3.426    0.234    0.435   91.733  160.310
  394.000    3.446    0.232    0.431   89.071  159.916
  394.250    3.511    0.217    0.424   93.561  159.923
  394.500    3.571    0.217    0.425   96.172  159.931
  394.750    3.659    0.226    0.433   97.874  160.043
  395.000    3.694    0.217    0.429   98.303  160.049
  395.250    3.661    0.210    0.422   98.611  160.361
  395.500    3.635    0.208    0.426   96.980  160.369
  395.750    3.562    0.216    0.433   95.651  160.376
  396.000    3.445    0.213    0.424   93.838  160.690
  396.250    3.358    0.220    0.415   94.085  160.798
  396.500    3.254    0.235    0.426   96.031  161.411
  396.750    3.165    0.225    0.441   98.277  162.531
  397.000    3.125    0.218    0.452   98.343  164.459
  397.250    3.085    0.234    0.449   93.257  163.557
  397.500    3.075    0.242    0.440   89.020  161.849
  397.750    3.139    0.254    0.435   85.388  160.242
  398.000    3.277    0.269    0.429   82.120  159.341
  398.250    3.427    0.261    0.420   86.247  158.540
  398.500    3.551    0.247    0.411   90.979  157.942
  398.750    3.645    0.235    0.403   95.833  157.345
  399.000    3.798    0.224    0.419  100.625  158.363
  399.250    3.972    0.212    0.434  101.418  157.665
  399.500    4.146    0.205    0.446   96.393  156.158
  399.750    4.312    0.197    0.444   95.307  156.166
  400.000    4.394    0.184    0.446   96.160  160.114
  400.250    4.453    0.170    0.444   99.074  163.355
  400.500    4.512    0.164    0.426   95.564  165.686
  400.750    4.530    0.167    0.410   91.872  165.998
  401.000    4.539    0.178    0.402   91.150  165.804
  401.250    4.532    0.194    0.399   94.186  165.207
  401.500    4.541    0.190    0.395   96.252  165.215
  401.750    4.525    0.181    0.401   96.983  165.626
  402.000    4.468    0.173    0.417   96.625  166.038
  402.250    4.387    0.182    0.429   97.296  166.350
  402.500    4.259    0.189    0.441   99.363  166.359
  402.750    4.213    0.186    0.452  100.700  166.064
  403.000    4.198    0.199    0.447  102.099  166.073
  403.250    4.176    0.200    0.441  103.680  166.284
  403.500    4.177    0.198    0.441  104.715  166.392
  403.750    4.162    0.200    0.450  104.418  166.300
  404.000    4.163    0.200    0.470  103.331  166.106
  404.250    4.118    0.205    0.481  103.215  166.113
  404.500    4.035    0.198    0.445  109.705  166.122
  404.750    3.991    0.185    0.440  113.952  166.636
  405.000    3.911    0.172    0.453  113.594  166.644
  405.250    3.819    0.185    0.462  115.782  166.854
  405.500    3.722    0.197    0.443  116.634  166.964
  405.750    3.647    0.181    0.430  117.427  167.578
  406.000    3.548    0.171    0.425  117.189  168.394
  406.250    3.503    0.174    0.437  114.952  169.918
  406.500    3.530    0.179    0.443  113.623  172.451
  406.750    3.577    0.192    0.442  113.507  174.682
  407.000    3.611    0.211    0.446  113.876  174.791
  407.250    3.625    0.226    0.452  112.366  171.870
  407.500    3.653    0.227    0.448  112.735  168.545
  407.750    3.674    0.212    0.441  110.497  165.523
  408.000    3.682    0.198    0.448  105.835  163.006
  408.250    3.676    0.190    0.443  105.356  162.711
  408.500    3.677    0.199    0.433  106.452  163.730
  408.750    3.657    0.201    0.428  102.153  164.849
  409.000    3.617    0.196    0.440   97.673  165.565
  409.250    3.378    0.189    0.445   91.496  163.553
  409.500    3.044    0.185    0.441   85.925  160.732
  409.750    2.679    0.174    0.424   82.718  158.317
  410.000    2.348    0.194    0.405   89.208  156.507
  410.250    2.140    0.260    0.433   80.365  155.303
  410.500    2.014    0.281    0.444   72.673  154.705
  410.750    1.870    0.289    0.446   67.163  154.714
  411.000    1.789    0.302    0.437   62.319  155.327
  411.250    1.730    0.308    0.426   63.051  155.540
  411.500    1.674    0.309    0.416   63.359  155.950
  411.750    1.628    0.299    0.428   62.516  155.958
  412.000    1.595    0.287    0.440   60.763  155.563
  412.250    1.566    0.307    0.433   58.404  155.268
  412.500    1.541    0.331    0.425   57.258  153.761
  412.750    1.532    0.343    0.428   57.081  151.749
  413.000    1.530    0.355    0.430   56.420  150.344
  413.250    1.527    0.346    0.425   55.515  151.869
  413.500    1.548    0.331    0.422   53.823  154.200
  413.750    1.571    0.339    0.415   55.100  156.530
  414.000    1.592    0.336    0.407   56.621  159.569
  414.250    1.622    0.331    0.407   56.262  161.395
  414.500    1.656    0.320    0.415   55.722  159.181
  414.750    1.688    0.329    0.422   56.393  157.473
  415.000    1.707    0.322    0.424   58.095  156.168
  415.250    1.730    0.320    0.420   60.040  155.671
  415.500    1.730    0.324    0.414   62.348  155.276
  415.750    1.731    0.326    0.417   63.625  154.678
  416.000    1.728    0.324    0.429   61.873  153.777
  416.250    1.715    0.332    0.445   59.818  153.482
  416.500    1.700    0.331    0.438   59.338  153.491
  416.750    1.694    0.320    0.435   59.827  154.408
  417.000    1.679    0.312    0.444   58.802  155.426
  417.250    1.673    0.320    0.450   57.110  156.748
  417.500    1.673    0.327    0.439   55.297  157.262
  417.750    1.683    0.347    0.427   57.605  158.179
  418.000    1.696    0.351    0.422   60.155  159.298
  418.250    1.702    0.337    0.427   62.342  160.417
  418.500    1.703    0.328    0.436   63.862  160.223
  418.750    1.694    0.324    0.431   61.625  158.413
  419.000    1.675    0.322    0.432   59.872  156.807
  419.250    1.660    0.322    0.426   56.604  155.602
