~VERSION INFORMATION
 VERS.                 2.0:   CWLS LOG ASCII STANDARD -VERSION 2.0
 WRAP.                  NO:   ONE LINE PER DEPTH STEP
~WELL INFORMATION BLOCK
#MNEM.UNIT           DATA                    DESCRIPTION OF MNEMONIC
#---------    -------------------            -------------------------------
# Generated from Intellog Unique Number	CW_82_90/WELL/702
WELL.         10-14-082-19W4                 : Well_name    - WELL
LOC .         00/10-14-082-19W4/0            : Location     - LOCATION
UWI .         00/10-14-082-19W400            : Uwi          - UNIQUE WELL ID
ENTR.         JAYE                           : Entered      - ENTERED BY
SRVC.         COMPUTALOG                     : Scn          - SERVICE COMPANY
DATE.         FEB 13 77                      : Date         - LOG DATE
STRT.M        155.448                        : top_depth    - START DEPTH
STOP.M        344.448                        : bot_depth    - STOP DEPTH
STEP.M        0.25                           : increment    - STEP LENGTH
 NULL. -999.2500:NULL Value
~CURVE INFORMATION BLOCK
#MNEM UNIT       ERCB CURVE CODE    CURVE DESCRIPTION
#-----------   ------------------   ----------------------------------
DEPT.M        00 001 00 00         : DEPTH        - DEPTH
CALI.MM       00 280 01 00         : CAL          - CALIPER
GR  .API      00 310 00 00         : GR           - GAMMA RAY
NPHI.V/V      00 330 00 00         : PHIN         - NEUTRON POROSITY (SANDSTONE)
DPHI.V/V      00 890 00 00         : PHID         - DENSITY POROSITY (SANDSTONE)
COND.MMHO                          : COND         - DEEP CONDUCTIVITY (DIL)
ILD .OHMM     00 120 00 00         : RESD         - DEEP RESISTIVITY (DIL)
~PARAMETER INFORMATION
#MNEM.UNIT           DATA             DESCRIPTION OF MNEMONIC
#---------         -----------     ------------------------------
GL  .M        573.024              : gl           - GROUND LEVEL ELEVATION
EREF.M        576.682              : kb           - ELEVATION OF DEPTH REFERENCE
DATM.M        573.024              : datum        - DATUM ELEVATION
TDD .M        347.472              : tdd          - TOTAL DEPTH DRILLER
RUN .         ONE                  : Run          - RUN NUMBER
ENG .         KING                 : Engineer     - RECORDING ENGINEER
WIT .         CARS                 : Witness      - WITNESSED BY
BASE.         MEDICINE HAT         : Branch       - HOME BASE OF LOGGING UNIT
MUD .         GEL                  : Mud_type     - MUD TYPE
MATR.         SANDSTONE            : Logunit      - NEUTRON MATRIX
TMAX.C        17.7778              : BHT          - MAXIMUM RECORDED TEMPERATURE
BHTD.M        347.472              : BHTDEP       - MAXIMUM RECORDED TEMPERATURE
RMT .C        17.7778              : MDTP         - TEMPERATURE OF MUD
MUDD.KG/M     9100                 : MWT          - MUD DENSITY
NEUT.         0                    : NEUTRON      - NEUTRON TYPE
RESI.         0                    : RESIST       - RESISTIVITY TYPE
RM  .OHMM     9.5                  : RM           - RESISTIVITY OF MUD
RMC .OHMM     0                    : RMC          - RESISTIVITY OF MUD CAKE
RMF .OHMM     0                    : RMF          - RESISTIVITY OF MUD FILTRATE
SUFT.C        4                    : SUFT         - SURFACE TEMPERATURE
~A  DEPTH      CAL       GR     PHIN     PHID     COND     RESD
# ...
  280.448  160.751  118.738    0.433    0.250  551.001   10.111
  280.698  160.261  118.872    0.478    0.250  551.373   10.040
  280.948  159.980  122.746    0.472    0.243  551.837   10.007
  281.198  159.904  123.310    0.466    0.237  552.602    9.935
  281.448  159.930  121.793    0.481    0.233  554.466    9.825
  281.698  159.851  120.889    0.483    0.236  555.633    9.675
  281.948  160.393  124.455    0.446    0.234  556.290    9.486
  282.198  160.517  131.697    0.459    0.230  556.958    9.260
  282.448  160.958  133.181    0.477    0.226  556.958    9.071
  282.698  161.187  122.846    0.472    0.225  556.958    8.961
  282.948  161.419  127.822    0.476    0.228  560.249    8.850
  283.198  161.857  123.056    0.476    0.232  560.413    8.856
  283.448  161.264  131.401    0.500    0.225  560.976    8.824
  283.698  159.643  129.027    0.505    0.216  561.249    8.714
  283.948  159.151  126.897    0.490    0.218  562.305    8.604
  284.198  161.756  131.566    0.470    0.230  562.305    8.454
  284.448  162.911  133.112    0.473    0.233  562.305    8.343
  284.698  163.038  127.370    0.461    0.238  564.197    8.312
  284.948  162.962  125.300    0.441    0.235  564.368    8.278
  285.198  162.783  123.538    0.437    0.226  564.107    8.207
  285.448  162.909  122.022    0.481    0.224  563.898    8.136
  285.698  164.277  128.098    0.472    0.221  563.863    8.026
  285.948  164.712  131.605    0.486    0.228  564.521    7.914
  286.198  164.119  128.802    0.485    0.232  564.521    7.689
  286.448  162.806  117.483    0.452    0.229  569.647    7.499
  286.698  162.425  119.398    0.445    0.221  570.827    7.116
  286.948  162.448  112.244    0.433    0.202  571.986    6.890
  287.198  162.369  101.663    0.449    0.195  572.550    6.856
  287.448  162.809  103.333    0.439    0.257  572.612    6.862
  287.698  163.247  101.997    0.425    0.241  570.879    7.025
  287.948  163.576  104.400    0.376    0.218  566.940    7.889
  288.198  163.603  107.845    0.323    0.201  557.778    9.143
  288.448  163.733   96.344    0.259    0.129  556.555    9.618
  288.698  163.653   97.218    0.175    0.079  552.416   10.052
  288.948  163.372  104.273    0.188    0.065  549.074   10.800
  289.198  163.194  113.048    0.305    0.178  548.041   11.235
  289.448  163.008  102.221    0.266    0.159  547.103   12.059
  289.698  162.523   95.805    0.212    0.135  542.559   13.664
  289.948  162.546  102.309    0.241    0.143  537.916   15.853
  290.198  163.086  109.796    0.447    0.254  542.085   16.756
  290.448  164.244  113.117    0.451    0.240  549.353   12.436
  290.698  165.199  121.706    0.452    0.232  551.920   10.494
  290.948  165.941  126.928    0.449    0.231  551.890    9.761
  291.198  165.969  129.880    0.442    0.230  553.553    9.299
  291.448  164.348  124.321    0.421    0.229  558.521    8.722
  291.698  162.930  110.922    0.401    0.226  560.289    8.454
  291.948  163.263  103.097    0.373    0.222  560.855    8.539
  292.198  164.523   96.067    0.339    0.214  559.313    8.818
  292.448  165.168   92.958    0.301    0.171  558.278    9.253
  292.698  164.472   79.865    0.238    0.124  556.442    9.806
  292.948  162.644   71.733    0.193    0.064  554.601   10.670
  293.198  161.437   71.257    0.169    0.036  551.666   12.274
  293.448  160.840   79.234    0.151    0.026  546.724   13.917
  293.698  160.563   83.167    0.139    0.032  539.077   16.379
  293.948  160.274   87.469    0.134    0.046  531.131   19.270
  294.198  160.198   92.506    0.139    0.129  527.995   19.355
  294.448  160.221   96.257    0.159    0.114  528.258   18.114
  294.698  160.246   97.862    0.173    0.111  529.424   16.328
  294.948  160.273  102.837    0.190    0.131  531.990   14.580
  295.198  161.022  106.347    0.244    0.142  539.060   13.300
  295.448  162.078  111.442    0.351    0.196  543.828   12.099
  295.698  163.132  121.439    0.442    0.217  546.694   11.520
  295.948  163.673  125.618    0.428    0.230  547.965   10.669
  296.198  163.387  126.550    0.471    0.226  550.428    9.820
  296.448  163.414  136.241    0.462    0.224  552.697    9.436
  296.698  164.366  131.723    0.438    0.226  554.565    9.091
  296.948  164.499  132.595    0.433    0.221  555.927    9.021
  297.198  164.211  130.776    0.476    0.212  556.895    8.988
  297.448  164.238  131.582    0.442    0.189  557.655    9.033
  297.698  164.260  130.861    0.434    0.180  557.509    9.080
  297.948  164.594  132.162    0.438    0.181  557.485    9.086
  298.198  164.929  133.340    0.459    0.199  557.440    9.052
  298.448  166.091  133.355    0.458    0.205  557.313    9.021
  298.698  167.042  135.574    0.459    0.198  557.169    8.949
  298.948  167.374  142.263    0.467    0.192  557.437    8.878
  299.198  167.712  138.112    0.483    0.183  557.900    8.845
  299.448  167.323  136.596    0.487    0.185  558.664    8.812
  299.698  167.966  140.408    0.460    0.194  560.019    8.780
  299.948  168.200  136.930    0.460    0.198  560.591    8.747
  300.198  168.120  134.249    0.453    0.195  560.555    8.754
  300.448  165.367  130.160    0.438    0.207  560.224    8.838
  300.698  165.596  133.114    0.417    0.212  559.190    8.923
  300.948  167.682  133.499    0.466    0.207  558.455    8.969
  301.198  169.870  136.022    0.462    0.208  558.109    8.975
  301.448  169.386  145.528    0.442    0.206  558.574    8.942
  301.698  168.996  143.031    0.481    0.202  559.435    8.794
  301.948  168.609  135.390    0.492    0.199  559.707    8.760
  302.198  168.737  144.228    0.440    0.195  560.066    8.806
  302.448  170.100  142.584    0.443    0.194  560.140    8.813
  302.698  171.263  146.400    0.481    0.186  560.293    8.819
  302.948  171.079  144.760    0.489    0.177  560.965    8.748
  303.198  171.311  139.810    0.482    0.163  561.933    8.598
  303.448  170.923  144.356    0.473    0.183  562.596    8.409
  303.698  170.850  143.635    0.461    0.184  562.856    8.222
  303.948  169.533  142.670    0.467    0.177  563.214    8.033
  304.198  170.795  145.808    0.461    0.179  564.289    7.805
  304.448  172.678  155.319    0.444    0.198  567.657    7.578
  304.698  173.110  147.183    0.428    0.186  569.925    7.390
  304.948  168.913  141.135    0.403    0.161  567.780    7.552
  305.198  166.776  134.289    0.371    0.140  564.441    8.222
  305.448  165.052  126.401    0.351    0.113  561.403    9.436
  305.698  164.149  140.625    0.407    0.082  559.164   10.066
  305.948  165.927  143.275    0.441    0.210  554.223    9.996
  306.198  167.703  140.476    0.457    0.201  551.285    9.650
  306.448  168.556  140.179    0.472    0.206  552.851    8.916
  306.698  168.578  141.294    0.463    0.198  561.222    9.001
  306.948  167.573  140.941    0.418    0.194  562.191    9.553
  307.198  164.818  135.075    0.370    0.202  560.149   10.222
  307.448  162.271  125.229    0.373    0.204  555.305   10.775
  307.698  162.292  128.549    0.429    0.242  552.164   11.365
  307.948  164.275  128.810    0.392    0.222  549.827   11.644
  308.198  165.021  126.619    0.372    0.231  547.187   11.729
  308.448  164.947  122.835    0.379    0.232  546.847   12.554
  308.698  164.252  118.501    0.390    0.230  546.910   13.535
  308.948  163.552  113.982    0.383    0.216  545.880   14.243
  309.198  162.345  105.790    0.333    0.165  541.741   14.991
  309.448  161.342  100.047    0.206    0.104  536.497   15.230
  309.698  160.642   97.059    0.150    0.089  532.854   14.848
  309.948  159.845  109.018    0.160    0.172  532.615   13.880
  310.198  159.149  124.834    0.190    0.223  533.479   12.950
  310.448  159.588  123.011    0.391    0.240  538.056   11.983
  310.698  160.744  117.084    0.414    0.241  542.219   11.131
  310.948  161.599  112.749    0.402    0.255  543.289   10.982
  311.198  162.650  107.496    0.394    0.250  544.456   11.379
  311.448  163.913  111.861    0.320    0.228  546.123   12.203
