~VERSION INFORMATION
 VERS.                 2.0:   CWLS LOG ASCII STANDARD -VERSION 2.0
 WRAP.                  NO:   ONE LINE PER DEPTH STEP
~WELL INFORMATION BLOCK
#MNEM.UNIT           DATA                    DESCRIPTION OF MNEMONIC
#---------    -------------------            -------------------------------
# Generated from Intellog Unique Number	CW_70_72/WELL/1032
NULL.         -999.25                        : NULL_VALUE
WELL.         TPOC ET AL CALLW 10-03         : Well_name    - WELL              
LOC .         10-03-072-21W4                 : Location     - LOCATION          
UWI .         00/10-03-072-21W4/0            : Uwi          - UNIQUE WELL ID    
ENTR.         JAYE                           : Entered      - ENTERED BY        
SRVC.         SCHLUMBERGER                   : Scn          - SERVICE COMPANY   
DATE.         12 MAR 78                      : Date         - LOG DATE          
STRT.M        323.088                        : top_depth    - START DEPTH       
STOP.M        499.838                        : bot_depth    - STOP DEPTH        
STEP.M        0.25                           : increment    - STEP LENGTH       
~CURVE INFORMATION BLOCK
#MNEM UNIT       ERCB CURVE CODE    CURVE DESCRIPTION
#-----------   ------------------   ----------------------------------
DEPT.M        00 001 00 00         : DEPTH        - DEPTH                       
DPHI.V/V      00 890 00 00         : PHID         - DENSITY POROSITY (SANDSTONE)
NPHI.V/V      00 330 00 00         : PHIN         - NEUTRON POROSITY (SANDSTONE)
GR  .API      00 310 00 00         : GR           - GAMMA RAY                   
CALI.MM       00 280 01 00         : CAL          - CALIPER                     
ILD .OHMM     00 120 00 00         : RESD         - DEEP RESISTIVITY (DIL)      
~PARAMETER INFORMATION       
#MNEM.UNIT           DATA             DESCRIPTION OF MNEMONIC
#---------         -----------     ------------------------------
GL  .M        597.713              : gl           - GROUND LEVEL ELEVATION      
EREF.M        600.761              : kb           - ELEVATION OF DEPTH REFERENCE
DATM.M        597.713              : datum        - DATUM ELEVATION             
TDD .M        502.615              : tdd          - TOTAL DEPTH DRILLER         
RUN .         ONE                  : Run          - RUN NUMBER                  
ENG .         DEROCHIE             : Engineer     - RECORDING ENGINEER          
WIT .         MACHUK EVANS         : Witness      - WITNESSED BY                
BASE.         EDM                  : Branch       - HOME BASE OF LOGGING UNIT   
MATR.         SANDSTONE            : Logunit      - NEUTRON MATRIX              
TMAX.C        20                   : BHT          - MAXIMUM RECORDED TEMPERATURE
BHTD.M        504.444              : BHTDEP       - MAXIMUM RECORDED TEMPERATURE
RMT .C        20.5556              : MDTP         - TEMPERATURE OF MUD          
MUDD.KG/M     0                    : MWT          - MUD DENSITY                 
NEUT.         1                    : NEUTRON      - NEUTRON TYPE                
RESI.         0                    : RESIST       - RESISTIVITY TYPE            
RM  .OHMM     5.12                 : RM           - RESISTIVITY OF MUD          
RMC .OHMM     0                    : RMC          - RESISTIVITY OF MUD CAKE     
RMF .OHMM     6.13                 : RMF          - RESISTIVITY OF MUD FILTRATE 
SUFT.C        -17.7778             : SUFT         - SURFACE TEMPERATURE         
~A  DEPTH     PHID     PHIN       GR      CAL     RESD
# ...
  396.088    0.271    0.446   81.279  148.288    5.087
  396.338    0.251    0.445   81.168  149.055    5.211
  396.588    0.260    0.444   83.625  148.980    5.285
  396.838    0.273    0.451   87.648  148.788    5.382
  397.088    0.269    0.458   91.984  148.390    5.430
  397.338    0.283    0.468   92.249  148.200    5.467
  397.588    0.281    0.475   87.754  148.438    5.435
  397.838    0.269    0.484   87.142  148.776    5.302
  398.088    0.249    0.492   84.965  149.015    5.039
  398.338    0.282    0.505   79.531  149.253    4.834
  398.588    0.302    0.496   79.107  149.808    4.629
  398.838    0.308    0.452   85.259  150.256    4.483
  399.088    0.288    0.433   85.524  150.180    4.413
  399.338    0.282    0.434   86.980  150.308    4.362
  399.588    0.264    0.430   90.564  150.341    4.346
  399.838    0.239    0.447   93.522  150.469    4.302
  400.088    0.237    0.463   93.036  150.697    4.300
  400.338    0.241    0.452   91.422  150.935    4.314
  400.588    0.237    0.455   92.125  151.170    4.377
  400.838    0.241    0.463   92.140  150.670    4.415
  401.088    0.244    0.452   84.202  149.736    4.431
  401.338    0.258    0.441   84.841  148.702    4.452
  401.588    0.274    0.436   85.732  147.979    4.492
  401.838    0.276    0.455   85.621  146.309    4.473
  402.088    0.291    0.467   85.323  145.696    4.421
  402.338    0.293    0.459   85.901  146.888    4.362
  402.588    0.279    0.456   83.598  149.141    4.311
  402.838    0.285    0.456   76.535  150.118    4.261
  403.088    0.310    0.446   76.424  150.353    4.227
  403.338    0.298    0.437   78.694  150.384    4.194
  403.588    0.299    0.440   79.147  149.343    4.161
  403.838    0.297    0.465   78.035  144.169    4.167
  404.088    0.301    0.472   79.427  145.576    4.172
  404.338    0.289    0.455   82.886  147.082    4.195
  404.588    0.291    0.452   85.092  149.441    4.223
  404.838    0.281    0.445   80.347  150.631    4.276
  405.088    0.272    0.428   78.294  150.233    4.212
  405.338    0.273    0.442   75.679  150.787    4.178
  405.588    0.282    0.452   72.812  151.554    4.183
  405.838    0.274    0.447   71.510  151.373    4.205
  406.088    0.267    0.443   73.280  150.757    4.148
  406.338    0.261    0.456   77.867  149.724    4.032
  406.588    0.274    0.466   79.510  148.684    3.826
  406.838    0.293    0.450   76.330  146.799    3.718
  407.088    0.293    0.441   73.963  142.794    3.580
  407.338    0.284    0.449   72.913  141.969    3.480
  407.588    0.292    0.449   73.742  144.221    3.432
  407.838    0.292    0.440   76.261  147.216    3.380
  408.088    0.301    0.451   75.400  149.470    3.317
  408.338    0.319    0.467   77.670  150.764    3.302
  408.588    0.326    0.469   82.443  151.746    3.301
  408.838    0.322    0.477   90.099  152.512    3.318
  409.088    0.307    0.452   98.256  152.961    3.379
  409.338    0.259    0.437  106.287  153.624    3.447
  409.588    0.219    0.455  107.617  154.071    3.556
  409.838    0.228    0.466  101.181  154.099    3.780
  410.088    0.243    0.453   98.564  153.698    3.995
  410.338    0.227    0.434  101.523  153.511    4.239
  410.588    0.222    0.432   99.031  153.109    4.506
  410.838    0.214    0.445  101.741  152.815    4.727
  411.088    0.209    0.463  102.380  152.838    4.923
  411.338    0.199    0.485   98.700  151.166    5.165
  411.588    0.216    0.502   89.444  146.204    5.531
  411.838    0.242    0.461   76.933  144.427    5.956
  412.088    0.187    0.418   64.922  145.194    6.596
  412.338    0.095    0.313   60.929  146.280    7.237
  412.588    0.067    0.384   63.824  147.896    7.384
  412.838    0.162    0.428   82.377  149.299    7.380
  413.088    0.211    0.461   89.281  149.855    6.682
  413.338    0.249    0.464   92.240  149.560    5.743
  413.588    0.239    0.448   92.255  149.267    5.171
  413.838    0.231    0.447   89.388  149.187    5.073
  414.088    0.239    0.458   90.091  148.997    5.052
  414.338    0.242    0.445   93.362  148.179    5.116
  414.588    0.215    0.454   96.322  147.775    5.230
  414.838    0.217    0.436   97.463  147.375    5.305
  415.088    0.225    0.430   98.731  146.868    5.383
  415.338    0.226    0.455  100.373  146.150    5.441
  415.588    0.205    0.443  102.016  146.069    5.488
  415.838    0.214    0.437  100.089  148.744    5.518
  416.088    0.198    0.436  100.104  151.847    5.555
  416.338    0.207    0.450  101.620  154.206    5.522
  416.588    0.209    0.467  104.079  155.183    5.500
  416.838    0.202    0.463  105.157  156.268    5.517
  417.088    0.184    0.457  106.863  156.505    5.576
  417.338    0.194    0.455  101.867  156.104    5.605
  417.588    0.227    0.473   93.050  152.841    5.570
  417.838    0.245    0.477   89.683  147.881    5.414
  418.088    0.261    0.458   89.321  145.995    5.118
  418.338    0.272    0.451   85.641  144.747    4.836
  418.588    0.276    0.452   83.025  144.668    4.528
  418.838    0.288    0.454   79.346  144.800    4.241
  419.088    0.289    0.450   76.666  145.252    4.008
  419.338    0.298    0.437   73.737  145.806    3.860
  419.588    0.309    0.427   71.934  146.149    3.821
  419.838    0.300    0.459   72.262  146.702    3.777
  420.088    0.292    0.438   73.028  147.575    3.755
  420.338    0.285    0.429   72.729  148.128    3.802
  420.588    0.258    0.418   70.427  148.788    4.034
  420.838    0.200    0.388   68.312  148.812    4.434
  421.088    0.153    0.354   66.071  148.731    4.652
  421.338    0.216    0.357   67.400  148.865    4.650
  421.588    0.262    0.465   69.921  148.779    4.545
  421.838    0.314    0.453   73.818  148.598    4.368
  422.088    0.304    0.445   73.895  148.511    4.278
  422.338    0.281    0.447   72.407  148.325    4.454
  422.588    0.237    0.450   70.855  148.136    4.970
  422.838    0.198    0.410   69.554  149.750    5.660
  423.088    0.153    0.304   68.191  152.745    6.567
  423.338    0.119    0.302   68.205  152.347    6.967
  423.588    0.144    0.369   71.853  149.297    6.797
  423.838    0.287    0.423   79.196  148.258    5.842
  424.088    0.286    0.438   79.711  148.179    5.153
  424.338    0.273    0.450   76.092  148.526    4.520
  424.588    0.264    0.458   79.552  148.439    4.109
  424.838    0.279    0.447   79.254  148.782    3.963
  425.088    0.297    0.452   75.323  149.126    3.903
  425.338    0.297    0.450   77.090  149.364    3.858
  425.588    0.287    0.439   78.484  149.495    3.848
  425.838    0.299    0.436   79.061  149.305    3.840
  426.088    0.283    0.449   80.705  149.222    3.810
  426.338    0.284    0.473   81.407  149.247    3.815
  426.588    0.287    0.462   79.857  149.170    3.870
  426.838    0.277    0.451   80.059  148.557    3.905
  427.088    0.269    0.436   79.259  148.475    3.940
  427.338    0.283    0.459   78.960  149.344    3.967
  427.588    0.299    0.453   82.233  150.115    3.958
  427.838    0.284    0.453   85.879  150.773    3.956
  428.088    0.279    0.469   87.961  150.057    3.954
  428.338    0.271    0.462   84.531  146.793    3.959
  428.588    0.267    0.453   84.420  146.184    3.972
  428.838    0.286    0.448   86.877  147.584    3.985
  429.088    0.274    0.434   89.271  149.517    4.058
  429.338    0.259    0.433   89.599  148.906    4.171
  429.588    0.241    0.446   88.236  151.582    4.311
  429.838    0.214    0.431   86.997  158.289    4.473
  430.088    0.176    0.429   90.457  160.649    4.564
  430.338    0.218    0.442   94.793  160.669    4.648
  430.588    0.200    0.453   95.496  161.227    4.688
  430.838    0.169    0.459  100.146  162.628    4.660
  431.088    0.188    0.463  104.795  164.243    4.588
  431.338    0.216    0.465  109.695  164.908    4.370
  431.588    0.203    0.472  114.782  165.990    4.114
  431.838    0.215    0.482  117.991  169.834    3.781
  432.088    0.204    0.513  118.945  181.315    3.298
  432.338    0.250    0.561  118.960  188.547    2.932
