~VERSION INFORMATION
 VERS.                 2.0:   CWLS LOG ASCII STANDARD -VERSION 2.0
 WRAP.                  NO:   ONE LINE PER DEPTH STEP
~WELL INFORMATION BLOCK
#MNEM.UNIT           DATA                    DESCRIPTION OF MNEMONIC
#---------    -------------------            -------------------------------
# Generated from Intellog Unique Number	CW_70_72/WELL/1059
NULL.         -999.25                        : NULL_VALUE
WELL.         G&W ET AL DECRENE 11-20        : Well_name    - WELL              
LOC .         11-20-071-02W5                 : Location     - LOCATION          
UWI .         00/11-20-071-02W5/0             : Uwi          - UNIQUE WELL ID    
ENTR.         JAYE                           : Entered      - ENTERED BY        
SRVC.         SCHLUMBERGER                   : Scn          - SERVICE COMPANY   
DATE.         8 FEB 89                       : Date         - LOG DATE          
STRT.M        410                            : top_depth    - START DEPTH       
STOP.M        640                            : bot_depth    - STOP DEPTH        
STEP.M        0.25                           : increment    - STEP LENGTH       
~CURVE INFORMATION BLOCK
#MNEM UNIT       ERCB CURVE CODE    CURVE DESCRIPTION
#-----------   ------------------   ----------------------------------
DEPT.M        00 001 00 00         : DEPTH        - DEPTH                       
DPHI.V/V      00 890 00 00         : PHID         - DENSITY POROSITY (SANDSTONE)
NPHI.V/V      00 330 00 00         : PHIN         - NEUTRON POROSITY (SANDSTONE)
GR  .API      00 310 00 00         : GR           - GAMMA RAY                   
CALI.MM       00 280 01 00         : CAL          - CALIPER                     
ILD .OHMM     00 120 00 00         : RESD         - DEEP RESISTIVITY (DIL)      
~PARAMETER INFORMATION       
#MNEM.UNIT           DATA             DESCRIPTION OF MNEMONIC
#---------         -----------     ------------------------------
GL  .M        595.7                : gl           - GROUND LEVEL ELEVATION      
EREF.M        598.7                : kb           - ELEVATION OF DEPTH REFERENCE
DATM.M        595.7                : datum        - DATUM ELEVATION             
TDD .M        648                  : tdd          - TOTAL DEPTH DRILLER         
RUN .         ONE                  : Run          - RUN NUMBER                  
ENG .         KNAPIK               : Engineer     - RECORDING ENGINEER          
WIT .         ANDREWS              : Witness      - WITNESSED BY                
BASE.         EDM                  : Branch       - HOME BASE OF LOGGING UNIT   
MUD .         GEL CHEM             : Mud_type     - MUD TYPE                    
MATR.         SANDSTONE            : Logunit      - NEUTRON MATRIX              
TMAX.C        36                   : BHT          - MAXIMUM RECORDED TEMPERATURE
BHTD.M        648                  : BHTDEP       - MAXIMUM RECORDED TEMPERATURE
RMT .C        12                   : MDTP         - TEMPERATURE OF MUD          
MUDD.KG/M     1130                 : MWT          - MUD DENSITY                 
NEUT.         1                    : NEUTRON      - NEUTRON TYPE                
RESI.         0                    : RESIST       - RESISTIVITY TYPE            
RM  .OHMM     4.89                 : RM           - RESISTIVITY OF MUD          
RMC .OHMM     2.42                 : RMC          - RESISTIVITY OF MUD CAKE     
RMF .OHMM     5.37                 : RMF          - RESISTIVITY OF MUD FILTRATE 
SUFT.C        0                    : SUFT         - SURFACE TEMPERATURE         
~A  DEPTH     PHID     PHIN       GR      CAL     RESD
# ...
  519.500    0.287    0.418   61.210  158.715    2.883
  519.750    0.276    0.375   58.537  158.796    3.091
  520.000    0.237    0.340   57.073  159.078    3.411
  520.250    0.194    0.303   57.122  159.060    3.663
  520.500    0.207    0.336   59.896  159.040    3.514
  520.750    0.227    0.369   64.666  158.920    3.257
  521.000    0.261    0.382   69.922  159.011    3.210
  521.250    0.285    0.389   72.150  158.986    3.379
  521.500    0.259    0.387   66.508  158.971    3.730
  521.750    0.220    0.361   59.840  158.953    4.509
  522.000    0.107    0.218   51.294  159.134    7.201
  522.250    0.080    0.141   45.290  159.622   18.430
  522.500    0.026    0.129   42.918  160.510   19.365
  522.750   -0.006    0.149   44.845  160.799   19.619
  523.000   -0.004    0.191   50.160  161.282   10.246
  523.250    0.086    0.236   56.868  161.062    7.292
  523.500    0.182    0.268   62.064  160.943    5.905
  523.750    0.227    0.303   67.440  160.619    4.696
  524.000    0.249    0.363   71.363  160.606    3.769
  524.250    0.278    0.386   72.442  160.285    3.289
  524.500    0.301    0.395   71.705  159.961    3.053
  524.750    0.313    0.402   70.786  159.744    2.988
  525.000    0.323    0.429   71.259  159.926    3.033
  525.250    0.300    0.424   66.890  160.109    3.193
  525.500    0.275    0.390   70.328  160.796    3.404
  525.750    0.209    0.360   73.829  161.181    3.669
  526.000    0.192    0.360   77.267  161.164    3.704
  526.250    0.229    0.376   80.405  161.044    3.605
  526.500    0.247    0.388   78.578  160.724    3.414
  526.750    0.263    0.403   71.364  160.401    3.158
  527.000    0.283    0.408   74.318  160.382    2.997
  527.250    0.289    0.419   76.122  160.363    2.896
  527.500    0.290    0.427   74.357  160.345    2.924
  527.750    0.286    0.407   72.409  160.328    2.994
  528.000    0.281    0.389   74.032  160.110    3.078
  528.250    0.267    0.377   74.929  159.885    3.124
  528.500    0.247    0.401   70.137  159.766    3.091
  528.750    0.274    0.421   67.099  159.848    3.037
  529.000    0.280    0.406   70.779  159.932    3.099
  529.250    0.270    0.399   71.496  160.220    3.233
  529.500    0.247    0.387   65.794  160.501    3.440
  529.750    0.240    0.370   62.574  160.888    3.838
  530.000    0.232    0.331   63.230  161.172    4.221
  530.250    0.216    0.365   62.250  161.355    4.650
  530.500    0.224    0.373   60.059  155.386    5.198
  530.750    0.213    0.343   59.383  151.635    5.757
  531.000    0.192    0.316   61.975  152.524    5.697
  531.250    0.074    0.318   65.353  155.228    5.203
  531.500    0.150    0.362   66.856  157.631    4.649
  531.750    0.178    0.351   68.540  159.530    4.308
  532.000    0.226    0.339   72.222  160.623    4.209
  532.250    0.227    0.350   76.387  161.712    4.210
  532.500    0.205    0.375   81.945  162.299    4.368
  532.750    0.184    0.392   82.055  162.888    4.514
  533.000    0.209    0.365   75.144  163.271    4.599
  533.250    0.207    0.313   78.099  163.455    4.600
  533.500    0.190    0.331   82.567  163.740    4.560
  533.750    0.179    0.353   82.555  163.821    4.463
  534.000    0.199    0.385   82.182  163.805    4.289
  534.250    0.224    0.371   85.075  163.683    3.975
  534.500    0.217    0.384   89.606  163.365    3.690
  534.750    0.196    0.387   86.446  163.143    3.514
  535.000    0.218    0.375   81.835  163.126    3.554
  535.250    0.212    0.366   84.790  163.005    3.660
  535.500    0.203    0.394   88.955  162.884    3.797
  535.750    0.191    0.408   91.789  162.868    3.889
  536.000    0.185    0.399   93.716  162.847    3.955
  536.250    0.198    0.390   96.792  162.631    4.058
  536.500    0.202    0.392   98.415  162.505    4.149
  536.750    0.201    0.396   91.443  162.592    4.250
  537.000    0.193    0.370   86.045  162.574    4.393
  537.250    0.177    0.350   88.636  163.159    4.549
  537.500    0.182    0.369   92.257  163.850    4.710
  537.750    0.203    0.387   94.244  164.639    4.781
  538.000    0.199    0.382   92.053  165.527    4.809
  538.250    0.190    0.385   92.527  166.115    4.758
  538.500    0.186    0.391   94.211  166.699    4.691
  538.750    0.179    0.393   97.408  167.288    4.582
  539.000    0.164    0.397   98.728  167.471    4.584
  539.250    0.165    0.402   97.991  167.455    4.536
  539.500    0.170    0.398   95.196  165.922    4.520
  539.750    0.185    0.376   93.974  165.197    4.522
  540.000    0.185    0.374   96.324  165.079    4.523
  540.250    0.186    0.387   98.129  165.159    4.558
  540.500    0.192    0.382   98.843  165.142    4.626
  540.750    0.192    0.366   99.316  164.820    4.713
  541.000    0.188    0.375   99.306  164.800    4.853
  541.250    0.184    0.378   92.032  164.681    5.063
  541.500    0.167    0.356   86.633  164.665    5.176
  541.750    0.154    0.341   82.384  164.648    5.216
  542.000    0.143    0.327   81.889  164.729    5.068
  542.250    0.135    0.368   84.118  164.911    4.915
  542.500    0.158    0.373   88.101  164.896    4.732
  542.750    0.181    0.355   91.661  164.975    4.556
  543.000    0.179    0.365   95.404  165.057    4.435
  543.250    0.172    0.380   99.813  164.939    4.372
  543.500    0.172    0.401  104.039  164.822    4.349
  543.750    0.171    0.392  100.335  164.501    4.431
  544.000    0.171    0.413   98.084  164.175    4.522
  544.250    0.176    0.423   91.233  163.755    4.665
  544.500    0.185    0.402   86.197  163.335    4.813
  544.750    0.207    0.396   90.847  162.710    4.984
  545.000    0.218    0.392   94.287  162.288    5.218
  545.250    0.199    0.386   94.216  161.969    5.403
  545.500    0.171    0.379   90.270  162.252    5.465
  545.750    0.152    0.365   90.199  162.332    5.387
  546.000    0.148    0.391   90.610  162.921    5.254
  546.250    0.183    0.388   90.781  163.207    5.123
  546.500    0.175    0.379   91.678  163.692    5.041
  546.750    0.169    0.367   92.999  164.174    4.997
  547.000    0.169    0.357   94.926  164.058    4.935
  547.250    0.167    0.368   98.062  164.243    4.901
  547.500    0.160    0.402   98.778  164.528    4.850
  547.750    0.153    0.391   93.016  164.808    4.772
  548.000    0.152    0.376   89.130  165.296    4.705
  548.250    0.153    0.390   88.695  165.379    4.647
  548.500    0.153    0.392   90.259  165.562    4.572
  548.750    0.155    0.387   93.335  165.748    4.467
  549.000    0.160    0.396   93.748  165.828    4.404
  549.250    0.164    0.408   94.402  165.912    4.365
  549.500    0.165    0.420   94.391  165.894    4.319
  549.750    0.173    0.428   94.561  165.876    4.305
  550.000    0.176    0.423   96.187  160.616    4.307
  550.250    0.180    0.410   97.584  160.824    4.796
  550.500    0.188    0.395   93.835  161.338    4.733
  550.750    0.195    0.378   97.230  161.950    4.630
  551.000    0.202    0.415  102.683  163.874    4.512
  551.250    0.199    0.427  107.470  165.800    4.372
  551.500    0.193    0.411  107.111  166.512    4.207
  551.750    0.186    0.388  106.026  167.328    4.115
  552.000    0.180    0.376  104.881  167.639    4.258
  552.250    0.176    0.388  100.951  167.747    4.470
  552.500    0.170    0.413   97.445  166.544    4.948
  552.750    0.172    0.411   90.064  164.937    5.515
  553.000    0.202    0.366   78.870  161.415    6.613
  553.250    0.230    0.317   71.611  157.992    7.728
  553.500    0.267    0.311   65.320  155.377    8.115
  553.750    0.288    0.309   58.424  155.788    8.126
  554.000    0.304    0.313   58.913  156.401    7.805
  554.250    0.314    0.322   62.671  156.713    7.323
  554.500    0.319    0.322   59.044  156.720    6.868
  554.750    0.325    0.323   57.293  156.829    6.406
  555.000    0.317    0.328   58.025  156.937    5.943
  555.250    0.303    0.340   58.211  157.149    5.367
  555.500    0.303    0.355   57.973  157.460    4.952
  555.750    0.308    0.358   59.370  157.467    4.748
