~VERSION INFORMATION
 VERS.                 2.0:   CWLS LOG ASCII STANDARD -VERSION 2.0
 WRAP.                  NO:   ONE LINE PER DEPTH STEP
~WELL INFORMATION BLOCK
#MNEM.UNIT           DATA                    DESCRIPTION OF MNEMONIC
#---------    -------------------            -------------------------------
# Generated from Intellog Unique Number	CW_76_78/WELL/1032
WELL.         CHIEFCO MCMULLEN               : Well_name    - WELL
LOC .         00/11-34-077-25W4/0            : Location     - LOCATION
UWI .         00/11-34-077-25W4/0            : Uwi          - UNIQUE WELL ID
ENTR.         JAYE                           : Entered      - ENTERED BY
SRVC.         WESTERN ATLAS                  : Scn          - SERVICE COMPANY
DATE.         27 FEB 75                      : Date         - LOG DATE
STRT.M        423.672                        : top_depth    - START DEPTH
STOP.M        603.422                        : bot_depth    - STOP DEPTH
STEP.M        0.25                           : increment    - STEP LENGTH
 NULL. -999.2500:NULL Value
~CURVE INFORMATION BLOCK
#MNEM UNIT       ERCB CURVE CODE    CURVE DESCRIPTION
#-----------   ------------------   ----------------------------------
DEPT.M        00 001 00 00         : DEPTH        - DEPTH
DPHI.V/V      00 890 00 00         : PHID         - DENSITY POROSITY (SANDSTONE)
NPHI.V/V      00 330 00 00         : PHIN         - NEUTRON POROSITY (SANDSTONE)
GR  .API      00 310 00 00         : GR           - GAMMA RAY
CALI.MM       00 280 01 00         : CAL          - CALIPER
ILD .OHMM     00 120 00 00         : RESD         - DEEP RESISTIVITY (DIL)
~PARAMETER INFORMATION
#MNEM.UNIT           DATA             DESCRIPTION OF MNEMONIC
#---------         -----------     ------------------------------
GL  .M        638.251              : gl           - GROUND LEVEL ELEVATION
EREF.M        641.604              : kb           - ELEVATION OF DEPTH REFERENCE
DATM.M        638.251              : datum        - DATUM ELEVATION
TDD .M        608.076              : tdd          - TOTAL DEPTH DRILLER
RUN .         ONE                  : Run          - RUN NUMBER
ENG .         CLARK                : Engineer     - RECORDING ENGINEER
WIT .         GARDENER             : Witness      - WITNESSED BY
BASE.         V.V.                 : Branch       - HOME BASE OF LOGGING UNIT
MUD .         GEL CHEM             : Mud_type     - MUD TYPE
MATR.         SANDSTONE            : Logunit      - NEUTRON MATRIX
TMAX.C        26.1111              : BHT          - MAXIMUM RECORDED TEMPERATURE
BHTD.M        608.076              : BHTDEP       - MAXIMUM RECORDED TEMPERATURE
RMT .C        18.3333              : MDTP         - TEMPERATURE OF MUD
MUDD.KG/M     1140                 : MWT          - MUD DENSITY
NEUT.         1                    : NEUTRON      - NEUTRON TYPE
RESI.         0                    : RESIST       - RESISTIVITY TYPE
RM  .OHMM     4.6                  : RM           - RESISTIVITY OF MUD
RMC .OHMM     0                    : RMC          - RESISTIVITY OF MUD CAKE
RMF .OHMM     3.3                  : RMF          - RESISTIVITY OF MUD FILTRATE
SUFT.C        4.5                  : SUFT         - SURFACE TEMPERATURE
~A  DEPTH     PHID     PHIN       GR      CAL     RESD
# ...
  496.672    0.222    0.411   84.532  189.247   11.684
  496.922    0.227    0.398   85.920  189.330   12.035
  497.172    0.207    0.375   86.025  189.616   12.535
  497.422    0.101    0.343   81.578  190.003   13.444
  497.672    0.102    0.277   64.850  190.185   14.157
  497.922    0.109    0.178   68.788  190.475   15.268
  498.172    0.135    0.250   74.852  190.455   17.656
  498.422    0.255    0.445   78.852  190.535   19.502
  498.672    0.273    0.460   78.535  190.716   19.905
  498.922    0.288    0.469   79.252  190.696   18.774
  499.172    0.278    0.459   80.940  190.470   16.698
  499.422    0.264    0.449   80.684  190.653   16.071
  499.672    0.257    0.440   78.178  190.736   16.017
  499.922    0.251    0.416   76.342  190.709   16.080
  500.172    0.231    0.349   74.750  190.585   16.474
  500.422    0.045    0.285   73.096  190.563   17.379
  500.672    0.019    0.291   72.293  190.542   19.515
  500.922    0.048    0.447   67.600  190.523   21.436
  501.172    0.225    0.385   63.939  190.293   23.547
  501.422    0.273    0.287   64.533  190.066   25.723
  501.672    0.291    0.241   66.527  189.941   27.187
  501.922    0.256    0.307   66.696  189.610   27.096
  502.172    0.230    0.446   65.226  189.591   25.840
  502.422    0.195    0.427   63.085  189.563   24.017
  502.672    0.165    0.276   64.592  189.645   22.406
  502.922    0.050    0.227   67.861  189.623   20.979
  503.172    0.022    0.229   74.047  189.499   19.751
  503.422    0.024    0.381   79.080  189.479   18.459
  503.672    0.205    0.404   84.231  189.459   16.448
  503.922    0.190    0.387   82.579  189.539   14.310
  504.172    0.178    0.369   80.316  189.516   13.035
  504.422    0.168    0.335   79.879  189.493   12.638
  504.672    0.175    0.354   80.290  189.680   12.595
  504.922    0.183    0.385   81.007  189.862   12.576
  505.172    0.182    0.376   80.751  189.942   12.673
  505.422    0.173    0.361   78.064  190.125   12.817
  505.672    0.159    0.346   75.134  190.205   12.962
  505.922    0.139    0.320   74.695  190.286   13.085
  506.172    0.115    0.252   76.381  190.166   13.234
  506.422    0.069    0.288   77.647  190.040   13.434
  506.672    0.142    0.379   79.760  190.116   13.586
  506.922    0.177    0.383   80.236  190.202   13.615
  507.172    0.187    0.394   79.918  190.490   13.669
  507.422    0.179    0.384   79.540  190.462   13.548
  507.672    0.158    0.359   79.406  190.340   13.379
  507.922    0.068    0.289   79.514  190.322   13.383
  508.172    0.055    0.289   80.231  190.400   13.362
  508.422    0.071    0.295   81.129  190.481   13.292
  508.672    0.116    0.306   82.333  190.662   13.175
  508.922    0.150    0.364   83.961  190.849   13.034
  509.172    0.170    0.380   85.466  191.543   12.871
  509.422    0.176    0.382   86.363  191.938   12.617
  509.672    0.172    0.380   85.867  192.223   12.099
  509.922    0.170    0.378   85.064  192.205   11.688
  510.172    0.173    0.378   83.287  191.869   11.500
  510.422    0.175    0.377   81.938  191.645   11.336
  510.672    0.167    0.368   81.074  191.413   11.235
  510.922    0.156    0.338   80.332  191.397   11.238
  511.172    0.114    0.341   80.563  191.374   11.303
  511.422    0.074    0.340   82.007  191.146   11.411
  511.672    0.063    0.292   83.635  191.020   11.498
  511.922    0.067    0.330   85.143  191.102   11.608
  512.172    0.190    0.394   82.577  191.281   11.632
  512.422    0.193    0.395   81.288  191.366   11.571
  512.672    0.185    0.372   80.361  191.343   11.553
  512.922    0.167    0.354   80.654  191.426   11.707
  513.172    0.151    0.372   81.675  191.196   11.926
  513.422    0.168    0.372   79.471  190.865   12.308
  513.672    0.157    0.171   71.802  190.639   13.298
  513.922   -0.004    0.168   69.601  190.820   15.098
  514.172   -0.010    0.200   71.409  190.803   17.047
  514.422    0.259    0.243   73.404  190.472   19.073
  514.672    0.255    0.429   72.844  190.038   21.105
  514.922    0.233    0.387   64.625  191.868   23.439
  515.172    0.203    0.330   58.474  192.462   26.032
  515.422    0.150    0.257   56.091  192.851   28.126
  515.672    0.073    0.287   58.263  193.345   31.467
  515.922    0.055    0.264   60.804  193.735   34.000
  516.172    0.065    0.224   64.256  193.707   33.147
  516.422    0.052    0.297   67.587  193.481   30.027
  516.672    0.045    0.365   70.917  193.259   23.745
  516.922    0.169    0.364   73.151  192.721   20.025
  517.172    0.188    0.379   74.294  193.010   17.137
  517.422    0.200    0.383   76.409  193.091   16.046
  517.672    0.189    0.366   75.909  193.168   15.330
  517.922    0.176    0.348   74.378  192.736   14.701
  518.172    0.164    0.327   76.674  192.612   14.174
  518.422    0.155    0.359   79.639  192.383   13.150
  518.672    0.156    0.364   81.632  191.950   12.112
  518.922    0.202    0.399   82.775  191.622   11.895
  519.172    0.195    0.399   86.042  191.288   11.898
  519.422    0.184    0.387   90.772  190.851   12.099
  519.672    0.171    0.373   89.177  190.730   12.835
  519.922    0.162    0.367   78.590  190.603   14.021
  520.172    0.153    0.362   74.018  190.270   15.373
  520.422    0.148    0.340   68.473  190.142   17.264
  520.672    0.140    0.139   65.361  189.922   19.457
  520.922    0.124    0.190   67.354  190.000   24.125
  521.172    0.110    0.199   68.861  189.775   28.311
  521.422    0.091    0.176   69.637  189.756   30.532
  521.672    0.069    0.278   70.293  189.424   32.211
  521.922    0.039    0.229   70.464  189.299   33.058
  522.172    0.018    0.176   71.422  188.960   32.586
  522.422    0.011    0.230   74.812  188.946   31.075
  522.672    0.021    0.283   78.508  188.714   26.691
  522.922    0.072    0.304   83.723  188.183   23.480
  523.172    0.096    0.309   87.720  187.954   21.784
  523.422    0.102    0.309   88.377  187.518   19.989
  523.672    0.111    0.311   89.150  187.289   18.208
  523.922    0.122    0.322   90.113  187.164   16.861
  524.172    0.138    0.343   92.714  187.141   16.051
  524.422    0.152    0.358   92.215  187.329   15.534
  524.672    0.159    0.360   88.068  187.205   15.255
  524.922    0.158    0.356   85.259  186.563   15.065
  525.172    0.165    0.363   82.633  186.334   15.153
  525.422    0.176    0.372   78.123  185.803   15.240
  525.672    0.177    0.374   75.861  185.778   15.699
  525.922    0.167    0.366   73.659  185.650   16.623
  526.172    0.144    0.340   71.216  185.531   17.634
  526.422   -0.004    0.286   70.412  185.507   18.064
  526.672   -0.014    0.113   72.039  185.692   18.070
  526.922    0.158    0.158   73.850  185.979   18.041
  527.172    0.163    0.326   76.694  185.649   17.882
  527.422    0.151    0.362   78.688  186.245   17.433
  527.672    0.121    0.319   79.465  186.322   16.383
  527.922    0.101    0.235   81.091  186.508   15.510
  528.172    0.110    0.211   82.295  186.585   15.037
  528.422    0.140    0.239   83.559  186.362   14.715
  528.672    0.126    0.309   82.268  186.237   14.611
  528.922    0.106    0.285   79.582  186.010   14.615
  529.172    0.060    0.257   72.276  185.369   15.165
  529.422    0.025    0.244   52.267  184.626   16.998
  529.672    0.050    0.451   45.081  183.884   20.579
  529.922    0.110    0.460   40.632  183.244   25.191
  530.172    0.315    0.492   36.423  182.087   31.697
  530.422    0.325    0.499   31.914  181.037   40.177
  530.672    0.333    0.511   27.768  179.991   51.022
  530.922    0.342    0.521   27.206  177.908   57.715
  531.172    0.349    0.523   26.527  176.551   62.246
  531.422    0.351    0.525   25.359  174.979   64.471
  531.672    0.352    0.527   25.041  174.444   65.204
  531.922    0.352    0.528   24.784  174.114   63.685
  532.172    0.350    0.528   24.530  173.683   61.746
  532.422    0.348    0.526   24.516  173.763   59.536
  532.672    0.347    0.523   23.895  174.049   57.511
  532.922    0.347    0.521   24.309  174.231   55.252
