~VERSION INFORMATION
 VERS.                 2.0:   CWLS LOG ASCII STANDARD -VERSION 2.0
 WRAP.                  NO:   ONE LINE PER DEPTH STEP
~WELL INFORMATION BLOCK
#MNEM.UNIT           DATA                    DESCRIPTION OF MNEMONIC
#---------    -------------------            -------------------------------
# Generated from Intellog Unique Number	CW_73_75/WELL/927
WELL.         MANNVILLE ALGAS MARTENH 10-18  : Well_name    - WELL
LOC .         00/10-18-074-24W4/0            : Location     - LOCATION
UWI .         00/10-18-074-24W4/0            : Uwi          - UNIQUE WELL ID
ENTR.         JAYE                           : Entered      - ENTERED BY
SRVC.         SCHLUMBERGER                   : Scn          - SERVICE COMPANY
DATE.         7 DEC 80                       : Date         - LOG DATE
STRT.M        415                            : top_depth    - START DEPTH
STOP.M        645                            : bot_depth    - STOP DEPTH
STEP.M        0.25                           : increment    - STEP LENGTH
 NULL. -999.2500:NULL Value
~CURVE INFORMATION BLOCK
#MNEM UNIT       ERCB CURVE CODE    CURVE DESCRIPTION
#-----------   ------------------   ----------------------------------
DEPT.M        00 001 00 00         : DEPTH        - DEPTH
ILD .OHMM     00 120 00 00         : RESD         - DEEP RESISTIVITY (DIL)
NPHI.V/V      00 330 00 00         : PHIN         - NEUTRON POROSITY (SANDSTONE)
DPHI.V/V      00 890 00 00         : PHID         - DENSITY POROSITY (SANDSTONE)
CALI.MM       00 280 01 00         : CAL          - CALIPER
GR  .API      00 310 00 00         : GR           - GAMMA RAY
~PARAMETER INFORMATION
#MNEM.UNIT           DATA             DESCRIPTION OF MNEMONIC
#---------         -----------     ------------------------------
GL  .M        686.4                : gl           - GROUND LEVEL ELEVATION
EREF.M        689.5                : kb           - ELEVATION OF DEPTH REFERENCE
DATM.M        686.4                : datum        - DATUM ELEVATION
TDD .M        644                  : tdd          - TOTAL DEPTH DRILLER
RUN .         ONE                  : Run          - RUN NUMBER
BASE.         EDM                  : Branch       - HOME BASE OF LOGGING UNIT
MUD .         GEL CHEM             : Mud_type     - MUD TYPE
MATR.         SANDSTONE            : Logunit      - NEUTRON MATRIX
TMAX.C        33.3                 : BHT          - MAXIMUM RECORDED TEMPERATURE
BHTD.M        645.2                : BHTDEP       - MAXIMUM RECORDED TEMPERATURE
RMT .C        12.8                 : MDTP         - TEMPERATURE OF MUD
MUDD.KG/M     1190                 : MWT          - MUD DENSITY
NEUT.         1                    : NEUTRON      - NEUTRON TYPE
RESI.         0                    : RESIST       - RESISTIVITY TYPE
RM  .OHMM     3.2                  : RM           - RESISTIVITY OF MUD
RMC .OHMM     0                    : RMC          - RESISTIVITY OF MUD CAKE
RMF .OHMM     2.13                 : RMF          - RESISTIVITY OF MUD FILTRATE
SUFT.C        0                    : SUFT         - SURFACE TEMPERATURE
~A  DEPTH     RESD     PHIN     PHID      CAL       GR
# ...
  488.000    4.756    0.422    0.180  155.463  106.293
  488.250    4.873    0.422    0.188  155.074  104.996
  488.500    4.956    0.421    0.192  154.791  105.641
  488.750    4.918    0.417    0.185  154.503  104.029
  489.000    4.873    0.413    0.187  154.113  100.791
  489.250    4.791    0.412    0.186  153.617   96.804
  489.500    4.720    0.441    0.170  152.184   89.691
  489.750    4.623    0.463    0.204  147.313   81.823
  490.000    4.563    0.454    0.227  145.150   78.023
  490.250    4.470    0.451    0.254  145.178   75.226
  490.500    4.226    0.448    0.273  145.516   74.052
  490.750    4.078    0.454    0.282  145.754   73.631
  491.000    3.987    0.469    0.294  145.890   72.146
  491.250    3.869    0.445    0.303  145.809   72.600
  491.500    3.762    0.411    0.300  145.730   76.620
  491.750    3.734    0.415    0.301  145.760   72.258
  492.000    3.783    0.452    0.304  145.995   67.145
  492.250    3.891    0.437    0.283  146.126   62.282
  492.500    4.024    0.399    0.263  146.362   52.726
  492.750    4.233    0.382    0.246  146.387   52.494
  493.000    4.427    0.383    0.244  146.318   55.636
  493.250    4.427    0.406    0.264  145.925   55.717
  493.500    4.337    0.417    0.274  146.053   55.294
  493.750    4.209    0.422    0.279  146.289   55.686
  494.000    4.024    0.417    0.272  146.629   52.825
  494.250    3.861    0.415    0.266  146.762   54.471
  494.500    3.726    0.433    0.278  146.474   54.234
  494.750    3.569    0.444    0.284  146.083   51.560
  495.000    3.464    0.440    0.280  146.111   51.703
  495.250    3.380    0.412    0.287  146.348   54.907
  495.500    3.299    0.397    0.299  146.479   58.302
  495.750    3.250    0.428    0.303  146.610   57.193
  496.000    3.172    0.431    0.297  146.638   55.834
  496.250    3.084    0.414    0.297  146.874   57.539
  496.500    3.015    0.410    0.308  146.797   60.619
  496.750    2.937    0.416    0.317  146.718   59.447
  497.000    2.899    0.437    0.319  146.332   59.465
  497.250    2.872    0.454    0.319  146.254   61.670
  497.500    2.877    0.459    0.316  146.387   66.192
  497.750    2.904    0.447    0.316  146.204   72.398
  498.000    2.937    0.440    0.307  146.129   77.421
  498.250    2.998    0.430    0.290  146.151   79.438
  498.500    3.049    0.420    0.277  146.183   79.955
  498.750    3.100    0.408    0.262  146.209   75.780
  499.000    3.189    0.399    0.248  146.545   69.855
  499.250    3.237    0.416    0.252  146.785   68.869
  499.500    3.430    0.419    0.280  147.018   69.072
  499.750    3.449    0.405    0.288  147.252   68.401
  500.000    3.430    0.390    0.289  148.011   67.792
  500.250    3.462    0.401    0.302  148.668   65.743
  500.500    3.495    0.422    0.304  149.004   64.633
  500.750    3.567    0.421    0.287  149.135   61.960
  501.000    3.607    0.432    0.273  149.061   62.477
  501.250    3.662    0.435    0.273  149.084   68.562
  501.500    3.676    0.421    0.281  148.903   72.581
  501.750    3.634    0.406    0.281  149.034   66.154
  502.000    3.621    0.415    0.279  148.758   65.857
  502.250    3.574    0.438    0.277  148.781   68.314
  502.500    3.567    0.439    0.281  148.804   71.583
  502.750    3.547    0.428    0.292  148.830   74.540
  503.000    3.514    0.416    0.288  148.862   76.807
  503.250    3.494    0.418    0.260  148.886   74.510
  503.500    3.474    0.447    0.245  149.435   72.399
  503.750    3.481    0.453    0.278  149.983   76.293
  504.000    3.675    0.437    0.299  149.699   83.567
  504.250    3.990    0.415    0.295  149.723   91.716
  504.500    3.990    0.403    0.280  149.751   97.862
  504.750    3.586    0.444    0.286  151.654   98.192
  505.000    2.957    0.478    0.224  154.600   84.382
  505.250    2.384    0.499    0.154  156.191   74.577
  505.500    1.911    0.521    0.124  158.513   80.537
  505.750    1.718    0.543    0.213  164.900   85.056
  506.000    1.886    0.560    0.305  168.579   85.636
  506.250    2.115    0.554    0.330  169.958   84.965
  506.500    2.429    0.559    0.334  169.568   84.922
  506.750    2.896    0.565    0.318  169.282   84.872
  507.000    2.996    0.561    0.302  169.624   84.575
  507.250    2.957    0.578    0.320  169.130   83.904
  507.500    2.912    0.574    0.340  166.028   84.109
  507.750    2.874    0.572    0.332  160.426   84.249
  508.000    2.874    0.563    0.326  154.302   84.516
  508.250    2.858    0.543    0.326  150.473   83.781
  508.500    2.869    0.506    0.328  149.039   81.422
  508.750    2.826    0.470    0.320  148.755   76.809
  509.000    2.821    0.467    0.310  148.780   71.695
  509.250    2.800    0.484    0.319  148.500   68.708
  509.500    2.794    0.506    0.330  148.419   70.663
  509.750    2.800    0.455    0.340  148.449   72.806
  510.000    2.821    0.425    0.345  148.889   75.951
  510.250    2.858    0.429    0.328  149.234   82.160
  510.500    2.934    0.444    0.307  149.260   81.239
  510.750    3.000    0.448    0.295  149.491   75.500
  511.000    3.080    0.416    0.291  149.528   73.953
  511.250    3.209    0.421    0.300  149.762   74.907
  511.500    3.357    0.432    0.308  150.098   75.738
  511.750    3.537    0.433    0.307  150.225   76.567
  512.000    3.784    0.444    0.283  150.258   76.332
  512.250    4.101    0.406    0.202  150.178   76.287
  512.500    4.445    0.358    0.187  150.101   77.366
  512.750    4.684    0.382    0.189  150.230   79.447
  513.000    4.881    0.395    0.181  150.675   80.901
  513.250    5.011    0.352    0.132  151.118   81.418
  513.500    5.105    0.334    0.132  151.359   79.183
  513.750    5.115    0.337    0.170  151.490   80.700
  514.000    4.936    0.408    0.223  151.831   84.033
  514.250    4.580    0.426    0.243  151.545   86.551
  514.500    4.305    0.426    0.226  151.672   88.317
  514.750    4.154    0.432    0.240  151.390   90.024
  515.000    3.987    0.428    0.249  151.309   91.416
  515.250    3.869    0.428    0.238  152.588   92.620
  515.500    3.804    0.435    0.233  154.806   93.263
  515.750    3.804    0.438    0.220  156.291   94.905
  516.000    3.804    0.426    0.198  156.528   95.361
  516.250    3.825    0.422    0.180  154.051   93.688
  516.500    3.854    0.430    0.209  151.475   90.013
  516.750    3.876    0.437    0.228  149.831   85.776
  517.000    3.883    0.417    0.243  148.191   82.100
  517.250    3.956    0.393    0.258  147.592   82.680
  517.500    4.054    0.373    0.272  147.727   86.324
  517.750    4.069    0.387    0.282  148.168   83.400
  518.000    4.053    0.414    0.279  148.614   77.662
  518.250    4.177    0.380    0.256  148.849   68.733
  518.500    4.434    0.358    0.217  148.878   66.309
  518.750    4.708    0.330    0.193  149.010   65.887
  519.000    4.990    0.306    0.175  149.033   66.593
  519.250    5.248    0.335    0.190  149.064   68.485
  519.500    5.337    0.379    0.244  149.402   68.815
  519.750    4.878    0.411    0.263  149.432   71.834
  520.000    4.526    0.422    0.265  149.353   86.550
  520.250    4.255    0.409    0.287  149.173   98.264
  520.500    4.106    0.422    0.293  149.307   94.277
  520.750    3.962    0.436    0.295  149.226   79.281
  521.000    3.882    0.430    0.295  149.150   73.042
  521.250    3.985    0.412    0.292  149.177   72.307
  521.500    4.121    0.400    0.288  149.310   76.765
  521.750    4.376    0.389    0.282  149.332   79.345
  522.000    4.517    0.377    0.262  148.526   73.732
  522.250    4.859    0.365    0.243  148.868   68.493
  522.500    5.257    0.392    0.276  149.000   66.008
  522.750    5.426    0.414    0.282  148.817   68.840
  523.000    5.346    0.388    0.210  148.640   71.796
  523.250    5.111    0.374    0.207  148.664   73.063
  523.500    4.895    0.388    0.240  148.273   74.019
  523.750    4.742    0.395    0.259  147.676   74.847
  524.000    4.559    0.395    0.273  147.708   74.050
  524.250    4.432    0.399    0.283  147.731   71.314
