~VERSION INFORMATION
 VERS.                 2.0:   CWLS LOG ASCII STANDARD -VERSION 2.0
 WRAP.                  NO:   ONE LINE PER DEPTH STEP
~WELL INFORMATION BLOCK
#MNEM.UNIT           DATA                    DESCRIPTION OF MNEMONIC
#---------    -------------------            -------------------------------
# Generated from Intellog Unique Number	CS_67_68/WELL/2201
WELL.         ICG ET AL TWEEDIE              : Well_name    - WELL
LOC .         00/10-34-067-13W4/0            : Location     - LOCATION
UWI .         00/10-34-067-13W4/0            : Uwi          - UNIQUE WELL ID
ENTR.         SP                             : Entered      - ENTERED BY
SRVC.         SCHLUMBERGER                   : Scn          - SERVICE COMPANY
STRT.M        289.56                         : top_depth    - START DEPTH
STOP.M        457.06                         : bot_depth    - STOP DEPTH
STEP.M        0.25                           : increment    - STEP LENGTH
 NULL. -999.2500:NULL Value
~CURVE INFORMATION BLOCK
#MNEM UNIT       ERCB CURVE CODE    CURVE DESCRIPTION
#-----------   ------------------   ----------------------------------
DEPT.M        00 001 00 00         : DEPTH        - DEPTH
CALI.MM       00 280 01 00         : CAL          - CALIPER
GR  .API      00 310 00 00         : GR           - GAMMA RAY
DPHI.V/V      00 890 00 00         : PHID         - DENSITY POROSITY (SANDSTONE)
NPHI.V/V      00 330 00 00         : PHIN         - NEUTRON POROSITY (SANDSTONE)
ILD .OHMM     00 120 00 00         : RESD         - DEEP RESISTIVITY (DIL)
~PARAMETER INFORMATION
#MNEM.UNIT           DATA             DESCRIPTION OF MNEMONIC
#---------         -----------     ------------------------------
GL  .M        575.158              : gl           - GROUND LEVEL ELEVATION
EREF.M        577.901              : kb           - ELEVATION OF DEPTH REFERENCE
DATM.M        577.901              : datum        - DATUM ELEVATION
TDD .M        463.906              : tdd          - TOTAL DEPTH DRILLER
RUN .         ONE                  : Run          - RUN NUMBER
ENG .         BILL                 : Engineer     - RECORDING ENGINEER
WIT .         JIM                  : Witness      - WITNESSED BY
MUD .         GEL                  : Mud_type     - MUD TYPE
MATR.         SANDSTONE            : Logunit      - NEUTRON MATRIX
TMAX.C        23.8889              : BHT          - MAXIMUM RECORDED TEMPERATURE
BHTD.M        464.21               : BHTDEP       - MAXIMUM RECORDED TEMPERATURE
MATR.         1                    : LOGUNIT      - NEUTRON MATRIX
RMT .C        25                   : MDTP         - TEMPERATURE OF MUD
NEUT.         1                    : NEUTRON      - NEUTRON TYPE
RESI.         0                    : RESIST       - RESISTIVITY TYPE
RMC .OHMM     0.25                 : RMC          - RESISTIVITY OF MUD CAKE
RMF .OHMM     0.25                 : RMF          - RESISTIVITY OF MUD FILTRATE
SUFT.C        15                   : SUFT         - SURFACE TEMPERATURE
~A  DEPTH      CAL       GR     PHID     PHIN     RESD
  289.560  175.806  111.410    0.265    0.481    2.541
  289.810  174.461  110.863    0.248    0.475    2.472
  290.060  173.840  107.415    0.232    0.483    2.545
  290.310  172.820  103.729    0.222    0.498    2.650
  290.560  169.610   99.240    0.147    0.483    2.740
  290.810  165.048   97.655    0.074    0.463    2.818
  291.060  161.378  109.602    0.194    0.488    2.706
  291.310  168.873  113.093    0.234    0.512    2.569
  291.560  173.828  111.982    0.247    0.516    2.418
  291.810  176.999  109.175    0.258    0.503    2.336
  292.060  177.885  104.029    0.287    0.471    2.395
  292.310  172.415   97.481    0.299    0.426    2.787
  292.560  160.767   90.427    0.328    0.439    3.168
  292.810  158.077   91.857    0.353    0.459    3.456
  293.060  157.452   92.264    0.381    0.468    3.639
  293.310  156.909   93.426    0.395    0.478    3.962
  293.560  156.955   99.579    0.403    0.502    4.049
  293.810  157.216   96.838    0.386    0.527    4.080
  294.060  156.722   86.508    0.380    0.376    4.541
  294.310  156.052   76.734    0.389    0.261    5.178
  294.560  155.834   71.136    0.412    0.220    5.888
  294.810  155.465   74.309    0.432    0.241    6.553
  295.060  154.318   90.013    0.377    0.329    6.846
  295.310  153.012  101.877    0.267    0.362    6.146
  295.560  150.357  106.836    0.262    0.387    5.319
  295.810  147.840  109.975    0.258    0.376    4.790
  296.060  145.638  109.696    0.240    0.376    4.631
  296.310  145.331  105.796    0.226    0.396    4.809
  296.560  146.819  101.508    0.251    0.411    4.553
  296.810  148.240   94.971    0.299    0.415    4.038
  297.060  149.094   90.462    0.312    0.421    3.344
  297.310  147.855   87.570    0.331    0.409    2.890
  297.560  148.488   86.937    0.331    0.409    2.599
  297.810  149.392   88.642    0.324    0.402    2.528
  298.060  149.422   91.159    0.319    0.389    2.442
  298.310  148.032   94.863    0.308    0.392    2.506
  298.560  149.064   95.922    0.277    0.398    2.607
  298.810  150.275  101.939    0.295    0.401    2.750
  299.060  151.533  109.134    0.300    0.406    2.890
  299.310  151.795  115.085    0.275    0.411    3.039
  299.560  151.545  112.763    0.229    0.427    3.181
  299.810  155.213  107.700    0.177    0.462    3.251
  300.060  157.497  120.997    0.111    0.504    3.231
  300.310  160.486  129.271    0.277    0.536    2.843
  300.560  165.114  131.935    0.291    0.545    2.416
  300.810  171.779  124.916    0.312    0.558    2.140
  301.060  177.594  116.111    0.354    0.577    1.971
  301.310  185.078  109.195    0.387    0.594    2.125
  301.560  181.823  102.784    0.356    0.512    2.260
  301.810  166.324   96.537    0.308    0.477    2.414
  302.060  156.425   93.394    0.288    0.454    2.527
  302.310  154.644   97.378    0.291    0.446    2.810
  302.560  154.303   99.150    0.307    0.443    2.730
  302.810  153.782   97.688    0.298    0.436    2.662
  303.060  152.095   96.132    0.308    0.438    2.646
  303.310  152.162   96.138    0.310    0.451    2.662
  303.560  153.435   96.065    0.327    0.459    2.700
  303.810  155.028   96.640    0.313    0.446    2.766
  304.060  156.489   99.520    0.305    0.439    2.870
  304.310  157.252  101.980    0.297    0.438    3.022
  304.560  156.627  103.401    0.286    0.437    3.144
  304.810  154.836  101.120    0.287    0.437    3.284
  305.060  152.683   97.942    0.303    0.429    3.371
  305.310  151.486   99.809    0.216    0.420    3.458
  305.560  153.426  104.654    0.187    0.432    3.498
  305.810  155.423  109.602    0.205    0.433    3.526
  306.060  157.023  113.394    0.248    0.437    3.509
  306.310  158.716  115.338    0.239    0.444    3.451
  306.560  159.841  117.661    0.252    0.451    3.300
  306.810  161.376  121.590    0.239    0.468    3.172
  307.060  164.118  126.147    0.256    0.483    3.035
  307.310  167.952  129.412    0.293    0.495    2.997
  307.560  170.737  131.828    0.288    0.476    3.118
  307.810  172.887  131.965    0.307    0.451    3.223
  308.060  166.289  130.521    0.338    0.434    3.325
  308.310  158.577  122.179    0.277    0.430    3.003
  308.560  155.760  109.621    0.276    0.429    2.501
  308.810  153.784   97.901    0.317    0.431    2.191
  309.060  152.673   86.113    0.347    0.438    1.996
  309.310  151.777   80.584    0.352    0.435    1.865
  309.560  151.590   87.095    0.361    0.420    1.827
  309.810  152.290   94.757    0.372    0.418    1.864
  310.060  153.405  101.402    0.357    0.414    2.025
  310.310  155.028  103.530    0.324    0.412    2.213
  310.560  156.279  101.299    0.324    0.422    2.362
  310.810  156.761   98.348    0.341    0.431    2.472
  311.060  155.915   98.218    0.328    0.427    2.578
  311.310  154.248   99.767    0.315    0.425    2.627
  311.560  151.440  100.886    0.308    0.429    2.644
  311.810  146.605  101.604    0.318    0.434    2.621
  312.060  144.451  102.222    0.316    0.445    2.590
  312.310  148.564  101.858    0.334    0.458    2.547
  312.560  147.470  100.768    0.351    0.466    2.530
  312.810  149.638  101.988    0.346    0.468    2.538
  313.060  152.402  104.043    0.338    0.465    2.570
  313.310  151.990  105.687    0.330    0.456    2.577
  313.560  152.362  107.304    0.338    0.449    2.523
  313.810  153.085  107.604    0.334    0.446    2.418
  314.060  153.156  107.048    0.338    0.458    2.312
  314.310  153.567  106.585    0.353    0.466    2.254
  314.560  152.988  105.673    0.357    0.465    2.198
  314.810  151.700  102.532    0.364    0.451    2.164
  315.060  150.060   99.779    0.371    0.449    2.199
  315.310  148.650  100.170    0.360    0.454    2.283
  315.560  147.539  104.414    0.354    0.450    2.340
  315.810  146.632  107.078    0.355    0.450    2.373
  316.060  146.005  105.889    0.359    0.457    2.332
  316.310  144.900  102.682    0.364    0.458    2.261
  316.560  144.292  101.220    0.353    0.460    2.182
  316.810  143.806  105.764    0.348    0.460    2.173
  317.060  144.580  106.988    0.380    0.456    2.161
  317.310  145.258  104.080    0.397    0.449    2.150
  317.560  145.662  101.169    0.386    0.448    2.055
  317.810  146.816  100.297    0.387    0.455    1.995
  318.060  148.347  100.713    0.390    0.460    1.964
  318.310  150.921  101.383    0.404    0.462    1.959
  318.560  152.448  102.606    0.414    0.469    1.975
  318.810  151.834  104.032    0.397    0.449    1.992
  319.060  151.626  104.976    0.382    0.441    2.004
  319.310  153.334  104.778    0.385    0.444    2.007
  319.560  153.375  100.672    0.390    0.431    2.006
  319.810  152.088   95.959    0.403    0.419    2.020
  320.060  150.236   98.462    0.391    0.426    2.036
  320.310  148.691   99.715    0.389    0.437    2.081
  320.560  148.168  100.135    0.388    0.441    2.117
  320.810  148.855  100.050    0.380    0.442    2.133
  321.060  151.070   98.996    0.389    0.436    2.142
  321.310  151.169   97.703    0.387    0.428    2.155
  321.560  149.883   99.061    0.387    0.425    2.187
  321.810  149.022  102.860    0.390    0.432    2.279
  322.060  149.039  109.400    0.372    0.436    2.427
  322.310  150.128  113.963    0.325    0.427    2.664
  322.560  151.138  111.072    0.279    0.382    2.963
  322.810  153.398  107.192    0.262    0.354    3.279
  323.060  155.118  107.792    0.264    0.344    3.592
  323.310  156.495  108.435    0.267    0.342    3.938
  323.560  157.325  101.947    0.260    0.317    4.469
  323.810  156.412   97.071    0.275    0.283    5.058
  324.060  156.141   94.148    0.250    0.263    5.842
  324.310  156.499   91.391    0.220    0.260    5.934
  324.560  157.316   98.333    0.254    0.293    5.213
  324.810  156.571  100.087    0.298    0.346    4.029
  325.060  154.616  100.157    0.327    0.400    3.440
  325.310  152.214  103.244    0.355    0.426    3.030
  325.560  150.305  104.985    0.372    0.448    2.916
  325.810  149.139  105.838    0.381    0.467    2.867
