~VERSION INFORMATION
 VERS.                 2.0:   CWLS LOG ASCII STANDARD -VERSION 2.0
 WRAP.                  NO:   ONE LINE PER DEPTH STEP
~WELL INFORMATION BLOCK
#MNEM.UNIT           DATA                    DESCRIPTION OF MNEMONIC
#---------    -------------------            -------------------------------
# Generated from Intellog Unique Number	CC_80_83/WELL/2420
NULL.         -999.25                        : NULL_VALUE
WELL.         AMOCO SURMONT E5               : Well_name    - WELL
LOC .         11-31-083-09W4                 : Location     - LOCATION          
UWI .         00/11-31-083-09W400            : Uwi          - UNIQUE WELL ID    
ENTR.         DW                             : Entered      - ENTERED BY        
SRVC.         SCHLUMBERGER                   : Scn          - SERVICE COMPANY   
DATE.         07 MAR 77                      : Date         - LOG DATE
STRT.M        240.792                        : top_depth    - START DEPTH       
STOP.M        484.639                        : bot_depth    - STOP DEPTH        
STEP.M        0.305                          : increment    - STEP LENGTH       
~CURVE INFORMATION BLOCK
#MNEM UNIT       ERCB CURVE CODE    CURVE DESCRIPTION
#-----------   ------------------   ----------------------------------
DEPT.M        00 001 00 00         : DEPTH        - DEPTH                       
DPHI.V/V      00 890 00 00         : PHID         - DENSITY POROSITY (LIMESTONE)
NPHI.V/V      00 330 00 00         : PHIN         - NEUTRON POROSITY (LIMESTONE)
GR  .API      00 310 00 00         : GR           - GAMMA RAY                   
ILD .OHMM     00 120 00 00         : RESD         - DEEP RESISTIVITY (DIL)      
~PARAMETER INFORMATION       
#MNEM.UNIT           DATA             DESCRIPTION OF MNEMONIC
#---------         -----------     ------------------------------
GL  .M        712.318              : gl           - GROUND LEVEL ELEVATION      
EREF.M        716.28               : kb           - ELEVATION OF DEPTH REFERENCE
DATM.M        716.28               : datum        - DATUM ELEVATION             
TDD .M        486.461              : tdd          - TOTAL DEPTH DRILLER         
RUN .         ONE                  : Run          - RUN NUMBER                  
ENG .         BILL                 : Engineer     - RECORDING ENGINEER          
WIT .         JIM                  : Witness      - WITNESSED BY                
MUD .         GEL                  : Mud_type     - MUD TYPE                    
MATR.         LIMESTONE            : Logunit      - NEUTRON MATRIX              
TMAX.C        21.6667              : BHT          - MAXIMUM RECORDED TEMPERATURE
BHTD.M        486.461              : BHTDEP       - MAXIMUM RECORDED TEMPERATURE
MATR.         1                    : LOGUNIT      - NEUTRON MATRIX              
RMT .C        25                   : MDTP         - TEMPERATURE OF MUD          
NEUT.         1                    : NEUTRON      - NEUTRON TYPE                
RESI.         0                    : RESIST       - RESISTIVITY TYPE            
RMC .OHMM     0.25                 : RMC          - RESISTIVITY OF MUD CAKE     
RMF .OHMM     0.25                 : RMF          - RESISTIVITY OF MUD FILTRATE 
SUFT.C        15                   : SUFT         - SURFACE TEMPERATURE         
~A  DEPTH     PHID     PHIN       GR     RESD
# ...
  293.828    0.264    0.435   88.406   13.836
  294.133    0.251    0.423   91.441   13.084
  294.438    0.251    0.418   93.868   12.373
  294.743    0.234    0.413   95.081   11.701
  295.047    0.236    0.417   95.687   11.274
  295.352    0.240    0.430   95.686   11.068
  295.657    0.240    0.446   96.899   10.865
  295.962    0.235    0.455  102.363   10.275
  296.267    0.232    0.478  107.219    9.716
  296.571    0.230    0.502  111.469    8.688
  296.876    0.221    0.514  116.325    7.625
  297.181    0.236    0.496  116.324    7.485
  297.486    0.222    0.475  117.537    7.486
  297.791    0.227    0.469  119.965    8.221
  298.095    0.212    0.502  116.320    9.197
  298.400    0.208    0.487  112.067   11.726
  298.705    0.217    0.461  110.851   15.521
  299.010    0.253    0.450  109.028   15.816
  299.315    0.287    0.456  101.739   13.880
  299.619    0.286    0.456   98.094   11.735
  299.924    0.272    0.446  107.202   10.893
  300.229    0.244    0.427  115.702   10.495
  300.534    0.227    0.457  115.093   10.112
  300.839    0.225    0.458  115.699   10.499
  301.144    0.234    0.448  116.305   10.900
  301.448    0.253    0.478  112.053   12.425
  301.753    0.272    0.484  103.549   14.163
  302.058    0.302    0.453   96.261   15.845
  302.363    0.293    0.433   94.438   16.761
  302.668    0.307    0.428   94.436   17.401
  302.972    0.296    0.445   91.398   19.108
  303.277    0.299    0.451   86.539   21.780
  303.582    0.307    0.418   75.606   25.294
  303.887    0.313    0.405   64.674   33.479
  304.192    0.350    0.382   54.956   36.081
  304.496    0.350    0.402   51.311   37.462
  304.801    0.325    0.434   54.346   36.098
  305.106    0.344    0.422   57.381   34.778
  305.411    0.338    0.434   54.950   33.508
  305.716    0.328    0.458   51.912   32.286
  306.020    0.342    0.456   49.482   32.295
  306.325    0.339    0.434   49.481   32.908
  306.630    0.339    0.425   49.479   33.534
  306.935    0.333    0.438   51.299   34.172
  307.240    0.322    0.446   51.298   33.545
  307.545    0.315    0.445   51.903   31.723
  307.849    0.321    0.435   51.295   32.936
  308.154    0.327    0.428   51.293   36.166
  308.459    0.325    0.440   51.292   37.549
  308.764    0.316    0.450   54.327   35.512
  309.069    0.272    0.395   67.078   34.861
  309.373    0.267    0.387   51.895   33.588
  309.678    0.337    0.463   52.501   31.766
  309.983    0.335    0.479   58.572   32.368
  310.288    0.330    0.472   56.141   33.608
  310.593    0.345    0.455   51.889   34.247
  310.897    0.333    0.459   49.459   34.254
  311.202    0.327    0.469   47.635   33.626
  311.507    0.339    0.479   48.241   32.398
  311.812    0.347    0.468   49.454   31.216
  312.117    0.335    0.478   49.453   30.643
  312.421    0.327    0.485   50.666   30.648
  312.726    0.335    0.481   49.450   30.655
  313.031    0.337    0.456   49.448   31.237
  313.336    0.332    0.450   51.876   31.242
  313.641    0.332    0.450   53.696   33.052
  313.946    0.332    0.450   53.087   33.679
  314.250    0.335    0.452   50.657   36.296
  314.555    0.331    0.455   48.226   44.582
  314.860    0.325    0.458   47.010   63.584
  315.165    0.313    0.441   45.187   78.098
  315.470    0.280    0.411   41.542   75.249
  315.774    0.167    0.341   39.718   59.042
  316.079    0.096    0.230   40.325   40.644
  316.384    0.178    0.265   42.752   37.028
  316.689    0.305    0.452   44.573   34.372
  316.994    0.332    0.474   47.000   33.742
  317.298    0.337    0.473   45.784   33.123
  317.603    0.348    0.480   45.175   33.127
  317.908    0.352    0.469   45.174   33.132
  318.213    0.353    0.445   46.995   33.137
  318.518    0.333    0.450   48.814   33.145
  318.822    0.335    0.473   48.813   34.413
  319.127    0.352    0.485   49.419   34.422
  319.432    0.353    0.480   51.239   33.788
  319.737    0.354    0.464   51.238   33.170
  320.042    0.356    0.455   48.200   32.560
  320.347    0.350    0.442   46.984   31.963
  320.651    0.347    0.456   46.982   30.229
  320.956    0.341    0.470   49.410   30.232
  321.261    0.335    0.457   51.838   29.680
  321.566    0.342    0.464   54.265   29.684
  321.871    0.330    0.447   51.835   29.691
  322.175    0.333    0.452   49.404   30.254
  322.480    0.345    0.428   52.439   30.260
  322.785    0.338    0.441   51.830   30.836
  323.090    0.342    0.440   48.793   30.842
  323.395    0.348    0.434   51.828   30.846
  323.699    0.345    0.439   56.077   29.172
  324.004    0.336    0.446   58.504   27.076
  324.309    0.332    0.446   59.717   24.668
  324.614    0.333    0.442   62.752   25.136
  324.919    0.331    0.445   65.180   27.092
  325.223    0.322    0.462   65.786   30.881
  325.528    0.309    0.499   62.748   32.063
  325.833    0.312    0.493   57.282   31.477
  326.138    0.342    0.485   56.672   30.899
  326.443    0.341    0.464   59.100   30.331
  326.748    0.333    0.451   61.528   29.224
  327.052    0.333    0.450   61.526   27.127
  327.357    0.337    0.459   57.881   26.628
  327.662    0.343    0.469   58.487   25.657
  327.967    0.349    0.455   62.129   26.144
  328.272    0.332    0.453   62.735   26.150
  328.576    0.319    0.463   60.304   26.647
  328.881    0.307    0.482   60.910   26.652
  329.186    0.338    0.487   63.945   26.163
  329.491    0.330    0.476   63.944   22.537
  329.796    0.331    0.465   62.120   17.355
  330.100    0.335    0.453   62.119   13.117
  330.405    0.331    0.447   70.619    8.699
  330.710    0.321    0.447   78.512    7.635
  331.015    0.293    0.462   87.013    7.494
  331.320    0.262    0.498   88.833    7.637
  331.624    0.274    0.493   85.188    7.929
  331.929    0.275    0.472   76.685    8.707
  332.234    0.292    0.475   71.825   10.112
  332.539    0.309    0.482   73.038   11.526
  332.844    0.305    0.487   78.502   12.423
  333.149    0.293    0.462   77.893   12.425
  333.453    0.302    0.433   77.892   12.662
  333.758    0.290    0.463   79.105   12.902
  334.063    0.276    0.458   78.496   13.648
  334.368    0.265    0.452   71.815   14.437
  334.673    0.262    0.469   69.992   14.711
  334.977    0.235    0.461   71.812   13.403
  335.282    0.216    0.424   79.705   12.675
  335.587    0.251    0.406   81.525   11.764
  335.892    0.252    0.476   79.094   10.718
  336.197    0.250    0.473   78.486    9.948
  336.501    0.279    0.468   88.808    9.063
  336.806    0.255    0.474   97.308    8.570
  337.111    0.251    0.498   82.125    7.955
  337.416    0.259    0.485   91.840    7.665
  337.721    0.252    0.463   93.660    7.385
  338.025    0.245    0.463   97.302    6.854
  338.330    0.233    0.480   99.730    6.129
  338.635    0.239    0.491  103.372    5.480
  338.940    0.245    0.510  100.942    4.721
  339.245    0.252    0.486  106.406    4.143
  339.550    0.250    0.492  109.440    3.704
  339.854    0.232    0.518  110.654    3.569
  340.159    0.225    0.522  111.867    3.504
  340.464    0.215    0.519  113.079    3.638
  340.769    0.202    0.519  112.471    3.707
  341.074    0.212    0.526  109.433    3.849
  341.378    0.241    0.536  105.181    3.922
  341.683    0.256    0.556  107.001    3.923
  341.988    0.241    0.550  108.822    3.780
  342.293    0.229    0.535  108.820    3.380
  342.598    0.230    0.528  106.389    2.966
  342.902    0.235    0.514  105.781    2.805
  343.207    0.223    0.528  108.815    2.703
  343.512    0.221    0.521  108.207    2.703
  343.817    0.251    0.518  104.562    2.860
  344.122    0.269    0.559   97.273    2.969
  344.426    0.257    0.576   98.486    3.200
  344.731    0.256    0.583   97.270    3.579
  345.036    0.267    0.565   95.447    4.235
  345.341    0.280    0.544   89.980    5.300
  345.646    0.301    0.516   80.870    6.633
  345.951    0.322    0.480   72.974   11.836
  346.255    0.348    0.276   64.470   21.520
  346.560    0.435    0.247   68.113   31.860
