~VERSION INFORMATION
 VERS.                 2.0:   CWLS LOG ASCII STANDARD -VERSION 2.0
 WRAP.                  NO:   ONE LINE PER DEPTH STEP
~WELL INFORMATION BLOCK
#MNEM.UNIT           DATA                    DESCRIPTION OF MNEMONIC
#---------    -------------------            -------------------------------
# Generated from Intellog Unique Number	CS_71_72/WELL/1040
WELL.         BVX SUNDANCE LYLE              : Well_name    - WELL
LOC .         00/10-23-072-17W4/0            : Location     - LOCATION
UWI .         00/10-23-072-17W4/0            : Uwi          - UNIQUE WELL ID
ENTR.         TIM                            : Entered      - ENTERED BY
SRVC.         SCHLUMBERGER                   : Scn          - SERVICE COMPANY
STRT.M        243.84                         : top_depth    - START DEPTH
STOP.M        432.84                         : bot_depth    - STOP DEPTH
STEP.M        0.25                           : increment    - STEP LENGTH
 NULL. -999.2500:NULL Value
~CURVE INFORMATION BLOCK
#MNEM UNIT       ERCB CURVE CODE    CURVE DESCRIPTION
#-----------   ------------------   ----------------------------------
DEPT.M        00 001 00 00         : DEPTH        - DEPTH
ILD .OHMM     00 120 00 00         : RESD         - DEEP RESISTIVITY (DIL)
DPHI.V/V      00 890 00 00         : PHID         - DENSITY POROSITY (SANDSTONE)
GR  .API      00 310 00 00         : GR           - GAMMA RAY
~PARAMETER INFORMATION
#MNEM.UNIT           DATA             DESCRIPTION OF MNEMONIC
#---------         -----------     ------------------------------
GL  .M        560.832              : gl           - GROUND LEVEL ELEVATION
EREF.M        563.88               : kb           - ELEVATION OF DEPTH REFERENCE
DATM.M        563.88               : datum        - DATUM ELEVATION
TDD .M        434.645              : tdd          - TOTAL DEPTH DRILLER
RUN .         ONE                  : Run          - RUN NUMBER
ENG .         BILL                 : Engineer     - RECORDING ENGINEER
WIT .         JIM                  : Witness      - WITNESSED BY
MUD .         GEL                  : Mud_type     - MUD TYPE
MATR.         SANDSTONE            : Logunit      - NEUTRON MATRIX
TMAX.C        26.6667              : BHT          - MAXIMUM RECORDED TEMPERATURE
BHTD.M        434.34               : BHTDEP       - MAXIMUM RECORDED TEMPERATURE
RMT .C        17                   : MDTP         - TEMPERATURE OF MUD
MUDD.KG/M     9041.66              : MWT          - MUD DENSITY
NEUT.         1                    : NEUTRON      - NEUTRON TYPE
RESI.         0                    : RESIST       - RESISTIVITY TYPE
RM  .OHMM     3.1                  : RM           - RESISTIVITY OF MUD
RMC .OHMM     3.7                  : RMC          - RESISTIVITY OF MUD CAKE
RMF .OHMM     2.5                  : RMF          - RESISTIVITY OF MUD FILTRATE
SUFT.C        4                    : SUFT         - SURFACE TEMPERATURE
~A  DEPTH     RESD     PHID       GR
  243.840    3.237    0.279  104.045
  244.090    3.486    0.285  100.478
  244.340    3.652    0.303   91.440
  244.590    3.738    0.361   82.991
  244.840    3.911    0.406   72.738
  245.090    3.845    0.364   65.524
  245.340    3.695    0.322   64.995
  245.590    3.624    0.322   65.094
  245.840    3.481    0.322   66.408
  246.090    3.489    0.319   67.683
  246.340    3.578    0.319   70.193
  246.590    3.743    0.319   71.507
  246.840    3.911    0.315   73.429
  247.090    4.078    0.312   74.684
  247.340    4.249    0.310   76.586
  247.590    4.416    0.309   79.724
  247.840    4.510    0.310   82.253
  248.090    4.518    0.305   84.783
  248.340    4.518    0.298   86.038
  248.590    4.223    0.287   88.548
  248.840    4.314    0.279   89.842
  249.090    4.401    0.284   91.745
  249.340    4.408    0.285   91.863
  249.590    4.497    0.278   90.119
  249.840    4.668    0.273   88.374
  250.090    4.678    0.271   89.669
  250.340    4.688    0.269   92.199
  250.590    4.779    0.261   92.846
  250.840    4.866    0.254   93.533
  251.090    4.957    0.247   93.612
  251.340    5.046    0.243   93.691
  251.590    5.214    0.249   93.769
  251.840    5.303    0.252   92.653
  252.090    5.470    0.251   91.536
  252.340    5.559    0.254   90.987
  252.590    5.569    0.257   89.263
  252.840    5.585    0.246   87.518
  253.090    5.590    0.223   87.597
  253.340    5.600    0.197   87.049
  253.590    5.295    0.181   86.540
  253.840    4.832    0.170   84.168
  254.090    4.606    0.169   75.718
  254.340    4.304    0.178   66.681
  254.590    4.311    0.194   63.721
  254.840    4.327    0.227   64.408
  255.090    4.334    0.232   67.526
  255.340    4.192    0.233   73.094
  255.590    4.039    0.229   80.466
  255.840    3.895    0.218   88.466
  256.090    3.671    0.204   95.230
  256.340    3.597    0.189  102.622
  256.590    3.529    0.176  106.955
  256.840    3.460    0.168  113.112
  257.090    3.394    0.163  118.072
  257.340    3.246    0.166  123.621
  257.590    3.099    0.172  127.366
  257.840    2.952    0.179  128.661
  258.090    2.804    0.182  128.132
  258.340    2.657    0.182  126.408
  258.590    2.512    0.184  124.663
  258.840    2.438    0.189  125.370
  259.090    2.448    0.197  125.429
  259.340    2.458    0.194  126.135
  259.590    2.944    0.193  126.802
  259.840    3.427    0.189  126.862
  260.090    3.909    0.189  126.940
  260.340    4.395    0.207  126.451
  260.590    4.720    0.219  124.707
  260.840    5.048    0.217  122.335
  261.090    5.058    0.218  119.355
  261.340    5.068    0.217  114.572
  261.590    5.081    0.219  109.789
  261.840    5.007    0.225  106.222
  262.090    4.938    0.224  104.497
  262.340    4.870    0.215  103.380
  262.590    4.801    0.208  102.812
  262.840    4.814    0.203  100.460
  263.090    4.827    0.205   95.677
  263.340    4.915    0.210   93.325
  263.590    5.004    0.217   90.384
  263.840    5.172    0.256   88.032
  264.090    5.497    0.299   85.053
  264.340    5.744    0.303   81.485
  264.590    5.914    0.292   79.741
  264.840    5.924    0.282   79.232
  265.090    5.777    0.273   78.115
  265.340    5.548    0.255   76.939
  265.590    5.167    0.243   75.214
  265.840    5.096    0.236   74.078
  266.090    5.032    0.231   74.764
  266.340    5.037    0.239   74.824
  266.590    5.205    0.245   77.353
  266.840    5.378    0.252   80.471
  267.090    5.461    0.255   83.609
  267.340    5.634    0.260   87.334
  267.590    5.644    0.262   90.472
  267.840    5.573    0.262   94.217
  268.090    5.426    0.253   95.472
  268.340    5.045    0.236   98.590
  268.590    4.818    0.215  101.119
  268.840    4.986    0.199  103.649
  269.090    5.072    0.205  106.767
  269.340    5.161    0.209  109.297
  269.590    5.093    0.210  110.552
  269.840    4.945    0.210  113.081
  270.090    4.879    0.224  114.984
  270.340    4.968    0.232  115.670
  270.590    5.057    0.231  116.377
  270.840    5.070    0.229  114.652
  271.090    5.319    0.226  113.476
  271.340    5.403    0.228  110.516
  271.590    5.570    0.233  107.556
  271.840    5.502    0.228  102.773
  272.090    5.433    0.220  100.441
  272.340    5.286    0.211  101.716
  272.590    4.587    0.194  103.618
  272.840    3.888    0.188  105.540
  273.090    3.822    0.191  106.815
  273.340    3.829    0.196  108.756
  273.590    3.918    0.199  109.443
  273.840    4.007    0.199  110.110
  274.090    4.256    0.202  106.542
  274.340    4.584    0.220   99.936
  274.590    4.831    0.251   94.525
  274.840    5.077    0.260   88.527
  275.090    5.324    0.277   84.959
  275.340    5.491    0.268   83.215
  275.590    5.659    0.232   81.470
  275.840    5.748    0.207   82.157
  276.090    5.605    0.192   84.667
  276.340    5.453    0.239   87.824
  276.590    5.227    0.250   89.727
  276.840    5.079    0.255   90.413
  277.090    5.247    0.259   91.080
  277.340    5.572    0.259   92.375
  277.590    5.984    0.256   93.669
  277.840    6.147    0.256   93.140
  278.090    6.317    0.258   88.965
  278.340    6.406    0.257   86.005
  278.590    6.258    0.256   83.653
  278.840    6.187    0.251   84.360
  279.090    6.357    0.246   87.477
  279.340    6.525    0.226   89.379
  279.590    6.693    0.205   90.066
  279.840    6.703    0.201   88.949
  280.090    6.479    0.200   86.597
  280.340    6.253    0.220   86.676
  280.590    5.948    0.246   87.951
  280.840    5.641    0.262   90.461
  281.090    5.257    0.257   94.226
  281.340    5.031    0.244   96.716
  281.590    4.883    0.244   98.030
  281.840    5.054    0.247   98.717
  282.090    5.300    0.250   96.953
  282.340    5.468    0.249   93.385
  282.590    5.635    0.253   88.602
  282.840    5.722    0.261   85.055
  283.090    5.973    0.276   81.507
  283.340    5.983    0.283   80.331
  283.590    5.994    0.288   77.391
  283.840    5.844    0.288   79.900
  284.090    5.539    0.283   81.783
  284.340    5.313    0.275   85.528
  284.590    5.165    0.268   88.646
  284.840    4.703    0.267   91.156
  285.090    4.476    0.263   93.686
  285.340    4.489    0.257   94.980
  285.590    4.654    0.251   96.294
  285.840    4.982    0.251   96.373
  286.090    5.147    0.258   95.257
  286.340    5.478    0.266   94.081
  286.590    5.803    0.273   91.121
  286.840    6.049    0.270   86.965
  287.090    6.217    0.272   83.985
  287.340    6.227    0.282   79.790
  287.590    6.237    0.297   75.007
  287.840    6.247    0.299   69.616
  288.090    6.260    0.294   62.402
  288.340    6.268    0.298   56.992
  288.590    6.278    0.307   51.601
  288.840    6.288    0.314   49.248
  289.090    6.298    0.319   48.720
  289.340    6.229    0.315   48.211
  289.590    6.240    0.314   48.290
  289.840    6.250    0.317   48.976
  290.090    6.260    0.328   49.055
  290.340    6.191    0.331   49.134
  290.590    6.128    0.332   49.233
  290.840    6.138    0.328   49.292
  291.090    6.069    0.321   50.018
  291.340    6.001    0.317   50.078
  291.590    6.008    0.321   50.764
  291.840    5.940    0.323   51.451
  292.090    5.950    0.327   52.157
  292.340    5.960    0.327   52.236
  292.590    5.896    0.328   52.903
  292.840    5.901    0.332   53.002
  293.090    5.835    0.335   53.061
  293.340    5.767    0.333   53.160
  293.590    5.698    0.331   52.631
  293.840    5.711    0.332   52.690
  294.090    5.642    0.332   52.181
  294.340    5.571    0.332   52.280
  294.590    5.584    0.334   52.339
  294.840    5.515    0.334   52.458
  295.090    5.522    0.335   52.517
  295.340    5.456    0.341   53.223
  295.590    5.390    0.349   53.282
  295.840    5.317    0.346   53.949
  296.090    5.327    0.341   54.048
  296.340    5.339    0.341   54.755
  296.590    5.352    0.341   55.441
  296.840    5.362    0.343   55.520
  297.090    5.372    0.347   56.207
  297.340    5.380    0.345   56.874
  297.590    5.474    0.345   58.188
  297.840    5.484    0.347   58.875
