~VERSION INFORMATION
 VERS.                 2.0:   CWLS LOG ASCII STANDARD -VERSION 2.0
 WRAP.                  NO:   ONE LINE PER DEPTH STEP
~WELL INFORMATION BLOCK
#MNEM.UNIT           DATA                    DESCRIPTION OF MNEMONIC
#---------    -------------------            -------------------------------
# Generated from Intellog Unique Number	CS_77_79/WELL/998
WELL.         MESA HB THORNBURY              : Well_name    - WELL
LOC .         00/11-25-078-13W4/0            : Location     - LOCATION
UWI .         00/11-25-078-13W4/0            : Uwi          - UNIQUE WELL ID
ENTR.         JHS                            : Entered      - ENTERED BY
SRVC.         SCHLUMBERGER                   : Scn          - SERVICE COMPANY
STRT.M        253.234                        : top_depth    - START DEPTH
STOP.M        475.234                        : bot_depth    - STOP DEPTH
STEP.M        0.25                           : increment    - STEP LENGTH
 NULL. -999.2500:NULL Value
~CURVE INFORMATION BLOCK
#MNEM UNIT       ERCB CURVE CODE    CURVE DESCRIPTION
#-----------   ------------------   ----------------------------------
DEPT.M        00 001 00 00         : DEPTH        - DEPTH
RHOB.KG/M3    00 350 00 00         : DENS         - BULK DENSITY
GR  .API      00 310 00 00         : GR           - GAMMA RAY
DPHI.V/V      00 890 00 00         : PHID         - DENSITY POROSITY (SANDSTONE)
NPHI.V/V      00 330 00 00         : PHIN         - NEUTRON POROSITY (SANDSTONE)
ILD .OHMM     00 120 00 00         : RESD         - DEEP RESISTIVITY (DIL)
~PARAMETER INFORMATION
#MNEM.UNIT           DATA             DESCRIPTION OF MNEMONIC
#---------         -----------     ------------------------------
GL  .M        669.127              : gl           - GROUND LEVEL ELEVATION
EREF.M        673.349              : kb           - ELEVATION OF DEPTH REFERENCE
DATM.M        673.349              : datum        - DATUM ELEVATION
TDD .M        486.156              : tdd          - TOTAL DEPTH DRILLER
RUN .         ONE                  : Run          - RUN NUMBER
ENG .         BILL                 : Engineer     - RECORDING ENGINEER
WIT .         JIM                  : Witness      - WITNESSED BY
MUD .         GEL                  : Mud_type     - MUD TYPE
MATR.         SANDSTONE            : Logunit      - NEUTRON MATRIX
TMAX.C        60                   : BHT          - MAXIMUM RECORDED TEMPERATURE
BHTD.M        486.156              : BHTDEP       - MAXIMUM RECORDED TEMPERATURE
MATR.         1                    : LOGUNIT      - NEUTRON MATRIX
RMT .C        25                   : MDTP         - TEMPERATURE OF MUD
NEUT.         1                    : NEUTRON      - NEUTRON TYPE
RESI.         0                    : RESIST       - RESISTIVITY TYPE
RMC .OHMM     0.25                 : RMC          - RESISTIVITY OF MUD CAKE
RMF .OHMM     0.25                 : RMF          - RESISTIVITY OF MUD FILTRATE
SUFT.C        15                   : SUFT         - SURFACE TEMPERATURE
~A  DEPTH     DENS       GR     PHID     PHIN     RESD
# ...
  289.734    0.000  112.395    0.219    0.464   10.647
  289.984    0.000  109.330    0.216    0.451   12.094
  290.234    0.000  106.048    0.237    0.434   12.941
  290.484    0.000  100.949    0.235    0.440   13.485
  290.734    0.000   94.812    0.225    0.451   13.766
  290.984    0.000   89.540    0.236    0.448   13.404
  291.234    0.000   85.171    0.243    0.467   12.742
  291.484    0.000   96.370    0.240    0.453   12.072
  291.734    0.000  103.891    0.203    0.442   11.589
  291.984    0.000  107.825    0.199    0.466   11.579
  292.234    0.000  107.512    0.221    0.427   11.884
  292.484    0.000  106.234    0.231    0.421   12.798
  292.734    0.000  101.219    0.215    0.432   13.595
  292.984    0.000   94.092    0.227    0.425   14.665
  293.234    0.000   83.132    0.244    0.431   16.985
  293.484    0.000   71.276    0.267    0.444   18.303
  293.734    0.000   65.296    0.285    0.434   19.728
  293.984    0.000   65.046    0.298    0.435   20.389
  294.234    0.000   69.229    0.325    0.446   19.924
  294.484    0.000   71.771    0.311    0.457   18.549
  294.734    0.000   79.859    0.285    0.443   16.089
  294.984    0.000   93.044    0.210    0.429   12.524
  295.234    0.000  103.238    0.187    0.428   10.384
  295.484    0.000  110.518    0.181    0.441    8.098
  295.734    0.000  115.637    0.209    0.453    6.693
  295.984    0.000  114.366    0.217    0.460    5.825
  296.234    0.000  111.482    0.189    0.473    5.313
  296.484    0.000  115.939    0.177    0.492    5.133
  296.734    0.000  116.983    0.198    0.503    5.602
  296.984    0.000  113.110    0.205    0.504    6.951
  297.234    0.000   99.836    0.201    0.499   10.643
  297.484    0.000   84.108    0.217    0.501   14.242
  297.734    0.000   72.795    0.130    0.392   16.817
  297.984    0.000   69.099    0.097    0.321   17.911
  298.234    0.000   71.454    0.135    0.312   16.372
  298.484    0.000   78.495    0.177    0.389   15.253
  298.734    0.000   83.617    0.233    0.432   13.513
  298.984    0.000   87.478    0.262    0.453   12.565
  299.234    0.000   90.033    0.262    0.475   11.770
  299.484    0.000   90.321    0.251    0.499   11.583
  299.734    0.000   92.839    0.230    0.501   11.587
  299.984    0.000   89.894    0.216    0.485   11.384
  300.234    0.000   88.921    0.217    0.472   10.539
  300.484    0.000   90.504    0.214    0.485    9.268
  300.734    0.000   95.896    0.222    0.503    8.601
  300.984    0.000   99.848    0.214    0.508    8.114
  301.234    0.000  100.511    0.224    0.483    8.201
  301.484    0.000  102.518    0.231    0.470    8.510
  301.734    0.000  103.496    0.226    0.454    9.364
  301.984    0.000   97.227    0.238    0.446   10.296
  302.234    0.000   90.255    0.243    0.437   11.053
  302.484    0.000   87.881    0.257    0.412   11.806
  302.734    0.000   86.225    0.256    0.401   11.794
  302.984    0.000   81.347    0.247    0.401   12.045
  303.234    0.000   78.670    0.247    0.436   12.678
  303.484    0.000   75.646    0.265    0.454   13.960
  303.734    0.000   73.022    0.262    0.454   16.268
  303.984    0.000   64.690    0.281    0.467   19.463
  304.234    0.000   58.938    0.277    0.478   22.580
  304.484    0.000   52.481    0.280    0.461   27.880
  304.734    0.000   46.273    0.294    0.451   33.161
  304.984    0.000   43.490    0.309    0.451   38.374
  305.234    0.000   39.395    0.326    0.467   37.616
  305.484    0.000   33.743    0.401    0.513   33.104
  305.734    0.000   31.415    0.489    0.593   28.390
  305.984    0.000   36.282    0.343    0.631   26.264
  306.234    0.000   43.455    0.277    0.454   25.470
  306.484    0.000   44.842    0.278    0.455   26.590
  306.734    0.000   43.355    0.296    0.456   28.184
  306.984    0.000   42.141    0.303    0.433   29.628
  307.234    0.000   42.369    0.294    0.437   32.033
  307.484    0.000   44.011    0.282    0.442   34.621
  307.734    0.000   47.039    0.286    0.434   35.444
  307.984    0.000   48.470    0.298    0.434   37.221
  308.234    0.000   49.888    0.294    0.432   38.356
  308.484    0.000   48.728    0.301    0.423   39.503
  308.734    0.000   45.685    0.293    0.427   39.374
  308.984    0.000   44.272    0.288    0.435   40.184
  309.234    0.000   46.107    0.305    0.451   41.937
  309.484    0.000   46.583    0.314    0.460   46.291
  309.734    0.000   45.995    0.312    0.463   55.793
  309.984    0.000   46.076    0.312    0.433   60.846
  310.234    0.000   47.551    0.312    0.430   62.264
  310.484    0.000   47.838    0.316    0.439   59.489
  310.734    0.000   45.565    0.324    0.435   52.848
  310.984    0.000   44.178    0.317    0.447   39.646
  311.234    0.000   42.880    0.299    0.456   30.880
  311.484    0.000   42.441    0.313    0.433   29.201
  311.734    0.000   41.867    0.295    0.422   28.913
  311.984    0.000   40.559    0.298    0.429   28.637
  312.234    0.000   43.676    0.317    0.447   27.557
  312.484    0.000   46.273    0.326    0.456   24.543
  312.734    0.000   45.458    0.364    0.510   21.950
  312.984    0.000   45.406    0.410    0.492   19.997
  313.234    0.000   46.042    0.380    0.472   18.778
  313.484    0.000   47.857    0.336    0.459   18.594
  313.734    0.000   49.287    0.336    0.452   18.215
  313.984    0.000   47.429    0.351    0.462   18.254
  314.234    0.000   45.562    0.334    0.474   17.951
  314.484    0.000   44.120    0.322    0.446   17.546
  314.734    0.000   44.165    0.312    0.469   17.569
  314.984    0.000   43.256    0.288    0.496   17.569
  315.234    0.000   41.038    0.320    0.493   17.539
  315.484    0.000   41.261    0.329    0.460   17.921
  315.734    0.000   42.887    0.307    0.442   17.910
  315.984    0.000   43.547    0.303    0.450   18.025
  316.234    0.000   42.420    0.311    0.442   18.246
  316.484    0.000   43.454    0.317    0.444   18.239
  316.734    0.000   44.473    0.316    0.441   18.158
  316.984    0.000   44.870    0.320    0.433   17.903
  317.234    0.000   44.530    0.326    0.435   17.908
  317.484    0.000   44.378    0.330    0.446   17.922
  317.734    0.000   44.928    0.326    0.459   17.618
  317.984    0.000   44.051    0.331    0.462   17.750
  318.234    0.000   41.564    0.336    0.464   17.904
  318.484    0.000   40.573    0.339    0.470   17.911
  318.734    0.000   40.904    0.337    0.447   17.910
  318.984    0.000   39.868    0.340    0.432   17.910
  319.234    0.000   39.542    0.337    0.436   17.911
  319.484    0.000   40.795    0.337    0.447   17.911
  319.734    0.000   41.213    0.341    0.450   17.911
  319.984    0.000   40.541    0.341    0.452   17.902
  320.234    0.000   40.554    0.333    0.453   17.836
  320.484    0.000   41.164    0.339    0.461   17.572
  320.734    0.000   41.338    0.332    0.468   17.568
  320.984    0.000   43.800    0.332    0.467   17.532
  321.234    0.000   43.215    0.341    0.462   17.239
  321.484    0.000   39.999    0.335    0.454   17.239
  321.734    0.000   38.200    0.326    0.461   17.223
  321.984    0.000   40.848    0.321    0.449   17.164
  322.234    0.000   40.853    0.329    0.453   17.242
  322.484    0.000   38.119    0.333    0.467   17.254
  322.734    0.000   36.331    0.343    0.462   17.254
  322.984    0.000   37.835    0.337    0.460   17.256
  323.234    0.000   38.173    0.321    0.466   17.252
  323.484    0.000   37.237    0.304    0.474   17.062
  323.734   -0.000   35.511    0.297    0.464   16.942
  323.984    0.000   34.573    0.307    0.465   16.934
  324.234   -0.000   33.634    0.318    0.466   16.934
  324.484   -0.000   31.955    0.317    0.456   16.935
  324.734    0.000   32.373    0.321    0.450   16.935
  324.984    0.000   36.125    0.329    0.469   16.936
  325.234    0.000   36.963    0.314    0.455   16.936
  325.484   -0.000   36.736    0.313    0.450   16.936
  325.734   -0.000   35.493    0.328    0.460   16.937
  325.984    0.000   35.095    0.341    0.462   16.937
