~VERSION INFORMATION
 VERS.                 2.0:   CWLS LOG ASCII STANDARD -VERSION 2.0
 WRAP.                  NO:   ONE LINE PER DEPTH STEP
~WELL INFORMATION BLOCK
#MNEM.UNIT           DATA                    DESCRIPTION OF MNEMONIC
#---------    -------------------            -------------------------------
# Generated from Intellog Unique Number	CS_77_79/WELL/961
WELL.         PCI PCEJ CHARD                 : Well_name    - WELL
LOC .         00/10-25-079-07W4/0            : Location     - LOCATION
UWI .         00/10-25-079-07W4/0            : Uwi          - UNIQUE WELL ID
ENTR.         JHS                            : Entered      - ENTERED BY
SRVC.         SCHLUMBERGER                   : Scn          - SERVICE COMPANY
STRT.M        125                            : top_depth    - START DEPTH
STOP.M        365                            : bot_depth    - STOP DEPTH
STEP.M        0.25                           : increment    - STEP LENGTH
 NULL. -999.2500:NULL Value
~CURVE INFORMATION BLOCK
#MNEM UNIT       ERCB CURVE CODE    CURVE DESCRIPTION
#-----------   ------------------   ----------------------------------
DEPT.M        00 001 00 00         : DEPTH        - DEPTH
DPHI.V/V      00 890 00 00         : PHID         - DENSITY POROSITY (LIMESTONE)
NPHI.V/V      00 330 00 00         : PHIN         - NEUTRON POROSITY (LIMESTONE)
GR  .API      00 310 00 00         : GR           - GAMMA RAY
ILD .OHMM     00 120 00 00         : RESD         - DEEP RESISTIVITY (DIL)
RHOB.KG/M3    00 350 00 00         : DENS         - BULK DENSITY
~PARAMETER INFORMATION
#MNEM.UNIT           DATA             DESCRIPTION OF MNEMONIC
#---------         -----------     ------------------------------
GL  .M        565.7                : gl           - GROUND LEVEL ELEVATION
EREF.M        569.4                : kb           - ELEVATION OF DEPTH REFERENCE
DATM.M        569.4                : datum        - DATUM ELEVATION
TDD .M        391                  : tdd          - TOTAL DEPTH DRILLER
RUN .         ONE                  : Run          - RUN NUMBER
ENG .         BILL                 : Engineer     - RECORDING ENGINEER
WIT .         JIM                  : Witness      - WITNESSED BY
MUD .         GEL                  : Mud_type     - MUD TYPE
MATR.         LIMESTONE            : Logunit      - NEUTRON MATRIX
TMAX.C        19                   : BHT          - MAXIMUM RECORDED TEMPERATURE
BHTD.M        391                  : BHTDEP       - MAXIMUM RECORDED TEMPERATURE
MATR.         1                    : LOGUNIT      - NEUTRON MATRIX
RMT .C        25                   : MDTP         - TEMPERATURE OF MUD
NEUT.         1                    : NEUTRON      - NEUTRON TYPE
RESI.         0                    : RESIST       - RESISTIVITY TYPE
RMC .OHMM     0.25                 : RMC          - RESISTIVITY OF MUD CAKE
RMF .OHMM     0.25                 : RMF          - RESISTIVITY OF MUD FILTRATE
SUFT.C        15                   : SUFT         - SURFACE TEMPERATURE
~A  DEPTH     PHID     PHIN       GR     RESD     DENS
# ...
  271.000    0.308    0.498   62.710    5.909 2183.790
  271.250    0.311    0.467   60.821    7.147 2177.370
  271.500    0.324    0.429   62.085    8.013 2155.970
  271.750    0.334    0.409   64.609    8.653 2138.840
  272.000    0.306    0.400   67.132    8.996 2185.980
  272.250    0.295    0.394   68.395    9.176 2205.270
  272.500    0.290    0.407   66.507    8.845 2213.850
  272.750    0.286    0.412   68.400    8.209 2220.290
  273.000    0.281    0.429   75.966    7.474 2228.870
  273.250    0.285    0.484   81.642    5.741 2222.450
  273.500    0.285    0.496   80.385    4.939 2222.470
  273.750    0.276    0.463   77.866    4.760 2237.470
  274.000    0.270    0.447   75.347    4.856 2248.190
  274.250    0.273    0.437   74.720    5.549 2243.920
  274.500    0.276    0.443   73.462    6.713 2237.510
  274.750    0.235    0.459   71.573    8.433 2308.200
  275.000    0.150    0.383   65.904   10.393 2453.870
  275.250    0.098    0.356   66.537   11.654 2541.700
  275.500    0.150    0.338   72.842   11.666 2453.900
  275.750    0.270    0.415   74.736   10.424 2248.280
  276.000    0.303    0.430   72.847    8.969 2192.600
  276.250    0.299    0.432   69.069    8.167 2199.040
  276.500    0.299    0.435   69.072    7.582 2199.050
  276.750    0.285    0.428   75.377    7.446 2222.620
  277.000    0.261    0.410   75.381    7.177 2263.330
  277.250    0.242    0.391   74.122    6.916 2295.480
  277.500    0.245    0.399   74.124    6.297 2291.210
  277.750    0.271    0.463   79.169    5.420 2246.230
  278.000    0.271    0.485   81.693    4.751 2246.250
  278.250    0.271    0.498   81.696    4.246 2246.260
  278.500    0.271    0.519   80.438    4.170 2246.270
  278.750    0.254    0.508   77.919    4.174 2276.270
  279.000    0.240    0.487   74.771    4.507 2299.840
  279.250    0.251    0.465   74.143    4.866 2280.580
  279.500    0.300    0.458   76.667    5.254 2197.050
  279.750    0.292    0.472   82.342    5.567 2209.920
  280.000    0.277    0.443   84.865    6.126 2235.640
  280.250    0.264    0.419   82.347    6.489 2259.210
  280.500    0.254    0.394   84.241    7.007 2276.350
  280.750    0.244    0.391   84.874    7.286 2293.500
  281.000    0.255    0.403   82.986    7.575 2274.240
  281.250    0.264    0.398   80.467    7.582 2259.260
  281.500    0.246    0.393   82.361    7.447 2289.260
  281.750    0.240    0.415   83.624    7.042 2299.980
  282.000    0.245    0.440   82.996    6.292 2291.420
  282.250    0.257    0.454   78.587    5.213 2270.020
  282.500    0.267    0.446   72.918    4.080 2252.890
  282.750    0.281    0.444   71.030    3.317 2229.340
  283.000    0.297    0.469   71.033    2.853 2201.510
  283.250    0.310    0.512   72.926    2.550 2180.100
  283.500    0.327    0.499   74.189    2.412 2150.130
  283.750    0.330    0.473   73.561    2.325 2145.850
  284.000    0.330    0.464   71.673    2.372 2145.870
  284.250    0.327    0.473   68.525    2.419 2150.160
  284.500    0.319    0.509   67.897    2.468 2165.170
  284.750    0.310    0.529   69.161    2.470 2180.180
  285.000    0.306    0.537   71.054    2.520 2186.610
  285.250    0.291    0.545   70.427    2.670 2212.330
  285.500    0.272    0.519   69.169    2.938 2244.470
  285.750    0.247    0.480   69.171    3.171 2287.320
  286.000    0.242    0.453   71.064    3.557 2295.900
  286.250    0.258    0.448   74.849    3.989 2268.070
  286.500    0.263    0.439   74.221    4.472 2259.520
  286.750    0.258    0.436   71.073    5.308 2268.090
  287.000    0.247    0.424   71.075    5.951 2287.380
  287.250    0.228    0.414   69.187    6.425 2319.520
  287.500    0.216    0.401   67.299    6.681 2340.960
  287.750    0.206    0.384   71.714    6.318 2358.110
  288.000    0.210    0.381   76.758    5.645 2351.690
  288.250    0.272    0.504   77.391    4.857 2244.610
  288.500    0.262    0.488   74.243    4.341 2261.760
  288.750    0.257    0.470   72.355    4.106 2270.330
  289.000    0.261    0.464   71.098    3.882 2263.920
  289.250    0.248    0.470   71.730    3.673 2285.350
  289.500    0.245    0.466   72.363    3.607 2291.790
  289.750    0.245    0.470   74.256    3.543 2291.800
  290.000    0.240    0.478   76.150    3.547 2300.380
  290.250    0.237    0.491   76.783    3.483 2304.680
  290.500    0.237    0.515   76.155    3.421 2304.690
  290.750    0.245    0.510   72.376    3.297 2291.850
  291.000    0.260    0.488   71.118    3.560 2266.160
  291.250    0.260    0.479   73.012    3.772 2266.170
  291.500    0.253    0.461   71.754    3.921 2276.890
  291.750    0.250    0.447   70.497    4.078 2283.330
  292.000    0.252    0.444   72.390    4.239 2279.060
  292.250    0.255    0.482   72.392    4.491 2274.790
  292.500    0.256    0.495   70.504    4.848 2272.660
  292.750    0.267    0.455   67.986    5.334 2253.390
  293.000    0.275    0.432   65.468    5.870 2240.550
  293.250    0.272    0.415   64.841    6.102 2244.850
  293.500    0.266    0.414   71.776    5.994 2255.580
  293.750    0.266    0.431   74.930    5.669 2255.580
  294.000    0.269    0.441   75.563    5.260 2249.170
  294.250    0.233    0.451   78.087    5.681 2311.300
  294.500    0.174    0.445   76.198    6.616 2411.980
  294.750    0.140    0.410   64.226    7.418 2469.830
  295.000    0.119    0.372   54.145    8.318 2506.260
  295.250    0.223    0.357   56.038    9.151 2328.480
  295.500    0.293    0.346   60.453   10.659 2208.540
  295.750    0.326    0.325   62.346   11.080 2152.870
  296.000    0.333    0.306   62.349   11.305 2140.030
  296.250    0.322    0.302   59.830   11.530    0.000
  296.500    0.313    0.312   61.724   11.116 2174.320
  296.750    0.302    0.323   60.466   10.514 2193.610
  297.000    0.291    0.337   60.469   10.130 2212.900
  297.250    0.286    0.345   65.513    9.765 2221.480
  297.500    0.278    0.363   67.407    9.591 2234.350
  297.750    0.288    0.416   59.216    9.602 2217.220
  298.000    0.317    0.417   41.572    9.611 2167.970
  298.250    0.327    0.351   35.902    9.264 2150.850
  298.500    0.321    0.329   33.384    9.451 2161.570
  298.750    0.318    0.340   29.605   10.011 2165.860
  299.000    0.322    0.328   27.087   11.658 2159.450
  299.250    0.313    0.319   29.611   13.837 2174.460
  299.500    0.307    0.323   38.437   18.402 2185.180
  299.750    0.311    0.347   46.003   23.113 2178.760
  300.000    0.308    0.360   64.277   22.458 2183.010
  300.250    0.309    0.344   69.365   28.776 2181.010
  300.500    0.314    0.329   64.361   39.774 2172.570
  300.750    0.313    0.346   48.662   50.961 2174.860
  301.000    0.313    0.348   45.550   66.563 2174.980
  301.250    0.317    0.333   44.333   82.095 2168.700
  301.500    0.316    0.345   41.853   92.111 2168.850
  301.750    0.319    0.369   35.598   95.798 2164.710
  302.000    0.314    0.350   31.241   95.924 2173.410
  302.250    0.310    0.350   28.125  101.673 2179.990
  302.500    0.317    0.359   24.382  111.923 2167.280
  302.750    0.329    0.375   23.173  127.963 2148.140
  303.000    0.339    0.405   23.213  151.974 2131.130
  303.250    0.337    0.389   25.780  167.311 2133.410
  303.500    0.332    0.356   30.231  149.510 2142.140
  303.750    0.314    0.336   40.988  121.485 2172.250
  304.000    0.287    0.352   53.633   48.924 2219.500
  304.250    0.269    0.402   62.497   23.821 2249.620
  304.500    0.269    0.416   63.177   18.288 2249.770
  304.750    0.283    0.399   67.626   15.436 2226.340
  305.000    0.288    0.384   75.868   13.281 2217.940
  305.250    0.271    0.379   82.209   11.644 2245.900
  305.500    0.251    0.388   88.549   10.403 2280.300
  305.750    0.236    0.405   93.632    9.297 2306.150
  306.000    0.249    0.416   93.050    8.627 2284.880
  306.250    0.276    0.394   81.751    8.476 2237.900
  306.500    0.309    0.367   67.930    9.156 2182.350
  306.750    0.326    0.347   60.409   10.470 2152.520
  307.000    0.322    0.347   59.196   11.523 2159.070
  307.250    0.296    0.348   63.023   12.447 2204.190
