~VERSION INFORMATION
 VERS.                 2.0:   CWLS LOG ASCII STANDARD -VERSION 2.0
 WRAP.                  NO:   ONE LINE PER DEPTH STEP
~WELL INFORMATION BLOCK
#MNEM.UNIT           DATA                    DESCRIPTION OF MNEMONIC
#---------    -------------------            -------------------------------
# Generated from Intellog Unique Number	CW_73_75/WELL/1032
WELL.         AMOCO MARTEN HILLS 11-02       : Well_name    - WELL
LOC .         00/11-02-075-02W5/0            : Location     - LOCATION
UWI .         00/11-02-075-02W5/0            : Uwi          - UNIQUE WELL ID
ENTR.         JAYE                           : Entered      - ENTERED BY
SRVC.         SCHLUMBERGER                   : Scn          - SERVICE COMPANY
DATE.         30 MAR 80                      : Date         - LOG DATE
STRT.M        500                            : top_depth    - START DEPTH
STOP.M        690                            : bot_depth    - STOP DEPTH
STEP.M        0.25                           : increment    - STEP LENGTH
 NULL. -999.2500:NULL Value
~CURVE INFORMATION BLOCK
#MNEM UNIT       ERCB CURVE CODE    CURVE DESCRIPTION
#-----------   ------------------   ----------------------------------
DEPT.M        00 001 00 00         : DEPTH        - DEPTH
ILD .OHMM     00 120 00 00         : RESD         - DEEP RESISTIVITY (DIL)
NPHI.V/V      00 330 00 00         : PHIN         - NEUTRON POROSITY (SANDSTONE)
DPHI.V/V      00 890 00 00         : PHID         - DENSITY POROSITY (SANDSTONE)
GR  .API      00 310 00 00         : GR           - GAMMA RAY
CALI.MM       00 280 01 00         : CAL          - CALIPER
~PARAMETER INFORMATION
#MNEM.UNIT           DATA             DESCRIPTION OF MNEMONIC
#---------         -----------     ------------------------------
GL  .M        773.04               : gl           - GROUND LEVEL ELEVATION
EREF.M        778.83               : kb           - ELEVATION OF DEPTH REFERENCE
DATM.M        773.04               : datum        - DATUM ELEVATION
TDD .M        691.8                : tdd          - TOTAL DEPTH DRILLER
RUN .         ONE                  : Run          - RUN NUMBER
ENG .         VERWAIK              : Engineer     - RECORDING ENGINEER
WIT .         MACMAHON             : Witness      - WITNESSED BY
BASE.         EDM                  : Branch       - HOME BASE OF LOGGING UNIT
MUD .         GEL                  : Mud_type     - MUD TYPE
MATR.         SANDSTONE            : Logunit      - NEUTRON MATRIX
TMAX.C        29                   : BHT          - MAXIMUM RECORDED TEMPERATURE
BHTD.M        691.7                : BHTDEP       - MAXIMUM RECORDED TEMPERATURE
RMT .C        29                   : MDTP         - TEMPERATURE OF MUD
MUDD.KG/M     1110                 : MWT          - MUD DENSITY
NEUT.         1                    : NEUTRON      - NEUTRON TYPE
RESI.         0                    : RESIST       - RESISTIVITY TYPE
RM  .OHMM     4.4                  : RM           - RESISTIVITY OF MUD
RMC .OHMM     0                    : RMC          - RESISTIVITY OF MUD CAKE
RMF .OHMM     4.96                 : RMF          - RESISTIVITY OF MUD FILTRATE
SUFT.C        0                    : SUFT         - SURFACE TEMPERATURE
~A  DEPTH     RESD     PHIN     PHID       GR      CAL
  500.000    2.303    0.478    0.288   92.189  235.637
  500.250    2.180    0.477    0.296   90.825  229.382
  500.500    2.206    0.491    0.305   89.643  224.554
  500.750    2.242    0.502    0.304   89.140  222.686
  501.000    2.282    0.499    0.295   89.186  222.767
  501.250    2.367    0.471    0.276   89.416  224.581
  501.500    2.460    0.477    0.249   89.891  229.051
  501.750    2.571    0.490    0.283   88.650  234.236
  502.000    2.697    0.506    0.310   85.387  236.663
  502.250    2.894    0.499    0.301   81.571  232.552
  502.500    3.070    0.473    0.288   80.208  225.169
  502.750    3.149    0.484    0.264   82.215  220.545
  503.000    2.957    0.479    0.239   84.897  217.765
  503.250    2.783    0.456    0.226   87.150  214.572
  503.500    2.755    0.450    0.213   81.618  211.380
  503.750    2.820    0.483    0.229   73.940  210.335
  504.000    3.032    0.474    0.233   70.188  211.943
  504.250    3.277    0.438    0.246   65.576  213.039
  504.500    3.516    0.408    0.262   63.353  212.504
  504.750    3.765    0.386    0.261   69.223  211.256
  505.000    3.516    0.414    0.245   74.847  209.289
  505.250    3.053    0.432    0.244   78.632  208.241
  505.500    2.665    0.447    0.241   79.108  210.157
  505.750    2.406    0.461    0.231   78.847  213.912
  506.000    2.169    0.481    0.250   80.977  217.258
  506.250    2.029    0.505    0.272   85.620  219.481
  506.500    2.141    0.522    0.275   89.284  220.990
  506.750    2.376    0.532    0.295   88.103  221.781
  507.000    2.773    0.513    0.327   81.284  221.854
  507.250    3.249    0.481    0.309   75.447  221.630
  507.500    3.688    0.449    0.272   71.263  220.990
  507.750    4.017    0.432    0.252   69.715  219.738
  508.000    4.278    0.445    0.254   66.267  218.691
  508.250    4.538    0.441    0.265   62.023  217.850
  508.500    4.898    0.432    0.277   59.741  217.005
  508.750    4.994    0.430    0.254   59.357  216.264
  509.000    4.787    0.436    0.259   60.079  215.630
  509.250    4.430    0.437    0.275   60.860  215.095
  509.500    4.184    0.443    0.290   60.660  214.048
  509.750    3.966    0.453    0.294   59.971  212.588
  510.000    3.768    0.458    0.287   60.509  211.134
  510.250    3.757    0.452    0.283   61.288  210.396
  510.500    3.769    0.441    0.291   61.029  210.676
  510.750    3.772    0.450    0.295   60.525  211.367
  511.000    3.768    0.462    0.297   59.956  212.460
  511.250    3.808    0.459    0.298   59.085  213.256
  511.500    3.943    0.452    0.291   58.269  214.250
  511.750    4.270    0.458    0.281   57.459  215.147
  512.000    4.642    0.460    0.294   56.649  215.329
  512.250    4.989    0.447    0.293   55.408  215.199
  512.500    5.383    0.412    0.229   54.104  215.170
  512.750    5.210    0.345    0.198   52.862  214.844
  513.000    4.732    0.379    0.222   52.541  214.104
  513.250    4.321    0.408    0.305   51.913  213.363
  513.500    4.066    0.430    0.340   51.225  213.029
  513.750    3.883    0.440    0.346   50.536  212.700
  514.000    3.751    0.445    0.337   49.602  212.776
  514.250    3.720    0.444    0.320   48.544  212.853
  514.500    3.696    0.439    0.327   47.672  212.419
  514.750    3.638    0.446    0.335   47.043  212.701
  515.000    3.601    0.461    0.338   47.396  212.780
  515.250    3.578    0.450    0.329   48.423  213.161
  515.500    3.555    0.427    0.323   49.327  213.343
  515.750    3.531    0.432    0.309   51.150  213.114
  516.000    3.502    0.450    0.332   52.362  212.778
  516.250    3.499    0.453    0.320   52.715  212.551
  516.500    3.496    0.448    0.317   52.822  212.731
  516.750    3.500    0.441    0.326   52.379  213.013
  517.000    3.516    0.436    0.321   51.322  212.987
  517.250    3.513    0.428    0.315   51.306  213.265
  517.500    3.523    0.419    0.305   52.947  213.241
  517.750    3.560    0.434    0.298   54.648  213.113
  518.000    3.617    0.449    0.298   53.529  212.885
  518.250    3.642    0.459    0.316   50.082  212.861
  518.500    3.666    0.463    0.329   46.082  212.632
  518.750    3.732    0.447    0.339   46.006  212.809
  519.000    3.885    0.432    0.340   48.810  212.785
  519.250    3.985    0.421    0.330   51.247  212.963
  519.500    3.989    0.432    0.324   52.580  213.654
  519.750    3.912    0.444    0.337   50.603  214.138
  520.000    3.844    0.446    0.350   48.505  214.423
  520.250    3.769    0.442    0.357   48.672  214.702
  520.500    3.704    0.438    0.350   50.436  214.572
  520.750    3.665    0.438    0.337   52.076  214.347
  521.000    3.608    0.437    0.335   51.999  213.811
  521.250    3.597    0.428    0.335   50.084  213.375
  521.500    3.607    0.419    0.332   49.395  213.249
  521.750    3.604    0.421    0.324   51.464  213.222
  522.000    3.615    0.433    0.316   54.633  213.096
  522.250    3.606    0.431    0.307   57.256  212.761
  522.500    3.608    0.417    0.293   60.980  212.435
  522.750    3.612    0.403    0.275   66.054  212.306
  523.000    3.636    0.424    0.261   72.659  212.078
  523.250    3.695    0.437    0.257   78.342  213.075
  523.500    3.762    0.443    0.274   80.168  214.072
  523.750    3.880    0.449    0.274   83.156  214.454
  524.000    4.040    0.443    0.256   80.994  214.122
  524.250    4.183    0.420    0.233   75.342  213.786
  524.500    4.274    0.391    0.263   67.970  213.460
  524.750    4.091    0.375    0.293   50.854  212.918
  525.000    3.864    0.375    0.321   44.710  212.487
  525.250    3.615    0.376    0.328   41.691  212.157
  525.500    3.440    0.367    0.323   38.732  212.030
  525.750    3.286    0.361    0.337   36.021  212.109
  526.000    3.222    0.358    0.321   30.735  212.387
  526.250    3.172    0.360    0.341   26.674  212.567
  526.500    3.180    0.361    0.349   27.640  212.745
  526.750    3.232    0.362    0.333   30.690  213.029
  527.000    3.365    0.366    0.337   30.122  213.207
  527.250    3.445    0.368    0.345   32.681  213.283
  527.500    3.521    0.376    0.346   37.631  213.360
  527.750    3.564    0.375    0.331   43.133  213.234
  528.000    3.601    0.398    0.316   51.211  213.108
  528.250    3.632    0.416    0.273   61.186  213.078
  528.500    3.642    0.405    0.269   66.503  213.159
  528.750    3.659    0.391    0.273   68.081  213.234
  529.000    3.663    0.372    0.261   65.738  213.210
  529.250    3.660    0.395    0.256   63.455  212.979
  529.500    3.664    0.414    0.288   61.172  212.646
  529.750    3.641    0.408    0.312   55.700  212.420
  530.000    3.610    0.390    0.342   55.011  212.395
  530.250    3.627    0.387    0.329   57.511  211.960
  530.500    3.692    0.404    0.313   62.643  211.525
  530.750    3.752    0.420    0.290   64.403  210.891
  531.000    3.885    0.452    0.304   65.862  211.070
  531.250    3.969    0.461    0.312   72.344  211.044
  531.500    3.835    0.449    0.295   84.038  210.915
  531.750    3.437    0.460    0.280   92.727  210.892
  532.000    3.034    0.477    0.258   99.700  211.377
  532.250    2.694    0.503    0.244   99.377  214.210
  532.500    2.414    0.542    0.216   96.911  216.028
  532.750    2.306    0.528    0.178  101.982  217.227
  533.000    2.098    0.505    0.194  103.254  218.224
  533.250    2.073    0.491    0.256   96.007  218.402
  533.500    2.237    0.462    0.276   84.161  218.172
  533.750    2.477    0.440    0.275   79.977  218.354
  534.000    2.870    0.412    0.266   81.067  218.839
  534.250    3.191    0.417    0.264   84.914  219.222
  534.500    3.521    0.441    0.271   87.595  219.605
  534.750    3.743    0.461    0.249   84.455  218.763
  535.000    3.549    0.458    0.259   77.451  216.999
  535.250    3.258    0.446    0.277   71.123  215.137
  535.500    3.015    0.451    0.286   78.341  213.066
  535.750    2.853    0.463    0.284   75.078  211.817
  536.000    2.856    0.474    0.283   68.381  210.771
  536.250    3.001    0.464    0.286   60.520  209.928
