~VERSION INFORMATION
 VERS.                 2.0:   CWLS LOG ASCII STANDARD -VERSION 2.0
 WRAP.                  NO:   ONE LINE PER DEPTH STEP
~WELL INFORMATION BLOCK
#MNEM.UNIT           DATA                    DESCRIPTION OF MNEMONIC
#---------    -------------------            -------------------------------
# Generated from Intellog Unique Number	CS_73_76/WELL/4784
WELL.         BOW VALLEY INDUSTRIES          : Well_name    - WELL
LOC .         00/11-28-076-16W4/0            : Location     - LOCATION
UWI .         00/11-28-076-16W4/0            : Uwi          - UNIQUE WELL ID
ENTR.         JO                             : Entered      - ENTERED BY
SRVC.         SCHLUMBERGER                   : Scn          - SERVICE COMPANY
STRT.M        330                            : top_depth    - START DEPTH
STOP.M        555                            : bot_depth    - STOP DEPTH
STEP.M        0.25                           : increment    - STEP LENGTH
 NULL. -999.2500:NULL Value
~CURVE INFORMATION BLOCK
#MNEM UNIT       ERCB CURVE CODE    CURVE DESCRIPTION
#-----------   ------------------   ----------------------------------
DEPT.M        00 001 00 00         : DEPTH        - DEPTH
GR  .API      00 310 00 00         : GR           - GAMMA RAY
NPHI.V/V      00 330 00 00         : PHIN         - NEUTRON POROSITY (SANDSTONE)
DPHI.V/V      00 890 00 00         : PHID         - DENSITY POROSITY (SANDSTONE)
ILD .OHMM     00 120 00 00         : RESD         - DEEP RESISTIVITY (DIL)
~PARAMETER INFORMATION
#MNEM.UNIT           DATA             DESCRIPTION OF MNEMONIC
#---------         -----------     ------------------------------
GL  .M        699.4                : gl           - GROUND LEVEL ELEVATION
EREF.M        708.7                : kb           - ELEVATION OF DEPTH REFERENCE
DATM.M        708.7                : datum        - DATUM ELEVATION
TDD .M        561                  : tdd          - TOTAL DEPTH DRILLER
RUN .         ONE                  : Run          - RUN NUMBER
ENG .         BILL                 : Engineer     - RECORDING ENGINEER
WIT .         JIM                  : Witness      - WITNESSED BY
MUD .         GEL                  : Mud_type     - MUD TYPE
MATR.         SANDSTONE            : Logunit      - NEUTRON MATRIX
TMAX.C        38                   : BHT          - MAXIMUM RECORDED TEMPERATURE
BHTD.M        561                  : BHTDEP       - MAXIMUM RECORDED TEMPERATURE
MATR.         1                    : LOGUNIT      - NEUTRON MATRIX
RMT .C        22                   : MDTP         - TEMPERATURE OF MUD
NEUT.         1                    : NEUTRON      - NEUTRON TYPE
RESI.         0                    : RESIST       - RESISTIVITY TYPE
RMC .OHMM     2                    : RMC          - RESISTIVITY OF MUD CAKE
RMF .OHMM     4                    : RMF          - RESISTIVITY OF MUD FILTRATE
SUFT.C        5                    : SUFT         - SURFACE TEMPERATURE
~A  DEPTH       GR     PHIN     PHID     RESD
# ...
  460.500   94.418    0.412    0.225    5.574
  460.750  104.773    0.403    0.252    5.575
  461.000   96.290    0.421    0.251    5.173
  461.250   90.852    0.430    0.247    4.710
  461.500   93.301    0.399    0.247    4.537
  461.750   82.387    0.414    0.262    4.802
  462.000   83.627    0.407    0.275    5.277
  462.250   74.536    0.405    0.305    5.584
  462.500   63.015    0.397    0.308    6.618
  462.750   55.146    0.389    0.323    7.004
  463.000   58.203    0.382    0.335    7.412
  463.250   63.089    0.372    0.323    7.993
  463.500   64.936    0.378    0.324    8.784
  463.750   59.492    0.373    0.333    8.787
  464.000   53.440    0.373    0.338    8.465
  464.250   57.123    0.380    0.338    8.003
  464.500   57.749    0.383    0.339    7.425
  464.750   55.950    0.379    0.343    6.760
  465.000   57.184    0.382    0.343    6.512
  465.250   62.070    0.384    0.329    5.929
  465.500   61.487    0.382    0.313    5.712
  465.750   63.341    0.387    0.309    5.503
  466.000   67.011    0.399    0.323    5.301
  466.250   63.384    0.409    0.317    5.204
  466.500   57.939    0.406    0.322    5.205
  466.750   57.356    0.411    0.345    5.207
  467.000   60.425    0.415    0.347    5.208
  467.250   64.096    0.407    0.337    5.308
  467.500   63.513    0.398    0.329    5.310
  467.750   63.537    0.394    0.328    5.312
  468.000   62.347    0.405    0.332    5.414
  468.250   64.802    0.409    0.332    5.415
  468.500   69.688    0.407    0.334    5.417
  468.750   64.851    0.399    0.331    5.521
  469.000   69.129    0.395    0.321    5.523
  469.250   65.508    0.420    0.314    5.525
  469.500   64.925    0.408    0.309    5.525
  469.750   71.634    0.396    0.301    5.528
  470.000   74.697    0.414    0.292    5.529
  470.250   71.683    0.419    0.289    5.636
  470.500   74.746    0.415    0.292    5.638
  470.750   75.986    0.417    0.283    5.639
  471.000   69.326    0.443    0.277    5.641
  471.250   77.871    0.467    0.268    5.333
  471.500   83.966    0.503    0.262    4.948
  471.750   82.781    0.501    0.276    4.857
  472.000   79.761    0.451    0.277    4.858
  472.250   74.924    0.416    0.273    4.858
  472.500   67.055    0.410    0.279    4.771
  472.750   65.858    0.427    0.281    4.955
  473.000   74.998    0.442    0.286    4.956
  473.250   78.669    0.410    0.292    4.957
  473.500   73.224    0.408    0.296    4.959
  473.750   70.210    0.429    0.302    4.960
  474.000   72.666    0.431    0.295    4.869
  474.250   69.050    0.468    0.293    4.870
  474.500   71.500    0.419    0.297    4.872
  474.750   74.563    0.415    0.300    4.873
  475.000   75.195    0.440    0.299    4.873
  475.250   63.680    0.442    0.303    4.523
  475.500   67.344    0.437    0.300    4.609
  475.750   70.407    0.438    0.291    4.611
  476.000   75.293    0.441    0.287    4.613
  476.250   78.964    0.411    0.289    4.613
  476.500   71.089    0.402    0.293    4.613
  476.750   71.113    0.397    0.299    4.530
  477.000   58.990    0.405    0.304    4.532
  477.250   60.844    0.422    0.320    4.533
  477.500   62.078    0.428    0.323    4.450
  477.750   63.932    0.419    0.321    4.451
  478.000   60.298    0.413    0.321    4.453
  478.250   61.556    0.413    0.324    4.453
  478.500   64.607    0.436    0.321    4.371
  478.750   68.885    0.422    0.317    4.373
  479.000   65.871    0.410    0.319    4.373
  479.250   66.504    0.399    0.318    4.544
  479.500   64.711    0.387    0.311    4.545
  479.750   64.122    0.415    0.316    4.545
  480.000   66.578    0.449    0.324    4.721
  480.250   67.210    0.444    0.330    4.723
  480.500   63.588    0.416    0.343    5.093
  480.750   67.265    0.378    0.345    5.290
  481.000   61.814    0.339    0.274    5.599
  481.250   62.447    0.235    0.236    6.389
  481.500   52.147    0.239    0.111    7.428
  481.750   55.204    0.298    0.094    8.163
  482.000   59.482    0.422    0.290    8.321
  482.250   61.336    0.451    0.319    7.576
  482.500   61.962    0.476    0.322    6.769
  482.750   61.986    0.467    0.316    5.825
  483.000   61.403    0.424    0.312    5.404
  483.250   65.080    0.427    0.315    5.110
  483.500   68.149    0.439    0.323    5.015
  483.750   62.705    0.437    0.334    4.831
  484.000   60.900    0.427    0.333    4.743
  484.250   62.140    0.411    0.323    4.656
  484.500   65.817    0.405    0.331    4.571
  484.750   62.797    0.400    0.327    4.487
  485.000   61.612    0.387    0.319    4.487
  485.250   64.675    0.394    0.318    4.489
  485.500   65.302    0.399    0.322    4.489
  485.750   51.349    0.394    0.315    4.664
  486.000   56.843    0.401    0.318    4.665
  486.250   65.375    0.402    0.335    4.665
  486.500   63.577    0.434    0.330    4.756
  486.750   63.601    0.457    0.312    4.757
  487.000   59.980    0.407    0.309    4.759
  487.250   64.264    0.417    0.300    4.760
  487.500   64.289    0.408    0.293    4.762
  487.750   68.567    0.399    0.290    4.763
  488.000   74.055    0.412    0.283    4.763
  488.250   74.700    0.406    0.269    4.677
  488.500   77.155    0.410    0.262    4.591
  488.750   77.787    0.416    0.260    4.506
  489.000   80.249    0.407    0.255    4.508
  489.250   82.084    0.435    0.259    4.509
  489.500   85.147    0.451    0.253    4.426
  489.750   81.531    0.448    0.241    4.428
  490.000   86.411    0.419    0.233    4.513
  490.250   88.259    0.408    0.232    4.515
  490.500   90.714    0.400    0.227    4.515
  490.750  101.677    0.405    0.219    4.433
  491.000  105.354    0.411    0.224    4.270
  491.250  105.992    0.417    0.219    4.272
  491.500  106.619    0.405    0.226    4.354
  491.750  106.036    0.401    0.234    4.522
  492.000   89.039    0.406    0.241    4.877
  492.250   82.379    0.404    0.232    5.259
  492.500   81.796    0.409    0.241    5.672
  492.750   76.357    0.405    0.244    5.674
  493.000   76.990    0.408    0.210    5.364
  493.250   82.490    0.409    0.174    5.467
  493.500   87.370    0.388    0.162    6.123
  493.750   81.925    0.356    0.121    6.603
  494.000   69.182    0.339    0.094    7.395
  494.250   52.799    0.356    0.148    7.825
  494.500   62.547    0.380    0.182    8.763
  494.750   78.377    0.393    0.202    8.602
  495.000   94.815    0.395    0.203    7.832
  495.250   91.795    0.392    0.206    6.998
  495.500   79.666    0.383    0.211    6.615
  495.750   88.198    0.383    0.203    6.373
  496.000   93.692    0.400    0.195    6.256
  496.250   88.248    0.405    0.193    6.141
  496.500   85.848    0.400    0.188    6.143
  496.750   87.689    0.402    0.182    6.031
  497.000   90.144    0.397    0.189    6.032
  497.250   90.777    0.390    0.194    6.034
  497.500   85.940    0.386    0.199    6.508
  497.750   82.318    0.300    0.138    6.758
  498.000   73.228    0.255    0.095    7.568
  498.250   72.037    0.283    0.125    8.318
  498.500   78.138    0.313    0.141    8.478
  498.750   88.506    0.348    0.176    8.014
  499.000   90.955    0.372    0.197    7.436
  499.250  100.702    0.388    0.204    7.163
  499.500   92.827    0.391    0.195    6.772
  499.750   96.498    0.405    0.181    6.402
  500.000  100.169    0.424    0.156    6.053
  500.250  102.016    0.428    0.202    5.831
  500.500  100.825    0.429    0.211    5.513
  500.750  101.458    0.430    0.209    5.411
  501.000  100.875    0.400    0.208    5.116
  501.250   99.684    0.387    0.205    5.022
  501.500   97.885    0.392    0.203    4.838
  501.750   99.125    0.398    0.210    4.839
  502.000   98.542    0.391    0.215    4.751
  502.250   91.275    0.388    0.207    4.663
  502.500   92.514    0.396    0.192    4.665
  502.750   96.799    0.395    0.183    4.665
  503.000   97.431    0.390    0.195    4.667
  503.250   96.848    0.383    0.194    4.668
  503.500   99.310    0.379    0.191    4.497
  503.750  100.556    0.392    0.223    4.018
