~VERSION INFORMATION
 VERS.                 2.0:   CWLS LOG ASCII STANDARD -VERSION 2.0
 WRAP.                  NO:   ONE LINE PER DEPTH STEP
~WELL INFORMATION BLOCK
#MNEM.UNIT           DATA                    DESCRIPTION OF MNEMONIC
#---------    -------------------            -------------------------------
# Generated from Intellog Unique Number	CS_71_72/WELL/904
WELL.         HUDSON'S BAY OIL & GAS         : Well_name    - WELL
LOC .         00/11-25-071-12W4/0            : Location     - LOCATION
UWI .         00/11-25-071-12W4/0            : Uwi          - UNIQUE WELL ID
ENTR.         SP                             : Entered      - ENTERED BY
SRVC.         SCHLUMBERGER                   : Scn          - SERVICE COMPANY
STRT.M        260                            : top_depth    - START DEPTH
STOP.M        480                            : bot_depth    - STOP DEPTH
STEP.M        0.25                           : increment    - STEP LENGTH
 NULL. -999.2500:NULL Value
~CURVE INFORMATION BLOCK
#MNEM UNIT       ERCB CURVE CODE    CURVE DESCRIPTION
#-----------   ------------------   ----------------------------------
DEPT.M        00 001 00 00         : DEPTH        - DEPTH
ILD .OHMM     00 120 00 00         : RESD         - DEEP RESISTIVITY (DIL)
DPHI.V/V      00 890 00 00         : PHID         - DENSITY POROSITY (LIMESTONE)
NPHI.V/V      00 330 00 00         : PHIN         - NEUTRON POROSITY (LIMESTONE)
GR  .API      00 310 00 00         : GR           - GAMMA RAY
~PARAMETER INFORMATION
#MNEM.UNIT           DATA             DESCRIPTION OF MNEMONIC
#---------         -----------     ------------------------------
GL  .M        599.3                : gl           - GROUND LEVEL ELEVATION
EREF.M        602.9                : kb           - ELEVATION OF DEPTH REFERENCE
DATM.M        599.3                : datum        - DATUM ELEVATION
TDD .M        486                  : tdd          - TOTAL DEPTH DRILLER
RUN .         ONE                  : Run          - RUN NUMBER
ENG .         BILL                 : Engineer     - RECORDING ENGINEER
WIT .         JIM                  : Witness      - WITNESSED BY
MUD .         GEL                  : Mud_type     - MUD TYPE
MATR.         LIMESTONE            : Logunit      - NEUTRON MATRIX
TMAX.C        18                   : BHT          - MAXIMUM RECORDED TEMPERATURE
BHTD.M        486                  : BHTDEP       - MAXIMUM RECORDED TEMPERATURE
MATR.         1                    : LOGUNIT      - NEUTRON MATRIX
RMT .C        25                   : MDTP         - TEMPERATURE OF MUD
NEUT.         1                    : NEUTRON      - NEUTRON TYPE
RESI.         0                    : RESIST       - RESISTIVITY TYPE
RMC .OHMM     0.25                 : RMC          - RESISTIVITY OF MUD CAKE
RMF .OHMM     0.25                 : RMF          - RESISTIVITY OF MUD FILTRATE
SUFT.C        15                   : SUFT         - SURFACE TEMPERATURE
~A  DEPTH     RESD     PHID     PHIN       GR
# ...
  347.000   10.828    0.313    0.367   54.139
  347.250   10.687    0.318    0.371   46.118
  347.500   10.141    0.325    0.341   42.828
  347.750    9.987    0.314    0.363   48.270
  348.000   10.040    0.299    0.386   54.742
  348.250    9.851    0.292    0.377   57.759
  348.500    9.939    0.288    0.358   57.983
  348.750    9.972    0.290    0.337   57.846
  349.000    9.894    0.295    0.333   56.315
  349.250    9.745    0.308    0.362   54.717
  349.500    9.387    0.313    0.404   54.463
  349.750    9.142    0.305    0.450   54.568
  350.000    9.258    0.306    0.472   55.218
  350.250    9.604    0.318    0.486   55.688
  350.500    9.216    0.322    0.495   56.096
  350.750    8.876    0.314    0.462   58.143
  351.000    8.889    0.308    0.430   62.127
  351.250    9.343    0.316    0.412   64.540
  351.500   10.342    0.315    0.397   66.342
  351.750   12.148    0.263    0.389   66.448
  352.000   13.473    0.097    0.373   61.944
  352.250   16.543    0.072    0.225   57.743
  352.500   17.780    0.061    0.188   54.269
  352.750   20.845    0.073    0.171   50.250
  353.000   22.237    0.080    0.162   47.991
  353.250   23.672    0.075    0.162   47.734
  353.500   21.973    0.074    0.171   49.778
  353.750   18.828    0.093    0.198   51.643
  354.000   17.252    0.128    0.354   53.867
  354.250   13.932    0.305    0.415   54.824
  354.500   11.918    0.329    0.467   54.628
  354.750   10.118    0.332    0.516   56.916
  355.000    9.322    0.320    0.549   63.934
  355.250    8.275    0.307    0.487   69.922
  355.500    7.456    0.295    0.468   72.695
  355.750    6.946    0.283    0.488   65.886
  356.000    7.073    0.278    0.484   60.715
  356.250    7.859    0.250    0.204   59.002
  356.500    9.422    0.023    0.106   56.258
  356.750   13.472   -0.009    0.076   48.600
  357.000   20.065   -0.015    0.076   41.973
  357.250   23.657    0.002    0.083   38.136
  357.500   20.538    0.049    0.091   43.943
  357.750   16.101    0.165    0.125   51.504
  358.000   12.741    0.268    0.270   56.282
  358.250   10.079    0.315    0.355   63.846
  358.500    8.557    0.298    0.431   68.986
  358.750    8.383    0.283    0.452   66.422
  359.000    7.824    0.278    0.433   62.039
  359.250    7.412    0.278    0.412   66.632
  359.500    6.982    0.286    0.434   71.832
  359.750    6.601    0.287    0.451   77.940
  360.000    6.370    0.279    0.460   77.863
  360.250    6.332    0.272    0.473   72.146
  360.500    6.460    0.268    0.470   73.464
  360.750    6.665    0.266    0.445   76.482
  361.000    6.901    0.274    0.444   73.615
  361.250    7.014    0.287    0.444   68.627
  361.500    7.077    0.299    0.436   64.668
  361.750    7.022    0.284    0.451   68.655
  362.000    6.864    0.260    0.469   73.551
  362.250    6.736    0.244    0.479   74.930
  362.500    6.670    0.241    0.431   75.459
  362.750    6.655    0.245    0.450   77.626
  363.000    6.616    0.239    0.466   80.702
  363.250    6.601    0.234    0.495   82.140
  363.500    6.562    0.244    0.480   82.065
  363.750    6.510    0.252    0.456   84.293
  364.000    6.460    0.258    0.476   88.219
  364.250    6.458    0.245    0.477   89.052
  364.500    6.491    0.231    0.478   84.669
  364.750    6.537    0.234    0.497   84.654
  365.000    6.571    0.241    0.518   83.485
  365.250    6.592    0.235    0.460   79.104
  365.500    6.651    0.232    0.427   75.874
  365.750    6.661    0.230    0.422   75.797
  366.000    6.646    0.227    0.444   79.600
  366.250    6.618    0.226    0.462   83.587
  366.500    6.590    0.232    0.461   75.019
  366.750    6.551    0.237    0.473   73.003
  367.000    6.487    0.235    0.463   77.656
  367.250    6.475    0.225    0.419   84.609
  367.500    6.544    0.216    0.400   88.297
  367.750    6.458    0.212    0.421   84.581
  368.000    6.301    0.209    0.446   78.623
  368.250    6.217    0.212    0.459   71.208
  368.500    6.169    0.228    0.449   67.311
  368.750    6.155    0.246    0.406   67.901
  369.000    6.187    0.236    0.417   70.493
  369.250    6.336    0.231    0.442   73.387
  369.500    6.499    0.229    0.464   75.373
  369.750    6.619    0.244    0.456   75.233
  370.000    6.690    0.260    0.428   74.371
  370.250    6.662    0.251    0.424   77.811
  370.500    6.537    0.241    0.395   84.527
  370.750    6.391    0.237    0.418   82.689
  371.000    6.225    0.231    0.437   78.915
  371.250    6.085    0.224    0.411   82.354
  371.500    5.949    0.220    0.391   85.310
  371.750    5.892    0.228    0.429   85.355
  372.000    5.879    0.237    0.440   84.067
  372.250    5.705    0.237    0.423   82.352
  372.500    5.111    0.241    0.416   76.514
  372.750    4.396    0.249    0.440   79.410
  373.000    3.747    0.254    0.468   91.157
  373.250    3.031    0.260    0.488   98.662
  373.500    2.647    0.269    0.512   96.160
  373.750    2.323    0.268    0.580   89.227
  374.000    2.101    0.266    0.623   83.574
  374.250    1.972    0.272    0.628   82.283
  374.500    2.061    0.265    0.595   86.271
  374.750    2.367    0.258    0.546   83.888
  375.000    2.812    0.248    0.450   81.630
  375.250    3.371    0.245    0.427   86.283
  375.500    4.148    0.241    0.449   87.966
  375.750    4.748    0.238    0.449   82.006
  376.000    5.197    0.234    0.435   79.686
  376.250    5.352    0.231    0.437   82.641
  376.500    5.290    0.238    0.492   83.290
  376.750    5.230    0.255    0.516   79.755
  377.000    5.131    0.270    0.544   76.284
  377.250    5.168    0.281    0.550   70.870
  377.500    5.321    0.289    0.540   68.916
  377.750    5.469    0.301    0.530   66.958
  378.000    5.610    0.286    0.531   67.973
  378.250    5.703    0.266    0.529   71.172
  378.500    5.765    0.252    0.529   69.820
  378.750    5.741    0.287    0.537   68.894
  379.000    5.644    0.311    0.533   68.334
  379.250    5.497    0.310    0.538   79.051
  379.500    5.444    0.307    0.525   89.163
  379.750    5.544    0.305    0.484   96.969
  380.000    5.729    0.303    0.460  100.351
  380.250    5.824    0.305    0.513   81.474
  380.500    5.897    0.316    0.494   70.785
  380.750    5.928    0.319    0.465   62.216
  381.000    5.752    0.313    0.473   58.685
  381.250    5.644    0.310    0.481   57.819
  381.500    5.737    0.310    0.457   58.349
  381.750    5.907    0.302    0.431   62.331
  382.000    6.005    0.284    0.439   64.987
  382.250    6.137    0.259    0.439   67.639
  382.500    6.238    0.240    0.413   69.201
  382.750    6.270    0.229    0.390   71.608
  383.000    6.291    0.233    0.399   73.778
  383.250    6.231    0.240    0.455   76.974
  383.500    5.891    0.244    0.480   79.325
  383.750    5.498    0.249    0.492   76.579
  384.000    5.131    0.266    0.497   74.985
  384.250    4.952    0.287    0.498   71.757
  384.500    4.977    0.288    0.486   60.218
  384.750    5.359    0.273    0.492   64.627
  385.000    5.866    0.147    0.506   64.310
  385.250    6.292    0.065    0.246   64.597
  385.500    6.637    0.119    0.210   69.372
  385.750    6.924    0.159    0.257   75.963
  386.000    6.644    0.189    0.358   81.346
  386.250    5.833    0.205    0.450   85.333
  386.500    5.354    0.218    0.499   87.561
  386.750    4.779    0.231    0.532   87.363
  387.000    4.477    0.239    0.551   83.222
  387.250    4.369    0.241    0.461   79.508
  387.500    4.367    0.238    0.453   73.124
  387.750    4.389    0.236    0.496   69.287
  388.000    4.363    0.232    0.516   74.427
  388.250    4.402    0.229    0.531   80.291
  388.500    4.458    0.230    0.503   83.975
  388.750    4.599    0.228    0.483   84.870
  389.000    4.701    0.222    0.476   80.184
  389.250    4.760    0.227    0.475   76.163
  389.500    4.865    0.229    0.492   81.484
  389.750    4.918    0.228    0.507   87.230
  390.000    4.916    0.227    0.503   89.579
  390.250    4.887    0.226    0.508   91.078
