~VERSION INFORMATION
 VERS.                 2.0:   CWLS LOG ASCII STANDARD -VERSION 2.0
 WRAP.                  NO:   ONE LINE PER DEPTH STEP
~WELL INFORMATION BLOCK
#MNEM.UNIT           DATA                    DESCRIPTION OF MNEMONIC
#---------    -------------------            -------------------------------
# Generated from Intellog Unique Number	CS_73_76/WELL/3249
WELL.         10-30-076-04W4                 : Well_name    - WELL
LOC .         00/10-30-076-04W4/0            : Location     - LOCATION
UWI .         00/10-30-076-04W4/0            : Uwi          - UNIQUE WELL ID
ENTR.         SP                             : Entered      - ENTERED BY
SRVC.         SCHLUMBERGER                   : Scn          - SERVICE COMPANY
STRT.M        150                            : top_depth    - START DEPTH
STOP.M        415                            : bot_depth    - STOP DEPTH
STEP.M        0.25                           : increment    - STEP LENGTH
 NULL. -999.2500:NULL Value
~CURVE INFORMATION BLOCK
#MNEM UNIT       ERCB CURVE CODE    CURVE DESCRIPTION
#-----------   ------------------   ----------------------------------
DEPT.M        00 001 00 00         : DEPTH        - DEPTH
NPHI.V/V      00 330 00 00         : PHIN         - NEUTRON POROSITY (LIMESTONE)
DPHI.V/V      00 890 00 00         : PHID         - DENSITY POROSITY (LIMESTONE)
GR  .API      00 310 00 00         : GR           - GAMMA RAY
ILD .OHMM     00 120 00 00         : RESD         - DEEP RESISTIVITY (DIL)
~PARAMETER INFORMATION
#MNEM.UNIT           DATA             DESCRIPTION OF MNEMONIC
#---------         -----------     ------------------------------
GL  .M        586                  : gl           - GROUND LEVEL ELEVATION
EREF.M        589.3                : kb           - ELEVATION OF DEPTH REFERENCE
DATM.M        586                  : datum        - DATUM ELEVATION
TDD .M        430                  : tdd          - TOTAL DEPTH DRILLER
RUN .         ONE                  : Run          - RUN NUMBER
ENG .         BILL                 : Engineer     - RECORDING ENGINEER
WIT .         JIM                  : Witness      - WITNESSED BY
MUD .         GEL                  : Mud_type     - MUD TYPE
MATR.         LIMESTONE            : Logunit      - NEUTRON MATRIX
TMAX.C        18.9                 : BHT          - MAXIMUM RECORDED TEMPERATURE
BHTD.M        430                  : BHTDEP       - MAXIMUM RECORDED TEMPERATURE
MATR.         1                    : LOGUNIT      - NEUTRON MATRIX
RMT .C        25                   : MDTP         - TEMPERATURE OF MUD
NEUT.         1                    : NEUTRON      - NEUTRON TYPE
RESI.         0                    : RESIST       - RESISTIVITY TYPE
RMC .OHMM     0.25                 : RMC          - RESISTIVITY OF MUD CAKE
RMF .OHMM     0.25                 : RMF          - RESISTIVITY OF MUD FILTRATE
SUFT.C        15                   : SUFT         - SURFACE TEMPERATURE
~A  DEPTH     PHIN     PHID       GR     RESD
# ...
  193.500    0.432    0.240   85.820   17.584
  193.750    0.419    0.225   83.385   17.917
  194.000    0.416    0.230   81.562   19.305
  194.250    0.431    0.222   79.739   21.585
  194.500    0.441    0.270   74.258   24.134
  194.750    0.449    0.299   62.068   28.008
  195.000    0.441    0.286   54.147   30.173
  195.250    0.433    0.259   50.494   32.511
  195.500    0.431    0.266   48.061   33.128
  195.750    0.436    0.268   49.898   31.341
  196.000    0.444    0.273   51.122   25.559
  196.250    0.451    0.297   53.569   23.296
  196.500    0.433    0.302   56.623   20.085
  196.750    0.422    0.292   60.897   15.783
  197.000    0.414    0.274   65.782   13.356
  197.250    0.419    0.247   71.277   10.891
  197.500    0.429    0.229   74.940    8.881
  197.750    0.443    0.217   84.093    7.657
  198.000    0.460    0.212   92.635    7.803
  198.250    0.458    0.206   92.034    8.407
  198.500    0.435    0.209   88.989    9.057
  198.750    0.409    0.217   79.849   10.127
  199.000    0.383    0.209   72.538   11.753
  199.250    0.386    0.202   68.274   13.142
  199.500    0.403    0.208   73.160   14.157
  199.750    0.422    0.219   77.434   15.831
  200.000    0.431    0.227   74.392   16.741
  200.250    0.425    0.255   75.617   17.705
  200.500    0.410    0.259   79.893   18.041
  200.750    0.406    0.270   84.167   17.388
  201.000    0.402    0.231   84.781   16.450
  201.250    0.395    0.209   79.912   13.665
  201.500    0.389    0.225   78.696   12.003
  201.750    0.418    0.229   75.653   11.785
  202.000    0.436    0.193   79.928   11.788
  202.250    0.424    0.175   76.886   12.237
  202.500    0.400    0.147   72.623   12.240
  202.750    0.390    0.165   70.800   12.243
  203.000    0.415    0.173   74.464   11.370
  203.250    0.433    0.159   80.569    9.272
  203.500    0.430    0.158   86.062    7.994
  203.750    0.447    0.146   97.046    7.287
  204.000    0.468    0.177  102.540    6.767
  204.250    0.489    0.170  106.814    6.284
  204.500    0.498    0.142  109.258    5.946
  204.750    0.495    0.170  112.923    5.625
  205.000    0.495    0.185  113.538    5.522
  205.250    0.488    0.194  110.496    5.129
  205.500    0.482    0.172  109.892    4.943
  205.750    0.523    0.185  109.899    4.590
  206.000    0.535    0.183  108.685    4.424
  206.250    0.539    0.203  107.471    4.108
  206.500    0.556    0.199  109.306    3.815
  206.750    0.576    0.230  110.532    3.543
  207.000    0.556    0.236  106.880    3.817
  207.250    0.540    0.236  103.227    4.429
  207.500    0.521    0.223   98.964    5.435
  207.750    0.495    0.209   91.044    7.453
  208.000    0.488    0.270   82.513   13.507
  208.250    0.437    0.288   72.762   22.724
  208.500    0.426    0.312   61.792   28.935
  208.750    0.431    0.304   55.701   31.757
  209.000    0.436    0.304   52.658   33.587
  209.250    0.431    0.296   51.445   34.224
  209.500    0.435    0.295   50.843   34.233
  209.750    0.442    0.296   49.628   32.995
  210.000    0.439    0.303   47.806   32.399
  210.250    0.433    0.316   47.200   31.808
  210.500    0.446    0.314   55.136   30.660
  210.750    0.432    0.306   58.799   30.664
  211.000    0.439    0.302   58.197   29.554
  211.250    0.448    0.299   56.981   29.019
  211.500    0.435    0.294   55.160   28.489
  211.750    0.419    0.284   55.164   27.459
  212.000    0.410    0.295   61.271   26.466
  212.250    0.420    0.272   63.714   25.983
  212.500    0.430    0.285   68.601   25.045
  212.750    0.435    0.289   70.434   24.589
  213.000    0.442    0.279   72.878   23.701
  213.250    0.453    0.281   76.544   23.268
  213.500    0.458    0.263   76.549   22.846
  213.750    0.460    0.258   76.556   22.851
  214.000    0.465    0.273   77.171   22.437
  214.250    0.453    0.290   77.179   22.445
  214.500    0.438    0.291   77.795   22.448
  214.750    0.441    0.285   79.019   22.456
  215.000    0.441    0.287   82.076   22.461
  215.250    0.429    0.292   83.910   22.888
  215.500    0.424    0.286   83.305   23.323
  215.750    0.419    0.257   80.873   23.766
  216.000    0.412    0.256   78.439   24.669
  216.250    0.407    0.257   72.958   26.093
  216.500    0.407    0.258   66.867   27.084
  216.750    0.409    0.266   63.213   29.182
  217.000    0.413    0.279   61.999   30.292
  217.250    0.397    0.293   57.738   32.635
  217.500    0.380    0.298   54.086   35.160
  217.750    0.368    0.302   50.433   38.591
  218.000    0.367    0.301   47.999   42.359
  218.250    0.379    0.274   44.347   44.796
  218.500    0.391    0.269   42.524   45.647
  218.750    0.407    0.265   42.529   45.657
  219.000    0.417    0.268   41.318   45.669
  219.250    0.385    0.285   40.712   44.840
  219.500    0.394    0.292   40.719   44.031
  219.750    0.409    0.267   43.165   43.227
  220.000    0.419    0.284   44.388   42.445
  220.250    0.420    0.320   46.834   41.678
  220.500    0.408    0.321   47.449   40.919
  220.750    0.402    0.308   48.066   40.174
  221.000    0.394    0.292   51.123   39.444
  221.250    0.385    0.284   52.347   38.730
  221.500    0.400    0.285   56.014   37.326
  221.750    0.415    0.285   57.237   35.316
  222.000    0.417    0.288   60.293   34.671
  222.250    0.415    0.292   62.128   32.802
  222.500    0.423    0.286   64.573   31.034
  222.750    0.431    0.280   66.407   29.908
  223.000    0.437    0.283   68.244   28.827
  223.250    0.441    0.287   68.249   29.373
  223.500    0.423    0.307   66.427   29.932
  223.750    0.409    0.299   63.994   29.939
  224.000    0.419    0.285   64.001   29.946
  224.250    0.409    0.285   64.615   28.862
  224.500    0.412    0.277   68.282   27.819
  224.750    0.417    0.291   71.337   26.317
  225.000    0.411    0.299   72.560   24.440
  225.250    0.406    0.266   75.005   23.121
  225.500    0.409    0.253   76.841   21.076
  225.750    0.413    0.264   79.286   18.513
  226.000    0.420    0.259   82.951   16.874
  226.250    0.419    0.236   84.787   14.821
  226.500    0.425    0.234   85.402   13.018
  226.750    0.436    0.229   90.898   11.867
  227.000    0.449    0.215   95.781   11.227
  227.250    0.463    0.230  100.665   10.820
  227.500    0.459    0.213  104.939   10.428
  227.750    0.450    0.208  106.774   10.239
  228.000    0.458    0.215  108.001    9.868
  228.250    0.478    0.204  106.179    9.511
  228.500    0.499    0.210  103.747    9.338
  228.750    0.517    0.230  100.704   10.062
  229.000    0.521    0.212   99.489   11.044
  229.250    0.484    0.209   98.884   11.678
  229.500    0.461    0.222  100.721   13.553
  229.750    0.454    0.237   99.507   14.875
  230.000    0.444    0.243   94.024   15.441
  230.250    0.423    0.261   87.324   16.030
  230.500    0.428    0.266   84.280   16.334
  230.750    0.436    0.264   90.386   16.339
  231.000    0.438    0.261   92.830   16.042
  231.250    0.435    0.261   94.664   15.752
  231.500    0.425    0.261   90.404   15.754
  231.750    0.419    0.254   91.020   16.662
  232.000    0.438    0.233   92.856   17.296
  232.250    0.466    0.227   92.860   18.985
  232.500    0.458    0.222   87.377   20.453
  232.750    0.430    0.217   78.238   22.450
  233.000    0.423    0.276   69.707   23.304
  233.250    0.432    0.299   63.004   23.312
  233.500    0.417    0.284   54.475   23.317
  233.750    0.409    0.266   53.260   22.895
  234.000    0.420    0.251   63.633   22.899
  234.250    0.423    0.275   58.153   22.485
  234.500    0.414    0.293   56.328   22.074
  234.750    0.407    0.279   55.114   20.123
  235.000    0.396    0.254   64.267   17.349
  235.250    0.397    0.220   72.201   11.750
  235.500    0.423    0.232   79.524   13.138
  235.750    0.444    0.228   87.457   14.155
  236.000    0.483    0.260   91.122   15.250
  236.250    0.495    0.313   88.082   16.430
  236.500    0.454    0.304   85.648   18.033
  236.750    0.438    0.288   82.603   19.429
