~VERSION INFORMATION
 VERS.                 2.0:   CWLS LOG ASCII STANDARD -VERSION 2.0
 WRAP.                  NO:   ONE LINE PER DEPTH STEP
~WELL INFORMATION BLOCK
#MNEM.UNIT           DATA                    DESCRIPTION OF MNEMONIC
#---------    -------------------            -------------------------------
# Generated from Intellog Unique Number	CS_73_76/WELL/908
WELL.         HOLSTON OIL                    : Well_name    - WELL
LOC .         00/10-20-076-17W4/0            : Location     - LOCATION
UWI .         00/10-20-076-17W4/0            : Uwi          - UNIQUE WELL ID
ENTR.         T                              : Entered      - ENTERED BY
SRVC.         SCHLUMBERGER                   : Scn          - SERVICE COMPANY
STRT.F        1100                           : top_depth    - START DEPTH
STOP.F        1810.3                         : bot_depth    - STOP DEPTH
STEP.F        0.82                           : increment    - STEP LENGTH
 NULL. -999.2500:NULL Value
~CURVE INFORMATION BLOCK
#MNEM UNIT       ERCB CURVE CODE    CURVE DESCRIPTION
#-----------   ------------------   ----------------------------------
DEPT.F        00 001 00 00         : DEPTH        - DEPTH
GR  .API      00 310 00 00         : GR           - GAMMA RAY
DPHI.V/V      00 890 00 00         : PHID         - DENSITY POROSITY (SANDSTONE)
ILD .OHMM     00 120 00 00         : RESD         - DEEP RESISTIVITY (DIL)
~PARAMETER INFORMATION
#MNEM.UNIT           DATA             DESCRIPTION OF MNEMONIC
#---------         -----------     ------------------------------
GL  .F        2324                 : gl           - GROUND LEVEL ELEVATION
EREF.F        2334                 : kb           - ELEVATION OF DEPTH REFERENCE
DATM.F        2334                 : datum        - DATUM ELEVATION
TDD .F        1870                 : tdd          - TOTAL DEPTH DRILLER
RUN .         ONE                  : Run          - RUN NUMBER
ENG .         BILL                 : Engineer     - RECORDING ENGINEER
WIT .         JIM                  : Witness      - WITNESSED BY
MUD .         GEL                  : Mud_type     - MUD TYPE
MATR.         SANDSTONE            : Logunit      - NEUTRON MATRIX
TMAX.F        69                   : BHT          - MAXIMUM RECORDED TEMPERATURE
BHTD.F        1870                 : BHTDEP       - MAXIMUM RECORDED TEMPERATURE
MATR.         1                    : LOGUNIT      - NEUTRON MATRIX
RMT .F        73                   : MDTP         - TEMPERATURE OF MUD
NEUT.         1                    : NEUTRON      - NEUTRON TYPE
RESI.         0                    : RESIST       - RESISTIVITY TYPE
RMC .OHMM     1.64                 : RMC          - RESISTIVITY OF MUD CAKE
RMF .OHMM     1.64                 : RMF          - RESISTIVITY OF MUD FILTRATE
SUFT.F        59                   : SUFT         - SURFACE TEMPERATURE
~A  DEPTH       GR     PHID     RESD
# ...
 1633.960   48.495    0.256    4.590
 1634.780   47.901    0.261    4.426
 1635.600   48.506    0.269    4.427
 1636.420   49.111    0.265    4.427
 1637.240   50.319    0.258    4.428
 1638.060   49.722    0.259    4.511
 1638.880   52.734    0.259    4.595
 1639.700   55.743    0.262    4.596
 1640.520   59.957    0.265    4.682
 1641.340   61.163    0.264    4.683
 1642.160   62.973    0.255    4.683
 1642.980   64.180    0.245    4.771
 1643.800   64.786    0.246    4.772
 1644.620   64.191    0.243    4.772
 1645.440   63.594    0.239    4.773
 1646.260   62.999    0.234    4.774
 1647.080   62.404    0.234    4.775
 1647.900   62.409    0.232    4.776
 1648.720   62.414    0.226    4.777
 1649.540   62.419    0.219    4.777
 1650.360   63.025    0.202    4.778
 1651.180   64.234    0.187    4.607
 1652.000   66.043    0.200    4.442
 1652.820   67.248    0.211    4.363
 1653.640   69.056    0.217    4.363
 1654.460   73.270    0.209    4.364
 1655.280   75.680    0.200    4.365
 1656.100   76.887    0.190    4.529
 1656.920   76.892    0.190    4.613
 1657.740   76.897    0.193    4.964
 1658.560   75.701    0.199    5.150
 1659.380   75.104    0.199    5.644
 1660.200   73.907    0.199    5.964
 1661.020   71.508    0.201    6.075
 1661.840   67.908    0.207    6.188
 1662.660   64.907    0.211    6.078
 1663.480   63.709    0.207    5.968
 1664.300   63.114    0.198    5.861
 1665.120   65.523    0.189    5.862
 1665.940   66.730    0.191    5.757
 1666.770   67.337    0.191    5.758
 1667.590   67.944    0.190    5.865
 1668.410   67.949    0.188    5.974
 1669.230   67.353    0.185    6.086
 1670.050   63.152    0.176    6.200
 1670.870   58.948    0.152    6.315
 1671.690   53.543    0.128    6.433
 1672.510   59.559    0.142    6.553
 1673.330   66.176    0.161    6.554
 1674.150   70.389    0.168    6.676
 1674.970   73.402    0.173    6.677
 1675.790   72.805    0.178    6.678
 1676.610   71.008    0.187    6.679
 1677.430   69.811    0.193    6.560
 1678.250   68.612    0.190    6.442
 1679.070   68.016    0.185    6.326
 1679.890   66.221    0.182    6.212
 1680.710   65.021    0.182    6.213
 1681.530   64.425    0.178    6.102
 1682.350   67.437    0.178    5.992
 1683.170   71.050    0.174    5.885
 1683.990   72.857    0.169    5.886
 1684.810   75.869    0.165    5.887
 1685.630   75.874    0.166    5.781
 1686.450   75.878    0.179    5.677
 1687.270   75.883    0.182    5.678
 1688.090   76.489    0.182    5.576
 1688.910   77.097    0.182    5.577
 1689.730   77.102    0.181    5.477
 1690.550   74.705    0.185    5.478
 1691.370   73.507    0.188    5.282
 1692.190   71.709    0.194    5.093
 1693.010   71.114    0.190    4.822
 1693.830   72.320    0.180    4.649
 1694.650   73.526    0.164    4.243
 1695.470   75.334    0.154    3.944
 1696.290   77.142    0.168    3.346
 1697.110   77.749    0.191    2.543
 1697.930   77.153    0.203    2.118
 1698.750   74.154    0.209    1.864
 1699.570   69.352    0.204    1.797
 1700.390   68.755    0.206    1.798
 1701.210   70.564    0.210    1.831
 1702.030   72.975    0.216    1.900
 1702.850   73.578    0.222    1.971
 1703.670   73.583    0.213    2.200
 1704.490   73.588    0.205    2.325
 1705.310   72.993    0.193    2.501
 1706.140   71.194    0.179    2.792
 1706.960   70.601    0.159    3.005
 1707.780   73.610    0.151    3.416
 1708.600   76.020    0.168    3.884
 1709.420   76.627    0.172    4.580
 1710.240   74.829    0.180    5.020
 1711.060   73.632    0.178    5.603
 1711.880   71.835    0.160    5.921
 1712.700   71.237    0.151    6.143
 1713.520   70.641    0.143    6.143
 1714.340   70.045    0.147    6.144
 1715.160   67.046    0.147    5.507
 1715.980   68.253    0.148    4.935
 1716.800   70.062    0.157    4.758
 1717.620   68.867    0.178    4.673
 1718.440   70.674    0.166    4.506
 1719.260   73.683    0.159    4.506
 1720.080   74.890    0.176    4.345
 1720.900   73.092    0.174    4.267
 1721.720   69.492    0.163    4.115
 1722.540   65.889    0.151    3.825
 1723.360   67.700    0.147    3.756
 1724.180   71.311    0.150    3.556
 1725.000   74.922    0.171    3.246
 1725.820   76.732    0.182    3.187
 1726.640   77.940    0.197    3.073
 1727.460   78.544    0.200    3.018
 1728.280   80.956    0.201    2.964
 1729.100   82.161    0.199    2.964
 1729.920   83.969    0.197    2.911
 1730.740   85.179    0.196    2.912
 1731.560   84.584    0.184    3.021
 1732.380   83.986    0.170    3.434
 1733.200   83.991    0.155    3.696
 1734.020   83.996    0.143    3.905
 1734.840   82.799    0.162    4.605
 1735.660   77.997    0.171    5.235
 1736.480   78.002    0.179    5.952
 1737.300   73.798    0.188    6.891
 1738.120   49.760    0.192    7.979
 1738.940   38.345    0.193    7.417
 1739.760   39.552    0.189    5.435
 1740.580   54.585    0.181    5.052
 1741.400   74.426    0.173    4.783
 1742.220   77.438    0.182    4.697
 1743.040   76.241    0.188    4.785
 1743.860   79.251    0.171    4.964
 1744.690   82.263    0.167    5.441
 1745.510   84.070    0.170    6.185
 1746.330   84.075    0.177    6.904
 1747.150   81.676    0.179    7.568
 1747.970   78.676    0.184    8.143
 1748.790   73.872    0.189    9.604
 1749.610   71.473    0.196   10.720
 1750.430   73.281    0.202   11.121
 1751.250   73.286    0.205   10.922
 1752.070   76.297    0.200   10.152
 1752.890   79.910    0.191    9.267
 1753.710   80.515    0.178    8.773
 1754.530   81.121    0.171    8.775
 1755.350   81.129    0.166    8.776
 1756.170   80.533    0.163    8.939
 1756.990   80.536    0.165    9.274
 1757.810   79.942    0.172    9.448
 1758.630   79.948    0.177    9.624
 1759.450   79.951    0.172    9.803
 1760.270   76.349    0.168    9.986
 1761.090   72.748    0.162    9.987
 1761.910   70.349    0.149    9.456
 1762.730   73.960    0.117    9.117
 1763.550   87.791    0.112    9.119
 1764.370   85.392    0.131    9.289
 1765.190   78.184    0.152    9.463
 1766.010   73.381    0.167    9.639
 1766.830   70.984    0.166    9.819
 1767.650   73.992    0.159   10.001
 1768.470   78.206    0.153   10.004
 1769.290   82.419    0.149   10.190
 1770.110   84.226    0.144   10.192
 1770.930   82.428    0.145   10.194
 1771.750   78.228    0.149   10.196
 1772.570   75.228    0.153   10.197
 1773.390   73.428    0.153    9.833
 1774.210   74.636    0.145    9.655
 1775.030   74.641    0.134    9.141
 1775.850   74.646    0.124    8.044
 1776.670   76.454    0.133    7.208
 1777.490   78.263    0.143    6.579
 1778.310   81.273    0.143    6.580
 1779.130   84.885    0.149    6.827
 1779.950   79.481    0.157    6.954
 1780.770   78.284    0.166    7.348
 1781.590   81.295    0.169    7.908
 1782.410   83.704    0.169    8.510
 1783.230   86.716    0.165    8.828
 1784.060   84.918    0.160    8.993
 1784.880   81.916    0.149    9.161
 1785.700   78.917    0.145    9.331
 1786.520   77.719    0.150    9.505
 1787.340   75.321    0.165    9.683
 1788.160   73.523    0.169   10.045
 1788.980   69.921    0.175   11.010
 1789.800   62.714    0.180   12.067
 1790.620   55.506    0.187   13.470
 1791.440   45.293    0.198   14.495
 1792.260   44.096    0.194   16.783
 1793.080   49.511    0.198   21.296
 1793.900   54.928    0.206   17.737
 1794.720   53.728    0.181   15.046
 1795.540   53.733    0.115   13.485
 1796.360   56.143    0.131   13.001
 1797.180   63.963    0.152   12.537
 1798.000   76.591    0.160   12.088
 1798.820   74.192    0.172   11.656
 1799.640   67.585    0.180   11.657
 1800.460   66.388    0.178   11.449
 1801.280   62.787    0.171   11.450
 1802.100   53.175    0.160   11.879
 1802.920   37.552    0.121   12.784
 1803.740   31.546    0.093   13.507
 1804.560   26.142    0.090   15.640
 1805.380   19.535    0.104   19.844
 1806.200   14.132    0.100   28.101
 1807.020   14.738    0.080   39.073
 1807.840   15.344    0.072   44.423
 1808.660   15.349    0.069   47.805
 1809.480   15.355    0.072   48.694
 1810.300   15.359    0.072   49.602
