~VERSION INFORMATION
 VERS.                 2.0:   CWLS LOG ASCII STANDARD -VERSION 2.0
 WRAP.                  NO:   ONE LINE PER DEPTH STEP
~WELL INFORMATION BLOCK
#MNEM.UNIT           DATA                    DESCRIPTION OF MNEMONIC
#---------    -------------------            -------------------------------
# Generated from Intellog Unique Number	CS_71_72/WELL/911
WELL.         ESSO IPIATIK                   : Well_name    - WELL
LOC .         00/11-32-072-09W4/0            : Location     - LOCATION
UWI .         00/11-32-072-09W4/0            : Uwi          - UNIQUE WELL ID
ENTR.         SP                             : Entered      - ENTERED BY
SRVC.         SCHLUMBERGER                   : Scn          - SERVICE COMPANY
STRT.M        295                            : top_depth    - START DEPTH
STOP.M        490                            : bot_depth    - STOP DEPTH
STEP.M        0.25                           : increment    - STEP LENGTH
 NULL. -999.2500:NULL Value
~CURVE INFORMATION BLOCK
#MNEM UNIT       ERCB CURVE CODE    CURVE DESCRIPTION
#-----------   ------------------   ----------------------------------
DEPT.M        00 001 00 00         : DEPTH        - DEPTH
ILD .OHMM     00 120 00 00         : RESD         - DEEP RESISTIVITY (DIL)
DPHI.V/V      00 890 00 00         : PHID         - DENSITY POROSITY (LIMESTONE)
NPHI.V/V      00 330 00 00         : PHIN         - NEUTRON POROSITY (LIMESTONE)
GR  .API      00 310 00 00         : GR           - GAMMA RAY
~PARAMETER INFORMATION
#MNEM.UNIT           DATA             DESCRIPTION OF MNEMONIC
#---------         -----------     ------------------------------
GL  .M        659.68               : gl           - GROUND LEVEL ELEVATION
EREF.M        663.56               : kb           - ELEVATION OF DEPTH REFERENCE
DATM.M        659.68               : datum        - DATUM ELEVATION
TDD .M        493                  : tdd          - TOTAL DEPTH DRILLER
RUN .         ONE                  : Run          - RUN NUMBER
ENG .         BILL                 : Engineer     - RECORDING ENGINEER
WIT .         JIM                  : Witness      - WITNESSED BY
MUD .         GEL                  : Mud_type     - MUD TYPE
MATR.         LIMESTONE            : Logunit      - NEUTRON MATRIX
TMAX.C        18                   : BHT          - MAXIMUM RECORDED TEMPERATURE
BHTD.M        493                  : BHTDEP       - MAXIMUM RECORDED TEMPERATURE
MATR.         1                    : LOGUNIT      - NEUTRON MATRIX
RMT .C        25                   : MDTP         - TEMPERATURE OF MUD
NEUT.         1                    : NEUTRON      - NEUTRON TYPE
RESI.         0                    : RESIST       - RESISTIVITY TYPE
RMC .OHMM     0.25                 : RMC          - RESISTIVITY OF MUD CAKE
RMF .OHMM     0.25                 : RMF          - RESISTIVITY OF MUD FILTRATE
SUFT.C        15                   : SUFT         - SURFACE TEMPERATURE
~A  DEPTH     RESD     PHID     PHIN       GR
# ...
  382.000    9.715    0.300    0.485   80.388
  382.250   10.452    0.321    0.505   79.788
  382.500   10.841    0.332    0.527   81.008
  382.750   11.877    0.315    0.557   80.410
  383.000   12.095    0.280    0.583   76.186
  383.250   12.543    0.284    0.558   73.774
  383.500   12.540    0.290    0.554   73.783
  383.750   12.767    0.292    0.545   75.606
  384.000   13.000    0.285    0.529   76.827
  384.250   12.996    0.275    0.512   77.437
  384.500   12.992    0.281    0.499   78.655
  384.750   12.988    0.291    0.479   84.110
  385.000   11.629    0.280    0.469   90.773
  385.250    9.156    0.255    0.453   95.620
  385.500    6.338    0.243    0.475   98.045
  385.750    5.371    0.237    0.548  100.472
  386.000    4.152    0.262    0.595   93.223
  386.250    3.583    0.288    0.617   81.739
  386.500    3.389    0.302    0.648   73.281
  386.750    4.303    0.316    0.573   70.264
  387.000    5.666    0.315    0.551   72.091
  387.250    7.883    0.309    0.543   73.308
  387.500    8.327    0.299    0.505   74.524
  387.750    8.325    0.309    0.481   73.930
  388.000    8.322    0.322    0.486   73.335
  388.250    8.319    0.330    0.518   72.737
  388.500    8.471    0.332    0.571   72.144
  388.750    8.784    0.327    0.623   72.154
  389.000    9.110    0.314    0.588   72.162
  389.250    9.276    0.306    0.535   72.171
  389.500    9.620    0.305    0.514   71.575
  389.750    9.795    0.316    0.524   70.371
  390.000    9.973    0.318    0.537   69.168
  390.250   10.155    0.312    0.536   69.173
  390.500   10.152    0.310    0.543   67.973
  390.750   10.147    0.315    0.556   69.190
  391.000   10.145    0.295    0.560   72.830
  391.250   10.142    0.262    0.520   77.071
  391.500   10.138    0.201    0.492   80.708
  391.750   10.135    0.229    0.494   84.952
  392.000   10.131    0.266    0.529   81.332
  392.250   10.127    0.286    0.563   77.105
  392.500    9.941    0.274    0.507   78.928
  392.750    9.936    0.260    0.485   78.331
  393.000    9.934    0.286    0.536   72.294
  393.250    9.930    0.302    0.564   70.487
  393.500    9.928    0.302    0.570   71.706
  393.750    9.923    0.300    0.561   74.133
  394.000    9.921    0.296    0.561   76.560
  394.250    9.737    0.289    0.588   79.593
  394.500    9.735    0.282    0.593   82.023
  394.750    9.731    0.282    0.578   81.424
  395.000    9.727    0.277    0.544   79.618
  395.250    9.548    0.260    0.489   81.442
  395.500    9.370    0.246    0.466   85.085
  395.750    9.196    0.232    0.458   86.300
  396.000    9.195    0.220    0.485   87.519
  396.250    8.860    0.211    0.499   87.526
  396.500    8.695    0.206    0.514   89.348
  396.750    8.533    0.203    0.491   92.987
  397.000    8.376    0.196    0.472   94.202
  397.250    8.221    0.193    0.485   93.606
  397.500    8.069    0.195    0.504   92.407
  397.750    7.920    0.203    0.502   90.602
  398.000    7.772    0.212    0.517   90.003
  398.250    7.771    0.207    0.502   90.619
  398.500    7.625    0.207    0.486   91.229
  398.750    7.624    0.209    0.506   92.450
  399.000    7.482    0.215    0.518   91.852
  399.250    7.480    0.212    0.524   91.861
  399.500    7.341    0.190    0.492   92.473
  399.750    7.339    0.192    0.499   93.693
  400.000    7.337    0.200    0.507   93.096
  400.250    7.334    0.198    0.528   94.316
  400.500    7.331    0.191    0.512   95.533
  400.750    7.328    0.185    0.494   95.541
  401.000    7.327    0.180    0.464   94.945
  401.250    7.190    0.184    0.460   94.349
  401.500    7.189    0.190    0.475   93.753
  401.750    7.185    0.193    0.492   94.365
  402.000    7.183    0.181    0.507   95.586
  402.250    7.050    0.185    0.510   96.198
  402.500    7.047    0.186    0.499   96.204
  402.750    7.045    0.175    0.492   96.821
  403.000    7.044    0.169    0.476   96.828
  403.250    7.041    0.176    0.455   97.442
  403.500    6.912    0.192    0.455   97.450
  403.750    6.784    0.202    0.477   95.646
  404.000    6.536    0.200    0.493   96.864
  404.250    6.299    0.191    0.506   98.078
  404.500    5.959    0.194    0.518  101.115
  404.750    5.638    0.184    0.426  101.724
  405.000    5.333    0.179    0.399   98.709
  405.250    4.864    0.208    0.398  104.771
  405.500    4.355    0.228    0.459  106.590
  405.750    3.972    0.244    0.524  109.017
  406.000    3.427    0.251    0.567  101.768
  406.250    3.126    0.258    0.573  100.567
  406.500    2.698    0.246    0.574  100.578
  406.750    2.415    0.240    0.585  102.401
  407.000    2.285    0.248    0.599  103.616
  407.250    2.243    0.233    0.541  104.229
  407.500    2.503    0.211    0.503   99.400
  407.750    2.743    0.199    0.501   96.385
  408.000    3.295    0.192    0.496   96.997
  408.250    3.678    0.189    0.463   95.797
  408.500    4.030    0.197    0.462   93.990
  408.750    4.417    0.205    0.469   92.185
  409.000    4.840    0.216    0.469   92.194
  409.250    4.928    0.230    0.497   89.782
  409.500    5.018    0.245    0.558   86.767
  409.750    5.016    0.254    0.596   85.566
  410.000    5.014    0.266    0.538   85.573
  410.250    5.200    0.248    0.490   87.400
  410.500    5.393    0.222    0.468   89.218
  410.750    5.593    0.208    0.469   90.437
  411.000    5.695    0.218    0.513   87.424
  411.250    5.693    0.237    0.552   83.199
  411.500    5.588    0.262    0.519   81.389
  411.750    5.484    0.277    0.488   79.584
  412.000    5.383    0.282    0.499   83.222
  412.250    5.481    0.270    0.503   89.285
  412.500    5.580    0.252    0.486   91.713
  412.750    5.578    0.226    0.462   92.926
  413.000    5.785    0.224    0.440   91.120
  413.250    5.891    0.239    0.464   89.312
  413.500    5.889    0.245    0.488   86.297
  413.750    5.996    0.254    0.511   85.095
  414.000    5.994    0.265    0.550   81.475
  414.250    6.103    0.275    0.529   77.252
  414.500    6.100    0.274    0.522   78.470
  414.750    6.099    0.268    0.554   80.898
  415.000    6.209    0.267    0.575   80.906
  415.250    6.208    0.269    0.529   80.915
  415.500    6.206    0.274    0.513   80.318
  415.750    6.319    0.280    0.529   79.115
  416.000    6.201    0.282    0.546   82.149
  416.250    6.200    0.273    0.522   84.579
  416.500    6.197    0.263    0.519   85.795
  416.750    6.083    0.230    0.529   88.226
  417.000    5.970    0.204    0.540   90.050
  417.250    5.753    0.213    0.512   90.658
  417.500    5.543    0.217    0.490   91.877
  417.750    5.342    0.221    0.488   93.099
  418.000    5.148    0.226    0.517   93.103
  418.250    4.960    0.232    0.536   91.301
  418.500    4.779    0.245    0.522   89.493
  418.750    4.691    0.243    0.508   87.082
  419.000    4.690    0.243    0.516   85.880
  419.250    4.775    0.247    0.518   85.283
  419.500    4.862    0.250    0.507   85.294
  419.750    5.042    0.239    0.483   85.905
  420.000    5.326    0.222    0.458   87.727
  420.250    5.523    0.217    0.463   84.712
  420.500    5.624    0.239    0.499   79.883
  420.750    5.726    0.254    0.520   80.496
  421.000    5.831    0.251    0.502   82.318
  421.250    5.937    0.248    0.476   83.536
  421.500    5.935    0.244    0.496   81.733
  421.750    6.044    0.238    0.518   81.134
  422.000    6.041    0.247    0.539   79.935
  422.250    6.039    0.252    0.561   79.942
  422.500    6.037    0.263    0.528   81.163
  422.750    6.035    0.260    0.514   81.172
  423.000    6.145    0.246    0.502   79.969
  423.250    6.143    0.248    0.516   78.161
  423.500    6.255    0.251    0.531   81.198
  423.750    6.368    0.236    0.536   81.809
  424.000    6.367    0.223    0.496   83.027
  424.250    6.365    0.224    0.466   83.639
  424.500    6.481    0.227    0.447   83.650
  424.750    6.479    0.218    0.435   83.054
  425.000    6.476    0.213    0.447   82.454
  425.250    6.356    0.202    0.451   83.067
