~VERSION INFORMATION
 VERS.                 2.0:   CWLS LOG ASCII STANDARD -VERSION 2.0
 WRAP.                  NO:   ONE LINE PER DEPTH STEP
~WELL INFORMATION BLOCK
#MNEM.UNIT           DATA                    DESCRIPTION OF MNEMONIC
#---------    -------------------            -------------------------------
# Generated from Intellog Unique Number	CW_70_72/WELL/1058
NULL.         -999.25                        : NULL_VALUE
WELL.         WINCAN ET AL SMITH 11-16       : Well_name    - WELL              
LOC .         11-16-071-26W4                 : Location     - LOCATION          
UWI .         00/11-16-071-26W4/0            : Uwi          - UNIQUE WELL ID    
ENTR.         JAYE                           : Entered      - ENTERED BY        
SRVC.         COMPUTALOG                     : Scn          - SERVICE COMPANY   
DATE.         13 AUG 83                      : Date         - LOG DATE          
STRT.M        400                            : top_depth    - START DEPTH       
STOP.M        668.5                          : bot_depth    - STOP DEPTH        
STEP.M        0.25                           : increment    - STEP LENGTH       
~CURVE INFORMATION BLOCK
#MNEM UNIT       ERCB CURVE CODE    CURVE DESCRIPTION
#-----------   ------------------   ----------------------------------
DEPT.M        00 001 00 00         : DEPTH        - DEPTH                       
DPHI.V/V      00 890 00 00         : PHID         - DENSITY POROSITY (SANDSTONE)
NPHI.V/V      00 330 00 00         : PHIN         - NEUTRON POROSITY (SANDSTONE)
GR  .API      00 310 00 00         : GR           - GAMMA RAY                   
CALI.MM       00 280 01 00         : CAL          - CALIPER                     
ILD .OHMM     00 120 00 00         : RESD         - DEEP RESISTIVITY (DIL)      
~PARAMETER INFORMATION       
#MNEM.UNIT           DATA             DESCRIPTION OF MNEMONIC
#---------         -----------     ------------------------------
GL  .M        593.18               : gl           - GROUND LEVEL ELEVATION      
EREF.M        596.48               : kb           - ELEVATION OF DEPTH REFERENCE
DATM.M        593.18               : datum        - DATUM ELEVATION             
TDD .M        668                  : tdd          - TOTAL DEPTH DRILLER         
RUN .         ONE                  : Run          - RUN NUMBER                  
ENG .         WOOD                 : Engineer     - RECORDING ENGINEER          
WIT .         VAN FRAASEN          : Witness      - WITNESSED BY                
BASE.         LLOYD                : Branch       - HOME BASE OF LOGGING UNIT   
MUD .         GEL CHEM             : Mud_type     - MUD TYPE                    
MATR.         SANDSTONE            : Logunit      - NEUTRON MATRIX              
TMAX.C        31                   : BHT          - MAXIMUM RECORDED TEMPERATURE
BHTD.M        668.3                : BHTDEP       - MAXIMUM RECORDED TEMPERATURE
RMT .C        22                   : MDTP         - TEMPERATURE OF MUD          
MUDD.KG/M     1120                 : MWT          - MUD DENSITY                 
NEUT.         1                    : NEUTRON      - NEUTRON TYPE                
RESI.         0                    : RESIST       - RESISTIVITY TYPE            
RM  .OHMM     2.6                  : RM           - RESISTIVITY OF MUD          
RMC .OHMM     0                    : RMC          - RESISTIVITY OF MUD CAKE     
RMF .OHMM     3.2                  : RMF          - RESISTIVITY OF MUD FILTRATE 
SUFT.C        0                    : SUFT         - SURFACE TEMPERATURE         
~A  DEPTH     PHID     PHIN       GR      CAL     RESD
# ...
  619.000    0.151    0.277   75.716  164.389    9.258
  619.250    0.123    0.239   68.652  165.151    9.733
  619.500    0.074    0.204   61.959  165.601   10.344
  619.750    0.048    0.188   56.698  166.047   11.352
  620.000    0.050    0.191   59.021  166.180   12.815
  620.250    0.063    0.196   58.170  166.018   15.167
  620.500    0.057    0.181   52.224  165.941   17.448
  620.750    0.041    0.204   64.553  165.566   19.808
  621.000    0.068    0.252   77.876  165.388   18.155
  621.250    0.094    0.289   84.859  165.019   16.104
  621.500    0.109    0.307   91.034  164.637   12.839
  621.750    0.099    0.280   83.286  164.046   10.766
  622.000    0.080    0.237   74.543  162.533    9.322
  622.250    0.126    0.234   72.140  161.944    9.278
  622.500    0.170    0.268   79.248  161.460    9.995
  622.750    0.186    0.297   84.242  161.185   10.523
  623.000    0.194    0.310   89.051  161.428   10.694
  623.250    0.184    0.324   92.862  162.396   10.172
  623.500    0.173    0.336   98.416  163.879    9.302
  623.750    0.169    0.351  102.913  165.677    8.458
  624.000    0.165    0.364  103.679  165.609    7.854
  624.250    0.161    0.329   97.547  165.026    7.685
  624.500    0.154    0.294   90.236  164.234    7.679
  624.750    0.140    0.295   87.272  163.649    7.921
  625.000    0.128    0.308   96.244  163.162    8.484
  625.250    0.114    0.281   92.225  162.886    9.084
  625.500    0.074    0.248   79.006  162.717    9.950
  625.750    0.018    0.249   67.529  162.444   10.902
  626.000    0.054    0.296   67.364  162.580   11.224
  626.250    0.081    0.328   83.919  162.515   11.149
  626.500    0.116    0.351   96.310  162.548   10.707
  626.750    0.134    0.325   98.632  162.901   10.014
  627.000    0.112    0.301   90.947  162.826    9.262
  627.250    0.097    0.317   92.459  163.067    8.728
  627.500    0.088    0.332   92.106  163.414    8.576
  627.750    0.075    0.315   75.842  163.970    8.844
  628.000    0.041    0.258   62.126  164.628    9.580
  628.250    0.020    0.229   52.886  165.080   10.937
  628.500    0.021    0.231   68.510  166.048   12.208
  628.750    0.071    0.288   85.936  166.909   13.299
  629.000    0.101    0.350  106.718  168.187   12.967
  629.250    0.138    0.385  121.470  168.952   11.638
  629.500    0.174    0.412  129.013  169.097   10.266
  629.750    0.120    0.423  119.772  169.538    8.626
  630.000    0.070    0.415  110.408  169.160    7.386
  630.250    0.129    0.330  107.819  167.539    6.456
  630.500    0.210    0.294   90.436  165.296    6.389
  630.750    0.281    0.279   66.401  163.154    6.896
  631.000    0.279    0.306   63.938  161.425    8.113
  631.250    0.260    0.309   65.265  159.702    9.512
  631.500    0.252    0.304   66.529  157.982   10.167
  631.750    0.251    0.311   68.105  156.666   10.526
  632.000    0.239    0.315   69.678  155.766   10.185
  632.250    0.230    0.314   72.685  155.804    9.616
  632.500    0.219    0.312   78.361  156.671    8.894
  632.750    0.206    0.309   83.730  157.842    8.090
  633.000    0.188    0.301   91.458  159.122    7.679
  633.250    0.168    0.289   99.808  161.537    7.183
  633.500    0.147    0.282  113.256  163.439    6.671
  633.750    0.168    0.283  101.032  163.891    6.476
  634.000    0.228    0.279   79.111  162.062    6.483
  634.250    0.267    0.277   69.001  159.300    6.700
  634.500    0.219    0.291   63.553  156.848    7.217
  634.750    0.195    0.298   62.332  155.125    7.860
  635.000    0.195    0.291   65.274  155.577    8.417
  635.250    0.207    0.283   67.907  157.479    8.619
  635.500    0.216    0.282   66.995  159.066    7.882
  635.750    0.226    0.301   69.314  160.652    6.825
  636.000    0.234    0.323   74.931  161.829    5.976
  636.250    0.241    0.327   76.817  160.827    5.394
  636.500    0.238    0.319   78.456  158.792    4.979
  636.750    0.233    0.311   80.901  157.068    4.623
  637.000    0.221    0.303   82.724  155.964    4.258
  637.250    0.176    0.302  102.202  156.517    4.136
  637.500    0.131    0.321  115.091  157.792    4.380
  637.750    0.100    0.339  121.699  159.382    4.808
  638.000    0.055    0.352  110.656  162.733    5.387
  638.250    0.037    0.364   99.178  165.150    5.991
  638.500    0.141    0.358  103.737  163.321    6.250
  638.750    0.164    0.341  103.137  156.829    5.924
  639.000    0.160    0.313  105.459  158.005    5.645
  639.250    0.149    0.313  113.436  162.497    5.462
  639.500    0.121    0.331  118.243  166.367    5.478
  639.750    0.147    0.313   94.210  164.848    5.705
  640.000    0.182    0.303   85.155  160.844    6.017
  640.250    0.199    0.299   75.107  157.665    6.432
  640.500    0.200    0.291   70.902  156.982    6.413
  640.750    0.175    0.282   73.098  156.493    6.218
  641.000    0.154    0.270   80.641  156.533    6.261
  641.250    0.140    0.276   89.675  157.704    6.443
  641.500    0.144    0.262   91.873  161.472    6.697
  641.750    0.145    0.259   94.631  163.058    6.998
  642.000    0.140    0.270   98.692  160.299    7.246
  642.250    0.132    0.291  104.617  157.847    7.091
  642.500    0.102    0.298   98.422  157.575    6.733
  642.750    0.080    0.286   95.958  159.886    6.346
  643.000    0.096    0.284  103.873  163.654    6.060
  643.250    0.107    0.323  113.778  167.830    5.821
  643.500    0.127    0.321  112.370  169.939    5.567
  643.750    0.148    0.308   96.168  165.627    5.286
  644.000    0.135    0.303   86.804  159.653    4.862
  644.250    0.105    0.299   83.965  155.644    4.590
  644.500    0.115    0.292   88.150  155.890    4.392
  644.750    0.136    0.273   92.276  162.243    4.154
  645.000    0.136    0.269   92.358  165.593    3.982
  645.250    0.113    0.271   95.922  164.600    3.896
  645.500    0.114    0.281  101.540  163.804    4.104
  645.750    0.127    0.297  107.029  162.904    4.329
  646.000    0.127    0.331  112.831  161.489    4.558
  646.250    0.092    0.437  117.639  160.283    4.385
  646.500    0.073    0.466  121.017  160.527    4.011
  646.750    0.086    0.429  117.122  167.500    3.592
  647.000    0.113    0.371  112.916  171.680    3.122
  647.250    0.088    0.358  111.509  164.879    2.704
  647.500    0.066    0.345  115.508  158.904    2.435
  647.750    0.112    0.383  120.626  160.398    2.536
  648.000    0.134    0.380  122.015  161.566    2.880
  648.250    0.133    0.351  122.534  162.846    3.439
  648.500    0.122    0.367  122.369  164.541    4.258
  648.750    0.087    0.376  112.755  166.024    4.458
  649.000    0.007    0.392  111.347  165.750    3.868
  649.250    0.067    0.404  119.884  161.847    3.426
  649.500    0.124    0.419  127.302  164.576    3.180
  649.750    0.133    0.417  134.038  166.791    3.100
  650.000    0.117    0.405  138.721  168.069    3.283
  650.250    0.081    0.387  136.877  168.724    3.820
  650.500    0.093    0.393  133.169  169.176    4.272
  650.750    0.074    0.388  126.787  169.523    4.391
  651.000    0.014    0.413  123.390  169.559    4.015
  651.250    0.067    0.428  130.062  169.389    3.988
  651.500    0.117    0.472  134.746  168.281    4.231
  651.750    0.122    0.468  137.751  167.487    3.921
  652.000    0.082    0.428  118.813  166.797    3.408
  652.250    0.017    0.395  106.527  166.109    2.799
  652.500   -0.017    0.386  112.454  165.938    2.614
  652.750   -0.052    0.394  125.592  167.525    2.789
  653.000    0.090    0.411  134.006  168.913    2.860
  653.250    0.109    0.427  139.246  169.048    2.529
  653.500    0.083    0.429  137.838  168.052    2.807
  653.750    0.063    0.448  135.125  167.260    3.397
  654.000    0.083    0.476  133.841  165.845    4.151
  654.250    0.060    0.487  126.962  164.633    3.435
  654.500    0.050    0.476  118.221  163.941    2.555
  654.750    0.040    0.444  111.154  163.254    1.899
  655.000    0.008    0.430  112.419  162.978    1.442
  655.250    0.068    0.441  121.515  163.634    1.258
