~VERSION INFORMATION
 VERS.                 2.0:   CWLS LOG ASCII STANDARD -VERSION 2.0
 WRAP.                  NO:   ONE LINE PER DEPTH STEP
~WELL INFORMATION BLOCK
#MNEM.UNIT           DATA                    DESCRIPTION OF MNEMONIC
#---------    -------------------            -------------------------------
# Generated from Intellog Unique Number	CX_WELLS/WELL/3723
WELL.         COSEKA ET AL GRANOR            : Well_name    - WELL
LOC .         00/11-35-085-17W4/0            : Location     - LOCATION
UWI .         00/11-35-085-17W400            : Uwi          - UNIQUE WELL ID
ENTR.         T                              : Entered      - ENTERED BY
SRVC.         SCHLUMBERGER                   : Scn          - SERVICE COMPANY
STRT.M        160                            : top_depth    - START DEPTH
STOP.M        260                            : bot_depth    - STOP DEPTH
STEP.M        0.25                           : increment    - STEP LENGTH
 NULL. -999.2500:NULL Value
~CURVE INFORMATION BLOCK
#MNEM UNIT       ERCB CURVE CODE    CURVE DESCRIPTION
#-----------   ------------------   ----------------------------------
DEPT.M        00 001 00 00         : DEPTH        - DEPTH
GR  .API      00 310 00 00         : GR           - GAMMA RAY
NPHI.V/V      00 330 00 00         : PHIN         - NEUTRON POROSITY (SANDSTONE)
ILD .OHMM     00 120 00 00         : RESD         - DEEP RESISTIVITY (DIL)
~PARAMETER INFORMATION
#MNEM.UNIT           DATA             DESCRIPTION OF MNEMONIC
#---------         -----------     ------------------------------
GL  .M        511                  : gl           - GROUND LEVEL ELEVATION
EREF.M        514.55               : kb           - ELEVATION OF DEPTH REFERENCE
DATM.M        514.55               : datum        - DATUM ELEVATION
TDD .M        262                  : tdd          - TOTAL DEPTH DRILLER
RUN .         ONE                  : Run          - RUN NUMBER
ENG .         BILL                 : Engineer     - RECORDING ENGINEER
WIT .         JIM                  : Witness      - WITNESSED BY
MUD .         GEL                  : Mud_type     - MUD TYPE
MATR.         SANDSTONE            : Logunit      - NEUTRON MATRIX
TMAX.C        25                   : BHT          - MAXIMUM RECORDED TEMPERATURE
BHTD.M        262                  : BHTDEP       - MAXIMUM RECORDED TEMPERATURE
MATR.         1                    : LOGUNIT      - NEUTRON MATRIX
RMT .C        25                   : MDTP         - TEMPERATURE OF MUD
NEUT.         1                    : NEUTRON      - NEUTRON TYPE
RESI.         4.3                  : RESIST       - RESISTIVITY TYPE
RMC .OHMM     5                    : RMC          - RESISTIVITY OF MUD CAKE
RMF .OHMM     9                    : RMF          - RESISTIVITY OF MUD FILTRATE
SUFT.C        4                    : SUFT         - SURFACE TEMPERATURE
~A  DEPTH       GR     PHIN     RESD
  160.000   74.631    0.394   12.178
  160.250   77.090    0.393   11.520
  160.500   78.336    0.394   10.691
  160.750   80.223    0.398    9.734
  161.000   82.064    0.405    9.037
  161.250   85.759    0.403    8.709
  161.500   90.666    0.402    8.397
  161.750   91.935    0.410    8.251
  162.000   91.351    0.448    8.261
  162.250   87.770    0.445    8.278
  162.500   83.582    0.440    8.135
  162.750   82.392    0.426    8.151
  163.000   80.630    0.417    8.010
  163.250   79.462    0.411    7.871
  163.500   78.890    0.407    7.884
  163.750   80.148    0.402    8.048
  164.000   81.417    0.401    8.374
  164.250   82.080    0.404    8.714
  164.500   81.507    0.401    8.896
  164.750   80.935    0.405    8.738
  165.000   80.397    0.406    8.425
  165.250   80.430    0.398    7.972
  165.500   80.476    0.399    8.139
  165.750   81.745    0.400    8.465
  166.000   81.779    0.401    8.815
  166.250   83.048    0.405    8.830
  166.500   84.923    0.408    8.039
  166.750   85.552    0.412    7.608
  167.000   86.810    0.414    7.470
  167.250   87.473    0.413    7.488
  167.500   88.135    0.414    7.497
  167.750   88.158    0.417    7.509
  168.000   88.832    0.421    7.521
  168.250   89.472    0.426    7.251
  168.500   89.506    0.424    7.123
  168.750   88.968    0.425    7.134
  169.000   89.013    0.430    7.148
  169.250   90.271    0.435    7.160
  169.500   91.529    0.439    7.306
  169.750   92.786    0.449    7.321
  170.000   92.832    0.456    7.333
  170.250   91.664    0.452    7.483
  170.500   89.891    0.448    7.642
  170.750   88.712    0.444    7.955
  171.000   86.332    0.435    8.118
  171.250   88.814    0.429    8.613
  171.500   90.071    0.418    9.311
  171.750   91.329    0.408   10.069
  172.000   91.981    0.413   10.468
  172.250   92.026    0.408   11.102
  172.500   87.816    0.367   12.242
  172.750   77.554    0.344   12.734
  173.000   69.111    0.324   13.770
  173.250   63.700    0.333   14.604
  173.500   60.713    0.330   14.622
  173.750   66.822    0.324   14.645
  174.000   72.930    0.363   13.592
  174.250   79.049    0.382   11.917
  174.500   82.126    0.400   11.268
  174.750   83.395    0.403   11.286
  175.000   81.015    0.399   11.309
  175.250   79.836    0.414   11.113
  175.500   79.881    0.430   11.130
  175.750   79.332    0.428   11.148
  176.000   78.771    0.423   11.381
  176.250   76.986    0.418   11.619
  176.500   77.648    0.417   11.642
  176.750   77.694    0.404   11.656
  177.000   75.302    0.395   11.675
  177.250   75.359    0.394   11.918
  177.500   77.829    0.404   11.937
  177.750   79.705    0.409   12.192
  178.000   80.345    0.412   12.211
  178.250   80.390    0.415   11.778
  178.500   81.041    0.420   11.564
  178.750   80.481    0.426   11.364
  179.000   78.718    0.428   11.172
  179.250   78.157    0.414   11.194
  179.500   80.032    0.403   11.203
  179.750   81.885    0.397   11.437
  180.000   83.738    0.389   11.455
  180.250   86.826    0.402   11.699
  180.500   89.308    0.440   11.953
  180.750   89.971    0.449   11.963
  181.000   90.599    0.442   11.760
  181.250   91.251    0.441   11.338
  181.500   90.084    0.444   11.142
  181.750   86.491    0.446   10.953
  182.000   86.547    0.449   10.962
  182.250   90.230    0.450   10.993
  182.500   92.094    0.451   10.798
  182.750   92.735    0.453   10.807
  183.000   92.780    0.455   10.624
  183.250   92.825    0.456   10.440
  183.500   93.499    0.459   10.452
  183.750   93.544    0.460   10.473
  184.000   90.570    0.465   10.486
  184.250   88.773    0.468   10.515
  184.500   88.223    0.469   10.528
  184.750   91.300    0.468   10.545
  185.000   93.164    0.467   10.566
  185.250   92.592    0.466   10.578
  185.500   89.606    0.465   10.604
  185.750   85.429    0.464   10.612
  186.000   83.633    0.463   10.834
  186.250   81.276    0.463   10.851
  186.500   79.491    0.462   10.864
  186.750   78.941    0.459   11.096
  187.000   78.963    0.458   11.109
  187.250   80.233    0.458   11.127
  187.500   81.490    0.457   11.364
  187.750   82.142    0.456   11.382
  188.000   81.581    0.453   11.400
  188.250   82.232    0.450   11.418
  188.500   83.501    0.451   11.437
  188.750   85.354    0.450   11.455
  189.000   87.836    0.448   11.473
  189.250   90.306    0.446   11.496
  189.500   88.521    0.445   11.510
  189.750   86.759    0.446   11.537
  190.000   85.603    0.443   11.551
  190.250   85.626    0.439   11.788
  190.500   85.671    0.438   12.039
  190.750   86.322    0.444   12.522
  191.000   88.793    0.453   12.788
  191.250   92.510    0.455   13.066
  191.500   93.138    0.455   13.087
  191.750   94.396    0.454   13.113
  192.000   92.634    0.454   13.118
  192.250   91.455    0.453   12.891
  192.500   89.693    0.452   12.912
  192.750   89.120    0.450   12.943
  193.000   87.953    0.447   12.958
  193.250   87.392    0.445   13.223
  193.500   86.831    0.441   13.505
  193.750   86.281    0.436   13.527
  194.000   87.550    0.433   13.298
  194.250   88.190    0.437   12.821
  194.500   90.054    0.442   12.356
  194.750   91.907    0.457   11.912
  195.000   96.219    0.463   11.268
  195.250  100.508    0.472   10.659
  195.500  102.967    0.476   10.272
  195.750  107.257    0.481    9.533
  196.000  105.483    0.482    8.847
  196.250  100.072    0.479    9.571
  196.500   94.054    0.474   10.744
  196.750   89.249    0.456   12.776
  197.000   84.444    0.451   13.561
  197.250   86.308    0.454   12.822
  197.500   90.002    0.459   12.124
  197.750   92.461    0.463   10.830
  198.000   93.730    0.468    9.500
  198.250   93.764    0.473    9.152
  198.500   95.662    0.477    8.997
  198.750   95.696    0.479    9.007
  199.000   95.146    0.485    9.025
  199.250   93.956    0.488    9.036
  199.500   92.789    0.485    9.229
  199.750   94.653    0.481    9.240
  200.000   99.548    0.477    9.258
  200.250  105.062    0.473    9.102
  200.500  107.521    0.477    9.112
  200.750  108.195    0.474    8.955
  201.000  105.815    0.467    8.969
  201.250  102.234    0.463    9.512
  201.500  100.437    0.457   10.480
  201.750   96.250    0.451   11.770
  202.000   95.082    0.447   12.483
  202.250   98.159    0.447   12.743
  202.500  104.267    0.448   12.774
  202.750  105.514    0.449   12.548
  203.000  104.346    0.449   12.340
  203.250  103.202    0.448   12.355
  203.500  102.618    0.446   12.370
  203.750  102.068    0.444   12.390
  204.000  101.518    0.441   12.409
  204.250  100.946    0.442   12.434
  204.500  100.374    0.445   12.694
  204.750   97.399    0.445   12.719
  205.000   93.795    0.439   12.729
  205.250   89.001    0.433   13.011
  205.500   86.610    0.434   13.272
  205.750   87.261    0.433   13.544
  206.000   89.754    0.431   14.376
  206.250   91.618    0.431   14.393
  206.500   91.046    0.430   14.705
  206.750   90.496    0.429   14.717
  207.000   88.722    0.424   15.313
  207.250   85.725    0.413   16.248
  207.500   79.101    0.384   16.899
  207.750   74.891    0.339   19.344
  208.000   68.873    0.315   27.320
  208.250   64.685    0.319   35.736
  208.500   68.963    0.341   39.390
  208.750   75.094    0.363   36.541
  209.000   78.159    0.379   33.271
  209.250   81.854    0.394   27.550
  209.500   82.505    0.407   23.680
  209.750   83.157    0.411   19.230
  210.000   83.797    0.416   16.542
  210.250   84.448    0.420   15.648
  210.500   85.706    0.426   15.080
  210.750   86.987    0.434   14.551
  211.000   87.032    0.440   14.287
  211.250   87.672    0.441   14.040
  211.500   88.357    0.441   13.797
  211.750   88.998    0.441   13.558
  212.000   89.031    0.441   13.328
  212.250   89.694    0.443   13.344
  212.500   89.728    0.443   13.371
  212.750   89.156    0.444   13.387
  213.000   85.563    0.445   13.678
  213.250   88.640    0.445   13.694
  213.500   90.504    0.447   13.716
  213.750   88.124    0.450   13.229
  214.000   85.149    0.453   12.518
