~VERSION INFORMATION
 VERS.                 2.0:   CWLS LOG ASCII STANDARD -VERSION 2.0
 WRAP.                  NO:   ONE LINE PER DEPTH STEP
~WELL INFORMATION BLOCK
#MNEM.UNIT           DATA                    DESCRIPTION OF MNEMONIC
#---------    -------------------            -------------------------------
# Generated from Intellog Unique Number	CS_71_72/WELL/3326
WELL.         ALBERTA ENERGY CO.LTD.         : Well_name    - WELL
LOC .         00/10-32-072-03W4/0            : Location     - LOCATION
UWI .         00/10-33-067-11W4/0            : Uwi          - UNIQUE WELL ID
ENTR.         JOETTE                         : Entered      - ENTERED BY
SRVC.         SCHLUMBERGER                   : Scn          - SERVICE COMPANY
DATE.         05/13/92                       : Date         - LOG DATE
STRT.M        325                            : top_depth    - START DEPTH
STOP.M        560                            : bot_depth    - STOP DEPTH
STEP.M        0.25                           : increment    - STEP LENGTH
 NULL. -999.2500:NULL Value
~CURVE INFORMATION BLOCK
#MNEM UNIT       ERCB CURVE CODE    CURVE DESCRIPTION
#-----------   ------------------   ----------------------------------
DEPT.M        00 001 00 00         : DEPTH        - DEPTH
CALI.MM       00 280 01 00         : CAL          - CALIPER
GR  .API      00 310 00 00         : GR           - GAMMA RAY
NPHI.V/V      00 330 00 00         : PHIN         - NEUTRON POROSITY (SANDSTONE)
DPHI.V/V      00 890 00 00         : PHID         - DENSITY POROSITY (SANDSTONE)
ILD .OHMM     00 120 00 00         : RESD         - DEEP RESISTIVITY (DIL)
~PARAMETER INFORMATION
#MNEM.UNIT           DATA             DESCRIPTION OF MNEMONIC
#---------         -----------     ------------------------------
GL  .M        695.31               : gl           - GROUND LEVEL ELEVATION
EREF.M        698.91               : kb           - ELEVATION OF DEPTH REFERENCE
DATM.M        698.91               : datum        - DATUM ELEVATION
TDD .M        566                  : tdd          - TOTAL DEPTH DRILLER
RUN .         ONE                  : Run          - RUN NUMBER
ENG .         BILL                 : Engineer     - RECORDING ENGINEER
WIT .         JIM                  : Witness      - WITNESSED BY
MUD .         GEL                  : Mud_type     - MUD TYPE
MATR.         SANDSTONE            : Logunit      - NEUTRON MATRIX
TMAX.C        32                   : BHT          - MAXIMUM RECORDED TEMPERATURE
BHTD.M        566                  : BHTDEP       - MAXIMUM RECORDED TEMPERATURE
MATR.         1                    : LOGUNIT      - NEUTRON MATRIX
RMT .C        12                   : MDTP         - TEMPERATURE OF MUD
NEUT.         1                    : NEUTRON      - NEUTRON TYPE
RESI.         0                    : RESIST       - RESISTIVITY TYPE
RMC .OHMM     2.5                  : RMC          - RESISTIVITY OF MUD CAKE
RMF .OHMM     2.3                  : RMF          - RESISTIVITY OF MUD FILTRATE
SUFT.C        4                    : SUFT         - SURFACE TEMPERATURE
~A  DEPTH      CAL       GR     PHIN     PHID     RESD
  325.000  153.692  103.955    0.598    0.250    2.731
  325.250  152.963  103.982    0.588    0.248    2.685
  325.500  153.016   99.832    0.577    0.245    2.688
  325.750  152.286   91.479    0.566    0.219    2.642
  326.000  152.375   86.742    0.567    0.195    2.646
  326.250  153.247   90.385    0.581    0.176    2.699
  326.500  154.101   94.641    0.590    0.155    2.703
  326.750  154.189   97.123    0.589    0.230    2.756
  327.000  155.061   97.163    0.582    0.255    2.760
  327.250  154.349   99.017    0.559    0.264    2.815
  327.500  153.620  103.274    0.570    0.262    2.873
  327.750  152.890  103.340    0.584    0.241    2.877
  328.000  152.161  102.793    0.597    0.235    2.934
  328.250  151.431  105.835    0.595    0.234    3.050
  328.500  151.502  105.902    0.591    0.230    3.230
  328.750  150.772  101.739    0.596    0.232    3.420
  329.000  150.843   98.189    0.592    0.235    3.830
  329.250  150.897  101.845    0.558    0.224    4.211
  329.500  150.968   98.296    0.524    0.190    4.139
  329.750  152.640   94.159    0.508    0.188    3.992
  330.000  152.711   94.200    0.525    0.203    3.851
  330.250  152.818  103.873    0.573    0.222    3.715
  330.500  152.070  106.341    0.567    0.236    3.649
  330.750  151.341  102.178    0.561    0.236    3.586
  331.000  151.429   98.055    0.568    0.229    3.593
  331.250  150.664   98.682    0.575    0.221    3.599
  331.500  150.753   98.749    0.578    0.226    3.669
  331.750  150.824   98.802    0.581    0.233    3.606
  332.000  150.913   98.268    0.598    0.237    3.545
  332.250  150.984   98.922    0.629    0.237    3.418
  332.500  151.055   98.962    0.629    0.234    3.177
  332.750  151.126  100.816    0.630    0.233    3.121
  333.000  151.179  102.658    0.622    0.232    2.956
  333.250  152.104  105.726    0.605    0.231    2.960
  333.500  152.940  105.179    0.589    0.236    3.020
  333.750  153.794  102.217    0.596    0.236    3.080
  334.000  155.484   99.869    0.600    0.231    3.203
  334.250  156.356  102.951    0.589    0.235    3.205
  334.500  157.245  104.805    0.592    0.239    3.150
  334.750  157.316  103.658    0.605    0.240    3.155
  335.000  155.786  101.296    0.608    0.234    3.158
  335.250  153.455   98.961    0.623    0.232    3.223
  335.500  151.925  100.815    0.624    0.235    3.287
  335.750  151.213  100.869    0.604    0.234    3.683
  336.000  152.886  102.123    0.491    0.224    4.281
  336.250  153.739   94.357    0.470    0.150    5.262
  336.500  153.793   84.790    0.464    0.103   12.207
  336.750  153.081   73.435    0.470    0.147   11.997
  337.000  152.369   73.488    0.465    0.232   11.576
  337.250  151.604   78.945    0.456    0.274   11.587
  337.500  151.693   87.431    0.448    0.269   11.602
  337.750  151.746   84.469    0.440    0.268   17.851
  338.000  151.835   74.902    0.434    0.272   19.260
  338.250  152.689   55.742    0.417    0.295   21.983
  338.500  153.578   59.998    0.421    0.318   23.279
  338.750  153.649   64.868    0.426    0.321   23.309
  339.000  153.720   67.323    0.448    0.320   22.067
  339.250  153.791   69.778    0.466    0.309   20.120
  339.500  154.663   72.834    0.456    0.282   18.017
  339.750  155.552   77.090    0.451    0.265   17.379
  340.000  155.623   82.547    0.461    0.260   16.764
  340.250  156.477   86.203    0.462    0.265   16.470
  340.500  157.384   88.671    0.473    0.268   16.191
  340.750  157.420   88.124    0.481    0.272   16.217
  341.000  157.491   87.577    0.469    0.269   16.845
  341.250  157.597   94.248    0.447    0.257   18.174
  341.500  156.850   95.489    0.445    0.253   22.351
  341.750  155.320   87.136    0.431    0.288   26.981
  342.000  152.989   80.585    0.440    0.322   31.357
  342.250  152.260   71.618    0.435    0.316   32.591
  342.500  151.512   64.466    0.426    0.305   31.457
  342.750  152.384   68.722    0.433    0.302   31.477
  343.000  154.074   68.802    0.439    0.303   32.121
  343.250  154.963   67.054    0.421    0.307   32.173
  343.500  155.016   65.293    0.419    0.319   32.193
  343.750  154.305   61.130    0.408    0.331   31.649
  344.000  153.557   57.607    0.424    0.334   31.103
  344.250  152.063   58.234    0.434    0.333   30.557
  344.500  151.298   63.118    0.437    0.323   27.363
  344.750  150.568   67.374    0.456    0.298   24.035
  345.000  149.038   70.416    0.482    0.260   19.599
  345.250  154.713   72.885    0.490    0.243   14.557
  345.500  159.605   73.552    0.485    0.204   17.242
  345.750  159.659   73.578    0.481    0.158   25.558
  346.000  158.929   73.031    0.481    0.131   29.162
  346.250  157.417   74.312    0.473    0.240   32.660
  346.500  155.887   75.553    0.453    0.269   32.107
  346.750  155.940   83.412    0.452    0.267   28.733
  347.000  155.228   85.266    0.443    0.279   20.947
  347.250  155.317   85.333    0.440    0.295   18.065
  347.500  155.370   81.170    0.444    0.299   16.171
  347.750  153.840   70.415    0.454    0.291   15.599
  348.000  152.328   79.475    0.440    0.270   16.218
  348.250  150.797   82.530    0.419    0.244   16.862
  348.500  150.050   78.981    0.424    0.248   16.878
  348.750  149.321   79.635    0.438    0.256   16.894
  349.000  149.427   77.887    0.432    0.264   16.010
  349.250  149.480   71.936    0.433    0.261   16.020
  349.500  149.534   75.591    0.437    0.251   15.448
  349.750  149.640   82.863    0.449    0.234   14.901
  350.000  150.494   87.733    0.450    0.227   14.112
  350.250  152.166   85.972    0.445    0.233   13.864
  350.500  154.639   83.637    0.443    0.245   13.130
  350.750  155.493   81.275    0.444    0.251   12.665
  351.000  157.983   95.138    0.454    0.246   12.447
  351.250  160.456  116.220    0.462    0.243   13.425
  351.500  161.381  121.691    0.478    0.246   16.511
  351.750  161.434  119.943    0.482    0.251   21.873
  352.000  160.669  106.173    0.451    0.265   28.442
  352.250  158.374   73.189    0.401    0.286   33.076
  352.500  157.627   57.017    0.397    0.297   30.157
  352.750  156.097   42.660    0.402    0.307   19.656
  353.000  155.367   33.706    0.414    0.313   16.638
  353.250  154.620   30.758    0.411    0.323   12.591
  353.500  154.726   33.212    0.397    0.331    8.516
  353.750  154.780   44.074    0.414    0.325    6.566
  354.000  154.851   71.160    0.481    0.287    5.255
  354.250  155.722  102.462    0.508    0.125    4.617
  354.500  155.793  116.926    0.530    0.136    4.214
  354.750  156.647  117.580    0.559    0.155    3.988
  355.000  158.355  119.434    0.592    0.195    3.847
  355.250  158.408  126.106    0.600    0.204    3.576
  355.500  159.280  124.358    0.595    0.198    3.449
  355.750  159.351  123.824    0.613    0.208    3.452
  356.000  160.222  122.676    0.620    0.238    3.724
  356.250  160.293  125.118    0.599    0.245    4.093
  356.500  160.364  122.769    0.551    0.233    5.034
  356.750  160.453  116.818    0.531    0.230    5.853
  357.000  160.506  110.867    0.521    0.233    7.470
  357.250  161.396  106.104    0.532    0.241   11.710
  357.500  161.485   88.744    0.517    0.269   16.716
  357.750  161.538   80.392    0.481    0.291   27.705
  358.000  160.791   70.825    0.463    0.294   34.084
  358.250  159.278   49.262    0.430    0.289   35.426
  358.500  156.147   39.095    0.425    0.316   39.662
  358.750  154.617   34.958    0.426    0.336   42.014
  359.000  153.887   34.411    0.426    0.348   41.303
  359.250  153.976   33.864    0.415    0.346   39.815
  359.500  154.065   33.917    0.407    0.337   34.983
  359.750  154.118   34.571    0.413    0.337   27.998
  360.000  154.171   37.026    0.422    0.337   25.064
  360.250  154.278   42.483    0.434    0.342   25.096
  360.500  154.331   50.342    0.447    0.343   27.586
  360.750  154.384   55.799    0.448    0.322   31.477
  361.000  154.491   73.278    0.415    0.278   40.942
  361.250  154.544   80.537    0.405    0.273   44.173
