~V
VERS. 2.00: Ver 2.00
WRAP. NO:
VEND. PRIZM:GeoGraphix
~W
STRT.M 45.7200:START DEPTH
STOP.M 281.6352:STOP DEPTH
STEP.M 0.3048:STEP
NULL. -999.2500:NULL VALUE
WELL. NUMAC SURMONT :WELL
COMP. :COMPANY
UWI. 00_10-14-082-06W4_0:UNIQUE WELL ID
FLD. :FIELD
CNTY. :COUNTY
STAT. :STATE
CTRY. :COUNTRY
PDAT. :PERMANENT DATUM
LMF. :LOG MEASURED FROM
DMF. :DRILLING MEASURED FROM
LOC1. 10-14-082-06W4:LOCATION LINE 1
LOC2. :LOCATION LINE 2
LOC3. :LOCATION LINE 3
SEC. :SECTION
TWP. :TOWNSHIP
RAN. :RANGE
SRVC. DRESSER ATLAS:Logging Company
BASE. :Logging Unit Location
ENG. BILL:Logging Engineer
WITN. JIM:Witnessed By
DATE. 26 - MAR - 1973:Date
RUN. ONE:Run No.
MUD_TYPE. GEL:Type Fluid in Hole
MUDS. :Source of Mud Sample
RMFS. :Source of Mud Filtrate
RMCS. :Source of Mud Cake
LOC. :LOCATION
~C
DEPT.M :DEPTH
PHID. :Density Pososity
NPHI. :PHIN         - NEUTRON POROSITY (LIMESTONE)
RHOB.KG/M3 :DENS         - BULK DENSITY
GR.API :GR           - GAMMA RAY
ILD.OHMM :RESD         - DEEP RESISTIVITY (DIL)
~P
EKB. 488.6000:ELEVATION OF KELLY BUSHING
EDF. -999.2500:ELEVATION OF DRILLING FLOOR
EGL. 486.7660:ELEVATION OF GROUND LEVEL
EPD. -999.2500:ELEVATION OF PERMANENT DATUM
APD. -999.2500:LMF DISTANCE ABOVE PERMANENT DATUM
LAT. 56.1093:LATITUDE OF WELL LOCATION
LONG. 110.8227:LONGITUDE OF WELL LOCATION
TDD. 278.8920:Total Depth Driller
TDL. -999.2500:Total Depth Logger
LCSG1. -999.2500:Depth of Casing from Logger
CSIZE. -999.2500:Casing Size
CWT. -999.2500:Casing Weight
BS. -999.2500:Bit Size
TLI. 45.7200:Top Logged Interval
BLI. 281.6352:Bottom Logged Interval
MRT. 16.6667:Maximum Recorded Temperature
WMUD. -999.2500:Drilling Mud Density
DFV. -999.2500:Drilling Mud Viscosity
PH. -999.2500:Drilling Mud pH
DFL. -999.2500:Drilling Mud Fluid Loss
RM. -999.2500:Resistivity of Drilling Fluid
RMT. -999.2500:Measured Temp. of Drilling Fluid
RMF. 0.2500:Resistivity of Drilling Fluid Filtrate
RMFT. -999.2500:Measured Temp. of Drilling Fluid Filtrate
RMC. 0.2500:Resistivity of Mud Cake
RMCT. -999.2500:Measured Temp. of Mud Cake
PHImax.V/V 0.3900:Maximum allowable Porosity
RwBnd.OHMM 0.1500:Bound Water Resistivity
RhoHy.KG/MT 1000.0000:Hydrocarbon Bulk density
SwCutoff.V/V 0.7000:Water Saturation Cutoff
PHINsh.V/V 0.4800:New Description
Rw.OHMM 1.0000:Formation Water Resistivity
Rshl.OHMM 5.0000:Resistivity shale
Trw.DEGC 25.0000:Rw measured at Lab conditions
ShaleCutoff.V/V 0.4000:New Description
GRcln.API 45.0000:Gamma Ray clean
RhoM.KG/MT 2650.0000:Bulk Density Matrix
GRshl.API 90.0000:Gamma Ray shale
m. 2.0000:Archie "m"
n. 2.0000:Archie "n"
GasTol.V/V 0.0500:Gas Tollerance
BHTemp.DEGC 25.0000:Bottom Hole Temperature
BHTDepth.M 1000.0000:Bottom Hole Depth
PHIDsh.US/MT 0.1800:New Description
a. 1.0000:Archie "a"
Gas Tol.V/V 0.0500:Gas Tollerance
RhoF.KG/MT 1000.0000:Bulk Density Fluid
RhoShl.KG/MT 2300.0000:Bulk Density Shale
TarCutoff.V/V 0.0300:New Description
SurfTemp.DEGC 10.0000:New Description
HIshl.V/V 0.4000:Neutron Hydrogen Index shale
MATR. 1.0000:
NEUT. 0.0000:
BHTD.M 278.8920:
DATM.M 488.5940:
NULL. -999.2500:
RESI. 0.0000:
SUFT.C 15.0000:
~A
# ...
  192.0240     0.2486     0.2950  2239.8101    80.5380     7.2460 
  192.3288     0.2400     0.2980  2253.9900    82.9630     5.9030 
  192.6336     0.2376     0.3080  2258.0400    84.1750     3.1290 
  192.9384     0.2449     0.3410  2245.9099    86.6000     2.2790 
  193.2432     0.2449     0.3550  2245.9099    89.6290     2.4110 
  193.5480     0.2498     0.3520  2237.8201    91.4470     3.1320 
  193.8528     0.2486     0.3270  2239.8501    90.8440     4.3850 
  194.1576     0.2510     0.3060  2235.8101    89.0310     5.5920 
  194.4624     0.2449     0.2940  2245.9399    81.7700     5.8060 
  194.7672     0.2351     0.2870  2262.1399    78.7470     5.7000 
  195.0720     0.2314     0.2800  2268.2200    78.7500     7.0030 
  195.3768     0.2608     0.2730  2219.6399    77.5420     7.1370 
  195.6816     0.2694     0.2630  2205.4700    72.7030     6.8770 
  195.9864     0.2620     0.2400  2217.6299    69.0740     7.9880 
  196.2912     0.2449     0.2060  2245.9700    64.2350    21.9020 
  196.5960     0.1786     0.1440  2355.2900    60.6060    20.3330 
  196.9008     0.1124     0.1100  2464.6101    59.3990    21.5100 
  197.2056     0.0633     0.1160  2545.5901    60.0060    30.1140 
  197.5104     0.0363     0.1180  2590.1399    60.6140    39.8590 
  197.8152     0.0620     0.1990  2547.6299    61.8280    10.0130 
  198.1200     0.1136     0.2400  2462.6201    61.8300     6.0510 
  198.4248     0.1479     0.3180  2405.9399    64.2530     6.0520 
  198.7296     0.1994     0.3080  2320.9199    70.3090     6.2840 
  199.0344     0.2399     0.3010  2254.1299    74.5480     7.3000 
  199.3392     0.2571     0.2990  2225.7900    73.3410     7.7230 
  199.6440     0.2399     0.2940  2254.1399    72.7380     8.0180 
  199.9488     0.2166     0.2780  2292.6101    72.1350     8.0210 
  200.2536     0.2141     0.2710  2296.6599    74.5590     8.1740 
  200.5584     0.2117     0.2910  2300.7200    82.4300     4.3340 
  200.8632     0.1957     0.2920  2327.0400    88.4850     4.0990 
  201.1680     0.1761     0.2910  2359.4399    92.1200     4.1780 
  201.4728     0.2325     0.2910  2266.3201    92.1230     4.1790 
  201.7776     0.2055     0.2890  2310.8601    93.3350     4.2590 
  202.0824     0.2019     0.2860  2316.9399    95.1540     4.3410 
  202.3872     0.1908     0.2840  2335.1699    96.3680     4.5920 
  202.6920     0.1871     0.2880  2341.2500    96.3700     5.2350 
  202.9968     0.1933     0.2950  2331.1299    94.5560     5.9680 
  203.3016     0.1994     0.2990  2321.0200    91.5340     5.8590 
  203.6064     0.2031     0.3020  2314.9500    91.5370     5.8610 
  203.9112     0.1920     0.3090  2333.1799    92.1450     5.4410 
  204.2160     0.2092     0.3240  2304.8401    92.1470     4.3500 
  204.5208     0.2313     0.3570  2268.4099    91.5440     2.4850 
  204.8256     0.2129     0.4070  2298.7800    89.7310     1.9500 
  205.1304     0.2116     0.4110  2300.8101    86.1020     1.9150 
  205.4352     0.2264     0.4090  2276.5200    80.0530     1.9510 
  205.7400     0.2533     0.4020  2231.9900    79.4500     2.0650 
  206.0448     0.2582     0.3900  2223.8999    81.8740     2.1440 
  206.3496     0.2582     0.3720  2223.9099    82.4810     2.8370 
  206.6544     0.2582     0.3580  2223.9199    79.4580     3.3580 
  206.9592     0.2447     0.3500  2246.1899    76.4350     3.6190 
  207.2640     0.2374     0.3370  2258.3401    76.4370     5.0670 
  207.5688     0.2288     0.3180  2272.5200    78.2550     5.3610 
  207.8736     0.2251     0.3030  2278.6001    80.0740     5.2630 
  208.1784     0.2153     0.2980  2294.8000    80.0770     5.6730 
  208.4832     0.2165     0.3000  2292.7800    83.1060     6.0020 
  208.7880     0.2018     0.3050  2317.0801    87.3460     5.4680 
  209.0928     0.1981     0.3120  2323.1599    88.5580     3.0660 
  209.3976     0.1846     0.3570  2345.4299    95.2190     3.0670 
  209.7024     0.1834     0.3350  2347.4600    97.0380     3.0680 
  210.0072     0.2349     0.3250  2262.4500    93.4090     2.9560 
  210.3120     0.2165     0.3340  2292.8201    89.1760     2.9580 
  210.6168     0.2287     0.3680  2272.5801    88.5720     2.9040 
  210.9216     0.2116     0.3580  2300.9299    87.9690     3.2490 
  211.2264     0.2005     0.3510  2319.1499    87.3680     3.3110 
  211.5312     0.2054     0.3460  2311.0601    87.9750     3.3750 
  211.8360     0.2226     0.3420  2282.7300    87.3720     2.8540 
  212.1408     0.2250     0.3410  2278.6799    88.5850     2.9080 
  212.4456     0.2115     0.3470  2300.9600    93.4310     3.0200 
  212.7504     0.2042     0.3580  2313.1101    93.4340     3.3160 
  213.0552     0.2201     0.3480  2286.8000    92.2250     3.0790 
  213.3600     0.2459     0.3370  2244.2900    89.8070     3.1380 
  213.6648     0.2348     0.3310  2262.5200    89.2050     3.5110 
  213.9696     0.2213     0.3210  2284.8000    87.9970     3.9280 
  214.2744     0.2152     0.3120  2294.9199    84.3680     4.5620 
  214.5792     0.2140     0.3040  2296.9500    84.3700     5.1050 
  214.8840     0.2078     0.3020  2307.0801    86.1890     4.7390 
  215.1888     0.2054     0.3020  2311.1299    86.7970     3.7890 
  215.4936     0.2041     0.3090  2313.1699    86.1950     3.5840 
  215.7984     0.2213     0.3010  2284.8301    84.9870     4.6560 
  216.1032     0.2164     0.2860  2292.9399    80.7530     5.8270 
  216.4080     0.2017     0.2690  2317.2300    69.8610     7.2930 
  216.7128     0.1931     0.2630  2331.4099    65.6280     7.8610 
  217.0176     0.1931     0.2590  2331.4199    66.2340     7.2980 
  217.3224     0.2507     0.2570  2236.2800    68.0530     6.6490 
  217.6272     0.2483     0.2530  2240.3301    67.4510     6.0580 
  217.9320     0.2421     0.2590  2250.4600    68.0590    10.2230 
  218.2368     0.2372     0.2740  2258.5601    71.6930    10.0370 
  218.5416     0.2250     0.3410  2278.8101    75.9320     3.3360 
  218.8464     0.1783     0.3290  2355.7500    74.1190     3.7330 
  219.1512     0.2618     0.3540  2218.0901    75.9370     3.8760 
  219.4560     0.3035     0.3630  2149.2700    81.3880     3.0420 
  219.7608     0.2949     0.3650  2163.4500    83.8110     2.4320 
  220.0656     0.3059     0.3480  2145.2400    83.2090     2.1750 
  220.3704     0.3084     0.3140  2141.1899    80.1850     2.8780 
  220.6752     0.3108     0.2810  2137.1499    70.5040     5.7460 
  220.9800     0.2998     0.2810  2155.3799    59.0070    12.5920 
  221.2848     0.2887     0.3090  2173.6001    63.8510    13.5740 
  221.5896     0.3108     0.3260  2137.1699    71.7230     7.0630 
  221.8944     0.3206     0.3710  2120.9800    75.3560     7.7570 
  222.1992     0.3341     0.4150  2098.7200    69.9120     9.1790 
  222.5040     0.4629     0.4470  1886.1700    60.2310     7.6190 
  222.8088     0.5365     0.4070  1764.7200    60.8390     8.5230 
  223.1136     0.4433     0.3640  1918.5699    71.1310     4.1160 
  223.4184     0.3844     0.3430  2015.7500   104.4220     3.4800 
  223.7232     0.3096     0.3530  2139.2400   105.6360     3.2920 
  224.0280     0.2261     0.3690  2276.8999   102.0070     3.4830 
  224.3328     0.2384     0.3820  2256.6599    97.7720     3.7540 
  224.6376     0.2703     0.3940  2204.0400    93.5380     3.9710 
  224.9424     0.2936     0.3930  2165.5801    91.1200     4.2810 
  225.2472     0.3230     0.3660  2117.0000    90.5180     3.7580 
  225.5520     0.2678     0.3350  2208.1001    88.7050     3.6890 
  225.8568     0.2298     0.3020  2270.8601    89.3120     4.9750 
  226.1616     0.2028     0.2790  2315.4099    99.0000     6.4640 
  226.4664     0.1782     0.2630  2355.8999    91.7400     7.3680 
  226.7712     0.1660     0.2600  2376.1499    87.5060     8.7200 
  227.0760     0.1758     0.2630  2359.9600    85.6920     8.8870 
  227.3808     0.1770     0.2590  2357.9399    86.9050     8.2500 
  227.6856     0.1782     0.2540  2355.9199    91.1450     6.1210 
  227.9904     0.1586     0.2530  2388.3201    90.5430     7.2430 
  228.2952     0.1451     0.2520  2410.5901    87.5190     7.6640 
