~VERSION INFORMATION
 VERS.                 2.0:   CWLS LOG ASCII STANDARD -VERSION 2.0
 WRAP.                  NO:   ONE LINE PER DEPTH STEP
~WELL INFORMATION BLOCK
#MNEM.UNIT           DATA                    DESCRIPTION OF MNEMONIC
#---------    -------------------            -------------------------------
# Generated from Intellog Unique Number	CS_67_68/WELL/844
WELL.         DOME PETROLEUM LIMITED         : Well_name    - WELL
LOC .         00/11-29-068-02W4/0            : Location     - LOCATION
UWI .         00/11-29-068-02W4/0            : Uwi          - UNIQUE WELL ID
ENTR.         SP                             : Entered      - ENTERED BY
SRVC.         SCHLUMBERGER                   : Scn          - SERVICE COMPANY
STRT.M        390                            : top_depth    - START DEPTH
STOP.M        630                            : bot_depth    - STOP DEPTH
STEP.M        0.25                           : increment    - STEP LENGTH
 NULL. -999.2500:NULL Value
~CURVE INFORMATION BLOCK
#MNEM UNIT       ERCB CURVE CODE    CURVE DESCRIPTION
#-----------   ------------------   ----------------------------------
DEPT.M        00 001 00 00         : DEPTH        - DEPTH
ILD .OHMM     00 120 00 00         : RESD         - DEEP RESISTIVITY (DIL)
DPHI.V/V      00 890 00 00         : PHID         - DENSITY POROSITY (LIMESTONE)
NPHI.V/V      00 330 00 00         : PHIN         - NEUTRON POROSITY (LIMESTONE)
GR  .API      00 310 00 00         : GR           - GAMMA RAY
~PARAMETER INFORMATION
#MNEM.UNIT           DATA             DESCRIPTION OF MNEMONIC
#---------         -----------     ------------------------------
GL  .M        724.6                : gl           - GROUND LEVEL ELEVATION
EREF.M        729.1                : kb           - ELEVATION OF DEPTH REFERENCE
DATM.M        724.6                : datum        - DATUM ELEVATION
TDD .M        637                  : tdd          - TOTAL DEPTH DRILLER
RUN .         ONE                  : Run          - RUN NUMBER
ENG .         BILL                 : Engineer     - RECORDING ENGINEER
WIT .         JIM                  : Witness      - WITNESSED BY
MUD .         GEL                  : Mud_type     - MUD TYPE
MATR.         LIMESTONE            : Logunit      - NEUTRON MATRIX
TMAX.C        28.3                 : BHT          - MAXIMUM RECORDED TEMPERATURE
BHTD.M        6372                 : BHTDEP       - MAXIMUM RECORDED TEMPERATURE
MATR.         1                    : LOGUNIT      - NEUTRON MATRIX
RMT .C        25                   : MDTP         - TEMPERATURE OF MUD
NEUT.         1                    : NEUTRON      - NEUTRON TYPE
RESI.         0                    : RESIST       - RESISTIVITY TYPE
RMC .OHMM     0.25                 : RMC          - RESISTIVITY OF MUD CAKE
RMF .OHMM     0.25                 : RMF          - RESISTIVITY OF MUD FILTRATE
SUFT.C        15                   : SUFT         - SURFACE TEMPERATURE
~A  DEPTH     RESD     PHID     PHIN       GR
# ...
  564.000    8.496    0.244    0.374   77.441
  564.250    8.448    0.237    0.362   79.275
  564.500    8.152    0.233    0.350   82.329
  564.750    7.838    0.237    0.370   86.300
  565.000    7.508    0.245    0.419   88.988
  565.250    6.928    0.242    0.411   88.197
  565.500    6.637    0.200    0.397   92.839
  565.750    6.322    0.165    0.400   97.420
  566.000    6.056    0.168    0.415  100.169
  566.250    5.736    0.174    0.425  102.431
  566.500    5.525    0.176    0.435  104.325
  566.750    5.302    0.178    0.445  106.647
  567.000    5.060    0.186    0.457  107.504
  567.250    4.966    0.192    0.457  108.788
  567.500    4.873    0.184    0.445  109.828
  567.750    5.001    0.178    0.437  107.388
  568.000    5.181    0.174    0.429   97.378
  568.250    5.307    0.170    0.429   88.467
  568.500    5.477    0.168    0.414   85.233
  568.750    5.589    0.173    0.392   87.494
  569.000    5.620    0.176    0.379   95.555
  569.250    5.618    0.179    0.392  102.883
  569.500    5.586    0.178    0.405  106.243
  569.750    5.733    0.175    0.425   97.393
  570.000    6.233    0.174    0.405   86.834
  570.250    7.100    0.183    0.375   79.632
  570.500    7.734    0.202    0.362   73.468
  570.750    8.117    0.196    0.354   69.624
  571.000    8.393    0.199    0.346   66.756
  571.250    8.533    0.218    0.355   64.377
  571.500    8.579    0.231    0.370   58.580
  571.750    8.658    0.238    0.352   60.047
  572.000    8.754    0.246    0.343   61.087
  572.250    8.769    0.250    0.334   55.961
  572.500    8.767    0.251    0.338   55.108
  572.750    8.717    0.255    0.349   58.102
  573.000    8.683    0.259    0.357   61.279
  573.250    8.601    0.258    0.371   62.990
  573.500    8.520    0.259    0.368   64.031
  573.750    8.455    0.267    0.353   64.765
  574.000    8.422    0.276    0.339   65.317
  574.250    8.405    0.282    0.339   61.839
  574.500    8.466    0.290    0.354   59.643
  574.750    8.512    0.282    0.348   61.599
  575.000    8.543    0.272    0.355   61.968
  575.250    8.557    0.259    0.359   61.176
  575.500    8.508    0.254    0.360   61.300
  575.750    8.459    0.251    0.355   62.035
  576.000    8.473    0.248    0.349   62.404
  576.250    8.488    0.241    0.345   62.589
  576.500    8.360    0.232    0.348   59.844
  576.750    8.205    0.255    0.359   51.543
  577.000    7.977    0.283    0.366   47.088
  577.250    7.858    0.309    0.371   43.550
  577.500    7.886    0.305    0.370   43.124
  577.750    7.884    0.301    0.373   45.935
  578.000    7.868    0.299    0.379   47.342
  578.250    7.867    0.297    0.369   47.221
  578.500    7.895    0.298    0.360   45.453
  578.750    7.908    0.302    0.354   43.501
  579.000    7.996    0.305    0.348   40.940
  579.250    8.099    0.305    0.357   39.843
  579.500    8.205    0.299    0.358   46.621
  579.750    8.342    0.290    0.352   52.484
  580.000    8.325    0.283    0.345   55.234
  580.250    8.216    0.283    0.343   56.335
  580.500    7.914    0.277    0.344   59.207
  580.750    7.580    0.267    0.346   65.070
  581.000    7.087    0.254    0.362   78.747
  581.250    6.738    0.242    0.401   89.921
  581.500    6.588    0.206    0.432   98.654
  581.750    6.478    0.177    0.446  105.066
  582.000    6.404    0.165    0.464  107.877
  582.250    6.403    0.172    0.466  109.650
  582.500    6.620    0.184    0.449  110.018
  582.750    6.935    0.179    0.429  102.572
  583.000    7.170    0.171    0.408   94.454
  583.250    7.358    0.167    0.395   90.793
  583.500    7.357    0.169    0.382   98.366
  583.750    7.301    0.169    0.408  101.481
  584.000    7.273    0.168    0.435   99.897
  584.250    7.299    0.167    0.428   97.639
  584.500    7.352    0.174    0.417   96.726
  584.750    7.392    0.166    0.443   89.707
  585.000    7.474    0.168    0.441   83.238
  585.250    7.571    0.179    0.408   87.697
  585.500    7.626    0.182    0.390   93.194
  585.750    7.710    0.189    0.437   84.038
  586.000    7.767    0.197    0.425   80.561
  586.250    7.838    0.205    0.387   78.671
  586.500    7.881    0.211    0.372   77.879
  586.750    7.908    0.213    0.382   76.721
  587.000    7.937    0.206    0.388   75.563
  587.250    7.936    0.201    0.390   69.277
  587.500    7.919    0.225    0.390   65.860
  587.750    7.903    0.223    0.393   79.171
  588.000    7.829    0.209    0.403   86.255
  588.250    7.755    0.198    0.415   90.409
  588.500    7.710    0.190    0.426   94.563
  588.750    7.651    0.179    0.444   96.885
  589.000    7.665    0.171    0.452   91.392
  589.250    7.720    0.187    0.441   84.496
  589.500    7.791    0.210    0.425   72.410
  589.750    7.863    0.220    0.374   65.330
  590.000    7.950    0.217    0.351   60.143
  590.250    8.023    0.209    0.337   55.505
  590.500    8.022    0.224    0.333   53.370
  590.750    8.005    0.226    0.328   55.387
  591.000    7.944    0.211    0.341   63.570
  591.250    7.914    0.200    0.363   68.090
  591.500    7.839    0.217    0.377   61.133
  591.750    7.750    0.232    0.362   60.341
  592.000    7.507    0.223    0.346   59.855
  592.250    7.006    0.202    0.355   49.844
  592.500    6.587    0.257    0.357   46.855
  592.750    6.193    0.292    0.349   53.756
  593.000    5.977    0.254    0.365   57.604
  593.250    5.833    0.266    0.386   35.811
  593.500    5.788    0.289    0.398   32.212
  593.750    5.787    0.318    0.371   43.630
  594.000    5.906    0.272    0.351   51.813
  594.250    6.073    0.235    0.348   59.081
  594.500    6.151    0.248    0.358   58.960
  594.750    6.025    0.268    0.364   51.942
  595.000    5.750    0.286    0.376   46.144
  595.250    5.477    0.313    0.392   40.896
  595.500    5.237    0.315    0.387   38.578
  595.750    5.101    0.315    0.389   36.078
  596.000    4.997    0.324    0.393   32.844
  596.250    4.894    0.327    0.388   31.808
  596.500    4.866    0.321    0.378   31.016
  596.750    4.811    0.322    0.371   28.454
  597.000    4.775    0.334    0.366   32.608
  597.250    4.783    0.325    0.366   39.997
  597.500    4.899    0.303    0.362   47.753
  597.750    5.037    0.273    0.360   53.433
  598.000    5.228    0.276    0.357   56.671
  598.250    5.365    0.274    0.359   58.932
  598.500    5.465    0.264    0.364   56.919
  598.750    5.515    0.266    0.383   43.185
  599.000    5.524    0.307    0.365   38.242
  599.250    5.482    0.310    0.345   43.372
  599.500    5.431    0.297    0.351   38.918
  599.750    5.280    0.316    0.365   31.655
  600.000    5.124    0.339    0.368   25.735
  600.250    4.945    0.324    0.364   26.592
  600.500    4.799    0.314    0.378   28.975
  600.750    4.657    0.315    0.389   29.649
  601.000    4.579    0.330    0.383   26.782
  601.250    4.477    0.341    0.369   22.998
  601.500    4.426    0.343    0.357   22.085
  601.750    4.376    0.344    0.350   21.965
  602.000    4.303    0.344    0.363   22.333
  602.250    4.278    0.337    0.380   23.495
  602.500    4.277    0.331    0.379   27.588
  602.750    4.325    0.319    0.367   34.672
  603.000    4.430    0.306    0.361   41.512
  603.250    4.546    0.290    0.353   46.520
  603.500    4.709    0.276    0.370   50.186
  603.750    5.053    0.270    0.367   52.141
  604.000    5.148    0.266    0.361   53.365
  604.250    5.264    0.259    0.357   52.390
  604.500    5.422    0.278    0.365   47.630
  604.750    5.523    0.301    0.364   40.489
  605.000    5.542    0.297    0.355   41.529
  605.250    5.521    0.263    0.355   47.819
  605.500    5.449    0.245    0.359   53.438
  605.750    5.427    0.242    0.357   55.760
  606.000    5.498    0.247    0.353   53.076
  606.250    5.663    0.257    0.348   39.830
  606.500    5.833    0.298    0.327   35.376
  606.750    5.920    0.294    0.317   44.474
  607.000    5.974    0.273    0.350   55.466
  607.250    6.007    0.256    0.375   62.184
