~VERSION INFORMATION
 VERS.                 2.0:   CWLS LOG ASCII STANDARD -VERSION 2.0
 WRAP.                  NO:   ONE LINE PER DEPTH STEP
~WELL INFORMATION BLOCK
#MNEM.UNIT           DATA                    DESCRIPTION OF MNEMONIC
#---------    -------------------            -------------------------------
# Generated from Intellog Unique Number	CS_69_70/WELL/2903
WELL.         HUSKY OIL OPERATIONS LTD.      : Well_name    - WELL
LOC .         00/12-31-069-08W4/0            : Location     - LOCATION
UWI .         00/12-31-069-08W4/0            : Uwi          - UNIQUE WELL ID
ENTR.         JOETTE                         : Entered      - ENTERED BY
SRVC.         SCHLUMBERGER                   : Scn          - SERVICE COMPANY
DATE.         05/15/92                       : Date         - LOG DATE
STRT.M        350                            : top_depth    - START DEPTH
STOP.M        560                            : bot_depth    - STOP DEPTH
STEP.M        0.25                           : increment    - STEP LENGTH
 NULL. -999.2500:NULL Value
~CURVE INFORMATION BLOCK
#MNEM UNIT       ERCB CURVE CODE    CURVE DESCRIPTION
#-----------   ------------------   ----------------------------------
DEPT.M        00 001 00 00         : DEPTH        - DEPTH
GR  .API      00 310 00 00         : GR           - GAMMA RAY
NPHI.V/V      00 330 00 00         : PHIN         - NEUTRON POROSITY (SANDSTONE)
DPHI.V/V      00 890 00 00         : PHID         - DENSITY POROSITY (SANDSTONE)
ILD .OHMM     00 120 00 00         : RESD         - DEEP RESISTIVITY (DIL)
CALI.MM       00 280 01 00         : CAL          - CALIPER
~PARAMETER INFORMATION
#MNEM.UNIT           DATA             DESCRIPTION OF MNEMONIC
#---------         -----------     ------------------------------
GL  .M        683.4                : gl           - GROUND LEVEL ELEVATION
EREF.M        687.1                : kb           - ELEVATION OF DEPTH REFERENCE
DATM.M        687.1                : datum        - DATUM ELEVATION
TDD .M        561.7                : tdd          - TOTAL DEPTH DRILLER
RUN .         ONE                  : Run          - RUN NUMBER
ENG .         BILL                 : Engineer     - RECORDING ENGINEER
WIT .         JIM                  : Witness      - WITNESSED BY
MUD .         GEL                  : Mud_type     - MUD TYPE
MATR.         SANDSTONE            : Logunit      - NEUTRON MATRIX
TMAX.C        23                   : BHT          - MAXIMUM RECORDED TEMPERATURE
BHTD.M        561.7                : BHTDEP       - MAXIMUM RECORDED TEMPERATURE
RMT .C        14.4                 : MDTP         - TEMPERATURE OF MUD
MUDD.KG/M     1100                 : MWT          - MUD DENSITY
NEUT.         1                    : NEUTRON      - NEUTRON TYPE
RESI.         0                    : RESIST       - RESISTIVITY TYPE
RM  .OHMM     4.51                 : RM           - RESISTIVITY OF MUD
RMC .OHMM     5.23                 : RMC          - RESISTIVITY OF MUD CAKE
RMF .OHMM     5.23                 : RMF          - RESISTIVITY OF MUD FILTRATE
SUFT.C        4                    : SUFT         - SURFACE TEMPERATURE
~A  DEPTH       GR     PHIN     PHID     RESD      CAL
# ...
  386.500   95.375    0.443    0.288    5.874  156.844
  386.750   96.667    0.442    0.278    5.587  160.022
  387.000  100.991    0.437    0.261    5.495  162.174
  387.250  106.576    0.430    0.250    5.224  162.209
  387.500  111.526    0.425    0.240    4.967  163.302
  387.750  116.485    0.430    0.230    4.805  165.420
  388.000  123.300    0.438    0.231    4.809  166.497
  388.250  129.500    0.443    0.234    4.897  169.657
  388.500  133.220    0.426    0.269    5.164  170.750
  388.750  117.891    0.400    0.322    5.348  166.738
  389.000   97.643    0.409    0.336    5.638  164.723
  389.250   82.303    0.421    0.322    5.641  160.727
  389.500   73.122    0.428    0.313    5.647  158.747
  389.750   79.927    0.418    0.300    5.463  158.815
  390.000   92.275    0.426    0.254    5.195  163.000
  390.250  107.687    0.430    0.210    5.025  165.084
  390.500  118.805    0.424    0.214    5.029  169.269
  390.750  122.535    0.424    0.226    5.122  170.345
  391.000  116.428    0.430    0.234    5.215  171.456
  391.250  111.551    0.431    0.251    5.311  171.525
  391.500  110.977    0.417    0.260    5.408  168.537
  391.750  108.559    0.408    0.258    5.506  166.556
  392.000  103.682    0.412    0.240    5.607  165.583
  392.250  104.349    0.421    0.247    5.714  163.637
  392.500  106.839    0.423    0.260    5.816  163.671
  392.750  110.579    0.417    0.272    5.923  162.733
  393.000  110.006    0.416    0.269    6.031  161.777
  393.250  107.588    0.419    0.266    6.037  160.838
  393.500  105.180    0.421    0.269    6.046  160.873
  393.750  102.762    0.418    0.269    6.051  160.959
  394.000  102.793    0.424    0.258    6.055  161.027
  394.250  103.449    0.437    0.262    6.062  161.131
  394.500  102.261    0.430    0.283    6.068  161.165
  394.750   97.999    0.422    0.304    6.074  160.244
  395.000   92.517    0.428    0.300    5.978  160.295
  395.250   98.081    0.426    0.290    5.884  159.322
  395.500  103.656    0.416    0.281    5.786  159.426
  395.750  109.251    0.406    0.273    5.693  159.460
  396.000  108.063    0.398    0.265    5.508  159.546
  396.250  106.270    0.402    0.251    5.325  160.640
  396.500  103.842    0.440    0.243    5.153  162.775
  396.750  106.332    0.492    0.236    5.068  165.918
  397.000  111.302    0.510    0.223    4.904  167.029
  397.250  108.259    0.483    0.227    4.906  167.080
  397.500  104.612    0.464    0.240    4.997  167.132
  397.750   99.119    0.478    0.255    5.177  166.193
  398.000   96.097    0.486    0.262    5.366  163.205
  398.250   97.983    0.481    0.266    5.462  162.215
  398.500   98.649    0.469    0.275    5.563  160.269
  398.750   96.846    0.459    0.282    5.665  159.296
  399.000   98.722    0.452    0.273    5.768  159.382
  399.250  103.681    0.450    0.264    5.875  159.451
  399.500  106.807    0.450    0.264    5.882  159.502
  399.750  106.838    0.457    0.274    5.887  159.571
  400.000  109.953    0.474    0.286    5.792  159.657
  400.250  106.306    0.487    0.287    5.700  159.726
  400.500   97.740    0.472    0.278    5.513  159.795
  400.750   92.862    0.470    0.270    5.425  159.881
  401.000   94.758    0.474    0.262    5.248  159.915
  401.250   99.103    0.478    0.262    5.162  161.043
  401.500   99.760    0.473    0.262    5.079  162.154
  401.750   98.571    0.462    0.257    5.353  162.206
  402.000   96.768    0.458    0.253    5.645  163.282
  402.250   99.269    0.461    0.273    5.648  163.351
  402.500  104.229    0.439    0.307    5.751  162.395
  402.750   93.203    0.417    0.322    5.860  160.432
  403.000   59.419    0.402    0.321    5.864  158.451
  403.250   55.771    0.400    0.318    5.871  157.512
  403.500   55.813    0.412    0.316    5.874  157.547
  403.750   59.564    0.440    0.318    6.409  158.657
  404.000   59.605    0.429    0.316    7.114  158.744
  404.250   56.562    0.367    0.279    7.758  158.812
  404.500   51.684    0.256    0.199    9.066  159.923
  404.750   44.358    0.194    0.146   10.593  160.982
  405.000   40.086    0.131    0.053   14.452  163.100
  405.250   38.907    0.154    0.019   13.977  164.228
  405.500   43.857    0.166   -0.010   10.814  165.288
  405.750   50.661    0.209    0.009    9.595  165.374
  406.000   55.621    0.308    0.073    8.228  164.435
  406.250   62.436    0.365    0.156    7.178  162.472
  406.500   71.085    0.405    0.307    6.482  161.498
  406.750   72.366    0.405    0.314    6.161  160.525
  407.000   71.792    0.409    0.308    6.062  158.545
  407.250   73.678    0.421    0.307    5.866  157.606
  407.500   80.483    0.409    0.310    5.871  156.633
  407.750   84.828    0.398    0.317    5.874  156.702
  408.000   89.183    0.387    0.322    5.982  156.805
  408.250   91.058    0.382    0.309    5.988  156.840
  408.500   97.258    0.392    0.298    6.098  156.943
  408.750  100.999    0.409    0.299    6.210  158.019
  409.000   99.800    0.399    0.307    6.216  159.130
  409.250   75.863    0.388    0.310    6.331  160.206
  409.500   73.435    0.398    0.311    6.451  161.317
  409.750   83.324    0.408    0.307    6.455  161.386
  410.000   88.898    0.402    0.302    6.572  161.438
  410.250   94.473    0.397    0.295    6.580  161.541
  410.500   98.214    0.405    0.284    6.588  161.592
  410.750   96.410    0.407    0.276    6.706  160.654
  411.000   94.607    0.398    0.279    6.712  160.705
  411.250   95.878    0.395    0.275    6.721  159.767
  411.500   97.764    0.399    0.268    6.614  158.794
  411.750   99.035    0.405    0.262    6.621  158.862
  412.000   97.232    0.412    0.264    6.513  158.949
  412.250   92.980    0.393    0.269    6.299  159.017
  412.500   89.322    0.380    0.275    6.094  159.069
  412.750   91.822    0.380    0.278    5.893  160.197
  413.000   98.637    0.400    0.270    5.797  161.256
  413.250  107.286    0.424    0.239    5.804  165.458
  413.500  115.330    0.435    0.218    5.809  166.534
  413.750  115.371    0.436    0.209    5.816  169.695
  414.000  112.953    0.444    0.240    5.820  170.805
  414.250  109.910    0.435    0.257    5.829  170.840
  414.500  104.418    0.416    0.252    5.833  168.894
  414.750   95.852    0.396    0.229    5.839  167.903
  415.000   91.590    0.402    0.218    5.846  165.923
  415.250   98.394    0.399    0.210    5.852  164.967
  415.500  102.134    0.386    0.218    5.856  165.053
  415.750  104.635    0.375    0.238    5.963  165.122
  416.000  102.832    0.391    0.249    6.073  164.200
  416.250   93.036    0.417    0.266    6.187  163.210
  416.500   84.470    0.406    0.278    6.301  161.229
  416.750   82.052    0.395    0.263    6.305  158.224
  417.000   87.627    0.402    0.245    6.315  157.286
  417.250   95.661    0.411    0.232    6.318  161.470
  417.500  100.006    0.414    0.222    6.326  162.530
  417.750  104.371    0.412    0.223    6.330  166.749
  418.000  105.642    0.401    0.230    6.232  166.800
  418.250  103.224    0.392    0.247    6.130  166.869
  418.500  100.806    0.387    0.259    6.031  164.889
  418.750  100.837    0.394    0.257    5.832  161.866
  419.000  103.348    0.387    0.254    5.741  159.886
  419.250  100.930    0.393    0.255    5.649  157.905
  419.500   99.127    0.410    0.244    5.654  157.974
  419.750  104.702    0.424    0.231    5.658  159.085
  420.000  110.276    0.402    0.245    5.765  161.203
  420.250  114.007    0.391    0.262    5.768  161.255
  420.500  111.589    0.401    0.251    5.774  162.400
  420.750  103.648    0.417    0.235    5.781  162.451
  421.000  106.753    0.408    0.223    5.887  162.520
  421.250  110.483    0.394    0.216    6.204  160.557
  421.500  109.295    0.381    0.229    6.210  160.591
  421.750  103.802    0.380    0.242    6.111  158.628
  422.000   98.310    0.399    0.245    6.012  158.697
  422.250  100.832    0.408    0.233    5.816  161.857
  422.500   98.403    0.401    0.245    5.628  161.891
  422.750   92.901    0.405    0.258    5.535  163.002
