~VERSION INFORMATION
 VERS.                 2.0:   CWLS LOG ASCII STANDARD -VERSION 2.0
 WRAP.                  NO:   ONE LINE PER DEPTH STEP
~WELL INFORMATION BLOCK
#MNEM.UNIT           DATA                    DESCRIPTION OF MNEMONIC
#---------    -------------------            -------------------------------
# Generated from Intellog Unique Number	CS_77_79/WELL/972
WELL.         BRALORNE RESOURCES LIMITED     : Well_name    - WELL
LOC .         00/10-27-077-15W4/0            : Location     - LOCATION
UWI .         00/10-27-077-15W4/0            : Uwi          - UNIQUE WELL ID
ENTR.         SP                             : Entered      - ENTERED BY
SRVC.         SCHLUMBERGER                   : Scn          - SERVICE COMPANY
STRT.M        275                            : top_depth    - START DEPTH
STOP.M        535                            : bot_depth    - STOP DEPTH
STEP.M        0.25                           : increment    - STEP LENGTH
 NULL. -999.2500:NULL Value
~CURVE INFORMATION BLOCK
#MNEM UNIT       ERCB CURVE CODE    CURVE DESCRIPTION
#-----------   ------------------   ----------------------------------
DEPT.M        00 001 00 00         : DEPTH        - DEPTH
ILD .OHMM     00 120 00 00         : RESD         - DEEP RESISTIVITY (DIL)
DPHI.V/V      00 890 00 00         : PHID         - DENSITY POROSITY (LIMESTONE)
NPHI.V/V      00 330 00 00         : PHIN         - NEUTRON POROSITY (LIMESTONE)
GR  .API      00 310 00 00         : GR           - GAMMA RAY
~PARAMETER INFORMATION
#MNEM.UNIT           DATA             DESCRIPTION OF MNEMONIC
#---------         -----------     ------------------------------
GL  .M        669.41               : gl           - GROUND LEVEL ELEVATION
EREF.M        673.69               : kb           - ELEVATION OF DEPTH REFERENCE
DATM.M        669.41               : datum        - DATUM ELEVATION
TDD .M        552                  : tdd          - TOTAL DEPTH DRILLER
RUN .         ONE                  : Run          - RUN NUMBER
ENG .         BILL                 : Engineer     - RECORDING ENGINEER
WIT .         JIM                  : Witness      - WITNESSED BY
MUD .         GEL                  : Mud_type     - MUD TYPE
MATR.         LIMESTONE            : Logunit      - NEUTRON MATRIX
TMAX.C        25                   : BHT          - MAXIMUM RECORDED TEMPERATURE
BHTD.M        552                  : BHTDEP       - MAXIMUM RECORDED TEMPERATURE
MATR.         1                    : LOGUNIT      - NEUTRON MATRIX
RMT .C        25                   : MDTP         - TEMPERATURE OF MUD
NEUT.         1                    : NEUTRON      - NEUTRON TYPE
RESI.         0                    : RESIST       - RESISTIVITY TYPE
RMC .OHMM     0.25                 : RMC          - RESISTIVITY OF MUD CAKE
RMF .OHMM     0.25                 : RMF          - RESISTIVITY OF MUD FILTRATE
SUFT.C        15                   : SUFT         - SURFACE TEMPERATURE
~A  DEPTH     RESD     PHID     PHIN       GR
# ...
  492.500   14.689    0.228    0.406  107.461
  492.750   13.892    0.217    0.413  106.834
  493.000   12.659    0.192    0.401  107.430
  493.250   12.659    0.194    0.394  105.590
  493.500   12.657    0.197    0.395  103.125
  493.750   12.894    0.183    0.386  103.121
  494.000   13.887    0.189    0.378  101.276
  494.250   14.681    0.216    0.388   91.501
  494.500   15.235    0.241    0.400   84.172
  494.750   15.234    0.250    0.406   78.671
  495.000   15.519    0.256    0.407   76.220
  495.250   15.518    0.251    0.401   70.717
  495.500   15.517    0.262    0.407   60.337
  495.750   16.712    0.282    0.423   48.738
  496.000   17.343    0.295    0.407   43.846
  496.250   17.997    0.290    0.394   44.441
  496.500   17.995    0.172    0.315   54.175
  496.750   17.995    0.150    0.287   58.433
  497.000   17.337    0.195    0.310   68.170
  497.250   16.396    0.236    0.334   77.299
  497.500   14.667    0.275    0.356   85.210
  497.750   12.641    0.220    0.383   95.555
  498.000   11.955    0.180    0.375   99.813
  498.250   10.895    0.171    0.364  105.284
  498.500   10.114    0.172    0.366  108.318
  498.750    9.744    0.170    0.371  111.353
  499.000   10.495    0.165    0.376  111.336
  499.250   11.303    0.164    0.383  105.222
  499.500   12.402    0.179    0.390   98.505
  499.750   13.111    0.186    0.403   72.270
  500.000   13.606    0.206    0.386   68.599
  500.250   13.355    0.214    0.387   66.145
  500.500   12.398    0.215    0.393   63.690
  500.750   11.726    0.242    0.393   63.064
  501.000   10.489    0.264    0.390   63.053
  501.250    9.209    0.285    0.390   64.257
  501.500    8.873    0.273    0.386   69.729
  501.750    8.872    0.264    0.386   76.414
  502.000    9.380    0.239    0.395   79.451
  502.250   10.102    0.213    0.402   78.823
  502.500   10.880    0.225    0.380   78.202
  502.750   13.595    0.249    0.370   76.360
  503.000   15.481    0.241    0.345   73.904
  503.250   16.673    0.182    0.328   72.058
  503.500   16.365    0.157    0.299   69.608
  503.750   14.639    0.184    0.299   68.984
  504.000   13.094    0.212    0.313   74.447
  504.250   12.384    0.232    0.334   76.875
  504.500   11.497    0.226    0.350   78.696
  504.750   10.873    0.228    0.360   79.899
  505.000   10.476    0.226    0.357   78.660
  505.250   10.475    0.221    0.356   80.472
  505.500   10.281    0.222    0.349   81.682
  505.750   10.091    0.212    0.354   87.148
  506.000    9.544    0.207    0.342   89.577
  506.250    9.195    0.214    0.344   92.608
  506.500    8.859    0.212    0.356   93.204
  506.750    8.859    0.211    0.373   90.140
  507.000    8.695    0.214    0.389   82.808
  507.250    8.534    0.217    0.401   84.620
  507.500    8.693    0.222    0.393   87.654
  507.750    8.693    0.169    0.336   87.642
  508.000    8.855    0.159    0.336   90.671
  508.250    9.189    0.138    0.339   94.316
  508.500    9.361    0.132    0.341   99.176
  508.750    9.360    0.121    0.344  101.606
  509.000    9.187    0.126    0.358  104.027
  509.250    9.018    0.131    0.369  104.009
  509.500    8.851    0.157    0.374  102.166
  509.750    8.688    0.158    0.363  102.151
  510.000    8.370    0.153    0.355  107.007
  510.250    7.770    0.149    0.368  110.043
  510.500    7.627    0.136    0.382  113.082
  510.750    7.769    0.139    0.391  117.941
  511.000    7.769    0.153    0.418  120.366
  511.250    7.914    0.151    0.440  119.136
  511.500    8.366    0.152    0.447  109.974
  511.750    8.845    0.169    0.451  103.864
  512.000    9.705    0.190    0.474   97.751
  512.250   10.071    0.206    0.467   94.682
  512.500   10.259    0.196    0.418   94.673
  512.750   10.450    0.120    0.387   94.657
  513.000   10.450    0.089    0.373   99.516
  513.250   10.449    0.110    0.369  107.425
  513.500   10.256    0.144    0.377  111.684
  513.750   10.066    0.171    0.391  117.763
  514.000   10.066    0.151    0.399  120.799
  514.250   10.065    0.161    0.395  123.825
  514.500   10.065    0.162    0.399  126.254
  514.750   10.063    0.172    0.401  129.895
  515.000    9.878    0.162    0.408  130.491
  515.250    9.695    0.155    0.419  131.083
  515.500    9.169    0.146    0.422  131.071
  515.750    8.512    0.157    0.446  131.659
  516.000    7.902    0.159    0.442  131.650
  516.250    7.336    0.153    0.440  129.808
  516.500    7.613    0.147    0.462  127.350
  516.750    8.199    0.147    0.475  126.728
  517.000    8.668    0.145    0.483  126.711
  517.250    8.996    0.158    0.465  126.697
  517.500    9.335    0.164    0.438  118.755
  517.750    9.334    0.164    0.427  116.305
  518.000    9.334    0.159    0.419  114.461
  518.250    8.993    0.154    0.416  113.224
  518.500    8.044    0.150    0.409  111.378
  518.750    7.608    0.159    0.404  108.928
  519.000    7.467    0.157    0.409   96.108
  519.250    7.329    0.164    0.415   78.415
  519.500    7.466    0.154    0.420   63.766
  519.750    8.502    0.174    0.402   55.217
  520.000    8.660    0.164    0.333   49.710
  520.250    8.987    0.184    0.305   47.868
  520.500    9.155    0.182    0.302   41.147
  520.750    8.986    0.173    0.302   39.297
  521.000    8.499    0.159    0.295   40.505
  521.250    7.602    0.137    0.296   41.712
  521.500    6.675    0.190    0.307   41.695
  521.750    6.082    0.217    0.312   39.851
  522.000    5.970    0.236    0.330   36.789
  522.250    5.752    0.265    0.345   35.552
  522.500    5.752    0.273    0.383   35.539
  522.750    5.751    0.298    0.398   36.135
  523.000    5.859    0.301    0.412   38.560
  523.250    5.750    0.303    0.423   44.032
  523.500    5.644    0.290    0.427   51.940
  523.750    5.438    0.269    0.422   54.976
  524.000    5.048    0.256    0.406   47.642
  524.250    4.955    0.280    0.386   34.827
  524.500    4.863    0.296    0.378   28.707
  524.750    4.774    0.306    0.372   28.089
  525.000    4.773    0.301    0.367   26.854
  525.250    4.773    0.291    0.359   29.881
  525.500    4.862    0.276    0.350   32.918
  525.750    5.335    0.263    0.345   38.998
  526.000    6.304    0.235    0.348   42.036
  526.250    6.790    0.200    0.355   48.724
  526.500    8.643    0.122    0.345   54.197
  526.750   13.247    0.000    0.318   60.280
  527.000   17.179    0.011    0.303   64.530
  527.250   18.502    0.016    0.266   60.851
  527.500   19.200    0.016    0.243   59.011
  527.750   20.679    0.014    0.244   58.391
  528.000   23.548    0.009    0.248   55.325
  528.250   31.108    0.000    0.238   53.485
  528.500   35.424    0.000    0.172   47.371
  528.750   39.597    0.003    0.154   41.869
  529.000   46.795    0.009    0.118   37.588
  529.250   51.344    0.002    0.105   33.302
  529.500   54.281    0.000    0.113   31.461
  529.750   56.329    0.000    0.116   29.006
  530.000   55.290    0.003    0.127   30.821
  530.250   55.286    0.000    0.125   33.243
  530.500   56.317    0.000    0.120   31.396
  530.750   57.367    0.000    0.117   30.166
  531.000   58.438    0.000    0.118   28.311
  531.250   58.435    0.000    0.121   27.687
  531.500   59.526    0.000    0.125   27.066
  531.750   60.635    0.000    0.125   26.445
  532.000   60.632    0.000    0.123   23.988
  532.250   61.764    0.001    0.124   23.975
  532.500   62.914    0.000    0.124   24.566
  532.750   64.088    0.000    0.125   24.557
  533.000   64.083    0.000    0.128   25.146
  533.250   64.078    0.011    0.127   25.740
  533.500   64.073    0.021    0.125   25.728
  533.750   62.891    0.013    0.124   26.320
  534.000   61.731    0.000    0.123   26.305
  534.250   59.474    0.001    0.124   26.290
  534.500   59.471    0.001    0.133   26.280
  534.750   57.295    0.000    0.137   25.650
  535.000   56.237    0.000    0.137   25.638
