~VERSION INFORMATION
 VERS.                 2.0:   CWLS LOG ASCII STANDARD -VERSION 2.0
 WRAP.                  NO:   ONE LINE PER DEPTH STEP
~WELL INFORMATION BLOCK
#MNEM.UNIT           DATA                    DESCRIPTION OF MNEMONIC
#---------    -------------------            -------------------------------
# Generated from Intellog Unique Number	CW_76_78/WELL/2577
WELL.         10-19-078-25W4                 : Well_name    - WELL
LOC .         00/10-19-078-25W4/0            : Location     - LOCATION
UWI .         00/10-19-078-25W4/0            : Uwi          - UNIQUE WELL ID
ENTR.         MAX                            : Entered      - ENTERED BY
SRVC.         COMPUTALOG                     : Scn          - SERVICE COMPANY
STRT.M        270                            : top_depth    - START DEPTH
STOP.M        500                            : bot_depth    - STOP DEPTH
STEP.M        0.25                           : increment    - STEP LENGTH
 NULL. -999.2500:NULL Value
~CURVE INFORMATION BLOCK
#MNEM UNIT       ERCB CURVE CODE    CURVE DESCRIPTION
#-----------   ------------------   ----------------------------------
DEPT.M        00 001 00 00         : DEPTH        - DEPTH
ILD .OHMM     00 120 00 00         : RESD         - DEEP RESISTIVITY (DIL)
NPHI.V/V      00 330 00 00         : PHIN         - NEUTRON POROSITY (SANDSTONE)
DPHI.V/V      00 890 00 00         : PHID         - DENSITY POROSITY (SANDSTONE)
CALI.MM       00 280 01 00         : CAL          - CALIPER
GR  .API      00 310 00 00         : GR           - GAMMA RAY
~PARAMETER INFORMATION
#MNEM.UNIT           DATA             DESCRIPTION OF MNEMONIC
#---------         -----------     ------------------------------
GL  .M        581.86               : gl           - GROUND LEVEL ELEVATION
EREF.M        586.11               : kb           - ELEVATION OF DEPTH REFERENCE
DATM.M        581.86               : datum        - DATUM ELEVATION
TDD .M        501                  : tdd          - TOTAL DEPTH DRILLER
RUN .         ONE                  : Run          - RUN NUMBER
ENG .         BILL                 : Engineer     - RECORDING ENGINEER
WIT .         JIM                  : Witness      - WITNESSED BY
MUD .         GEL                  : Mud_type     - MUD TYPE
MATR.         SANDSTONE            : Logunit      - NEUTRON MATRIX
TMAX.C        18                   : BHT          - MAXIMUM RECORDED TEMPERATURE
BHTD.M        501                  : BHTDEP       - MAXIMUM RECORDED TEMPERATURE
RMT .C        16                   : MDTP         - TEMPERATURE OF MUD
MUDD.KG/M     1100                 : MWT          - MUD DENSITY
NEUT.         1                    : NEUTRON      - NEUTRON TYPE
RESI.         0                    : RESIST       - RESISTIVITY TYPE
RM  .OHMM     4.4                  : RM           - RESISTIVITY OF MUD
RMC .OHMM     4.1                  : RMC          - RESISTIVITY OF MUD CAKE
RMF .OHMM     5.4                  : RMF          - RESISTIVITY OF MUD FILTRATE
SUFT.C        -10                  : SUFT         - SURFACE TEMPERATURE
~A  DEPTH     RESD     PHIN     PHID      CAL       GR
# ...
  306.500    9.902    0.369    0.283  198.611   48.031
  306.750    9.555    0.338    0.270  198.120   60.820
  307.000    9.055    0.323    0.257  198.126   72.419
  307.250    8.349    0.373    0.231  198.626   84.315
  307.500    7.559    0.395    0.215  199.128   91.454
  307.750    6.722    0.373    0.230  199.132   98.296
  308.000    6.254    0.345    0.201  199.137  100.380
  308.250    5.664    0.319    0.203  201.126  108.114
  308.500    5.128    0.352    0.205  203.112  115.848
  308.750    4.685    0.363    0.204  204.604  118.230
  309.000    4.321    0.366    0.204  204.610  110.799
  309.250    4.321    0.382    0.201  204.614  103.666
  309.500    4.328    0.417    0.188  204.124   96.832
  309.750    4.449    0.406    0.173  203.138   91.185
  310.000    4.966    0.373    0.144  202.153   88.810
  310.250    5.393    0.356    0.180  202.157  100.706
  310.500    5.699    0.325    0.194  203.650   99.520
  310.750    5.351    0.363    0.195  204.151  100.415
  311.000    4.890    0.367    0.196  203.660  105.175
  311.250    4.428    0.342    0.197  201.187  110.233
  311.500    4.312    0.324    0.195  199.211  107.857
  311.750    4.393    0.320    0.188  198.225   92.102
  312.000    4.816    0.356    0.226  198.225   78.428
  312.250    5.623    0.395    0.263  197.740   77.242
  312.500    6.164    0.411    0.274  197.249   84.084
  312.750    7.398    0.383    0.272  196.760   87.061
  313.000    7.960    0.377    0.257  196.765   91.820
  313.250    8.567    0.337    0.259  196.769   95.689
  313.500    8.891    0.335    0.260  196.775   95.692
  313.750    8.897    0.335    0.245  196.780  103.426
  314.000    8.663    0.388    0.260  196.786   92.725
  314.250    8.669    0.427    0.289  196.296   62.698
  314.500    9.161    0.391    0.293  196.299   54.078
  314.750    9.508    0.384    0.279  196.308   55.568
  315.000    8.766    0.376    0.264  196.311   67.168
  315.250    7.654    0.364    0.251  196.320   72.225
  315.500    6.995    0.350    0.252  196.321   79.067
  315.750    6.873    0.340    0.251  196.327   84.719
  316.000    7.330    0.416    0.269  196.331   85.317
  316.250    8.180    0.430    0.297  196.337   77.292
  316.500    9.907    0.424    0.305  196.343   72.538
  316.750   10.858    0.421    0.301  195.852   76.406
  317.000   12.339    0.406    0.276  194.866   70.463
  317.250   14.412    0.371    0.291  194.871   63.033
  317.500   14.821    0.387    0.307  196.858   57.089
  317.750   14.834    0.386    0.311  199.342   58.282
  318.000   14.844    0.380    0.316  197.860   65.124
  318.250   14.990    0.415    0.322  196.874   63.640
  318.500   15.136    0.382    0.323  197.376   64.238
  318.750   15.147    0.378    0.309  197.876   60.376
  319.000   14.617    0.365    0.309  197.880   53.838
  319.250   13.724    0.571    0.316  197.885   53.840
  319.500   13.366    0.552    0.311  197.396   69.900
  319.750   13.870    0.492    0.276  197.401   73.174
  320.000   14.523    0.443    0.277  197.407   65.447
  320.250   15.488    0.462    0.301  196.917   58.611
  320.500   16.519    0.423    0.307  196.921   56.235
  320.750   15.940    0.398    0.314  196.927   54.455
  321.000   14.967    0.360    0.319  196.932   56.836
  321.250   13.800    0.395    0.302  197.433   61.002
  321.500   13.077    0.417    0.258  197.933   63.681
  321.750   12.970    0.418    0.238  198.435   67.847
  322.000   13.582    0.430    0.226  198.439   68.445
  322.250   14.352    0.415    0.192  198.445   63.096
  322.500   15.446    0.136    0.069  198.450   59.828
  322.750   14.243    0.151    0.119  198.455   67.265
  323.000   12.211    0.401    0.256  197.964   72.025
  323.250    9.648    0.411    0.301  197.970   71.433
  323.500    7.023    0.421    0.288  198.470   70.544
  323.750    5.021    0.450    0.290  197.981   70.845
  324.000    4.845    0.447    0.288  196.995   69.362
  324.250    5.711    0.472    0.291  197.000   66.094
  324.500    5.711    0.480    0.305  197.000   61.340
  324.750    5.771    0.497    0.311  197.507   57.775
  325.000    7.938    0.509    0.309  197.512   55.400
  325.250    8.465    0.516    0.310  197.516   58.079
  325.500    9.361    0.458    0.311  197.516   61.055
  325.750    9.541    0.429    0.308  197.527   61.059
  326.000    8.718    0.392    0.300  197.531   61.359
  326.250    7.822    0.340    0.293  197.536   63.146
  326.500    7.213    0.358    0.301  197.543   63.447
  326.750    7.152    0.392    0.310  198.043   62.261
  327.000    7.628    0.399    0.314  198.048   64.642
  327.250    8.061    0.417    0.323  198.550   64.348
  327.500    8.518    0.427    0.323  198.558   61.080
  327.750    9.251    0.415    0.324  198.560   59.003
  328.000    9.865    0.413    0.330  198.069   60.492
  328.250   10.238    0.404    0.329  198.074   64.658
  328.500    9.970    0.409    0.326  198.576   76.257
  328.750    9.110    0.423    0.310  199.077   87.856
  329.000    7.954    0.420    0.285  200.569   90.832
  329.250    6.946    0.437    0.252  201.069   83.699
  329.500    6.703    0.427    0.257  200.578   72.702
  329.750    6.645    0.437    0.257  199.593   70.028
  330.000    6.834    0.425    0.261  198.607   73.005
  330.250    7.158    0.355    0.267  198.612   82.522
  330.500    7.428    0.328    0.264  198.618   87.580
  330.750    7.708    0.311    0.260  198.622   85.800
  331.000    7.783    0.334    0.259  198.631   81.343
  331.250    7.783    0.402    0.256  198.138   81.048
  331.500    7.726    0.412    0.247  198.144   88.187
  331.750    7.591    0.390    0.233  197.652   86.704
  332.000    7.591    0.377    0.223  197.162   80.463
  332.250    7.602    0.421    0.205  197.167   79.872
  332.500    7.675    0.446    0.133  197.172   79.875
  332.750    7.751    0.369    0.123  198.169   80.473
  333.000    7.827    0.265    0.151  198.173   88.504
  333.250    7.976    0.315    0.185  196.693   90.588
  333.500    7.983    0.358    0.210  197.689   88.213
  333.750    7.843    0.387    0.207  200.668   88.513
  334.000    7.843    0.378    0.214  202.160   92.381
  334.250    7.508    0.365    0.219  202.660   91.790
  334.500    7.244    0.346    0.223  203.161   92.983
  334.750    7.052    0.361    0.223  203.165   95.067
  335.000    6.805    0.403    0.219  204.657   96.558
  335.250    6.508    0.425    0.211  208.628   94.479
  335.500    6.223    0.410    0.206  210.120   91.806
  335.750    6.005    0.405    0.193  211.116   94.187
  336.000    5.743    0.387    0.196  212.113   98.056
  336.250    5.743    0.410    0.202  212.117   94.789
  336.500    5.545    0.449    0.208  212.126   91.818
  336.750    5.254    0.452    0.216  211.632   86.767
  337.000    5.254    0.443    0.223  211.632   85.283
  337.250    5.168    0.440    0.231  210.655   82.909
  337.500    5.124    0.427    0.232  209.665   79.938
  337.750    5.124    0.403    0.231  207.690   80.834
  338.000    5.178    0.384    0.224  206.703   83.512
  338.250    5.276    0.394    0.219  204.726   80.542
  338.500    5.475    0.443    0.226  203.244   75.490
  338.750    5.630    0.433    0.232  201.268   72.520
  339.000    5.790    0.402    0.233  199.291   81.740
  339.250    5.794    0.390    0.239  198.305   87.393
  339.500    5.746    0.417    0.247  198.805   87.693
  339.750    5.595    0.426    0.248  201.784   86.805
  340.000    5.448    0.430    0.245  202.286   90.376
  340.250    5.306    0.433    0.244  202.286   90.082
  340.500    5.167    0.437    0.243  202.295   92.166
  340.750    5.077    0.415    0.242  201.805   95.440
  341.000    4.989    0.392    0.238  201.810   95.442
  341.250    4.902    0.375    0.235  201.319   92.175
  341.500    4.906    0.436    0.236  200.335   85.042
  341.750    4.910    0.449    0.244  198.853   82.073
  342.000    5.142    0.408    0.251  197.866   79.994
  342.250    5.533    0.481    0.265  196.882   75.240
  342.500    6.702    0.493    0.276  196.887   71.675
  342.750    7.211    0.422    0.261  196.891   67.813
