~VERSION INFORMATION
 VERS.                 2.0:   CWLS LOG ASCII STANDARD -VERSION 2.0
 WRAP.                  NO:   ONE LINE PER DEPTH STEP
~WELL INFORMATION BLOCK
#MNEM.UNIT           DATA                    DESCRIPTION OF MNEMONIC
#---------    -------------------            -------------------------------
# Generated from Intellog Unique Number	CW_73_75/WELL/1036
WELL.         ICGR FRANCIS 11-10             : Well_name    - WELL
LOC .         00/11-10-074-22W4/0            : Location     - LOCATION
UWI .         00/11-10-074-22W4/0            : Uwi          - UNIQUE WELL ID
ENTR.         JAYE                           : Entered      - ENTERED BY
SRVC.         SCHLUMBERGER                   : Scn          - SERVICE COMPANY
DATE.         27 MAR 82                      : Date         - LOG DATE
STRT.M        350                            : top_depth    - START DEPTH
STOP.M        555                            : bot_depth    - STOP DEPTH
STEP.M        0.25                           : increment    - STEP LENGTH
 NULL. -999.2500:NULL Value
~CURVE INFORMATION BLOCK
#MNEM UNIT       ERCB CURVE CODE    CURVE DESCRIPTION
#-----------   ------------------   ----------------------------------
DEPT.M        00 001 00 00         : DEPTH        - DEPTH
NPHI.V/V      00 330 00 00         : PHIN         - NEUTRON POROSITY (SANDSTONE)
DPHI.V/V      00 890 00 00         : PHID         - DENSITY POROSITY (SANDSTONE)
GR  .API      00 310 00 00         : GR           - GAMMA RAY
CALI.MM       00 280 01 00         : CAL          - CALIPER
ILD .OHMM     00 120 00 00         : RESD         - DEEP RESISTIVITY (DLL)
~PARAMETER INFORMATION
#MNEM.UNIT           DATA             DESCRIPTION OF MNEMONIC
#---------         -----------     ------------------------------
GL  .M        646.2                : gl           - GROUND LEVEL ELEVATION
EREF.M        648.7                : kb           - ELEVATION OF DEPTH REFERENCE
DATM.M        646.2                : datum        - DATUM ELEVATION
TDD .M        600                  : tdd          - TOTAL DEPTH DRILLER
RUN .         ONE                  : Run          - RUN NUMBER
ENG .         HOLDE                : Engineer     - RECORDING ENGINEER
WIT .         COOK                 : Witness      - WITNESSED BY
BASE.         EDMONTON             : Branch       - HOME BASE OF LOGGING UNIT
MUD .         GEL CHEM             : Mud_type     - MUD TYPE
MATR.         SANDSTONE            : Logunit      - NEUTRON MATRIX
TMAX.C        25                   : BHT          - MAXIMUM RECORDED TEMPERATURE
BHTD.M        600.5                : BHTDEP       - MAXIMUM RECORDED TEMPERATURE
RMT .C        20                   : MDTP         - TEMPERATURE OF MUD
MUDD.KG/M     9.5                  : MWT          - MUD DENSITY
NEUT.         1                    : NEUTRON      - NEUTRON TYPE
RESI.         1                    : RESIST       - RESISTIVITY TYPE
RM  .OHMM     5.105                : RM           - RESISTIVITY OF MUD
RMC .OHMM     2.13                 : RMC          - RESISTIVITY OF MUD CAKE
RMF .OHMM     7.23                 : RMF          - RESISTIVITY OF MUD FILTRATE
SUFT.C        0                    : SUFT         - SURFACE TEMPERATURE
~A  DEPTH     PHIN     PHID       GR      CAL     RESD
# ...
  423.000    0.431    0.312   38.872  153.840    5.383
  423.250    0.407    0.307   36.989  155.128    5.301
  423.500    0.392    0.314   35.892  155.217    5.279
  423.750    0.394    0.322   37.092  155.400    5.296
  424.000    0.411    0.325   40.166  155.791    5.344
  424.250    0.418    0.326   40.520  155.974    5.332
  424.500    0.420    0.319   38.998  155.958    5.311
  424.750    0.420    0.316   37.480  156.150    5.358
  425.000    0.417    0.308   38.619  155.930    5.437
  425.250    0.411    0.304   40.610  155.508    5.526
  425.500    0.403    0.307   42.284  154.890    5.576
  425.750    0.397    0.312   44.215  153.764    5.636
  426.000    0.399    0.318   45.106  153.348    5.655
  426.250    0.412    0.318   45.035  153.835    5.643
  426.500    0.419    0.310   45.334  153.014    5.619
  426.750    0.424    0.309   46.953  151.790    5.606
  427.000    0.420    0.310   49.847  151.877    5.624
  427.250    0.405    0.313   49.772  153.580    5.665
  427.500    0.400    0.316   48.071  153.562    5.704
  427.750    0.398    0.319   51.085  152.139    5.746
  428.000    0.395    0.320   52.162  151.010    5.712
  428.250    0.402    0.321   49.553  150.392    5.499
  428.500    0.420    0.322   47.552  150.472    5.295
  428.750    0.424    0.324   47.118  151.268    5.454
  429.000    0.417    0.325   46.931  154.272    5.595
  429.250    0.406    0.325   45.951  153.354    5.593
  429.500    0.393    0.324   45.702  153.544    5.498
  429.750    0.396    0.320   46.300  153.821    5.424
  430.000    0.406    0.318   46.288  154.109    5.403
  430.250    0.400    0.316   45.614  153.603    5.462
  430.500    0.408    0.319   44.275  151.663    5.428
  430.750    0.421    0.321   44.388  149.435    5.426
  431.000    0.418    0.322   44.138  148.819    5.434
  431.250    0.407    0.323   43.161  148.703    5.411
  431.500    0.405    0.324   42.182  148.777    5.389
  431.750    0.404    0.326   42.959  149.568    5.377
  432.000    0.403    0.325   43.916  150.060    5.385
  432.250    0.401    0.321   44.208  150.849    5.402
  432.500    0.403    0.319   44.502  151.557    5.421
  432.750    0.416    0.319   44.984  151.832    5.438
  433.000    0.418    0.318   45.329  151.913    5.396
  433.250    0.412    0.317   45.506  152.299    5.373
  433.500    0.412    0.320   45.310  152.382    5.341
  433.750    0.432    0.322   44.999  152.777    5.280
  434.000    0.437    0.329   45.353  153.157    5.200
  434.250    0.424    0.323   45.587  153.242    5.139
  434.500    0.422    0.319   46.185  153.027    5.127
  434.750    0.407    0.317   48.231  153.015    5.097
  435.000    0.397    0.315   50.394  153.303    5.075
  435.250    0.416    0.315   51.713  153.285    5.064
  435.500    0.415    0.315   51.219  153.065    5.053
  435.750    0.397    0.313   47.708  153.257    5.060
  436.000    0.391    0.313   45.643  153.247    5.086
  436.250    0.400    0.315   45.329  152.927    5.113
  436.500    0.414    0.320   47.013  152.498    5.129
  436.750    0.421    0.323   49.661  152.381    5.167
  437.000    0.418    0.320   52.075  152.070    5.203
  437.250    0.411    0.314   53.692  151.649    5.298
  437.500    0.411    0.306   56.947  151.532    5.539
  437.750    0.417    0.299   60.503  151.516    5.878
  438.000    0.414    0.291   62.307  151.704    6.122
  438.250    0.418    0.275   61.509  151.889    6.424
  438.500    0.427    0.259   61.686  151.980    6.690
  438.750    0.418    0.276   66.085  152.361    6.815
  439.000    0.410    0.287   72.359  152.846    6.736
  439.250    0.432    0.283   76.097  153.438    6.646
  439.500    0.472    0.289   74.759  153.221    6.520
  439.750    0.486    0.300   73.842  152.712    6.267
  440.000    0.479    0.321   77.763  152.587    6.068
  440.250    0.461    0.333   80.167  152.369    5.757
  440.500    0.451    0.329   76.532  150.640    5.400
  440.750    0.441    0.320   68.365  148.911    5.113
  441.000    0.435    0.306   60.019  149.102    4.906
  441.250    0.457    0.307   65.873  150.200    4.760
  441.500    0.470    0.315   70.513  152.596    4.678
  441.750    0.467    0.326   66.522  152.989    4.900
  442.000    0.455    0.318   63.063  152.260    5.150
  442.250    0.426    0.279   58.885  150.832    5.054
  442.500    0.383    0.268   54.708  150.525    4.786
  442.750    0.417    0.294   55.240  150.905    4.506
  443.000    0.433    0.323   61.273  152.707    4.227
  443.250    0.405    0.322   69.603  154.497    3.988
  443.500    0.402    0.281   77.511  156.098    3.734
  443.750    0.428    0.227   87.167  157.892    3.470
  444.000    0.455    0.230   88.246  159.996    3.202
  444.250    0.474    0.239   87.697  162.090    3.042
  444.500    0.491    0.243   89.260  163.787    2.946
  444.750    0.506    0.243   90.091  164.176    2.929
  445.000    0.511    0.242   86.216  162.954    3.016
  445.250    0.470    0.244   82.218  160.117    3.279
  445.500    0.462    0.247   84.022  158.791    3.666
  445.750    0.472    0.257   83.471  156.864    4.024
  446.000    0.459    0.277   77.899  153.726    4.144
  446.250    0.445    0.329   70.821  150.891    4.205
  446.500    0.423    0.351   60.721  147.348    4.274
  446.750    0.416    0.360   57.871  144.515    4.353
  447.000    0.423    0.363   57.620  145.517    4.408
  447.250    0.424    0.361   59.608  145.914    4.432
  447.500    0.403    0.353   60.746  146.984    4.438
  447.750    0.402    0.340   60.133  150.900    4.470
  448.000    0.401    0.342   62.124  151.796    4.509
  448.250    0.397    0.346   65.429  151.571    4.568
  448.500    0.393    0.347   73.700  150.047    4.651
  448.750    0.389    0.341   79.069  148.125    4.746
  449.000    0.388    0.333   79.484  146.594    4.851
  449.250    0.412    0.322   76.270  144.867    4.895
  449.500    0.428    0.304   69.552  144.658    4.865
  449.750    0.430    0.292   66.948  145.953    4.836
  450.000    0.424    0.299   65.427  147.749    4.799
  450.250    0.415    0.315   61.128  149.243    4.743
  450.500    0.412    0.326   59.673  150.525    4.672
  450.750    0.408    0.340   60.023  151.727    4.661
  451.000    0.404    0.347   60.555  150.602    4.667
  451.250    0.411    0.345   60.670  149.479    4.753
  451.500    0.408    0.349   60.239  148.349    4.932
  451.750    0.410    0.351   59.449  147.729    5.108
  452.000    0.421    0.351   59.493  147.214    5.390
  452.250    0.432    0.350   59.723  147.198    5.741
  452.500    0.410    0.345   59.657  147.990    6.172
  452.750    0.376    0.339   59.161  150.694    6.673
  453.000    0.330    0.307   58.607  153.496    7.214
  453.250    0.309    0.200   57.389  155.898    7.500
  453.500    0.255    0.180   56.353  156.587    7.276
  453.750    0.283    0.221   59.126  153.048    6.980
  454.000    0.387    0.308   61.413  149.605    6.475
  454.250    0.433    0.356   63.518  146.166    5.701
  454.500    0.438    0.355   65.080  144.848    5.056
  454.750    0.452    0.355   62.657  145.837    4.647
  455.000    0.457    0.358   60.955  147.733    4.343
  455.250    0.455    0.360   61.666  148.822    4.207
  455.500    0.432    0.355   63.352  149.312    4.150
  455.750    0.428    0.353   64.308  150.621    4.133
  456.000    0.438    0.354   62.487  152.006    4.123
  456.250    0.449    0.353   58.609  152.688    4.122
  456.500    0.446    0.348   59.328  152.777    4.151
  456.750    0.431    0.342   61.066  151.960    4.165
  457.000    0.424    0.345   61.180  151.139    4.155
  457.250    0.422    0.354   59.903  149.814    4.138
  457.500    0.422    0.354   58.018  148.286    4.121
  457.750    0.423    0.352   57.767  147.058    4.127
  458.000    0.471    0.353   60.723  145.939    4.102
  458.250    0.460    0.341   61.857  145.518    4.086
  458.500    0.465    0.334   62.214  146.211    4.075
  458.750    0.481    0.333   61.901  147.298    4.067
  459.000    0.487    0.332   57.602  148.096    4.088
  459.250    0.473    0.332   60.802  147.774    4.117
