~VERSION INFORMATION
 VERS.                 2.0:   CWLS LOG ASCII STANDARD -VERSION 2.0
 WRAP.                  NO:   ONE LINE PER DEPTH STEP
~WELL INFORMATION BLOCK
#MNEM.UNIT           DATA                    DESCRIPTION OF MNEMONIC
#---------    -------------------            -------------------------------
# Generated from Intellog Unique Number	CW_76_78/WELL/2584
WELL.         PETROMARK ET AL MARTIN CREEK   : Well_name    - WELL
LOC .         00/11-31-078-05W5/0            : Location     - LOCATION
UWI .         00/11-31-078-05W5/0            : Uwi          - UNIQUE WELL ID
ENTR.         MAX                            : Entered      - ENTERED BY
SRVC.         SCHLUMBERGER                   : Scn          - SERVICE COMPANY
STRT.M        325                            : top_depth    - START DEPTH
STOP.M        570                            : bot_depth    - STOP DEPTH
STEP.M        0.25                           : increment    - STEP LENGTH
 NULL. -999.2500:NULL Value
~CURVE INFORMATION BLOCK
#MNEM UNIT       ERCB CURVE CODE    CURVE DESCRIPTION
#-----------   ------------------   ----------------------------------
DEPT.M        00 001 00 00         : DEPTH        - DEPTH
ILD .OHMM     00 120 00 00         : RESD         - DEEP RESISTIVITY (DIL)
NPHI.V/V      00 330 00 00         : PHIN         - NEUTRON POROSITY (SANDSTONE)
DPHI.V/V      00 890 00 00         : PHID         - DENSITY POROSITY (SANDSTONE)
CALI.MM       00 280 01 00         : CAL          - CALIPER
GR  .API      00 310 00 00         : GR           - GAMMA RAY
~PARAMETER INFORMATION
#MNEM.UNIT           DATA             DESCRIPTION OF MNEMONIC
#---------         -----------     ------------------------------
GL  .M        658.4                : gl           - GROUND LEVEL ELEVATION
EREF.M        662.4                : kb           - ELEVATION OF DEPTH REFERENCE
DATM.M        658.4                : datum        - DATUM ELEVATION
TDD .M        1828                 : tdd          - TOTAL DEPTH DRILLER
RUN .         ONE                  : Run          - RUN NUMBER
ENG .         BILL                 : Engineer     - RECORDING ENGINEER
WIT .         JIM                  : Witness      - WITNESSED BY
MUD .         GEL                  : Mud_type     - MUD TYPE
MATR.         SANDSTONE            : Logunit      - NEUTRON MATRIX
TMAX.C        32                   : BHT          - MAXIMUM RECORDED TEMPERATURE
BHTD.M        1828                 : BHTDEP       - MAXIMUM RECORDED TEMPERATURE
RMT .C        28                   : MDTP         - TEMPERATURE OF MUD
MUDD.KG/M     1170                 : MWT          - MUD DENSITY
NEUT.         1                    : NEUTRON      - NEUTRON TYPE
RESI.         0                    : RESIST       - RESISTIVITY TYPE
RM  .OHMM     0.0926               : RM           - RESISTIVITY OF MUD
RMC .OHMM     0                    : RMC          - RESISTIVITY OF MUD CAKE
RMF .OHMM     0.0867               : RMF          - RESISTIVITY OF MUD FILTRATE
SUFT.C        -20                  : SUFT         - SURFACE TEMPERATURE
~A  DEPTH     RESD     PHIN     PHID      CAL       GR
# ...
  544.000   15.214    0.254    0.147  256.365   55.682
  544.250   14.540    0.251    0.155  255.929   56.647
  544.500   14.547    0.272    0.199  257.015   59.093
  544.750   15.379    0.276    0.188  259.123   59.751
  545.000   18.488    0.279    0.202  260.199   59.196
  545.250   20.841    0.298    0.197  260.795   58.053
  545.500   24.156    0.302    0.204  260.881   56.897
  545.750   22.249    0.285    0.180  260.956   55.748
  546.000   23.095    0.294    0.140  259.562   54.899
  546.250   22.685    0.299    0.154  258.136   54.669
  546.500   20.898    0.251    0.110  256.721   55.321
  546.750   21.295    0.222    0.058  255.817   55.960
  547.000   21.903    0.230    0.058  256.413   58.119
  547.250   23.367    0.227    0.067  256.978   64.173
  547.500   24.477    0.226    0.108  257.563   70.227
  547.750   22.967    0.252    0.174  259.661   74.193
  548.000   23.189    0.271    0.189  261.236   75.745
  548.250   24.743    0.311    0.206  263.844   74.890
  548.500   23.215    0.332    0.203  265.420   73.447
  548.750   17.797    0.329    0.189  266.006   73.192
  549.000   13.398    0.324    0.180  266.091   72.943
  549.250   10.177    0.314    0.177  267.178   72.707
  549.500    8.712    0.319    0.177  268.775   72.164
  549.750    8.637    0.316    0.187  269.382   72.164
  550.000    8.637    0.313    0.182  269.946   71.667
  550.250    8.648    0.307    0.178  270.107   71.418
  550.500    8.651    0.305    0.177  270.128   71.163
  550.750    8.655    0.313    0.174  270.714   71.214
  551.000    8.739    0.311    0.170  270.821   71.859
  551.250    8.825    0.316    0.164  270.885   72.824
  551.500    8.830    0.317    0.162  270.470   73.769
  551.750    8.753    0.315    0.151  270.567   75.328
  552.000    8.599    0.308    0.156  270.641   76.886
  552.250    8.447    0.314    0.175  270.727   76.931
  552.500    8.146    0.320    0.178  270.877   76.382
  552.750    8.076    0.310    0.175  270.909   74.639
  553.000    8.155    0.302    0.171  270.494   73.483
  553.250    8.310    0.303    0.163  270.644   73.541
  553.500    8.469    0.312    0.173  270.665   74.193
  553.750    8.473    0.330    0.157  270.751   76.645
  554.000    8.248    0.313    0.155  270.751   78.197
  554.250    8.251    0.316    0.171  270.454   77.048
  554.500    8.256    0.320    0.177  270.507   75.305
  554.750    8.414    0.326    0.159  270.125   76.263
  555.000    8.417    0.332    0.156  270.200   76.002
  555.250    8.423    0.307    0.164  270.296   75.153
  555.500    8.427    0.303    0.151  270.360   75.204
  555.750    8.432    0.313    0.149  270.446   76.756
  556.000    8.513    0.321    0.152  270.542   78.321
  556.250    8.518    0.318    0.152  270.628   78.372
  556.500    8.291    0.311    0.151  270.713   77.817
  556.750    8.144    0.315    0.122  270.799   78.781
  557.000    8.074    0.323    0.109  270.384   79.727
  557.250    8.153    0.333    0.146  268.490   78.277
  557.500    8.158    0.305    0.163  266.053   74.721
  557.750    8.087    0.252    0.140  264.138   75.672
  558.000    8.092    0.246    0.113  264.234   80.839
  558.250    8.170    0.268    0.134  266.310   84.186
  558.500    8.559    0.309    0.171  270.930   88.752
  558.750    9.049    0.286    0.179  271.494   89.103
  559.000    9.832    0.265    0.162  271.079   89.155
  559.250   10.982    0.264    0.164  271.079   88.900
  559.500   10.788    0.264    0.163  271.272   87.750
  559.750   10.030    0.262    0.158  271.336   83.900
  560.000    8.744    0.258    0.154  270.932   81.250
  560.250    8.433    0.251    0.136  271.518   79.807
  560.500    8.915    0.248    0.123  271.625   79.264
  560.750    9.513    0.258    0.149  271.710   82.617
  561.000    9.875    0.256    0.150  271.775   84.463
  561.250    9.880    0.251    0.151  271.924   84.221
  561.500   10.161    0.263    0.154  271.957   83.972
  561.750   10.449    0.249    0.149  272.542   84.323
  562.000   10.649    0.245    0.143  273.203   84.969
  562.250   10.649    0.251    0.136  273.735   85.033
  562.500   10.279    0.259    0.148  274.321   83.290
  562.750   10.187    0.263    0.152  274.385   80.927
  563.000   10.100    0.257    0.133  274.971   77.696
  563.250   10.104    0.241    0.108  275.568   77.428
  563.500   10.110    0.236    0.080  275.675   79.580
  563.750   10.209    0.241    0.098  276.239   82.940
  564.000   10.027    0.250    0.092  277.336   83.585
  564.250    9.760    0.276    0.081  277.922   84.249
  564.500   10.225    0.292    0.049  278.497   85.195
  564.750   10.908    0.302    0.060  279.104   86.453
  565.000   11.219    0.319    0.106  279.690   86.511
  565.250   10.721    0.325    0.166  279.765   85.649
  565.500    9.261    0.334    0.176  280.861   82.399
  565.750    7.783    0.341    0.172  282.448   71.044
  566.000    6.541    0.337    0.150  284.045   49.472
  566.250    5.755    0.348    0.104  275.605   37.812
  566.500    4.536    0.039    0.054  250.668   24.357
  566.750    4.335    0.057    0.057  245.261   22.914
  567.000    4.377    0.075    0.093  242.356   22.358
  567.250    4.627    0.100    0.117  240.919   21.215
  567.500    6.210    0.116    0.122  238.514   19.172
  567.750   10.200    0.127    0.128  236.599   18.023
  568.000   30.426    0.124    0.126  235.695   18.061
  568.250   53.788    0.091    0.095  235.695   19.320
  568.500   61.761    0.086    0.068  235.355   20.278
  568.750   46.071    0.089    0.059  235.355   20.336
  569.000   46.940    0.092    0.059  234.569   20.381
  569.250   49.626    0.100    0.053  234.611   20.426
  569.500   56.461    0.118    0.064  234.697   20.483
  569.750   61.355    0.120    0.091  234.782   20.541
  570.000   66.065    0.118    0.107  235.890   19.979
