~VERSION INFORMATION
 VERS.                 2.0:   CWLS LOG ASCII STANDARD -VERSION 2.0
 WRAP.                  NO:   ONE LINE PER DEPTH STEP
~WELL INFORMATION BLOCK
#MNEM.UNIT           DATA                    DESCRIPTION OF MNEMONIC
#---------    -------------------            -------------------------------
# Generated from Intellog Unique Number	CW_70_72/WELL/1041
NULL.         -999.25                        : NULL_VALUE
WELL.         HOME ALMX MITSUE 10-23         : Well_name    - WELL              
LOC .         10-23-071-04W5                 : Location     - LOCATION          
UWI .         00/10-23-071-04W5/0            : Uwi          - UNIQUE WELL ID    
ENTR.         JAYE                           : Entered      - ENTERED BY        
SRVC.         SCHLUMBERGER                   : Scn          - SERVICE COMPANY   
DATE.         20 FEB 74                      : Date         - LOG DATE          
STRT.M        502.92                         : top_depth    - START DEPTH       
STOP.M        731.42                         : bot_depth    - STOP DEPTH        
STEP.M        0.25                           : increment    - STEP LENGTH       
~CURVE INFORMATION BLOCK
#MNEM UNIT       ERCB CURVE CODE    CURVE DESCRIPTION
#-----------   ------------------   ----------------------------------
DEPT.M        00 001 00 00         : DEPTH        - DEPTH                       
DPHI.V/V      00 890 00 00         : PHID         - DENSITY POROSITY (SANDSTONE)
NPHI.V/V      00 330 00 00         : PHIN         - NEUTRON POROSITY (SANDSTONE)
GR  .API      00 310 00 00         : GR           - GAMMA RAY                   
CALI.MM       00 280 01 00         : CAL          - CALIPER                     
ILD .OHMM     00 120 00 00         : RESD         - DEEP RESISTIVITY (DIL)      
~PARAMETER INFORMATION       
#MNEM.UNIT           DATA             DESCRIPTION OF MNEMONIC
#---------         -----------     ------------------------------
GL  .M        670.011              : gl           - GROUND LEVEL ELEVATION      
EREF.M        674.218              : kb           - ELEVATION OF DEPTH REFERENCE
DATM.M        670.011              : datum        - DATUM ELEVATION             
TDD .M        760.476              : tdd          - TOTAL DEPTH DRILLER         
RUN .         ONE                  : Run          - RUN NUMBER                  
BASE.         EDM                  : Branch       - HOME BASE OF LOGGING UNIT   
MUD .         GEL                  : Mud_type     - MUD TYPE                    
MATR.         SANDSTONE            : Logunit      - NEUTRON MATRIX              
TMAX.C        26.6667              : BHT          - MAXIMUM RECORDED TEMPERATURE
BHTD.M        763.219              : BHTDEP       - MAXIMUM RECORDED TEMPERATURE
RMT .C        10                   : MDTP         - TEMPERATURE OF MUD          
MUDD.KG/M     1128                 : MWT          - MUD DENSITY                 
NEUT.         1                    : NEUTRON      - NEUTRON TYPE                
RESI.         0                    : RESIST       - RESISTIVITY TYPE            
RM  .OHMM     5.97                 : RM           - RESISTIVITY OF MUD          
RMC .OHMM     3.87                 : RMC          - RESISTIVITY OF MUD CAKE     
RMF .OHMM     0.37                 : RMF          - RESISTIVITY OF MUD FILTRATE 
SUFT.C        0                    : SUFT         - SURFACE TEMPERATURE         
~A  DEPTH     PHID     PHIN       GR      CAL     RESD
# ...
  685.420    0.140    0.414   90.515  155.426    5.257
  685.670    0.155    0.447   91.271  155.306    5.000
  685.920    0.160    0.481   92.535  155.185    4.871
  686.170    0.165    0.468   91.189  155.060    4.868
  686.420    0.185    0.407   84.559  155.046    4.982
  686.670    0.151    0.422   76.910  155.028    5.062
  686.920    0.113    0.438   79.767  155.124    5.123
  687.170    0.086    0.468   90.581  155.217    5.196
  687.420    0.094    0.378   97.512  155.525    5.231
  687.670    0.116    0.401  103.806  156.912    5.285
  687.920    0.118    0.422  103.479  157.002    5.400
  688.170    0.128    0.388   92.392  154.833    5.465
  688.420    0.127    0.391   84.679  153.094    5.491
  688.670    0.108    0.411   79.003  152.971    5.538
  688.920    0.115    0.533   81.414  154.680    5.525
  689.170    0.105    0.563   85.989  157.145    5.266
  689.420    0.103    0.579   88.655  158.637    4.964
  689.670    0.101    0.491   89.919  158.623    4.790
  689.920    0.105    0.382   92.839  158.177    4.607
  690.170    0.122    0.347   92.511  157.624    4.455
  690.420    0.115    0.359   88.237  156.420    4.492
  690.670    0.120    0.369   86.382  155.328    4.752
  690.920    0.142    0.376   87.137  154.991    4.731
  691.170    0.144    0.398   89.292  155.190    4.729
  691.420    0.136    0.423   91.703  156.362    4.787
  691.670    0.118    0.432   90.485  158.073    5.110
  691.920    0.107    0.416   89.329  159.458    5.565
  692.170    0.108    0.391   94.414  159.657    6.038
  692.420    0.094    0.382   92.240  160.074    6.125
  692.670    0.086    0.398   94.524  160.598    5.878
  692.920    0.105    0.484  100.118  160.692    5.322
  693.170    0.135    0.481  107.430  160.569    4.688
  693.420    0.130    0.461  115.825  160.229    4.190
  693.670    0.159    0.467  115.116  160.000    3.506
  693.920    0.193    0.502  112.942  160.631    2.834
  694.170    0.210    0.591  110.260  162.127    2.257
  694.420    0.230    0.708  105.412  166.101    1.845
  694.670    0.223    0.733  100.819  171.044    1.578
  694.920    0.215    0.655   97.371  177.390    1.380
  695.170    0.209    0.619   95.581  180.069    1.284
  695.420    0.202    0.605   98.310  173.478    1.386
  695.670    0.190    0.592  100.083  160.634    1.537
  695.920    0.171    0.582  100.393  152.857    1.740
  696.170    0.142    0.570  102.612  155.861    1.836
  696.420    0.109    0.550  104.641  158.217    2.015
  696.670    0.100    0.519  106.287  158.741    2.392
  696.920    0.069    0.443  104.113  158.724    2.912
  697.170    0.056    0.424   99.393  158.712    3.767
  697.420    0.079    0.401   91.872  158.695    5.055
  697.670    0.075    0.380   89.761  158.681    6.144
  697.920    0.056    0.373   93.191  158.771    6.254
  698.170    0.070    0.451   97.065  158.651    5.927
  698.420    0.075    0.469   96.547  158.096    5.495
  698.670    0.083    0.465   96.793  157.757    5.151
  698.920    0.089    0.438   98.885  157.739    5.224
  699.170    0.087    0.451  101.168  157.727    5.386
  699.420    0.078    0.471  103.642  156.956    5.706
  699.670    0.068    0.383  103.952  156.188    6.306
  699.920    0.061    0.342  102.287  155.417    6.806
  700.170    0.051    0.366  101.833  154.972    7.030
  700.420    0.036    0.355  100.742  154.957    6.835
  700.670    0.015    0.367   95.385  156.128    6.154
  700.920    0.071    0.419   92.638  156.329    5.421
  701.170    0.117    0.461   96.323  156.098    4.783
  701.420    0.120    0.500  101.471  157.917    5.162
  701.670    0.123    0.416  107.319  159.734    5.401
  701.920    0.126    0.392  105.018  157.131    5.487
  702.170    0.108    0.370  105.136  153.882    5.453
  702.420    0.077    0.346  100.098  152.896    5.302
  702.670    0.041    0.358   96.460  155.252    5.072
  702.920    0.072    0.413   97.597  156.747    4.736
  703.170    0.096    0.487  105.483  155.655    4.249
  703.420    0.097    0.506  113.687  154.130    4.365
  703.670    0.109    0.470  110.494  152.819    4.958
  703.920    0.082    0.424  106.602  152.268    5.885
  704.170    0.061    0.387  102.519  153.114    7.286
  704.420    0.053    0.397   98.243  154.716    7.791
  704.670    0.041    0.435   94.478  156.209    7.658
  704.920    0.045    0.506   90.204  157.381    6.934
  705.170    0.082    0.465   97.453  158.121    6.476
  705.420    0.087    0.478  103.047  157.889    6.004
  705.670    0.074    0.457  102.720  156.904    5.526
  705.920    0.075    0.473  103.793  156.887    5.077
  706.170    0.090    0.406  105.184  156.660    4.664
  706.420    0.109    0.429  107.659  155.567    4.215
  706.670    0.133    0.454   94.026  152.748    3.720
  706.920    0.186    0.432   76.954  149.176    3.306
  707.170    0.213    0.372   52.624  146.572    2.923
  707.420    0.223    0.357   43.192  145.048    2.685
  707.670    0.229    0.349   36.689  144.064    2.517
  707.920    0.223    0.360   32.606  145.126    2.470
  708.170    0.222    0.355   31.896  147.160    2.464
  708.420    0.232    0.333   30.997  149.300    2.480
  708.670    0.227    0.320   29.714  151.333    2.525
  708.920    0.229    0.328   30.660  151.966    2.560
  709.170    0.233    0.337   33.135  152.810    2.601
  709.420    0.229    0.349   39.620  153.228    2.677
  709.670    0.221    0.362   38.274  153.215    2.734
  709.920    0.213    0.379   39.410  152.552    2.814
  710.170    0.212    0.423   41.438  151.566    2.870
  710.420    0.219    0.420   42.767  150.257    2.899
  710.670    0.226    0.392   44.223  148.948    3.022
  710.920    0.219    0.370   46.251  147.530    3.261
  711.170    0.202    0.377   48.216  146.977    3.375
  711.420    0.195    0.431   51.327  146.749    3.441
  711.670    0.220    0.457   51.763  146.732    3.509
  711.920    0.226    0.413   50.545  146.609    3.586
  712.170    0.196    0.377   50.918  146.380    3.623
  712.420    0.184    0.365   51.991  146.469    3.653
  712.670    0.191    0.362   52.554  146.456    3.718
  712.920    0.200    0.353   53.630  146.440    3.792
  713.170    0.200    0.344   55.784  146.426    3.859
  713.420    0.189    0.349   57.303  146.192    3.907
  713.670    0.188    0.347   58.695  146.072    4.020
  713.920    0.177    0.337   60.214  145.950    4.085
  714.170    0.161    0.340   62.115  145.181    4.104
  714.420    0.168    0.349   63.953  143.657    4.094
  714.670    0.181    0.361   65.536  142.347    4.069
  714.920    0.195    0.384   67.883  142.225    4.096
  715.170    0.246    0.436   69.147  143.827    4.269
  715.420    0.313    0.548   69.138  146.183    4.650
  715.670    0.340    0.666   73.587  148.648    4.964
  715.920    0.224    0.600   84.720  150.143    4.774
  716.170    0.198    0.497   93.369  149.697    4.345
  716.420    0.231    0.342   81.009  146.123    3.772
  716.670    0.236    0.308   61.773  145.244    3.347
  716.920    0.239    0.319   25.983  144.906    2.801
  717.170    0.243    0.319   24.000  143.814    2.431
  717.420    0.253    0.296   25.265  140.132    2.484
  717.670    0.252    0.312   20.226  136.777    2.720
  717.920    0.244    0.337   17.925  135.576    3.022
  718.170    0.259    0.365   22.564  137.286    3.353
  718.420    0.273    0.473   31.595  139.749    3.713
  718.670    0.302    0.596   54.507  141.889    4.043
  718.920    0.291    0.539   71.625  143.277    4.237
  719.170    0.172    0.437   98.356  144.661    4.234
  719.420    0.164    0.427  112.672  145.512    4.102
  719.670    0.159    0.398  117.056  147.110    4.085
  719.920    0.164    0.369  112.336  147.961    4.142
  720.170    0.157    0.355  112.454  149.024    4.232
  720.420    0.146    0.344  114.674  149.441    4.412
  720.670    0.137    0.332  112.245  149.531    4.473
  720.920    0.123    0.334  105.997  149.622    4.528
  721.170    0.139    0.347   93.764  149.715    4.567
  721.420    0.150    0.338   87.580  149.377    4.597
  721.670    0.120    0.320   83.242  149.364    4.801
