~VERSION INFORMATION
 VERS.                 2.0:   CWLS LOG ASCII STANDARD -VERSION 2.0
 WRAP.                  NO:   ONE LINE PER DEPTH STEP
~WELL INFORMATION BLOCK
#MNEM.UNIT           DATA                    DESCRIPTION OF MNEMONIC
#---------    -------------------            -------------------------------
# Generated from Intellog Unique Number	CW_70_72/WELL/1053
NULL.         -999.25                        : NULL_VALUE
WELL.         LAND BANK ET AL MITSUE 11-03-0 : Well_name    - WELL              
LOC .         11-03-072-03W5                 : Location     - LOCATION          
UWI .         00/11-03-072-03W5/0            : Uwi          - UNIQUE WELL ID    
ENTR.         JAYE                           : Entered      - ENTERED BY        
SRVC.         SCHLUMBERGER                   : Scn          - SERVICE COMPANY   
DATE.         13 FEB 79                      : Date         - LOG DATE          
STRT.M        395                            : top_depth    - START DEPTH       
STOP.M        602                            : bot_depth    - STOP DEPTH        
STEP.M        0.25                           : increment    - STEP LENGTH       
~CURVE INFORMATION BLOCK
#MNEM UNIT       ERCB CURVE CODE    CURVE DESCRIPTION
#-----------   ------------------   ----------------------------------
DEPT.M        00 001 00 00         : DEPTH        - DEPTH                       
DPHI.V/V      00 890 00 00         : PHID         - DENSITY POROSITY (SANDSTONE)
NPHI.V/V      00 330 00 00         : PHIN         - NEUTRON POROSITY (SANDSTONE)
GR  .API      00 310 00 00         : GR           - GAMMA RAY                   
CALI.MM       00 280 01 00         : CAL          - CALIPER                     
ILD .OHMM     00 120 00 00         : RESD         - DEEP RESISTIVITY (DIL)      
~PARAMETER INFORMATION       
#MNEM.UNIT           DATA             DESCRIPTION OF MNEMONIC
#---------         -----------     ------------------------------
GL  .M        594.1                : gl           - GROUND LEVEL ELEVATION      
EREF.M        596.8                : kb           - ELEVATION OF DEPTH REFERENCE
DATM.M        594.1                : datum        - DATUM ELEVATION             
TDD .M        616                  : tdd          - TOTAL DEPTH DRILLER         
RUN .         ONE                  : Run          - RUN NUMBER                  
ENG .         JONES                : Engineer     - RECORDING ENGINEER          
WIT .         LOWTHER              : Witness      - WITNESSED BY                
BASE.         EDM                  : Branch       - HOME BASE OF LOGGING UNIT   
MUD .         FRESH GEL            : Mud_type     - MUD TYPE                    
MATR.         SANDSTONE            : Logunit      - NEUTRON MATRIX              
TMAX.C        30                   : BHT          - MAXIMUM RECORDED TEMPERATURE
BHTD.M        617.3                : BHTDEP       - MAXIMUM RECORDED TEMPERATURE
RMT .C        12                   : MDTP         - TEMPERATURE OF MUD          
MUDD.KG/M     1190                 : MWT          - MUD DENSITY                 
NEUT.         1                    : NEUTRON      - NEUTRON TYPE                
RESI.         0                    : RESIST       - RESISTIVITY TYPE            
RM  .OHMM     2.42                 : RM           - RESISTIVITY OF MUD          
RMC .OHMM     0                    : RMC          - RESISTIVITY OF MUD CAKE     
RMF .OHMM     4.21                 : RMF          - RESISTIVITY OF MUD FILTRATE 
SUFT.C        0                    : SUFT         - SURFACE TEMPERATURE         
~A  DEPTH     PHID     PHIN       GR      CAL     RESD
# ...
  468.000    0.304    0.443   68.745  160.774    1.998
  468.250    0.312    0.434   71.434  160.839    1.996
  468.500    0.324    0.424   72.023  160.801    1.972
  468.750    0.320    0.415   71.753  160.541    1.962
  469.000    0.322    0.406   70.918  160.606    1.949
  469.250    0.327    0.396   70.895  160.653    1.932
  469.500    0.329    0.403   70.371  160.723    1.923
  469.750    0.331    0.411   67.689  160.986    1.925
  470.000    0.334    0.416   65.932  161.147    1.937
  470.250    0.333    0.416   66.398  161.309    1.942
  470.500    0.333    0.406   66.493  161.351    1.936
  470.750    0.334    0.398   67.211  161.519    1.934
  471.000    0.336    0.405   68.047  161.576    1.928
  471.250    0.337    0.414   68.641  161.644    1.919
  471.500    0.335    0.426   68.921  161.900    1.927
  471.750    0.335    0.438   69.205  161.863    1.925
  472.000    0.336    0.433   69.978  162.023    1.934
  472.250    0.343    0.410   70.076  162.078    1.954
  472.500    0.338    0.405   66.589  162.139    1.973
  472.750    0.328    0.407   65.019  162.298    1.997
  473.000    0.324    0.408   64.927  162.241    2.002
  473.250    0.321    0.402   65.150  162.407    2.015
  473.500    0.317    0.395   65.489  162.573    2.085
  473.750    0.308    0.389   65.463  162.738    2.244
  474.000    0.297    0.381   65.066  163.102    2.466
  474.250    0.252    0.358   64.915  163.362    3.007
  474.500    0.179    0.334   64.150  163.628    3.592
  474.750    0.114    0.293   61.400  163.895    4.324
  475.000    0.098    0.244   59.335  164.471    4.311
  475.250    0.113    0.201   57.205  168.237    3.997
  475.500    0.132    0.216   54.710  169.834    3.477
  475.750    0.145    0.239   52.645  169.276    2.878
  476.000    0.185    0.265   52.308  168.097    2.471
  476.250    0.209    0.308   55.555  165.786    2.115
  476.500    0.252    0.363   58.865  163.378    1.953
  476.750    0.317    0.393   60.939  161.882    1.929
  477.000    0.336    0.413   63.879  161.533    1.902
  477.250    0.334    0.415   66.756  161.799    1.882
  477.500    0.332    0.413   69.077  161.853    1.880
  477.750    0.332    0.410   71.027  162.116    1.889
  478.000    0.333    0.408   73.412  162.381    1.897
  478.250    0.341    0.411   73.694  162.547    1.902
  478.500    0.343    0.423   71.686  162.911    1.900
  478.750    0.342    0.435   71.786  163.065    1.905
  479.000    0.339    0.422   71.696  163.340    1.914
  479.250    0.339    0.414   69.751  163.389    1.919
  479.500    0.335    0.408   67.995  163.654    1.920
  479.750    0.329    0.407   66.549  163.916    1.972
  480.000    0.325    0.409   64.854  164.081    2.119
  480.250    0.321    0.418   63.526  164.247    2.376
  480.500    0.315    0.439   63.932  164.299    2.765
  480.750    0.309    0.433   66.132  164.776    3.072
  481.000    0.302    0.418   68.145  165.032    3.542
  481.250    0.293    0.398   69.660  165.198    4.170
  481.500    0.264    0.371   69.511  165.153    5.991
  481.750    0.226    0.351   66.824  165.313    7.627
  482.000    0.160    0.312   63.463  165.375    9.027
  482.250    0.052    0.242   60.222  166.252    8.868
  482.500    0.013    0.160   57.596  167.858    7.659
  482.750    0.012    0.155   55.595  169.353    6.174
  483.000    0.031    0.173   55.136  169.620    4.884
  483.250    0.082    0.207   56.775  169.363    3.800
  483.500    0.140    0.253   59.344  169.018    3.300
  483.750    0.176    0.294   62.656  168.146    2.998
  484.000    0.219    0.334   66.955  167.070    2.912
  484.250    0.260    0.360   69.893  165.685    2.914
  484.500    0.280    0.368   70.112  164.610    2.988
  484.750    0.286    0.374   70.642  163.953    3.064
  485.000    0.284    0.374   70.057  163.387    3.112
  485.250    0.268    0.369   69.042  163.245    3.179
  485.500    0.277    0.360   68.645  163.091    3.157
  485.750    0.284    0.344   67.875  163.051    3.056
  486.000    0.291    0.356   66.491  163.004    2.951
  486.250    0.293    0.373   64.179  163.157    2.756
  486.500    0.280    0.390   63.719  163.116    2.485
  486.750    0.261    0.395   66.533  163.379    2.191
  487.000    0.235    0.406   69.042  163.334    2.054
  487.250    0.272    0.425   71.052  163.293    2.018
  487.500    0.307    0.424   71.026  163.242    2.030
  487.750    0.301    0.415   68.590  162.892    2.047
  488.000    0.296    0.402   66.153  162.640    2.072
  488.250    0.310    0.413   66.929  162.291    2.093
  488.500    0.318    0.417   69.680  162.043    2.098
  488.750    0.307    0.408   72.746  161.987    2.088
  489.000    0.302    0.400   74.326  161.840    2.086
  489.250    0.301    0.404   72.007  161.586    2.087
  489.500    0.297    0.422   70.562  161.552    2.073
  489.750    0.290    0.438   69.484  161.609    2.071
  490.000    0.279    0.429   69.953  161.566    2.076
  490.250    0.281    0.419   71.163  161.419    2.086
  490.500    0.291    0.411   73.483  161.476    2.064
  490.750    0.282    0.405   77.474  161.945    1.994
  491.000    0.267    0.398   84.490  163.025    1.859
  491.250    0.253    0.414   90.333  163.913    1.691
  491.500    0.223    0.434   94.509  165.516    1.525
  491.750    0.226    0.451   97.137  167.636    1.438
  492.000    0.220    0.470   99.027  170.370    1.386
  492.250    0.221    0.505  101.162  173.003    1.354
  492.500    0.243    0.523  103.669  173.681    1.357
  492.750    0.259    0.533  102.530  172.708    1.397
  493.000    0.269    0.512   98.918  171.530    1.465
  493.250    0.283    0.519   97.781  171.073    1.553
  493.500    0.278    0.531   97.382  170.922    1.662
  493.750    0.241    0.536   95.687  170.158    1.714
  494.000    0.262    0.492   95.229  169.077    1.696
  494.250    0.288    0.502   99.032  169.452    1.596
  494.500    0.310    0.530   99.434  171.879    1.444
  494.750    0.329    0.561   97.861  178.939    1.231
  495.000    0.309    0.549   96.598  181.985    1.106
  495.250    0.299    0.560   95.771  175.451    1.078
  495.500    0.292    0.569   94.694  170.568    1.057
  495.750    0.278    0.549   94.172  169.074    1.052
  496.000    0.257    0.534   94.332  168.514    1.095
  496.250    0.268    0.521   97.952  168.042    1.178
  496.500    0.263    0.530   97.923  168.018    1.328
  496.750    0.261    0.531   95.796  168.282    1.602
  497.000    0.251    0.447   92.555  178.227    2.032
  497.250    0.215    0.387   91.972  183.229    2.441
  497.500    0.206    0.401   93.982  173.400    3.016
  497.750    0.200    0.403   94.267  170.882    3.543
  498.000    0.244    0.385   91.892  169.288    4.101
  498.250    0.266    0.358   92.236  168.317    4.703
  498.500    0.289    0.337   90.231  166.108    5.303
  498.750    0.332    0.310   83.777  163.079    4.736
  499.000    0.362    0.300   76.830  160.867    3.993
  499.250    0.368    0.318   75.197  160.204    3.442
  499.500    0.340    0.355   77.518  160.365    3.062
  499.750    0.303    0.382   83.359  161.145    2.850
  500.000    0.271    0.412   90.192  162.445    2.707
  500.250    0.266    0.421   96.778  163.524    2.620
  500.500    0.255    0.409   98.481  164.312    2.549
  500.750    0.245    0.401   95.303  165.297    2.513
  501.000    0.230    0.417   91.937  165.046    2.492
  501.250    0.226    0.417   90.984  162.731    2.489
  501.500    0.251    0.411   90.773  161.145    2.505
  501.750    0.264    0.416   91.117  159.859    2.540
  502.000    0.254    0.430   91.583  159.609    2.628
  502.250    0.266    0.434   91.554  159.564    2.746
  502.500    0.248    0.428   91.776  159.830    2.847
  502.750    0.210    0.416   93.419  159.994    2.844
  503.000    0.165    0.402  100.127  160.566    2.737
  503.250    0.190    0.407   99.050  163.611    2.668
  503.500    0.211    0.414   95.929  164.694    2.582
  503.750    0.223    0.421   93.001  164.029    2.471
  504.000    0.230    0.427   90.626  163.472    2.356
  504.250    0.237    0.423   88.683  163.737    2.225
