~VERSION INFORMATION
 VERS.                 2.0:   CWLS LOG ASCII STANDARD -VERSION 2.0
 WRAP.                  NO:   ONE LINE PER DEPTH STEP
~WELL INFORMATION BLOCK
#MNEM.UNIT           DATA                    DESCRIPTION OF MNEMONIC
#---------    -------------------            -------------------------------
# Generated from Intellog Unique Number	CW_82_90/WELL/3436
WELL.         CDN SUP LIEGE                  : Well_name    - WELL
LOC .         00/10-03-090-19W4/0            : Location     - LOCATION
UWI .         00/10-03-090-19W4/0            : Uwi          - UNIQUE WELL ID
ENTR.         MAX                            : Entered      - ENTERED BY
SRVC.         COMPUTALOG                     : Scn          - SERVICE COMPANY
STRT.M        115                            : top_depth    - START DEPTH
STOP.M        250                            : bot_depth    - STOP DEPTH
STEP.M        0.25                           : increment    - STEP LENGTH
 NULL. -999.2500:NULL Value
~CURVE INFORMATION BLOCK
#MNEM UNIT       ERCB CURVE CODE    CURVE DESCRIPTION
#-----------   ------------------   ----------------------------------
DEPT.M        00 001 00 00         : DEPTH        - DEPTH
ILD .OHMM     00 120 00 00         : RESD         - DEEP RESISTIVITY (DIL)
CALI.MM       00 280 01 00         : CAL          - CALIPER
DPHI.V/V      00 890 00 00         : PHID         - DENSITY POROSITY (LIMESTONE)
NPHI.V/V      00 330 00 00         : PHIN         - NEUTRON POROSITY (LIMESTONE)
GR  .API      00 310 00 00         : GR           - GAMMA RAY
~PARAMETER INFORMATION
#MNEM.UNIT           DATA             DESCRIPTION OF MNEMONIC
#---------         -----------     ------------------------------
GL  .M        511                  : gl           - GROUND LEVEL ELEVATION
EREF.M        514.8                : kb           - ELEVATION OF DEPTH REFERENCE
DATM.M        514.8                : datum        - DATUM ELEVATION
TDD .M        250                  : tdd          - TOTAL DEPTH DRILLER
RUN .         ONE                  : Run          - RUN NUMBER
ENG .         BILL                 : Engineer     - RECORDING ENGINEER
WIT .         JIM                  : Witness      - WITNESSED BY
MUD .         GEL                  : Mud_type     - MUD TYPE
MATR.         LIMESTONE            : Logunit      - NEUTRON MATRIX
TMAX.C        18                   : BHT          - MAXIMUM RECORDED TEMPERATURE
BHTD.M        2072                 : BHTDEP       - MAXIMUM RECORDED TEMPERATURE
MATR.         1                    : LOGUNIT      - NEUTRON MATRIX
RMT .C        25                   : MDTP         - TEMPERATURE OF MUD
NEUT.         1                    : NEUTRON      - NEUTRON TYPE
RESI.         0                    : RESIST       - RESISTIVITY TYPE
RMC .OHMM     6                    : RMC          - RESISTIVITY OF MUD CAKE
RMF .OHMM     5                    : RMF          - RESISTIVITY OF MUD FILTRATE
SUFT.C        1                    : SUFT         - SURFACE TEMPERATURE
~A  DEPTH     RESD      CAL     PHID     PHIN       GR
# ...
  224.500    5.957  166.769    0.202    0.366  100.000
  224.750    4.637  166.772    0.184    0.374  109.940
  225.000    3.998  167.777    0.164    0.394  119.578
  225.250    3.679  167.779    0.167    0.413  120.181
  225.500    3.546  169.286    0.201    0.438  121.687
  225.750    3.648  169.789    0.232    0.452  123.795
  226.000    3.823  169.792    0.233    0.447  123.795
  226.250    4.119  170.296    0.245    0.459  123.795
  226.500    4.480  172.303    0.255    0.475  121.687
  226.750    5.248  171.303    0.248    0.461  119.277
  227.000    6.206  169.803    0.215    0.430  115.663
  227.250    7.005  169.304    0.189    0.385  104.518
  227.500    8.361  167.303    0.167    0.383  105.723
  227.750    9.887  166.804    0.161    0.386  110.241
  228.000   10.555  166.807    0.186    0.389  108.735
  228.250   11.163  165.808    0.200    0.388  107.831
  228.500   12.602  165.810    0.219    0.384  102.108
  228.750   14.092  165.312    0.230    0.378   93.072
  229.000   16.509  164.313    0.255    0.394   89.157
  229.250   18.124  164.315    0.257    0.391   90.964
  229.500   19.895  164.318    0.199    0.368   91.566
  229.750   21.841  164.320    0.162    0.351   90.060
  230.000   23.317  164.323    0.178    0.356   86.446
  230.250   25.361  164.325    0.201    0.364   82.530
  230.500   26.577  164.830    0.233    0.364   80.121
  230.750   26.096  164.832    0.228    0.371   84.337
  231.000   20.126  164.835    0.214    0.397   92.169
  231.250   11.109  164.337    0.225    0.398   95.783
  231.500    7.954  163.838    0.225    0.389  100.301
  231.750    5.386  163.340    0.189    0.383  106.325
  232.000    4.271  163.343    0.185    0.392  107.229
  232.250    3.683  162.844    0.198    0.414  100.301
  232.500    3.824  162.847    0.204    0.425  106.024
  232.750    3.970  162.849    0.209    0.430  111.145
  233.000    4.963  162.852    0.211    0.427  115.060
  233.250    6.809  162.855    0.212    0.414  114.458
  233.500    8.918  162.858    0.214    0.397   93.675
  233.750    9.974  162.860    0.217    0.366   76.807
  234.000   12.942  162.361    0.225    0.321   68.976
  234.250   15.161  162.364    0.234    0.322   69.578
  234.500   17.115  162.367    0.236    0.343   75.000
  234.750   17.605  162.370    0.237    0.352   74.699
  235.000   16.811  161.371    0.240    0.368   73.795
  235.250   16.355  160.872    0.245    0.381   77.410
  235.500   16.210  160.874    0.242    0.379   78.313
  235.750   16.368  160.877    0.229    0.375   80.422
  236.000   16.836  161.382    0.225    0.374   83.132
  236.250   18.142  161.885    0.231    0.387   85.843
  236.500   19.369  162.890    0.239    0.389   87.048
  236.750   20.485  162.892    0.246    0.383   86.446
  237.000   23.557  162.895    0.251    0.374   81.928
  237.250   29.454  162.396    0.259    0.372   77.410
  237.500   32.034  162.399    0.269    0.373   66.868
  237.750   37.183  162.402    0.278    0.374   64.458
  238.000   37.544  162.906    0.283    0.367   65.060
  238.250   34.224  163.410    0.281    0.359   62.651
  238.500   24.054  163.913    0.265    0.361   61.446
  238.750   26.899  163.916    0.222    0.358   60.542
  239.000   32.104  163.919    0.167    0.343   61.747
  239.250   33.959  163.922    0.218    0.349   66.566
  239.500   31.536  164.425    0.267    0.364   76.807
  239.750   22.580  164.428    0.287    0.369   78.916
  240.000   20.205  164.431    0.284    0.369   83.132
  240.250   17.100  165.436    0.261    0.378   88.554
  240.500   16.637  163.434    0.232    0.374   86.747
  240.750   18.605  162.434    0.221    0.348   78.615
  241.000   21.395  161.936    0.237    0.327   72.892
  241.250   25.298  161.938    0.251    0.310   69.578
  241.500   32.523  161.942    0.287    0.269   68.374
  241.750   44.620  161.945    0.284    0.269   67.470
  242.000   49.903  161.947    0.268    0.272   67.470
  242.250   54.784  162.451    0.266    0.280   65.663
  242.500   59.032  163.957    0.268    0.290   62.952
  242.750   62.436  164.961    0.267    0.304   62.349
  243.000   64.824  164.964    0.268    0.324   62.651
  243.250   67.303  165.969    0.275    0.350   60.843
  243.500   69.230  166.974    0.296    0.363   62.048
  243.750   66.115  166.977    0.300    0.353   63.855
  244.000   53.911  166.979    0.300    0.343   65.060
  244.250   46.051  166.982    0.285    0.338   65.362
  244.500   37.205  166.985    0.262    0.335   63.253
  244.750   31.782  164.482    0.238    0.330   63.554
  245.000   29.517  161.979    0.231    0.329   63.554
  245.250   27.927  161.982    0.229    0.331   64.458
  245.500   27.422  161.985    0.209    0.343   64.458
  245.750   27.179  161.987    0.207    0.353   64.157
  246.000   26.937  161.489    0.209    0.364   60.241
  246.250   26.946  161.491    0.219    0.378   59.639
  246.500   26.957  161.494    0.242    0.364   75.000
  246.750   10.950  161.497    0.235    0.364   90.362
  247.000   10.457  162.001    0.575    0.363  113.554
  247.250   10.174  162.003    0.572    0.358  102.108
  247.500   10.563  162.006    0.220    0.356   84.036
  247.750   12.607  162.009    0.172    0.350   74.699
  248.000   16.057  162.012    0.143    0.350   74.096
  248.250   16.826  162.014    0.145    0.360   73.494
  248.500   13.721  161.516    0.150    0.360   73.193
  248.750   12.393  161.017    0.151    0.356   74.699
  249.000   11.617  161.020    0.150    0.355   75.301
  249.250   11.407  161.023    0.148    0.356   77.108
  249.500   11.412  161.026    0.150    0.411   75.904
  249.750   11.415  161.028    0.153    0.397   75.301
  250.000   11.419  161.532    0.151    0.391   75.000
