~VERSION INFORMATION
 VERS.                 2.0:   CWLS LOG ASCII STANDARD -VERSION 2.0
 WRAP.                  NO:   ONE LINE PER DEPTH STEP
~WELL INFORMATION BLOCK
#MNEM.UNIT           DATA                    DESCRIPTION OF MNEMONIC
#---------    -------------------            -------------------------------
# Generated from Intellog Unique Number	CS_77_79/WELL/958
WELL.         AMOCO CANADA PETROLEUM         : Well_name    - WELL
LOC .         00/10-22-077-09W4/0            : Location     - LOCATION
UWI .         00/10-22-077-09W4/0            : Uwi          - UNIQUE WELL ID
ENTR.         SP                             : Entered      - ENTERED BY
SRVC.         SCHLUMBERGER                   : Scn          - SERVICE COMPANY
STRT.M        158.496                        : top_depth    - START DEPTH
STOP.M        383.746                        : bot_depth    - STOP DEPTH
STEP.M        0.25                           : increment    - STEP LENGTH
 NULL. -999.2500:NULL Value
~CURVE INFORMATION BLOCK
#MNEM UNIT       ERCB CURVE CODE    CURVE DESCRIPTION
#-----------   ------------------   ----------------------------------
DEPT.M        00 001 00 00         : DEPTH        - DEPTH
GR  .API      00 310 00 00         : GR           - GAMMA RAY
DPHI.V/V      00 890 00 00         : PHID         - DENSITY POROSITY (SANDSTONE)
NPHI.V/V      00 330 00 00         : PHIN         - NEUTRON POROSITY (SANDSTONE)
ILD .OHMM     00 120 00 00         : RESD         - DEEP RESISTIVITY (DIL)
~PARAMETER INFORMATION
#MNEM.UNIT           DATA             DESCRIPTION OF MNEMONIC
#---------         -----------     ------------------------------
GL  .M        583.387              : gl           - GROUND LEVEL ELEVATION
EREF.M        586.13               : kb           - ELEVATION OF DEPTH REFERENCE
DATM.M        583.387              : datum        - DATUM ELEVATION
TDD .M        393.192              : tdd          - TOTAL DEPTH DRILLER
RUN .         ONE                  : Run          - RUN NUMBER
ENG .         BILL                 : Engineer     - RECORDING ENGINEER
WIT .         JIM                  : Witness      - WITNESSED BY
MUD .         GEL                  : Mud_type     - MUD TYPE
MATR.         SANDSTONE            : Logunit      - NEUTRON MATRIX
TMAX.C        17.7778              : BHT          - MAXIMUM RECORDED TEMPERATURE
BHTD.M        393.192              : BHTDEP       - MAXIMUM RECORDED TEMPERATURE
MATR.         1                    : LOGUNIT      - NEUTRON MATRIX
RMT .C        25                   : MDTP         - TEMPERATURE OF MUD
NEUT.         1                    : NEUTRON      - NEUTRON TYPE
RESI.         0                    : RESIST       - RESISTIVITY TYPE
RMC .OHMM     0.25                 : RMC          - RESISTIVITY OF MUD CAKE
RMF .OHMM     0.25                 : RMF          - RESISTIVITY OF MUD FILTRATE
SUFT.C        15                   : SUFT         - SURFACE TEMPERATURE
~A  DEPTH       GR     PHID     PHIN     RESD
# ...
  201.996  104.686    0.234    0.417   24.699
  202.246  111.354    0.233    0.427   21.973
  202.496  114.714    0.254    0.438   19.499
  202.746  115.594    0.233    0.434   17.350
  202.996  110.588    0.215    0.434   16.188
  203.246  110.539    0.210    0.439   15.128
  203.496  116.213    0.226    0.458   13.071
  203.746  122.087    0.200    0.466   11.466
  203.996  125.770    0.208    0.476   10.602
  204.246  127.859    0.213    0.487    9.581
  204.496  124.868    0.211    0.497    8.472
  204.746  117.229    0.209    0.490    7.774
  204.996  111.057    0.216    0.421    7.677
  205.246  104.215    0.227    0.404    8.428
  205.496  105.379    0.235    0.399    9.681
  205.746  109.723    0.221    0.405   11.062
  205.996  113.105    0.207    0.428   12.611
  206.246  119.072    0.206    0.444   13.455
  206.496  124.877    0.204    0.456   13.312
  206.746  130.796    0.216    0.464   12.043
  206.996  133.594    0.222    0.468   11.081
  207.246  134.044    0.226    0.489    9.655
  207.496  129.438    0.227    0.508    8.605
  207.746  123.251    0.231    0.514    8.062
  207.996  117.312    0.249    0.491    8.042
  208.246  112.445    0.260    0.477    8.868
  208.496  109.204    0.257    0.489    9.398
  208.746  104.200    0.242    0.491   10.562
  208.996   99.287    0.232    0.479   12.225
  209.246  100.401    0.218    0.468   13.785
  209.496  107.264    0.230    0.474   14.225
  209.746  112.980    0.236    0.474   13.805
  209.996  116.460    0.253    0.456   12.421
  210.246  112.363    0.270    0.444   11.015
  210.496  108.136    0.277    0.437   10.362
  210.746  108.905    0.279    0.431   12.153
  210.996  111.516    0.277    0.430   13.978
  211.246  113.374    0.266    0.428   14.941
  211.496  114.184    0.256    0.425   15.243
  211.746  117.433    0.243    0.441   14.776
  211.996  119.216    0.231    0.447   14.046
  212.246  119.532    0.234    0.459   13.143
  212.496  120.570    0.215    0.476   12.387
  212.746  120.893    0.212    0.486   11.537
  212.996  119.150    0.210    0.480   10.409
  213.246  116.434    0.210    0.481   10.017
  213.496  111.725    0.221    0.480    9.290
  213.746  108.177    0.212    0.492    8.572
  213.996   81.650    0.274    0.511    8.094
  214.246   69.186    0.379    0.538    8.098
  214.496   55.117    0.425    0.573    8.727
  214.746   48.136    0.484    0.601    9.686
  214.996   52.575    0.555    0.616   12.322
  215.246   58.877    0.535    0.614   13.917
  215.496   62.981    0.488    0.416   16.652
  215.746   65.684    0.327    0.418   18.657
  215.996   67.883    0.285    0.414   21.256
  216.246   67.172    0.282    0.417   24.744
  216.496   64.530    0.293    0.420   27.898
  216.746   63.560    0.299    0.431   30.928
  216.996   64.041    0.305    0.427   33.245
  217.246   64.655    0.306    0.413   34.985
  217.496   65.265    0.307    0.416   36.784
  217.746   65.197    0.302    0.415   37.851
  217.996   65.107    0.305    0.411   38.820
  218.246   66.416    0.319    0.419   38.774
  218.496   67.285    0.330    0.423   39.439
  218.746   68.937    0.334    0.408   40.239
  218.996   70.463    0.328    0.412   40.953
  219.246   71.476    0.335    0.411   41.455
  219.496   71.663    0.324    0.414   41.897
  219.746   71.132    0.323    0.422   42.488
  219.996   70.404    0.331    0.427   43.309
  220.246   70.495    0.326    0.429   44.171
  220.496   71.057    0.332    0.428   44.745
  220.746   69.923    0.327    0.431   45.878
  220.996   67.952    0.329    0.428   45.872
  221.246   70.353    0.330    0.437   46.059
  221.496   72.580    0.341    0.440   45.899
  221.746   73.912    0.343    0.437   44.981
  221.996   74.901    0.336    0.431   43.662
  222.246   74.815    0.334    0.433   42.376
  222.496   72.714    0.344    0.443   41.128
  222.746   72.924    0.341    0.442   39.939
  222.996   74.677    0.329    0.437   38.878
  223.246   71.290    0.333    0.423   38.278
  223.496   68.831    0.335    0.420   38.155
  223.746   66.553    0.336    0.426   38.971
  223.996   65.459    0.327    0.425   38.920
  224.246   65.834    0.334    0.417   38.952
  224.496   66.079    0.325    0.411   38.974
  224.746   67.230    0.318    0.411   39.721
  224.996   67.026    0.320    0.416   39.690
  225.246   65.966    0.321    0.422   39.684
  225.496   66.372    0.337    0.433   39.242
  225.746   65.641    0.340    0.446   39.042
  225.996   63.662    0.338    0.457   38.334
  226.246   62.176    0.339    0.448   38.289
  226.496   62.925    0.338    0.444   38.194
  226.746   63.397    0.349    0.441   37.624
  226.996   63.445    0.348    0.457   36.573
  227.246   63.425    0.342    0.460   36.325
  227.496   62.405    0.341    0.457   36.985
  227.746   61.508    0.352    0.451   36.961
  227.996   62.835    0.345    0.447   36.963
  228.246   63.798    0.346    0.462   36.977
  228.496   63.651    0.350    0.462   37.021
  228.746   62.746    0.349    0.458   36.342
  228.996   63.728    0.344    0.460   36.337
  229.246   64.794    0.346    0.455   36.328
  229.496   65.770    0.344    0.452   36.350
  229.746   64.850    0.340    0.461   34.711
  229.996   67.816    0.343    0.459   33.154
  230.246   69.725    0.343    0.456   33.231
  230.496   70.513    0.339    0.458   32.499
  230.746   69.767    0.340    0.467   32.554
  230.996   70.565    0.341    0.460   32.023
  231.246   72.443    0.338    0.445   31.344
  231.496   72.724    0.342    0.439   31.438
  231.746   71.346    0.331    0.438   31.177
  231.996   68.243    0.339    0.444   31.292
  232.246   68.484    0.339    0.441   30.863
  232.496   68.820    0.345    0.437   30.553
  232.746   69.093    0.339    0.448   30.260
  232.996   68.570    0.341    0.458   29.754
  233.246   68.754    0.344    0.470   29.522
  233.496   69.031    0.338    0.468   29.222
  233.746   69.091    0.342    0.463   28.686
  233.996   68.403    0.335    0.461   28.529
  234.246   67.793    0.337    0.460   28.215
  234.496   68.087    0.332    0.474   27.310
  234.746   69.606    0.335    0.488   27.080
  234.996   70.679    0.327    0.497   26.734
  235.246   70.945    0.327    0.490   25.916
  235.496   71.588    0.331    0.480   25.808
  235.746   73.039    0.327    0.465   25.357
  235.996   73.000    0.335    0.456   25.317
  236.246   73.729    0.342    0.460   25.262
  236.496   75.124    0.328    0.457   24.890
  236.746   76.651    0.327    0.452   24.411
  236.996   76.509    0.326    0.458   23.961
  237.246   75.294    0.321    0.454   23.996
  237.496   75.343    0.325    0.452   23.993
  237.746   75.337    0.326    0.458   23.997
  237.996   75.384    0.335    0.460   24.004
  238.246   74.644    0.333    0.458   24.014
  238.496   74.727    0.332    0.453   23.991
  238.746   74.015    0.338    0.446   24.497
  238.996   73.962    0.334    0.461   24.449
  239.246   73.501    0.330    0.468   24.870
  239.496   71.341    0.333    0.454   25.082
  239.746   69.031    0.333    0.459   25.861
  239.996   65.630    0.317    0.434   26.644
  240.246   61.853    0.276    0.410   27.014
  240.496   65.120    0.233    0.372   27.352
  240.746   67.435    0.318    0.371   27.838
  240.996   70.786    0.328    0.474   28.460
  241.246   73.322    0.314    0.455   27.884
  241.496   74.756    0.296    0.456   26.998
  241.746   73.213    0.305    0.467   26.699
  241.996   73.284    0.320    0.472   25.479
  242.246   74.398    0.312    0.465   24.734
  242.496   77.017    0.310    0.456   23.986
  242.746   77.915    0.301    0.449   23.802
  242.996   79.376    0.301    0.442   21.026
  243.246   80.999    0.297    0.438   20.813
  243.496   82.265    0.311    0.431   21.100
  243.746   87.162    0.298    0.427   21.038
  243.996   97.633    0.286    0.436   17.960
  244.246  106.639    0.284    0.456   10.855
  244.496  113.081    0.248    0.489    8.260
  244.746  113.130    0.252    0.498    5.728
  244.996  109.258    0.246    0.512    4.762
  245.246  105.411    0.256    0.529    4.265
