~VERSION INFORMATION
 VERS.                 2.0:   CWLS LOG ASCII STANDARD -VERSION 2.0
 WRAP.                  NO:   ONE LINE PER DEPTH STEP
~WELL INFORMATION BLOCK
#MNEM.UNIT           DATA                    DESCRIPTION OF MNEMONIC
#---------    -------------------            -------------------------------
# Generated from Intellog Unique Number	CW_76_78/WELL/2578
WELL.         10-20-078-24W4                 : Well_name    - WELL
LOC .         00/10-20-078-24W4/0            : Location     - LOCATION
UWI .         00/10-20-078-24W4/0            : Uwi          - UNIQUE WELL ID
ENTR.         MAX                            : Entered      - ENTERED BY
SRVC.         SCHLUMBERGER                   : Scn          - SERVICE COMPANY
STRT.M        274.32                         : top_depth    - START DEPTH
STOP.M        518.07                         : bot_depth    - STOP DEPTH
STEP.M        0.25                           : increment    - STEP LENGTH
 NULL. -999.2500:NULL Value
~CURVE INFORMATION BLOCK
#MNEM UNIT       ERCB CURVE CODE    CURVE DESCRIPTION
#-----------   ------------------   ----------------------------------
DEPT.M        00 001 00 00         : DEPTH        - DEPTH
ILD .OHMM     00 120 00 00         : RESD         - DEEP RESISTIVITY (DIL)
NPHI.V/V      00 330 00 00         : PHIN         - NEUTRON POROSITY (SANDSTONE)
DPHI.V/V      00 890 00 00         : PHID         - DENSITY POROSITY (SANDSTONE)
CALI.MM       00 280 01 00         : CAL          - CALIPER
GR  .API      00 310 00 00         : GR           - GAMMA RAY
~PARAMETER INFORMATION
#MNEM.UNIT           DATA             DESCRIPTION OF MNEMONIC
#---------         -----------     ------------------------------
GL  .M        588.874              : gl           - GROUND LEVEL ELEVATION
EREF.M        592.836              : kb           - ELEVATION OF DEPTH REFERENCE
DATM.M        588.874              : datum        - DATUM ELEVATION
TDD .M        536.448              : tdd          - TOTAL DEPTH DRILLER
RUN .         ONE                  : Run          - RUN NUMBER
ENG .         BILL                 : Engineer     - RECORDING ENGINEER
WIT .         JIM                  : Witness      - WITNESSED BY
MUD .         GEL                  : Mud_type     - MUD TYPE
MATR.         SANDSTONE            : Logunit      - NEUTRON MATRIX
TMAX.C        16.6667              : BHT          - MAXIMUM RECORDED TEMPERATURE
BHTD.M        536.448              : BHTDEP       - MAXIMUM RECORDED TEMPERATURE
RMT .C        19.4444              : MDTP         - TEMPERATURE OF MUD
MUDD.KG/M     9300                 : MWT          - MUD DENSITY
NEUT.         1                    : NEUTRON      - NEUTRON TYPE
RESI.         0                    : RESIST       - RESISTIVITY TYPE
RM  .OHMM     3.82                 : RM           - RESISTIVITY OF MUD
RMC .OHMM     0                    : RMC          - RESISTIVITY OF MUD CAKE
RMF .OHMM     3.9                  : RMF          - RESISTIVITY OF MUD FILTRATE
SUFT.C        -20.5556             : SUFT         - SURFACE TEMPERATURE
~A  DEPTH     RESD     PHIN     PHID      CAL       GR
# ...
  420.320    9.845    0.466    0.178  208.268  101.038
  420.570   10.866    0.470    0.178  207.241   99.251
  420.820   11.467    0.460    0.187  207.204   95.697
  421.070   12.323    0.451    0.175  206.672   90.963
  421.320   13.729    0.439    0.152  206.151   86.820
  421.570   16.445    0.426    0.134  206.118   82.970
  421.820   17.355    0.446    0.145  205.586   80.004
  422.070   19.689    0.458    0.223  205.535   78.810
  422.320   21.940    0.465    0.249  204.530   77.610
  422.570   22.319    0.472    0.236  203.995   78.774
  422.820   21.706    0.466    0.212  203.474   80.225
  423.070   19.630    0.440    0.209  203.444   80.503
  423.320   17.431    0.421    0.191  203.903   82.254
  423.570   17.580    0.428    0.171  204.875   83.712
  423.820   19.945    0.451    0.175  206.839   81.922
  424.070   23.253    0.425    0.162  207.312   77.192
  424.320   25.909    0.350    0.100  207.782   71.279
  424.570   27.834    0.330    0.085  206.747   70.077
  424.820   27.813    0.309    0.071  205.221   71.243
  425.070   26.800    0.321    0.101  204.696   72.996
  425.320   24.908    0.359    0.128  205.166   72.679
  425.570   18.960    0.400    0.172  205.632   72.365
  425.820   14.562    0.418    0.184  206.594   72.058
  426.070   11.812    0.434    0.194  207.071   72.333
  426.320    8.136    0.426    0.186  207.537   75.262
  426.570    6.249    0.425    0.181  207.504   79.663
  426.820    5.651    0.463    0.154  207.974   82.300
  427.070    5.397    0.476    0.171  208.939   86.701
  427.320    5.296    0.481    0.178  209.907   91.103
  427.570    5.244    0.478    0.189  209.882   91.671
  427.820    5.287    0.465    0.197  209.842   90.473
  428.070    5.380    0.452    0.175  209.820   88.692
  428.320    5.625    0.431    0.179  209.288   88.378
  428.570    5.882    0.429    0.172  209.255   90.716
  428.820    6.095    0.436    0.180  208.727   90.406
  429.070    5.981    0.428    0.177  207.696   89.503
  429.320    5.711    0.436    0.187  207.696   92.729
  429.570    5.553    0.464    0.189  207.124   96.833
  429.820    5.499    0.457    0.173  208.107   95.932
  430.070    5.495    0.462    0.189  210.070   95.620
  430.320    5.495    0.468    0.191  211.039   95.308
  430.570    5.536    0.473    0.198  211.512   95.288
  430.820    5.634    0.476    0.189  211.978   94.094
  431.070    5.733    0.476    0.177  214.444   90.834
  431.320    5.833    0.470    0.168  213.417   89.341
  431.570    5.990    0.459    0.169  210.885   91.978
  431.820    6.207    0.477    0.166  209.854   97.263
  432.070    6.789    0.483    0.195  210.332   95.475
  432.320    7.295    0.482    0.203  210.798   92.513
  432.570    8.055    0.498    0.187  210.765   89.840
  432.820    8.895    0.506    0.181  210.732   89.824
  433.070    9.819    0.465    0.202  210.732   91.868
  433.320    9.901    0.455    0.193  210.677   93.913
  433.570    9.901    0.449    0.177  210.141   94.186
  433.820    9.976    0.442    0.170  210.112   94.173
  434.070   10.526    0.442    0.171  210.083   96.214
  434.320   10.810    0.453    0.174  210.553   96.787
  434.570   11.200    0.449    0.180  210.028   94.119
  434.820   11.294    0.439    0.172  209.988   89.975
  435.070   11.389    0.438    0.172  209.959   88.774
  435.320   11.380    0.422    0.163  209.430   92.297
  435.570   11.371    0.437    0.129  208.899  100.531
  435.820   11.363    0.462    0.166  208.899  104.635
  436.070   11.252    0.470    0.185  208.847  106.093
  436.320   11.141    0.469    0.185  208.316  106.071
  436.570   11.034    0.463    0.189  208.268  105.467
  436.820   10.925    0.446    0.187  208.257  101.030
  437.070   10.916    0.434    0.180  207.718  100.423
  437.320   10.908    0.461    0.176  207.692  103.643
  437.570   10.898    0.460    0.184  207.663  102.154
  437.820   10.892    0.449    0.183  207.634  100.074
  438.070   11.286    0.468    0.161  208.096   98.285
  438.320   11.588    0.476    0.168  208.067   96.796
  438.570   11.685    0.472    0.172  208.038   93.828
  438.820   11.464    0.467    0.141  208.012   91.750
  439.070   11.252    0.462    0.119  207.979   94.385
  439.320   10.842    0.452    0.155  207.946   99.670
  439.570   10.543    0.444    0.163  207.914   99.059
  439.820   10.441    0.452    0.153  207.884   98.751
  440.070   10.339    0.453    0.169  207.851  100.502
  440.320   10.330    0.439    0.181  207.829  103.724
  440.570   10.323    0.435    0.176  207.800  101.642
  440.820   10.409    0.444    0.176  207.764   98.385
  441.070   10.688    0.451    0.178  207.738   98.953
  441.320   11.074    0.463    0.171  207.206  100.704
  441.570   11.685    0.473    0.162  207.173  100.394
  441.820   12.669    0.447    0.133  207.140   93.008
  442.070   14.771    0.408    0.157  207.115   89.749
  442.320   17.695    0.408    0.163  206.583   89.138
  442.570   20.079    0.422    0.172  206.554   89.708
  442.820   22.164    0.433    0.185  206.525   90.280
  443.070   22.763    0.448    0.186  206.495   88.495
  443.320   24.014    0.447    0.183  206.466   84.649
  443.570   25.572    0.420    0.178  205.934   78.147
  443.820   26.737    0.380    0.128  205.402   73.116
  444.070   25.533    0.327    0.083  205.369   72.219
  444.320   23.942    0.363    0.078  205.347   75.146
  444.570   19.421    0.395    0.151  205.814   78.960
  444.820   17.723    0.449    0.167  206.283   83.068
  445.070   14.637    0.456    0.187  206.254   85.406
  445.320   12.536    0.462    0.200  206.221   86.567
  445.570   11.336    0.464    0.184  205.693   94.211
  445.820   10.922    0.461    0.180  205.664   97.138
  446.070   10.720    0.458    0.176  206.130   96.532
  446.320   10.519    0.451    0.168  206.093   97.691
  446.570   10.415    0.432    0.131  206.567  101.212
  446.820   11.089    0.448    0.162  208.031  104.142
  447.070   12.024    0.451    0.162  209.502  100.291
  447.320   14.671    0.393    0.138  207.969   92.023
  447.570   19.957    0.336    0.117  205.943   83.751
  447.820   27.145    0.246    0.079  205.914   78.137
  448.070   28.382    0.250   -0.001  205.889   72.517
  448.320   25.668    0.278    0.035  206.351   80.458
  448.570   23.004    0.323    0.074  206.817   88.397
  448.820   20.245    0.350    0.127  206.795   95.744
  449.070   17.026    0.393    0.131  207.258   98.676
  449.320   16.256    0.397    0.133  208.230  100.715
  449.570   15.810    0.375    0.134  208.190  101.291
  449.820   15.234    0.369    0.130  207.665  104.218
  450.070   14.682    0.362    0.120  207.137  108.032
  450.320   13.766    0.369    0.120  207.603  112.138
  450.570   12.676    0.382    0.122  208.076  111.828
  450.820   11.888    0.394    0.140  209.540  114.166
  451.070   11.666    0.424    0.127  212.006  115.917
  451.320   11.872    0.444    0.149  211.977  115.015
  451.570   12.637    0.420    0.189  207.453  107.042
  451.820   13.215    0.418    0.175  205.424  102.602
  452.070   13.944    0.421    0.163  204.903   99.933
  452.320   14.844    0.417    0.147  205.370   97.847
  452.570   15.109    0.411    0.138  205.318   96.653
  452.820   15.374    0.418    0.151  205.806   95.752
  453.070   15.362    0.424    0.169  205.806   94.549
  453.320   15.491    0.418    0.155  206.225   93.654
  453.570   15.620    0.410    0.154  206.218   92.162
  453.820   15.465    0.410    0.136  206.181   91.551
  454.070   15.176    0.420    0.127  206.651   91.243
  454.320   14.625    0.423    0.155  206.618   91.224
  454.570   13.840    0.403    0.162  206.618   91.793
  454.820   13.459    0.383    0.137  206.053   92.366
  455.070   13.819    0.400    0.121  205.536   91.757
  455.320   14.848    0.423    0.103  205.499   88.500
  455.570   18.279    0.396    0.155  204.975   83.179
  455.820   22.099    0.363    0.173  204.447   64.595
  456.070   26.961    0.286    0.210  203.911   56.327
  456.320   60.953    0.239    0.273  203.386   45.700
  456.570   85.979    0.201    0.347  202.855   34.777
