~VERSION INFORMATION
 VERS.                 2.0:   CWLS LOG ASCII STANDARD -VERSION 2.0
 WRAP.                  NO:   ONE LINE PER DEPTH STEP
~WELL INFORMATION BLOCK
#MNEM.UNIT           DATA                    DESCRIPTION OF MNEMONIC
#---------    -------------------            -------------------------------
# Generated from Intellog Unique Number	CW_82_90/WELL/877
WELL.         TEXEX TEXCAN MUSKWA 10-17-084- : Well_name    - WELL
LOC .         00/10-17-084-25W4/0            : Location     - LOCATION
UWI .         00/10-17-084-25W4/0            : Uwi          - UNIQUE WELL ID
ENTR.         JAYE                           : Entered      - ENTERED BY
SRVC.         SCHLUMBERGER                   : Scn          - SERVICE COMPANY
DATE.         23 JAN 76                      : Date         - LOG DATE
STRT.F        650                            : top_depth    - START DEPTH
STOP.F        1320.11                        : bot_depth    - STOP DEPTH
STEP.F        0.82                           : increment    - STEP LENGTH
 NULL. -999.2500:NULL Value
~CURVE INFORMATION BLOCK
#MNEM UNIT       ERCB CURVE CODE    CURVE DESCRIPTION
#-----------   ------------------   ----------------------------------
DEPT.F        00 001 00 00         : DEPTH        - DEPTH
GR  .API      00 310 00 00         : GR           - GAMMA RAY
NPHI.V/V      00 330 00 00         : PHIN         - NEUTRON POROSITY (SANDSTONE)
DPHI.V/V      00 890 00 00         : PHID         - DENSITY POROSITY (SANDSTONE)
ILD .OHMM     00 120 00 00         : RESD         - DEEP RESISTIVITY (DLL)
~PARAMETER INFORMATION
#MNEM.UNIT           DATA             DESCRIPTION OF MNEMONIC
#---------         -----------     ------------------------------
GL  .M        543.154              : gl           - GROUND LEVEL ELEVATION
EREF.M        546.811              : kb           - ELEVATION OF DEPTH REFERENCE
DATM.M        543.154              : datum        - DATUM ELEVATION
TDD .M        388.62               : tdd          - TOTAL DEPTH DRILLER
RUN .         ONE                  : Run          - RUN NUMBER
ENG .         SKOWORODKO           : Engineer     - RECORDING ENGINEER
WIT .         NICOUD &YANITSKI     : Witness      - WITNESSED BY
BASE.         EDMONTON             : Branch       - HOME BASE OF LOGGING UNIT
MATR.         SANDSTONE            : Logunit      - NEUTRON MATRIX
TMAX.F        75                   : BHT          - MAXIMUM RECORDED TEMPERATURE
BHTD.F        1340                 : BHTDEP       - MAXIMUM RECORDED TEMPERATURE
RMT .F        55                   : MDTP         - TEMPERATURE OF MUD
MUDD.LB/G     0                    : MWT          - MUD DENSITY
NEUT.         0                    : NEUTRON      - NEUTRON TYPE
RESI.         1                    : RESIST       - RESISTIVITY TYPE
RM  .OHMM     6.15                 : RM           - RESISTIVITY OF MUD
RMC .OHMM     0                    : RMC          - RESISTIVITY OF MUD CAKE
RMF .OHMM     6.1                  : RMF          - RESISTIVITY OF MUD FILTRATE
SUFT.F        4                    : SUFT         - SURFACE TEMPERATURE
~A  DEPTH       GR     PHIN     PHID     RESD
  650.000  105.120    0.565    0.241    3.448
  650.820  106.337    0.559    0.242    3.207
  651.640  103.862    0.552    0.242    3.037
  652.461   98.934    0.559    0.244    2.983
  653.281   91.541    0.559    0.254    3.038
  654.101   84.151    0.527    0.289    3.390
  654.921   76.147    0.500    0.329    3.994
  655.741   68.143    0.471    0.340    5.154
  656.562   58.291    0.464    0.343    7.285
  657.382   53.971    0.467    0.340   11.486
  658.202   52.729    0.463    0.323   11.915
  659.022   51.487    0.469    0.308   11.918
  659.843   49.015    0.473    0.296   11.287
  660.663   46.543    0.483    0.297   11.085
  661.483   47.142    0.456    0.306   10.692
  662.303   50.821    0.443    0.308   10.694
  663.123   53.882    0.444    0.294   10.696
  663.944   53.865    0.457    0.254   11.095
  664.764   50.776    0.466    0.238   11.509
  665.584   48.304    0.455    0.299   12.839
  666.404   45.832    0.452    0.324   14.588
  667.224   44.587    0.450    0.331   15.410
  668.045   44.574    0.449    0.334   15.695
  668.865   43.946    0.448    0.335   16.283
  669.685   43.933    0.444    0.339   16.585
  670.505   44.532    0.438    0.340   16.588
  671.325   44.516    0.427    0.339   16.895
  672.146   43.895    0.426    0.336   16.899
  672.966   42.649    0.429    0.335   16.903
  673.786   41.407    0.440    0.331   16.907
  674.606   41.391    0.457    0.335   16.910
  675.427   41.993    0.468    0.339   16.915
  676.247   41.365    0.467    0.347   16.918
  677.067   40.741    0.462    0.352   16.921
  677.887   40.110    0.451    0.343   16.925
  678.707   40.094    0.443    0.336   16.929
  679.528   40.081    0.444    0.334   16.932
  680.348   40.068    0.449    0.336   16.936
  681.168   39.441    0.446    0.339   16.940
  681.988   38.813    0.442    0.335   17.255
  682.808   38.185    0.445    0.331   17.258
  683.629   37.555    0.454    0.337   17.261
  684.449   37.545    0.460    0.344   17.582
  685.269   37.529    0.446    0.350   17.587
  686.089   36.898    0.443    0.350   17.590
  686.909   36.889    0.444    0.345   17.593
  687.730   36.876    0.454    0.337   17.921
  688.550   38.092    0.460    0.335   17.923
  689.370   38.688    0.465    0.335   18.257
  690.190   38.675    0.468    0.334   18.261
  691.010   38.659    0.466    0.331   18.601
  691.831   38.649    0.462    0.331   18.604
  692.651   38.636    0.460    0.334   18.608
  693.471   38.623    0.458    0.336   18.612
  694.291   38.604    0.457    0.340   18.618
  695.112   39.209    0.457    0.344   18.620
  695.932   40.429    0.463    0.344   18.624
  696.752   42.257    0.469    0.340   18.627
  697.572   44.089    0.473    0.339   18.296
  698.392   45.302    0.472    0.337   17.970
  699.213   46.519    0.465    0.337   17.649
  700.033   47.735    0.452    0.340   17.653
  700.853   48.952    0.439    0.342   17.338
  701.673   51.395    0.437    0.346   17.029
  702.493   53.844    0.463    0.346   16.425
  703.314   56.905    0.475    0.328   15.274
  704.134   66.113    0.491    0.315   13.449
  704.954   73.477    0.502    0.299   10.812
  705.774   80.226    0.526    0.276    7.379
  706.594   84.507    0.537    0.262    5.720
  707.415   84.494    0.551    0.271    5.130
  708.235   84.488    0.557    0.287    5.131
  709.055   84.475    0.518    0.295    5.226
  709.875   81.382    0.482    0.288    5.622
  710.696   81.369    0.475    0.281    6.048
  711.516   83.204    0.482    0.271    6.872
  712.336   81.958    0.484    0.272    7.527
  713.156   80.716    0.480    0.279    7.952
  713.976   79.474    0.477    0.287    8.399
  714.797   79.457    0.478    0.290    8.556
  715.617   82.518    0.486    0.276    8.558
  716.437   84.968    0.482    0.242    8.254
  717.257   85.570    0.471    0.259    7.960
  718.077   80.021    0.433    0.272    8.108
  718.898   76.320    0.427    0.281    8.110
  719.718   81.839    0.469    0.259    7.822
  720.538   89.203    0.488    0.249    7.408
  721.358   92.264    0.501    0.233    7.144
  722.178   89.786    0.494    0.219    6.644
  722.999   92.235    0.483    0.174    5.745
  723.819   97.140    0.502    0.138    5.342
  724.639   98.354    0.538    0.110    4.704
  725.459   96.497    0.560    0.022    4.296
  726.280   94.022    0.542   -0.000    4.068
  727.100   92.782    0.503   -0.003    4.377
  727.920   90.311    0.492    0.279    4.883
  728.740   87.224    0.503    0.288    5.349
  729.560   81.672    0.523    0.311    6.189
  730.381   79.815    0.538    0.312    6.905
  731.201   78.573    0.522    0.299    7.565
  732.021   75.486    0.496    0.273    8.138
  732.841   71.785    0.490    0.263    9.415
  733.661   66.240    0.397    0.243   13.068
  734.482   61.309    0.279    0.041   16.865
  735.302   60.678    0.364    0.066   19.513
  736.122   62.509    0.396    0.311   21.378
  736.942   63.726    0.460    0.335   19.881
  737.762   64.322    0.486    0.357   17.506
  738.583   63.700    0.484    0.359   16.579
  739.403   59.381    0.466    0.362   17.835
  740.223   53.832    0.467    0.367   18.500
  741.043   51.975    0.472    0.370   19.542
  741.864   51.962    0.474    0.373   20.271
  742.684   51.950    0.472    0.369   20.276
  743.504   51.937    0.474    0.362   19.914
  744.324   51.924    0.480    0.356   19.206
  745.144   51.296    0.478    0.359   18.864
  745.965   50.669    0.476    0.362   18.529
  746.785   50.035    0.471    0.362   18.197
  747.605   49.407    0.468    0.362   18.203
  748.425   49.394    0.465    0.362   18.206
  749.245   49.385    0.462    0.362   18.208
  750.066   49.372    0.476    0.359   18.213
  750.886   48.126    0.494    0.361   18.218
  751.706   48.728    0.497    0.365   18.221
  752.526   52.401    0.488    0.367   17.895
  753.346   53.002    0.484    0.367   17.900
  754.167   52.372    0.476    0.367   17.903
  754.987   52.362    0.468    0.365   17.907
  755.807   51.731    0.466    0.365   17.912
  756.627   51.715    0.463    0.365   17.914
  757.448   51.709    0.463    0.365   17.919
  758.268   51.689    0.467    0.365   17.922
  759.088   51.677    0.472    0.361   17.927
  759.908   52.279    0.474    0.356   17.606
  760.728   52.877    0.479    0.358   17.612
  761.549   53.482    0.480    0.362   17.297
  762.369   54.078    0.484    0.363   17.301
  763.189   54.683    0.490    0.363   17.305
  764.009   55.285    0.495    0.363   17.308
  764.829   56.498    0.500    0.364   17.311
  765.650   56.492    0.506    0.369   17.004
  766.470   57.702    0.500    0.374   17.006
  767.290   58.915    0.486    0.376   16.704
  768.110   60.138    0.484    0.380   16.405
  768.930   62.584    0.493    0.381   16.114
  769.751   66.871    0.497    0.365   16.116
  770.571   73.003    0.488    0.333   15.829
  771.391   76.067    0.480    0.288   14.720
  772.211   82.201    0.482    0.244   12.273
  773.031   90.795    0.491    0.171    9.008
  773.852  100.618    0.508    0.125    5.821
  774.672  106.752    0.513    0.191    4.431
  775.492  112.884    0.523    0.202    3.694
  776.312  114.097    0.535    0.173    3.374
  777.133  112.237    0.547    0.238    3.375
  777.953  109.771    0.548    0.255    3.375
  778.773  106.685    0.551    0.259    3.315
  779.593  106.666    0.556    0.265    3.316
  780.413  105.423    0.558    0.272    3.257
  781.234  104.796    0.560    0.247    3.258
  782.054  104.786    0.549    0.238    3.258
  782.874  105.381    0.542    0.243    3.259
  783.694  105.987    0.540    0.244    3.259
  784.514  107.815    0.528    0.238    3.260
  785.335  107.184    0.530    0.234    3.321
  786.155  107.174    0.533    0.230    3.382
  786.975  107.155    0.537    0.232    3.383
  787.795  107.149    0.542    0.228    3.384
  788.615  107.136    0.542    0.228    3.510
  789.436  104.664    0.536    0.237    3.575
  790.256   99.730    0.528    0.248    3.709
  791.076   91.722    0.522    0.259    3.778
  791.896   88.024    0.519    0.260    3.918
