~VERSION INFORMATION
 VERS.                 2.0:   CWLS LOG ASCII STANDARD -VERSION 2.0
 WRAP.                  NO:   ONE LINE PER DEPTH STEP
~WELL INFORMATION BLOCK
#MNEM.UNIT           DATA                    DESCRIPTION OF MNEMONIC
#---------    -------------------            -------------------------------
# Generated from Intellog Unique Number	CW_82_90/WELL/1034
WELL.         14-09-083-23W4                 : Well_name    - WELL
LOC .         00/14-09-083-23W4/0            : Location     - LOCATION
UWI .         00/14-09-083-23W4/0            : Uwi          - UNIQUE WELL ID
ENTR.         JAYE                           : Entered      - ENTERED BY
SRVC.         SCHLUMBERGER                   : Scn          - SERVICE COMPANY
DATE.         05 FEB 86                      : Date         - LOG DATE
STRT.M        225                            : top_depth    - START DEPTH
STOP.M        435                            : bot_depth    - STOP DEPTH
STEP.M        0.25                           : increment    - STEP LENGTH
 NULL. -999.2500:NULL Value
~CURVE INFORMATION BLOCK
#MNEM UNIT       ERCB CURVE CODE    CURVE DESCRIPTION
#-----------   ------------------   ----------------------------------
DEPT.M        00 001 00 00         : DEPTH        - DEPTH
CALI.MM       00 280 01 00         : CAL          - CALIPER
GR  .API      00 310 00 00         : GR           - GAMMA RAY
NPHI.V/V      00 330 00 00         : PHIN         - NEUTRON POROSITY (SANDSTONE)
DPHI.V/V      00 890 00 00         : PHID         - DENSITY POROSITY (SANDSTONE)
ILD .OHMM     00 120 00 00         : RESD         - DEEP RESISTIVITY (DIL)
~PARAMETER INFORMATION
#MNEM.UNIT           DATA             DESCRIPTION OF MNEMONIC
#---------         -----------     ------------------------------
GL  .M        597.8                : gl           - GROUND LEVEL ELEVATION
EREF.M        601.4                : kb           - ELEVATION OF DEPTH REFERENCE
DATM.M        597.8                : datum        - DATUM ELEVATION
TDD .M        437                  : tdd          - TOTAL DEPTH DRILLER
RUN .         ONE                  : Run          - RUN NUMBER
ENG .         PATTERSON            : Engineer     - RECORDING ENGINEER
WIT .         WHALLEY              : Witness      - WITNESSED BY
BASE.         RD                   : Branch       - HOME BASE OF LOGGING UNIT
MUD .         GEL CHEM             : Mud_type     - MUD TYPE
MATR.         SANDSTONE            : Logunit      - NEUTRON MATRIX
TMAX.C        20                   : BHT          - MAXIMUM RECORDED TEMPERATURE
BHTD.M        437                  : BHTDEP       - MAXIMUM RECORDED TEMPERATURE
RMT .C        12                   : MDTP         - TEMPERATURE OF MUD
MUDD.KG/M     1080                 : MWT          - MUD DENSITY
NEUT.         1                    : NEUTRON      - NEUTRON TYPE
RESI.         0                    : RESIST       - RESISTIVITY TYPE
RM  .OHMM     3.55                 : RM           - RESISTIVITY OF MUD
RMC .OHMM     0                    : RMC          - RESISTIVITY OF MUD CAKE
RMF .OHMM     3.19                 : RMF          - RESISTIVITY OF MUD FILTRATE
SUFT.C        0                    : SUFT         - SURFACE TEMPERATURE
~A  DEPTH      CAL       GR     PHIN     PHID     RESD
# ...
  371.000  254.731   76.782    0.425    0.200   11.827
  371.250  254.861   76.553    0.414    0.192   11.622
  371.500  255.009   76.518    0.390    0.188   11.568
  371.750  255.260   78.028    0.375    0.178   11.514
  372.000  255.820   81.831    0.386    0.167   11.377
  372.250  255.755   83.899    0.417    0.173   11.180
  372.500  255.381   84.789    0.457    0.186   11.088
  372.750  254.598   84.385    0.447    0.190   11.039
  373.000  254.538   83.973    0.432    0.185   11.028
  373.250  254.476   78.737    0.436    0.176   11.062
  373.500  254.322   83.468    0.448    0.164   11.137
  373.750  254.152   91.168    0.440    0.175   11.149
  374.000  253.894   95.343    0.430    0.184   11.162
  374.250  253.826   92.462    0.420    0.188   11.133
  374.500  253.555   86.792    0.444    0.182   11.104
  374.750  253.076   83.657    0.443    0.176   11.053
  375.000  252.090   83.188    0.430    0.165   11.026
  375.250  250.277   86.122    0.437    0.164   11.123
  375.500  249.178   88.745    0.457    0.180   11.175
  375.750  247.572   87.039    0.462    0.186   11.424
  376.000  246.382   80.564    0.458    0.176   11.566
  376.250  246.110   84.615    0.446    0.165   11.644
  376.500  246.254   85.445    0.434    0.166   11.683
  376.750  249.699   85.220    0.424    0.151   11.674
  377.000  253.249   85.927    0.411    0.135   11.619
  377.250  255.156   87.749    0.458    0.140   11.287
  377.500  255.915   89.013    0.475    0.136   10.986
  377.750  256.064   87.427    0.470    0.137   10.792
  378.000  256.322   84.298    0.467    0.155   10.702
  378.250  256.256   84.569    0.477    0.180   10.796
  378.500  255.893   87.131    0.467    0.186   11.078
  378.750  255.621   89.388    0.460    0.180   11.323
  379.000  255.357   88.048    0.452    0.183   11.617
  379.250  255.086   85.358    0.457    0.186   11.762
  379.500  254.913   84.015    0.453    0.186   11.731
  379.750  255.168   82.616    0.437    0.182   11.655
  380.000  255.203   84.683    0.423    0.171   11.602
  380.250  255.354   86.505    0.422    0.162   11.531
  380.500  255.698   87.706    0.428    0.168   11.498
  380.750  256.053   88.350    0.449    0.182   11.384
  381.000  256.197   88.191    0.461    0.169   11.352
  381.250  255.000   87.100    0.446    0.155   11.239
  381.500  253.812   88.425    0.434    0.126   11.187
  381.750  255.087   87.770    0.437    0.165   11.118
  382.000  256.989   88.357    0.438    0.175   11.046
  382.250  257.750   84.293    0.431    0.185   10.995
  382.500  258.203   81.471    0.417    0.177   10.904
  382.750  258.662   90.473    0.432    0.170   10.856
  383.000  257.155   93.409    0.454    0.161   10.767
  383.250  257.819   90.584    0.452    0.166   10.617
  383.500  256.928   86.153    0.432    0.178   10.490
  383.750  255.018   90.203    0.413    0.185   10.346
  384.000  256.186   92.274    0.391    0.191   10.279
  384.250  255.507   92.051    0.392    0.201   10.310
  384.500  255.755   91.458    0.409    0.195   10.558
  384.750  259.207   85.476    0.415    0.182   12.197
  385.000  257.593   76.894    0.409    0.179   13.959
  385.250  255.264   68.253    0.295    0.158   15.586
  385.500  254.689   64.072    0.263    0.040   19.159
  385.750  255.759   66.384    0.275    0.022   29.081
  386.000  255.698   69.260    0.303    0.040   33.224
  386.250  253.171   71.016    0.424    0.119   34.607
  386.500  252.588   67.578    0.420    0.241   34.703
  386.750  252.222   64.939    0.407    0.229   33.464
  387.000  252.051   62.177    0.391    0.213   31.478
  387.250  252.403   62.452    0.413    0.186   28.959
  387.500  253.892   65.572    0.434    0.205   26.784
  387.750  253.520   64.671    0.431    0.215   24.869
  388.000  252.325   63.950    0.392    0.199   23.750
  388.250  251.647   65.528    0.433    0.174   23.159
  388.500  251.692   67.037    0.399    0.220   22.839
  388.750  251.523   64.402    0.364    0.186   22.651
  389.000  251.875   59.472    0.340    0.149   22.507
  389.250  251.917   57.702    0.342    0.120   22.660
  389.500  252.068   59.029    0.352    0.104   22.816
  389.750  252.415   59.733    0.342    0.094   22.541
  390.000  252.468   61.494    0.341    0.088   21.449
  390.250  252.712   64.366    0.368    0.100   20.027
  390.500  253.162   70.332    0.393    0.180   17.810
  390.750  253.201   77.354    0.409    0.203   16.106
  391.000  252.627   70.630    0.429    0.214   14.925
  391.250  253.497   66.386    0.409    0.217   13.908
  391.500  254.980   63.381    0.388    0.208   14.626
  391.750  255.028   59.378    0.358    0.160   16.179
  392.000  254.859   58.910    0.319    0.135   17.795
  392.250  253.764   56.395    0.294    0.093   20.557
  392.500  252.572   49.739    0.293    0.086   24.429
  392.750  252.920   48.770    0.289    0.087   26.519
  393.000  251.937   49.785    0.283    0.091   28.201
  393.250  252.284   53.649    0.301    0.089   28.712
  393.500  251.914   53.179    0.307    0.081   28.748
  393.750  250.926   52.711    0.297    0.070   28.618
  394.000  249.417   57.812    0.295    0.066   28.327
  394.250  250.194   62.541    0.327    0.075   27.518
  394.500  251.569   65.726    0.321    0.101   26.042
  394.750  252.125   66.125    0.320    0.091   25.101
  395.000  250.519   67.079    0.345    0.096   23.133
  395.250  250.973   69.206    0.376    0.132   20.960
  395.500  250.907   70.964    0.372    0.154   19.024
  395.750  248.782   70.992    0.360    0.169   17.238
  396.000  248.515   71.385    0.377    0.186   16.006
  396.250  248.872   73.207    0.390    0.180   15.231
  396.500  247.981   75.089    0.401    0.167   14.628
  396.750  246.688   73.138    0.399    0.169   13.944
  397.000  245.488   72.299    0.391    0.194   13.271
  397.250  247.699   72.194    0.410    0.187   12.986
  397.500  249.698   73.272    0.446    0.177   12.714
  397.750  251.907   75.279    0.439    0.177   12.702
  398.000  252.980   76.355    0.420    0.175   12.959
  398.250  252.717   75.578    0.407    0.162   13.419
  398.500  252.450   73.500    0.397    0.140   14.269
  398.750  252.810   71.422    0.388    0.132   14.976
  399.000  253.468   69.895    0.381    0.148   15.105
  399.250  254.025   70.107    0.392    0.152   15.123
  399.500  254.475   71.618    0.408    0.142   14.943
  399.750  255.243   72.944    0.399    0.135   14.681
  400.000  255.593   75.506    0.382    0.140   14.399
  400.250  255.841   84.013    0.388    0.144   14.226
  400.500  256.398   86.204    0.402    0.152   14.054
  400.750  257.268   85.737    0.403    0.162   13.681
  401.000  258.035   84.151    0.386    0.165   13.340
  401.250  258.380   81.516    0.375    0.155   13.077
  401.500  258.114   79.558    0.378    0.159   12.704
  401.750  255.059   77.170    0.391    0.169   12.340
  402.000  256.353   75.027    0.388    0.165   11.921
  402.250  257.208   78.522    0.396    0.164   11.559
  402.500  258.180   81.272    0.408    0.167   11.208
  402.750  257.601   83.028    0.415    0.163   11.073
  403.000  257.541   77.049    0.409    0.152   11.296
  403.250  255.934   60.546    0.380    0.131   11.790
  403.500  253.603   60.260    0.358   -0.003   12.324
  403.750  252.924   65.737    0.400    0.004   13.083
  404.000  253.687   70.898    0.433    0.083   13.071
  404.250  255.486   79.031    0.415    0.119   12.649
  404.500  258.005   90.884    0.387    0.140   11.856
  404.750  262.068   99.637    0.391    0.147   11.092
  405.000  267.068  101.149    0.387    0.159   10.593
  405.250  267.932   98.141    0.423    0.175    9.985
  405.500  268.596   95.135    0.434    0.182    9.464
  405.750  270.807   99.737    0.438    0.193    8.807
  406.000  273.317  107.191    0.430    0.202    8.458
  406.250  268.720  110.748    0.418    0.189    8.092
  406.500  262.261  103.594    0.441    0.174    7.758
  406.750  259.103   95.198    0.440    0.160    7.975
  407.000  257.498   85.564    0.421    0.139    8.609
  407.250  256.509   71.352    0.329    0.104    9.614
