~VERSION INFORMATION
 VERS.                 2.0:   CWLS LOG ASCII STANDARD -VERSION 2.0
 WRAP.                  NO:   ONE LINE PER DEPTH STEP
~WELL INFORMATION BLOCK
#MNEM.UNIT           DATA                    DESCRIPTION OF MNEMONIC
#---------    -------------------            -------------------------------
# Generated from Intellog Unique Number	CS_77_79/WELL/1007
WELL.         CAVALIER ENERGY INC            : Well_name    - WELL
LOC .         00/11-33-077-17W4/0            : Location     - LOCATION
UWI .         00/11-33-077-17W4/0            : Uwi          - UNIQUE WELL ID
ENTR.         SP                             : Entered      - ENTERED BY
SRVC.         SCHLUMBERGER                   : Scn          - SERVICE COMPANY
STRT.M        182.88                         : top_depth    - START DEPTH
STOP.M        389.88                         : bot_depth    - STOP DEPTH
STEP.M        0.25                           : increment    - STEP LENGTH
 NULL. -999.2500:NULL Value
~CURVE INFORMATION BLOCK
#MNEM UNIT       ERCB CURVE CODE    CURVE DESCRIPTION
#-----------   ------------------   ----------------------------------
DEPT.M        00 001 00 00         : DEPTH        - DEPTH
GR  .API      00 310 00 00         : GR           - GAMMA RAY
DPHI.V/V      00 890 00 00         : PHID         - DENSITY POROSITY (SANDSTONE)
NPHI.V/V      00 330 00 00         : PHIN         - NEUTRON POROSITY (SANDSTONE)
ILD .OHMM     00 120 00 00         : RESD         - DEEP RESISTIVITY (DIL)
~PARAMETER INFORMATION
#MNEM.UNIT           DATA             DESCRIPTION OF MNEMONIC
#---------         -----------     ------------------------------
GL  .M        568.452              : gl           - GROUND LEVEL ELEVATION
EREF.M        571.5                : kb           - ELEVATION OF DEPTH REFERENCE
DATM.M        568.452              : datum        - DATUM ELEVATION
TDD .M        389.839              : tdd          - TOTAL DEPTH DRILLER
RUN .         ONE                  : Run          - RUN NUMBER
ENG .         BILL                 : Engineer     - RECORDING ENGINEER
WIT .         JIM                  : Witness      - WITNESSED BY
MUD .         GEL                  : Mud_type     - MUD TYPE
MATR.         SANDSTONE            : Logunit      - NEUTRON MATRIX
TMAX.C        20                   : BHT          - MAXIMUM RECORDED TEMPERATURE
BHTD.M        389.839              : BHTDEP       - MAXIMUM RECORDED TEMPERATURE
MATR.         1                    : LOGUNIT      - NEUTRON MATRIX
RMT .C        25                   : MDTP         - TEMPERATURE OF MUD
NEUT.         1                    : NEUTRON      - NEUTRON TYPE
RESI.         0                    : RESIST       - RESISTIVITY TYPE
RMC .OHMM     0.25                 : RMC          - RESISTIVITY OF MUD CAKE
RMF .OHMM     0.25                 : RMF          - RESISTIVITY OF MUD FILTRATE
SUFT.C        15                   : SUFT         - SURFACE TEMPERATURE
~A  DEPTH       GR     PHID     PHIN     RESD
  182.880   89.043    0.279    1.017    2.789
  183.130   92.786    0.276    0.520    2.798
  183.380   95.434    0.270    0.525    2.844
  183.630   96.271    0.272    0.526    3.000
  183.880   93.901    0.279    0.528    2.979
  184.130   93.888    0.286    0.523    3.211
  184.380   94.352    0.288    0.509    3.378
  184.630   95.256    0.268    0.497    3.401
  184.880   96.187    0.266    0.502    3.409
  185.130   95.697    0.264    0.518    3.420
  185.380   94.700    0.251    0.521    3.510
  185.630   93.711    0.255    0.521    3.412
  185.880   94.108    0.265    0.537    3.426
  186.130   95.117    0.271    0.551    3.424
  186.380   95.509    0.268    0.560    3.427
  186.630   94.892    0.264    0.545    3.451
  186.880   94.132    0.273    0.530    3.215
  187.130   93.108    0.279    0.507    3.238
  187.380   92.750    0.274    0.514    3.234
  187.630   92.397    0.260    0.523    3.216
  187.880   91.828    0.245    0.512    3.039
  188.130   91.803    0.249    0.512    3.047
  188.380   92.501    0.258    0.519    3.051
  188.630   93.056    0.262    0.511    3.074
  188.880   93.054    0.243    0.504    2.833
  189.130   93.016    0.229    0.496    2.861
  189.380   95.679    0.240    0.490    2.649
  189.630   96.679    0.244    0.505    2.657
  189.880   95.472    0.241    0.501    2.854
  190.130   93.340    0.250    0.498    3.183
  190.380   89.038    0.254    0.502    3.502
  190.630   86.111    0.262    0.497    4.172
  190.880   83.796    0.285    0.481    5.143
  191.130   80.821    0.300    0.447    6.633
  191.380   78.387    0.309    0.408    8.259
  191.630   76.326    0.319    0.412    9.985
  191.880   74.351    0.320    0.420   10.449
  192.130   75.162    0.328    0.415    9.449
  192.380   77.166    0.312    0.410    8.539
  192.630   79.103    0.283    0.403    7.697
  192.880   83.841    0.242    0.419    7.053
  193.130   87.450    0.268    0.441    6.436
  193.380   90.444    0.277    0.457    5.946
  193.630   89.303    0.269    0.473    5.367
  193.880   86.599    0.263    0.499    5.314
  194.130   84.784    0.282    0.489    5.157
  194.380   81.145    0.291    0.463    4.915
  194.630   79.006    0.278    0.431    4.699
  194.880   78.077    0.257    0.442    4.220
  195.130   85.231    0.273    0.478    3.840
  195.380   95.301    0.257    0.506    3.728
  195.630  102.459    0.247    0.515    3.521
  195.880  105.439    0.242    0.505    3.548
  196.130  105.309    0.234    0.512    3.349
  196.380  105.075    0.243    0.521    3.344
  196.630  103.375    0.247    0.516    3.319
  196.880  100.952    0.267    0.516    3.880
  197.130   95.314    0.283    0.510    4.427
  197.380   91.191    0.292    0.485    5.227
  197.630   84.419    0.313    0.473    6.756
  197.880   75.855    0.328    0.471    7.839
  198.130   66.696    0.325    0.456    9.407
  198.380   60.358    0.310    0.442   10.843
  198.630   57.143    0.293    0.440   10.655
  198.880   56.815    0.290    0.436   10.349
  199.130   57.155    0.304    0.434   10.133
  199.380   58.297    0.298    0.445   10.128
  199.630   62.525    0.305    0.455   10.521
  199.880   64.131    0.323    0.459   11.078
  200.130   62.679    0.341    0.450   11.579
  200.380   62.213    0.346    0.433   11.934
  200.630   63.337    0.330    0.421   11.950
  200.880   64.624    0.310    0.428   11.947
  201.130   65.820    0.311    0.425   11.634
  201.380   65.007    0.313    0.412   11.079
  201.630   65.707    0.306    0.409   10.560
  201.880   70.518    0.299    0.417    9.703
  202.130   78.633    0.280    0.426    9.072
  202.380   84.043    0.270    0.437    8.225
  202.630   89.325    0.255    0.447    7.195
  202.880   92.271    0.259    0.455    7.003
  203.130   93.682    0.256    0.457    7.328
  203.380   93.688    0.269    0.467    8.748
  203.630   92.738    0.272    0.449    9.939
  203.880   88.777    0.303    0.439   11.128
  204.130   83.513    0.314    0.435   12.077
  204.380   80.442    0.299    0.424   12.818
  204.630   79.889    0.297    0.414   13.045
  204.880   81.121    0.281    0.406   12.513
  205.130   86.459    0.252    0.404   12.210
  205.380   90.467    0.261    0.402   12.222
  205.630   91.685    0.274    0.409   12.265
  205.880   88.428    0.295    0.415   12.413
  206.130   84.953    0.308    0.418   12.735
  206.380   79.174    0.309    0.419   13.062
  206.630   72.803    0.312    0.413   13.373
  206.880   66.223    0.324    0.406   13.932
  207.130   59.693    0.339    0.401   14.230
  207.380   52.724    0.351    0.391   14.382
  207.630   47.602    0.357    0.392   14.420
  207.880   42.129    0.347    0.400   14.427
  208.130   42.793    0.337    0.404   14.098
  208.380   46.192    0.330    0.398   13.777
  208.630   48.631    0.337    0.414   13.453
  208.880   51.543    0.339    0.424   13.135
  209.130   54.363    0.345    0.415   12.849
  209.380   56.861    0.345    0.406   12.673
  209.630   59.164    0.330    0.402   12.556
  209.880   61.443    0.333    0.397   12.449
  210.130   64.501    0.314    0.391   12.087
  210.380   66.787    0.284    0.389   12.005
  210.630   69.129    0.256    0.387   11.663
  210.880   71.710    0.249    0.387   11.180
  211.130   74.912    0.262    0.403   10.764
  211.380   76.703    0.277    0.414    9.890
  211.630   77.896    0.295    0.425    8.651
  211.880   78.551    0.289    0.430    7.618
  212.130   78.909    0.266    0.443    6.780
  212.380   82.924    0.192    0.485    5.914
  212.630   90.643    0.190    0.520    5.059
  212.880  101.950    0.184    0.536    4.603
  213.130  111.199    0.197    0.544    4.022
  213.380  111.053    0.206    0.530    3.707
  213.630  110.523    0.209    0.522    3.553
  213.880  112.101    0.213    0.522    3.318
  214.130  115.495    0.215    0.524    3.342
  214.380  116.536    0.233    0.545    3.140
  214.630  115.813    0.239    0.550    3.157
  214.880  114.841    0.235    0.537    3.155
  215.130  115.209    0.238    0.540    3.505
  215.380  115.451    0.258    0.548    3.578
  215.630  117.120    0.265    0.547    4.140
  215.880  117.648    0.251    0.539    4.357
  216.130  115.738    0.252    0.530    4.811
  216.380  115.090    0.253    0.502    5.643
  216.630  110.854    0.259    0.477    6.543
  216.880  107.327    0.253    0.452    7.414
  217.130  105.023    0.248    0.447    7.932
  217.380  105.817    0.256    0.452    7.963
  217.630  105.767    0.238    0.458    7.970
  217.880  104.438    0.220    0.457    7.478
  218.130  101.451    0.191    0.453    7.281
  218.380   98.645    0.144    0.438    6.986
  218.630   97.191    0.149    0.422    6.849
  218.880   98.914    0.232    0.437    7.465
  219.130  104.548    0.267    0.444    8.295
  219.380  105.890    0.282    0.452    9.277
  219.630   99.359    0.292    0.442   10.252
  219.880   94.073    0.297    0.433   10.737
  220.130   88.985    0.306    0.423   10.917
  220.380   87.767    0.292    0.432   10.780
  220.630   89.630    0.289    0.444   10.239
  220.880   91.010    0.290    0.450    9.921
  221.130   93.084    0.284    0.448    9.803
  221.380   93.467    0.291    0.454    9.808
  221.630   93.785    0.302    0.463    9.821
  221.880   94.745    0.300    0.456    9.627
  222.130   97.298    0.289    0.446    9.528
  222.380   99.882    0.286    0.431    9.186
  222.630  102.204    0.274    0.437    8.867
  222.880  105.829    0.269    0.435    8.631
  223.130  108.613    0.260    0.428    8.423
  223.380  107.152    0.261    0.425    8.423
  223.630  103.158    0.263    0.435    8.722
  223.880   96.533    0.260    0.442    9.045
  224.130   92.610    0.261    0.455    9.676
  224.380   85.666    0.279    0.468   10.918
  224.630   74.236    0.317    0.467   11.797
  224.880   67.263    0.334    0.455   13.239
  225.130   62.218    0.343    0.440   13.904
  225.380   60.910    0.345    0.442   13.887
  225.630   58.170    0.343    0.445   13.358
  225.880   56.982    0.341    0.434   12.566
  226.130   56.477    0.342    0.439   12.109
