~VERSION INFORMATION
 VERS.                 2.0:   CWLS LOG ASCII STANDARD -VERSION 2.0
 WRAP.                  NO:   ONE LINE PER DEPTH STEP
~WELL INFORMATION BLOCK
#MNEM.UNIT           DATA                    DESCRIPTION OF MNEMONIC
#---------    -------------------            -------------------------------
# Generated from Intellog Unique Number	CX_WELLS/WELL/3977
WELL.         BOW VALLEY INDUSTRIES          : Well_name    - WELL
LOC .         00/11-02-071-15W4/0            : Location     - LOCATION
UWI .         00/11-02-071-15W4/0            : Uwi          - UNIQUE WELL ID
ENTR.         SP                             : Entered      - ENTERED BY
SRVC.         SCHLUMBERGER                   : Scn          - SERVICE COMPANY
STRT.M        265                            : top_depth    - START DEPTH
STOP.M        485                            : bot_depth    - STOP DEPTH
STEP.M        0.25                           : increment    - STEP LENGTH
 NULL. -999.2500:NULL Value
~CURVE INFORMATION BLOCK
#MNEM UNIT       ERCB CURVE CODE    CURVE DESCRIPTION
#-----------   ------------------   ----------------------------------
DEPT.M        00 001 00 00         : DEPTH        - DEPTH
NPHI.V/V      00 330 00 00         : PHIN         - NEUTRON POROSITY (LIMESTONE)
ILD .OHMM     00 120 00 00         : RESD         - DEEP RESISTIVITY (DIL)
GR  .API      00 310 00 00         : GR           - GAMMA RAY
DPHI.V/V      00 890 00 00         : PHID         - DENSITY POROSITY (LIMESTONE)
~PARAMETER INFORMATION
#MNEM.UNIT           DATA             DESCRIPTION OF MNEMONIC
#---------         -----------     ------------------------------
GL  .M        569.5                : gl           - GROUND LEVEL ELEVATION
EREF.M        572.7                : kb           - ELEVATION OF DEPTH REFERENCE
DATM.M        569.5                : datum        - DATUM ELEVATION
TDD .M        484                  : tdd          - TOTAL DEPTH DRILLER
RUN .         ONE                  : Run          - RUN NUMBER
ENG .         BILL                 : Engineer     - RECORDING ENGINEER
WIT .         JIM                  : Witness      - WITNESSED BY
MUD .         GEL                  : Mud_type     - MUD TYPE
MATR.         LIMESTONE            : Logunit      - NEUTRON MATRIX
TMAX.C        26                   : BHT          - MAXIMUM RECORDED TEMPERATURE
BHTD.M        484                  : BHTDEP       - MAXIMUM RECORDED TEMPERATURE
MATR.         1                    : LOGUNIT      - NEUTRON MATRIX
RMT .C        25                   : MDTP         - TEMPERATURE OF MUD
NEUT.         1                    : NEUTRON      - NEUTRON TYPE
RESI.         0                    : RESIST       - RESISTIVITY TYPE
RMC .OHMM     0.25                 : RMC          - RESISTIVITY OF MUD CAKE
RMF .OHMM     0.25                 : RMF          - RESISTIVITY OF MUD FILTRATE
SUFT.C        15                   : SUFT         - SURFACE TEMPERATURE
~A  DEPTH     PHIN     RESD       GR     PHID
# ...
  352.000    0.379    4.147   99.233    0.292
  352.250    0.377    4.073  100.101    0.302
  352.500    0.380    3.993   99.439    0.311
  352.750    0.390    3.959   82.822    0.315
  353.000    0.406    3.964   75.803    0.313
  353.250    0.415    4.012   75.632    0.304
  353.500    0.404    4.051   77.721    0.296
  353.750    0.396    4.259   79.016    0.292
  354.000    0.388    4.375   79.272    0.290
  354.250    0.406    4.511   77.938    0.291
  354.500    0.381    4.904   75.687    0.286
  354.750    0.308    5.514   69.404    0.189
  355.000    0.206    7.074   66.542    0.102
  355.250    0.164    8.871   62.828    0.055
  355.500    0.144   11.336   62.713    0.035
  355.750    0.131   15.827   63.152    0.023
  356.000    0.123   20.302   63.102    0.014
  356.250    0.119   25.609   58.529    0.007
  356.500    0.119   28.582   53.957    0.001
  356.750    0.125   27.962   49.811    0.012
  357.000    0.155   18.536   56.546    0.128
  357.250    0.232    9.805   78.441    0.186
  357.500    0.299    6.536   86.765    0.212
  357.750    0.355    5.659   91.728    0.224
  358.000    0.389    5.088   94.001    0.234
  358.250    0.401    4.767   90.957    0.238
  358.500    0.407    4.682   89.380    0.241
  358.750    0.399    4.721   89.022    0.245
  359.000    0.386    4.787   84.816    0.247
  359.250    0.378    4.863   82.259    0.251
  359.500    0.373    5.027   80.377    0.251
  359.750    0.384    5.225   83.994    0.244
  360.000    0.402    5.688   90.302    0.241
  360.250    0.420    5.823   93.185    0.247
  360.500    0.427    6.006   90.325    0.254
  360.750    0.403    6.101   89.235    0.252
  361.000    0.385    5.878   93.587    0.237
  361.250    0.385    6.131   97.207    0.230
  361.500    0.379    6.264   98.805    0.230
  361.750    0.370    6.400   96.371    0.232
  362.000    0.363    6.552   94.793    0.224
  362.250    0.358    6.618   99.636    0.208
  362.500    0.365    6.636  103.316    0.201
  362.750    0.376    6.691  104.485    0.196
  363.000    0.384    6.660  103.335    0.191
  363.250    0.385    6.650   98.028    0.190
  363.500    0.383    6.460   93.822    0.190
  363.750    0.382    6.295   89.128    0.192
  364.000    0.382    5.790   84.799    0.208
  364.250    0.384    5.642   85.971    0.247
  364.500    0.378    5.347   90.749    0.258
  364.750    0.373    5.105   91.983    0.267
  365.000    0.373    4.911   85.760    0.276
  365.250    0.396    4.716   82.898    0.276
  365.500    0.407    4.606   87.310    0.265
  365.750    0.398    4.574   94.781    0.249
  366.000    0.382    4.711   99.069    0.242
  366.250    0.369    4.757  103.116    0.233
  366.500    0.377    4.906  104.838    0.223
  366.750    0.385    5.069  104.666    0.215
  367.000    0.393    5.248  102.965    0.210
  367.250    0.396    5.433   99.921    0.211
  367.500    0.390    5.603   95.531    0.213
  367.750    0.391    5.757   91.325    0.217
  368.000    0.395    5.904   92.682    0.221
  368.250    0.399    5.986   93.730    0.224
  368.500    0.403    6.012   94.720    0.221
  368.750    0.400    6.088   96.688    0.211
  369.000    0.393    6.113   96.088    0.201
  369.250    0.390    6.248   94.509    0.196
  369.500    0.410    6.298   93.787    0.204
  369.750    0.430    6.375   96.673    0.208
  370.000    0.416    6.406   95.339    0.206
  370.250    0.402    6.399   94.007    0.205
  370.500    0.390    6.199   97.439    0.204
  370.750    0.381    5.930  101.546    0.207
  371.000    0.374    5.856   99.907    0.211
  371.250    0.416    5.709   94.172    0.207
  371.500    0.430    5.493   96.323    0.201
  371.750    0.433    5.383  101.041    0.196
  372.000    0.425    5.259  104.476    0.193
  372.250    0.415    5.261  106.687    0.201
  372.500    0.406    5.295  106.515    0.210
  372.750    0.394    5.369  101.086    0.215
  373.000    0.383    5.435   98.042    0.226
  373.250    0.369    5.441   93.284    0.238
  373.500    0.371    5.443   87.428    0.246
  373.750    0.383    5.386   83.711    0.253
  374.000    0.392    5.250   87.511    0.254
  374.250    0.388    5.146   90.273    0.254
  374.500    0.368    4.969   89.796    0.255
  374.750    0.364    4.898   88.585    0.261
  375.000    0.378    4.892   90.858    0.269
  375.250    0.382    4.915   93.866    0.279
  375.500    0.377    4.965   95.159    0.284
  375.750    0.373    5.034   95.478    0.277
  376.000    0.377    5.105   94.754    0.264
  376.250    0.388    5.118   90.977    0.258
  376.500    0.387    4.971   90.130    0.253
  376.750    0.382    4.702   93.932    0.250
  377.000    0.390    4.187   97.001    0.251
  377.250    0.416    3.605   97.439    0.256
  377.500    0.434    2.978   99.650    0.258
  377.750    0.455    2.612  105.897    0.261
  378.000    0.478    2.275  115.327    0.262
  378.250    0.495    2.119  118.880    0.262
  378.500    0.511    1.997  124.395    0.264
  378.750    0.508    2.006  127.277    0.268
  379.000    0.496    2.239  127.348    0.269
  379.250    0.486    2.494  121.125    0.263
  379.500    0.469    2.996  115.573    0.252
  379.750    0.447    3.585  107.210    0.240
  380.000    0.423    4.085   98.847    0.226
  380.250    0.400    4.500   94.457    0.216
  380.500    0.388    4.710   95.935    0.209
  380.750    0.380    4.812  102.184    0.204
  381.000    0.375    4.780  105.126    0.204
  381.250    0.375    4.685  109.664    0.216
  381.500    0.389    4.534  111.017    0.227
  381.750    0.402    4.478  105.101    0.236
  382.000    0.411    4.533  102.544    0.244
  382.250    0.397    4.604  101.088    0.247
  382.500    0.369    4.829   99.877    0.246
  382.750    0.330    5.431   94.020    0.238
  383.000    0.283    6.473   87.429    0.129
  383.250    0.235    9.383   81.022    0.063
  383.500    0.192   12.287   72.292    0.030
  383.750    0.183   13.714   66.314    0.020
  384.000    0.196   10.747   71.398    0.089
  384.250    0.247    7.138   82.046    0.164
  384.500    0.323    6.099   90.370    0.227
  384.750    0.363    4.638   91.909    0.266
  385.000    0.384    3.802   80.735    0.275
  385.250    0.397    3.219   69.439    0.289
  385.500    0.385    2.988   63.153    0.306
  385.750    0.364    2.896   61.574    0.326
  386.000    0.357    2.817   60.977    0.332
  386.250    0.365    2.762   61.721    0.338
  386.500    0.374    2.749   64.542    0.344
  386.750    0.380    2.751   66.204    0.343
  387.000    0.382    2.768   65.362    0.331
  387.250    0.375    2.808   65.065    0.325
  387.500    0.360    2.868   65.749    0.319
  387.750    0.350    2.904   67.351    0.316
  388.000    0.344    2.933   69.564    0.319
  388.250    0.349    2.968   72.019    0.331
  388.500    0.363    3.032   72.398    0.334
  388.750    0.375    3.115   72.590    0.329
  389.000    0.380    3.183   70.218    0.325
  389.250    0.379    3.258   68.580    0.322
  389.500    0.376    3.273   68.957    0.321
  389.750    0.374    3.270   71.169    0.321
  390.000    0.377    3.253   73.564    0.323
  390.250    0.380    3.225   76.393    0.324
  390.500    0.382    3.215   76.951    0.325
  390.750    0.392    3.231   77.635    0.323
  391.000    0.392    3.269   78.194    0.318
  391.250    0.382    3.437   78.695    0.310
  391.500    0.389    3.551   79.075    0.296
  391.750    0.402    3.676   81.775    0.281
  392.000    0.407    3.886   87.654    0.264
  392.250    0.399    4.045   93.411    0.238
  392.500    0.397    4.132   97.456    0.237
  392.750    0.404    4.212  100.891    0.248
  393.000    0.406    4.313   98.274    0.256
  393.250    0.404    4.323   95.656    0.248
  393.500    0.399    4.319   93.835    0.239
  393.750    0.395    4.347   93.294    0.233
  394.000    0.403    4.349   93.061    0.231
  394.250    0.419    4.419   92.339    0.232
  394.500    0.419    4.489   90.517    0.236
  394.750    0.398    4.639   88.817    0.245
  395.000    0.375    4.748   89.745    0.250
  395.250    0.361    4.833   93.545    0.257
