~VERSION INFORMATION
 VERS.                 2.0:   CWLS LOG ASCII STANDARD -VERSION 2.0
 WRAP.                  NO:   ONE LINE PER DEPTH STEP
~WELL INFORMATION BLOCK
#MNEM.UNIT           DATA                    DESCRIPTION OF MNEMONIC
#---------    -------------------            -------------------------------
# Generated from Intellog Unique Number	CW_76_78/WELL/2575
WELL.         10-09-078-26W4                 : Well_name    - WELL
LOC .         00/10-09-078-26W4/0            : Location     - LOCATION
UWI .         00/10-09-078-26W4/0            : Uwi          - UNIQUE WELL ID
ENTR.         MAX                            : Entered      - ENTERED BY
SRVC.         COMPUTALOG                     : Scn          - SERVICE COMPANY
STRT.M        300                            : top_depth    - START DEPTH
STOP.M        525                            : bot_depth    - STOP DEPTH
STEP.M        0.25                           : increment    - STEP LENGTH
 NULL. -999.2500:NULL Value
~CURVE INFORMATION BLOCK
#MNEM UNIT       ERCB CURVE CODE    CURVE DESCRIPTION
#-----------   ------------------   ----------------------------------
DEPT.M        00 001 00 00         : DEPTH        - DEPTH
ILD .OHMM     00 120 00 00         : RESD         - DEEP RESISTIVITY (DIL)
NPHI.V/V      00 330 00 00         : PHIN         - NEUTRON POROSITY (SANDSTONE)
DPHI.V/V      00 890 00 00         : PHID         - DENSITY POROSITY (SANDSTONE)
CALI.MM       00 280 01 00         : CAL          - CALIPER
GR  .API      00 310 00 00         : GR           - GAMMA RAY
~PARAMETER INFORMATION
#MNEM.UNIT           DATA             DESCRIPTION OF MNEMONIC
#---------         -----------     ------------------------------
GL  .M        595                  : gl           - GROUND LEVEL ELEVATION
EREF.M        598.9                : kb           - ELEVATION OF DEPTH REFERENCE
DATM.M        595                  : datum        - DATUM ELEVATION
TDD .M        524                  : tdd          - TOTAL DEPTH DRILLER
RUN .         ONE                  : Run          - RUN NUMBER
ENG .         BILL                 : Engineer     - RECORDING ENGINEER
WIT .         JIM                  : Witness      - WITNESSED BY
MUD .         GEL                  : Mud_type     - MUD TYPE
MATR.         SANDSTONE            : Logunit      - NEUTRON MATRIX
TMAX.C        18                   : BHT          - MAXIMUM RECORDED TEMPERATURE
BHTD.M        524                  : BHTDEP       - MAXIMUM RECORDED TEMPERATURE
RMT .C        15                   : MDTP         - TEMPERATURE OF MUD
MUDD.KG/M     1090                 : MWT          - MUD DENSITY
NEUT.         1                    : NEUTRON      - NEUTRON TYPE
RESI.         0                    : RESIST       - RESISTIVITY TYPE
RM  .OHMM     7                    : RM           - RESISTIVITY OF MUD
RMC .OHMM     0                    : RMC          - RESISTIVITY OF MUD CAKE
RMF .OHMM     8                    : RMF          - RESISTIVITY OF MUD FILTRATE
SUFT.C        -20                  : SUFT         - SURFACE TEMPERATURE
~A  DEPTH     RESD     PHIN     PHID      CAL       GR
# ...
  373.000    6.896    0.432    0.210  196.795   92.058
  373.250    6.831    0.399    0.213  197.286   90.557
  373.500    6.647    0.385    0.217  198.253   88.166
  373.750    6.645    0.369    0.222  198.730   84.287
  374.000    6.584    0.352    0.228  198.715   83.677
  374.250    6.584    0.368    0.229  198.192   83.665
  374.500    6.346    0.385    0.228  198.178   83.356
  374.750    6.289    0.366    0.226  198.158   83.642
  375.000    6.174    0.359    0.221  198.139   82.737
  375.250    6.173    0.334    0.218  198.117   80.643
  375.500    6.284    0.378    0.225  198.593   79.144
  375.750    6.570    0.448    0.216  198.571   74.968
  376.000    7.059    0.476    0.219  198.551   69.303
  376.250    7.790    0.498    0.229  198.534   67.208
  376.500    8.521    0.498    0.239  198.512   67.790
  376.750    9.405    0.484    0.267  197.008   69.561
  377.000   10.287    0.479    0.286  194.508   70.146
  377.250   10.952    0.474    0.289  193.495   67.456
  377.500   10.851    0.475    0.295  193.475   64.173
  377.750   10.371    0.465    0.300  193.453   59.401
  378.000   10.092    0.452    0.305  193.436   56.709
  378.250    9.909    0.453    0.308  193.419   58.187
  378.500    9.906    0.453    0.311  192.904   62.637
  378.750    9.903    0.427    0.314  192.904   64.412
  379.000    9.990    0.416    0.320  192.852   62.911
  379.250   10.077    0.404    0.323  192.344   62.602
  379.500   10.165    0.408    0.319  191.831   63.186
  379.750   10.254    0.431    0.308  191.814   60.791
  380.000   10.437    0.433    0.299  191.792   60.780
  380.250   10.720    0.434    0.300  191.773   57.794
  380.500   11.110    0.424    0.300  191.755   55.697
  380.750   11.512    0.420    0.301  191.238   56.581
  381.000   11.718    0.464    0.299  191.220   58.652
  381.250   11.715    0.468    0.296  191.198   57.747
  381.500   11.607    0.433    0.296  191.179   58.926
  381.750   11.604    0.422    0.296  191.159   60.997
  382.000   11.393    0.422    0.291  191.633   60.985
  382.250   11.390    0.443    0.290  191.633   60.377
  382.500   11.387    0.398    0.283  191.584   60.960
  382.750   11.486    0.386    0.283  192.073   62.733
  383.000   11.691    0.391    0.282  192.053   65.699
  383.250   11.794    0.396    0.274  192.034   65.388
  383.500   12.113    0.408    0.259  192.505   60.614
  383.750   12.329    0.429    0.247  192.987   57.629
  384.000   12.326    0.432    0.242  193.461   60.295
  384.250   12.102    0.461    0.246  194.433   67.424
  384.500   11.463    0.471    0.254  195.407   73.958
  384.750   10.104    0.423    0.264  196.380   82.277
  385.000    8.515    0.386    0.265  196.856   89.110
  385.250    7.921    0.383    0.240  197.328   95.942
  385.500    8.209    0.416    0.183  196.815   88.191
  385.750    8.898    0.410    0.157  196.297   84.609
  386.000    9.058    0.397    0.151  195.781   77.457
  386.250    9.136    0.373    0.156  195.759   75.066
  386.500    9.815    0.359    0.161  195.742   77.135
  386.750   10.264    0.355    0.167  195.723   81.886
  387.000    9.548    0.348    0.175  194.709   81.871
  387.250    8.804    0.338    0.185  194.694   82.455
  387.500    8.190    0.337    0.204  194.672   82.740
  387.750    7.969    0.363    0.211  194.650   83.028
  388.000    8.039    0.406    0.209  195.131   85.695
  388.250    8.110    0.426    0.207  195.109   88.064
  388.500    8.035    0.438    0.207  194.594   86.859
  388.750    7.960    0.427    0.206  194.076   85.955
  389.000    7.816    0.402    0.203  194.054   84.754
  389.250    7.744    0.396    0.201  194.037   82.063
  389.500    7.742    0.389    0.199  194.020   76.993
  389.750    7.670    0.393    0.196  194.000   75.495
  390.000    7.599    0.378    0.196  194.973   77.566
  390.250    7.529    0.362    0.195  196.438   82.613
  390.500    7.393    0.361    0.194  197.906   84.087
  390.750    7.325    0.367    0.195  198.881   85.859
  391.000    7.257    0.392    0.197  198.862   87.633
  391.250    7.190    0.395    0.200  198.842   87.624
  391.500    7.190    0.397    0.198  198.818   85.530
  391.750    7.315    0.411    0.197  198.801   81.947
  392.000    7.651    0.420    0.203  198.783   79.552
  392.250    7.928    0.425    0.206  199.257   82.220
  392.500    8.070    0.411    0.206  198.740   90.539
  392.750    7.996    0.404    0.202  198.722   90.822
  393.000    7.851    0.398    0.201  198.205   89.028
  393.250    7.778    0.396    0.197  198.185   89.015
  393.500    7.707    0.422    0.200  197.672   89.302
  393.750    7.704    0.382    0.210  197.648   89.886
  394.000    7.842    0.367    0.211  197.628   84.221
  394.250    8.054    0.354    0.212  197.611   76.174
  394.500    8.730    0.380    0.217  196.602   71.998
  394.750    9.295    0.395    0.219  195.095   69.309
  395.000    9.986    0.419    0.207  193.087   68.699
  395.250   10.922    0.436    0.186  192.075   69.580
  395.500   11.524    0.413    0.168  191.562   69.272
  395.750   12.160    0.354    0.164  192.036   68.368
  396.000   12.489    0.348    0.164  193.009   68.950
  396.250   11.723    0.308    0.166  193.487   70.427
  396.500   10.427    0.300    0.170  193.468   73.986
  396.750    8.946    0.285    0.187  193.448   80.520
  397.000    8.322    0.320    0.203  192.933   86.756
  397.250    8.026    0.354    0.208  192.911   93.290
  397.500    7.740    0.346    0.208  192.894   92.981
  397.750    7.669    0.343    0.208  192.874   89.398
  398.000    7.667    0.359    0.206  192.855   86.707
  398.250    7.804    0.384    0.215  192.835   85.210
  398.500    8.087    0.420    0.224  192.317   84.901
  398.750    8.306    0.447    0.230  192.300   85.782
  399.000    8.685    0.467    0.237  191.785   81.900
  399.250    8.921    0.460    0.237  191.269   78.318
  399.500    9.497    0.452    0.240  191.247   74.736
  399.750    9.842    0.441    0.251  191.225   69.964
  400.000   10.018    0.415    0.266  191.206   66.977
  400.250   10.106    0.398    0.274  192.180   67.261
  400.500   10.013    0.370    0.267  192.654   69.631
  400.750    9.830    0.394    0.252  192.637   73.188
  401.000    9.828    0.445    0.245  192.618   74.663
  401.250   10.004    0.468    0.247  193.089   75.547
  401.500   10.274    0.442    0.252  194.560   73.750
  401.750   10.364    0.404    0.248  196.526   73.441
  402.000   10.455    0.395    0.241  198.485   76.107
  402.250   10.265    0.398    0.243  197.479   77.583
  402.500    9.724    0.396    0.248  194.978   78.462
  402.750    9.293    0.410    0.257  192.481   79.936
  403.000    8.963    0.386    0.259  191.467   80.521
  403.250    8.565    0.398    0.248  191.944   80.806
  403.500    8.261    0.401    0.235  192.420   80.199
  403.750    8.038    0.377    0.224  192.896   78.998
  404.000    8.036    0.343    0.221  192.874   76.606
  404.250    8.327    0.366    0.242  193.353   78.974
  404.500    8.708    0.443    0.269  194.325   77.770
  404.750    8.785    0.471    0.294  194.306   75.084
  405.000    8.862    0.486    0.306  194.780   70.906
  405.250    8.939    0.439    0.308  194.267   61.967
  405.500    9.347    0.390    0.304  193.255   55.407
  405.750    9.775    0.378    0.300  192.737   56.289
  406.000    9.949    0.388    0.298  192.220   58.659
  406.250   10.036    0.429    0.297  191.709   60.431
  406.500   10.124    0.449    0.294  191.179   59.230
  406.750   10.213    0.437    0.294  191.167   58.619
  407.000   10.395    0.464    0.293  191.645   58.015
  407.250   10.392    0.453    0.296  192.618   57.409
  407.500   10.388    0.483    0.297  193.590   59.184
  407.750   10.388    0.480    0.296  196.052   61.252
  408.000   10.383    0.451    0.292  198.016   61.243
  408.250   10.664    0.436    0.284  198.493   61.529
  408.500   11.051    0.432    0.277  197.977   60.920
  408.750   11.556    0.417    0.263  196.465   59.717
  409.000   12.085    0.420    0.250  195.459   60.897
  409.250   12.982    0.405    0.244  195.437   61.181
