~VERSION INFORMATION
 VERS.                 2.0:   CWLS LOG ASCII STANDARD -VERSION 2.0
 WRAP.                  NO:   ONE LINE PER DEPTH STEP
~WELL INFORMATION BLOCK
#MNEM.UNIT           DATA                    DESCRIPTION OF MNEMONIC
#---------    -------------------            -------------------------------
# Generated from Intellog Unique Number	CS_67_68/WELL/842
WELL.         CANADA-CITIES SERVICE LTD      : Well_name    - WELL
LOC .         00/11-25-068-14W4/0            : Location     - LOCATION
UWI .         00/11-25-068-14W4/0            : Uwi          - UNIQUE WELL ID
ENTR.         SP                             : Entered      - ENTERED BY
SRVC.         SCHLUMBERGER                   : Scn          - SERVICE COMPANY
STRT.M        259.08                         : top_depth    - START DEPTH
STOP.M        456.830                        : bot_depth    - STOP DEPTH
STEP.M        0.25                           : increment    - STEP LENGTH
 NULL. -999.2500:NULL Value
~CURVE INFORMATION BLOCK
#MNEM UNIT       ERCB CURVE CODE    CURVE DESCRIPTION
#-----------   ------------------   ----------------------------------
DEPT.M        00 001 00 00         : DEPTH        - DEPTH
GR  .API      00 310 00 00         : GR           - GAMMA RAY
DPHI.V/V      00 890 00 00         : PHID         - DENSITY POROSITY (SANDSTONE)
NPHI.V/V      00 330 00 00         : PHIN         - NEUTRON POROSITY (SANDSTONE)
ILD .OHMM     00 120 00 00         : RESD         - DEEP RESISTIVITY (DIL)
~PARAMETER INFORMATION
#MNEM.UNIT           DATA             DESCRIPTION OF MNEMONIC
#---------         -----------     ------------------------------
GL  .M        552.907              : gl           - GROUND LEVEL ELEVATION
EREF.M        555.346              : kb           - ELEVATION OF DEPTH REFERENCE
DATM.M        552.907              : datum        - DATUM ELEVATION
TDD .M        458.114              : tdd          - TOTAL DEPTH DRILLER
RUN .         ONE                  : Run          - RUN NUMBER
ENG .         BILL                 : Engineer     - RECORDING ENGINEER
WIT .         JIM                  : Witness      - WITNESSED BY
MUD .         GEL                  : Mud_type     - MUD TYPE
MATR.         SANDSTONE            : Logunit      - NEUTRON MATRIX
TMAX.C        14.4444              : BHT          - MAXIMUM RECORDED TEMPERATURE
BHTD.M        458.114              : BHTDEP       - MAXIMUM RECORDED TEMPERATURE
MATR.         1                    : LOGUNIT      - NEUTRON MATRIX
RMT .C        25                   : MDTP         - TEMPERATURE OF MUD
NEUT.         1                    : NEUTRON      - NEUTRON TYPE
RESI.         0                    : RESIST       - RESISTIVITY TYPE
RMC .OHMM     0.25                 : RMC          - RESISTIVITY OF MUD CAKE
RMF .OHMM     0.25                 : RMF          - RESISTIVITY OF MUD FILTRATE
SUFT.C        15                   : SUFT         - SURFACE TEMPERATURE
~A  DEPTH       GR     PHID     PHIN     RESD
# ...
  389.580   92.061    0.318    0.564    2.747
  389.830   90.849    0.292    0.574    2.665
  390.080   91.530    0.301    0.586    2.609
  390.330   92.048    0.357    0.593    2.547
  390.580   91.560    0.382    0.573    2.482
  390.830   90.638    0.344    0.587    2.438
  391.080   91.931    0.355    0.633    2.391
  391.330   93.878    0.370    0.631    2.377
  391.580   95.863    0.393    0.603    2.445
  391.830   97.762    0.260    0.549    2.538
  392.080   97.558    0.233    0.524    2.644
  392.330   93.251    0.224    0.529    2.806
  392.580   89.890    0.241    0.528    2.697
  392.830   92.609    0.251    0.509    3.165
  393.080   93.775    0.240    0.478    3.265
  393.330   89.653    0.229    0.459    3.432
  393.580   80.203    0.214    0.462    3.766
  393.830   72.990    0.146    0.463    4.174
  394.080   72.317    0.069    0.409    4.548
  394.330   75.640    0.072    0.345    4.857
  394.580   79.351    0.153    0.357    5.067
  394.830   83.253    0.195    0.391    5.247
  395.080   85.938    0.211    0.422    5.183
  395.330   86.582    0.210    0.439    4.835
  395.580   86.734    0.198    0.444    4.430
  395.830   86.102    0.187    0.456    4.292
  396.080   85.138    0.199    0.464    4.226
  396.330   84.127    0.214    0.469    4.274
  396.580   80.375    0.226    0.478    4.562
  396.830   76.499    0.226    0.485    4.778
  397.080   78.569    0.213    0.491    5.014
  397.330   81.900    0.215    0.496    5.298
  397.580   84.307    0.219    0.479    5.447
  397.830   85.709    0.215    0.471    5.283
  398.080   87.230    0.214    0.480    5.018
  398.330   88.113    0.215    0.491    4.611
  398.580   87.851    0.205    0.479    4.834
  398.830   80.352    0.190    0.467    5.082
  399.080   77.185    0.174    0.393    5.221
  399.330   80.835    0.136    0.353    5.390
  399.580   84.516    0.097    0.382    5.547
  399.830   87.780    0.172    0.417    5.394
  400.080   90.018    0.184    0.441    5.004
  400.330   91.374    0.193    0.459    4.774
  400.580   91.479    0.191    0.441    4.472
  400.830   91.690    0.194    0.433    4.360
  401.080   91.364    0.200    0.438    4.336
  401.330   88.484    0.208    0.435    4.291
  401.580   88.569    0.214    0.428    4.291
  401.830   90.749    0.217    0.433    4.307
  402.080   92.305    0.213    0.440    4.305
  402.330   92.673    0.203    0.446    4.288
  402.580   90.261    0.191    0.455    4.280
  402.830   87.562    0.186    0.446    4.262
  403.080   86.157    0.198    0.453    4.295
  403.330   85.840    0.189    0.444    4.343
  403.580   87.342    0.186    0.437    4.370
  403.830   88.961    0.185    0.438    4.380
  404.080   87.367    0.195    0.461    4.402
  404.330   85.027    0.187    0.479    4.413
  404.580   88.566    0.166    0.484    4.433
  404.830   92.242    0.157    0.470    4.456
  405.080   94.767    0.185    0.460    4.474
  405.330   95.641    0.201    0.440    4.470
  405.580   92.843    0.192    0.418    4.529
  405.830   94.026    0.206    0.403    4.558
  406.080   95.067    0.210    0.396    4.617
  406.330   92.224    0.198    0.397    4.642
  406.580   90.982    0.198    0.402    4.639
  406.830   92.711    0.199    0.408    4.647
  407.080   92.828    0.199    0.411    4.444
  407.330   90.398    0.199    0.435    4.253
  407.580   85.713    0.222    0.459    3.924
  407.830   78.975    0.307    0.492    3.490
  408.080   76.699    0.370    0.548    3.117
  408.330   75.416    0.442    0.606    2.815
  408.580   75.933    0.512    0.645    2.597
  408.830   78.350    0.556    0.605    2.363
  409.080   80.222    0.537    0.596    2.188
  409.330   81.302    0.523    0.621    2.080
  409.580   81.789    0.516    0.645    2.210
  409.830   81.687    0.501    0.659    2.537
  410.080   78.394    0.490    0.668    3.103
  410.330   70.387    0.424    0.599    3.801
  410.580   66.205    0.090    0.443    4.527
  410.830   67.961    0.076    0.388    5.273
  411.080   71.995    0.119    0.339    5.906
  411.330   77.786    0.230    0.333    6.440
  411.580   80.417    0.428    0.486    6.441
  411.830   79.168    0.537    0.517    6.054
  412.080   72.389    0.584    0.556    5.360
  412.330   71.346    0.550    0.556    4.929
  412.580   75.914    0.204    0.460    4.785
  412.830   79.443    0.215    0.456    4.781
  413.080   80.066    0.211    0.467    4.939
  413.330   75.274    0.190    0.431    4.910
  413.580   74.126    0.313    0.459    4.720
  413.830   75.372    0.362    0.521    4.482
  414.080   74.630    0.450    0.541    4.138
  414.330   72.833    0.472    0.558    3.802
  414.580   68.028    0.471    0.554    3.724
  414.830   65.698    0.512    0.596    3.715
  415.080   67.446    0.557    0.634    3.745
  415.330   69.443    0.613    0.663    3.821
  415.580   71.757    0.592    0.639    3.939
  415.830   72.939    0.540    0.590    4.080
  416.080   73.238    0.501    0.564    4.078
  416.330   73.293    0.481    0.553    3.869
  416.580   73.415    0.493    0.563    3.714
  416.830   73.480    0.472    0.581    3.493
  417.080   72.569    0.455    0.597    3.336
  417.330   71.208    0.531    0.616    3.191
  417.580   68.510    0.597    0.637    3.049
  417.830   66.287    0.634    0.663    2.970
  418.080   71.371    0.645    0.669    2.969
  418.330   74.204    0.640    0.651    3.014
  418.580   78.298    0.649    0.636    3.137
  418.830   81.176    0.583    0.617    3.243
  419.080   83.320    0.553    0.614    3.359
  419.330   83.123    0.548    0.571    3.405
  419.580   80.375    0.328    0.528    3.345
  419.830   78.738    0.345    0.503    3.235
  420.080   80.261    0.381    0.543    3.111
  420.330   80.675    0.415    0.591    2.997
  420.580   69.156    0.490    0.622    2.890
  420.830   63.239    0.490    0.652    2.840
  421.080   62.264    0.468    0.675    2.852
  421.330   65.233    0.522    0.655    2.878
  421.580   68.830    0.569    0.640    3.022
  421.830   70.412    0.578    0.654    3.251
  422.080   71.744    0.528    0.527    3.661
  422.330   71.666    0.432    0.524    4.315
  422.580   66.143    0.391    0.474    4.951
  422.830   62.367    0.368    0.389    5.774
  423.080   58.524    0.238    0.402    6.589
  423.330   56.733    0.242    0.374    7.431
  423.580   56.568    0.257    0.362    8.051
  423.830   57.300    0.266    0.365    8.701
  424.080   58.955    0.265    0.374    9.164
  424.330   59.356    0.252    0.382    9.585
  424.580   57.431    0.232    0.384    9.960
  424.830   53.230    0.188    0.372   10.398
  425.080   48.319    0.132    0.352   11.245
  425.330   44.072    0.090    0.336   11.837
  425.580   47.050    0.232    0.323   12.347
  425.830   52.439    0.236    0.347   11.960
  426.080   52.605    0.192    0.393   11.061
  426.330   50.625    0.107    0.374   10.088
  426.580   54.178    0.062    0.340    9.224
  426.830   59.162    0.108    0.311    8.332
  427.080   67.606    0.173    0.348    7.374
  427.330   74.857    0.196    0.420    5.921
  427.580   80.866    0.208    0.500    5.104
  427.830   84.924    0.237    0.563    4.368
  428.080   87.088    0.260    0.577    4.104
  428.330   83.665    0.278    0.523    4.477
  428.580   88.167    0.294    0.459    4.776
  428.830   93.426    0.259    0.433    5.301
  429.080   98.791    0.229    0.420    5.903
  429.330  100.901    0.188    0.412    6.666
  429.580   87.853    0.182    0.395    7.264
  429.830   70.470    0.175    0.374    7.875
  430.080   63.482    0.069    0.348    8.282
  430.330   73.899    0.067    0.319    8.370
  430.580   80.654    0.180    0.359    8.146
  430.830   87.192    0.196    0.379    7.760
  431.080   91.808    0.188    0.377    7.388
  431.330   94.930    0.181    0.377    7.046
  431.580   92.696    0.178    0.367    6.870
  431.830   84.036    0.201    0.369    6.761
  432.080   76.140    0.224    0.383    6.674
  432.330   80.532    0.250    0.382    6.614
  432.580   82.915    0.260    0.364    6.560
  432.830   85.912    0.226    0.351    6.574
