~VERSION INFORMATION
 VERS.                 2.0:   CWLS LOG ASCII STANDARD -VERSION 2.0
 WRAP.                  NO:   ONE LINE PER DEPTH STEP
~WELL INFORMATION BLOCK
#MNEM.UNIT           DATA                    DESCRIPTION OF MNEMONIC
#---------    -------------------            -------------------------------
# Generated from Intellog Unique Number	CS_67_68/WELL/800
WELL.         INTER-CITY MANUFACTURING       : Well_name    - WELL
LOC .         00/10-03-068-13W4/0            : Location     - LOCATION
UWI .         00/10-03-068-13W4/0            : Uwi          - UNIQUE WELL ID
ENTR.         SP                             : Entered      - ENTERED BY
SRVC.         SCHLUMBERGER                   : Scn          - SERVICE COMPANY
STRT.M        289.56                         : top_depth    - START DEPTH
STOP.M        463.310                        : bot_depth    - STOP DEPTH
STEP.M        0.25                           : increment    - STEP LENGTH
 NULL. -999.2500:NULL Value
~CURVE INFORMATION BLOCK
#MNEM UNIT       ERCB CURVE CODE    CURVE DESCRIPTION
#-----------   ------------------   ----------------------------------
DEPT.M        00 001 00 00         : DEPTH        - DEPTH
GR  .API      00 310 00 00         : GR           - GAMMA RAY
DPHI.V/V      00 890 00 00         : PHID         - DENSITY POROSITY (SANDSTONE)
NPHI.V/V      00 330 00 00         : PHIN         - NEUTRON POROSITY (SANDSTONE)
ILD .OHMM     00 120 00 00         : RESD         - DEEP RESISTIVITY (DIL)
~PARAMETER INFORMATION
#MNEM.UNIT           DATA             DESCRIPTION OF MNEMONIC
#---------         -----------     ------------------------------
GL  .M        582.473              : gl           - GROUND LEVEL ELEVATION
EREF.M        585.216              : kb           - ELEVATION OF DEPTH REFERENCE
DATM.M        582.473              : datum        - DATUM ELEVATION
TDD .M        466.344              : tdd          - TOTAL DEPTH DRILLER
RUN .         ONE                  : Run          - RUN NUMBER
ENG .         BILL                 : Engineer     - RECORDING ENGINEER
WIT .         JIM                  : Witness      - WITNESSED BY
MUD .         GEL                  : Mud_type     - MUD TYPE
MATR.         SANDSTONE            : Logunit      - NEUTRON MATRIX
TMAX.C        13.8889              : BHT          - MAXIMUM RECORDED TEMPERATURE
BHTD.M        466.344              : BHTDEP       - MAXIMUM RECORDED TEMPERATURE
MATR.         1                    : LOGUNIT      - NEUTRON MATRIX
RMT .C        25                   : MDTP         - TEMPERATURE OF MUD
NEUT.         1                    : NEUTRON      - NEUTRON TYPE
RESI.         0                    : RESIST       - RESISTIVITY TYPE
RMC .OHMM     0.25                 : RMC          - RESISTIVITY OF MUD CAKE
RMF .OHMM     0.25                 : RMF          - RESISTIVITY OF MUD FILTRATE
SUFT.C        15                   : SUFT         - SURFACE TEMPERATURE
~A  DEPTH       GR     PHID     PHIN     RESD
# ...
  333.060   63.766    0.298    0.415    2.080
  333.310   65.822    0.301    0.426    2.096
  333.560   68.132    0.301    0.435    2.102
  333.810   69.047    0.310    0.435    2.086
  334.060   67.375    0.307    0.442    2.062
  334.310   66.111    0.316    0.449    2.041
  334.560   67.128    0.307    0.449    2.028
  334.810   67.349    0.302    0.430    2.025
  335.060   65.642    0.301    0.426    2.008
  335.310   63.243    0.305    0.448    1.992
  335.560   64.560    0.317    0.451    1.975
  335.810   66.383    0.323    0.438    1.961
  336.060   67.015    0.323    0.431    1.928
  336.310   65.235    0.320    0.444    1.875
  336.560   64.631    0.313    0.450    1.845
  336.810   66.635    0.321    0.456    1.816
  337.060   67.869    0.327    0.448    1.792
  337.310   68.513    0.315    0.444    1.777
  337.560   70.830    0.308    0.444    1.787
  337.810   75.725    0.302    0.437    1.796
  338.060   78.751    0.292    0.398    1.837
  338.310   78.388    0.274    0.353    1.881
  338.560   76.516    0.270    0.352    1.972
  338.810   80.064    0.250    0.383    2.078
  339.060   85.372    0.230    0.414    2.216
  339.310   90.872    0.221    0.403    2.370
  339.560   90.786    0.216    0.433    2.561
  339.810   97.185    0.202    0.455    2.723
  340.060   98.976    0.195    0.467    2.825
  340.310  100.198    0.243    0.461    2.881
  340.560   98.159    0.242    0.442    2.854
  340.810   93.799    0.224    0.415    2.803
  341.060   88.529    0.247    0.407    2.762
  341.310   85.108    0.253    0.411    2.737
  341.560   86.160    0.238    0.430    2.741
  341.810   83.291    0.246    0.430    2.778
  342.060   80.158    0.263    0.427    2.785
  342.310   81.177    0.274    0.428    2.677
  342.560   85.666    0.261    0.433    2.529
  342.810   87.696    0.247    0.434    2.410
  343.060   88.521    0.240    0.428    2.346
  343.310   88.326    0.234    0.416    2.368
  343.560   87.198    0.237    0.398    2.509
  343.810   86.860    0.235    0.386    2.733
  344.060   88.232    0.208    0.380    2.901
  344.310   88.442    0.185    0.374    3.058
  344.560   87.889    0.204    0.372    3.200
  344.810   88.321    0.229    0.380    3.324
  345.060   89.250    0.217    0.401    3.450
  345.310   89.667    0.222    0.412    3.576
  345.560   89.489    0.221    0.403    3.664
  345.810   91.025    0.215    0.410    3.737
  346.060   93.731    0.206    0.416    3.800
  346.310   95.688    0.202    0.414    3.847
  346.560   96.737    0.201    0.418    3.877
  346.810   94.415    0.193    0.425    3.909
  347.060   90.766    0.207    0.436    3.936
  347.310   86.675    0.222    0.433    3.924
  347.560   82.973    0.210    0.426    3.866
  347.810   80.525    0.238    0.422    3.797
  348.060   80.301    0.246    0.427    3.641
  348.310   78.248    0.252    0.432    3.440
  348.560   74.335    0.257    0.432    3.246
  348.810   70.923    0.264    0.429    3.073
  349.060   69.374    0.273    0.422    2.894
  349.310   67.690    0.269    0.411    2.742
  349.560   66.998    0.271    0.404    2.607
  349.810   66.992    0.278    0.398    2.488
  350.060   67.533    0.281    0.371    2.376
  350.310   69.178    0.285    0.337    2.299
  350.560   69.606    0.272    0.360    2.293
  350.810   66.245    0.275    0.382    2.316
  351.060   64.253    0.275    0.402    2.346
  351.310   63.072    0.269    0.397    2.377
  351.560   63.034    0.273    0.389    2.387
  351.810   64.865    0.269    0.388    2.334
  352.060   67.903    0.261    0.402    2.300
  352.310   70.158    0.248    0.412    2.353
  352.560   70.933    0.241    0.424    2.445
  352.810   62.414    0.259    0.431    2.581
  353.060   55.227    0.281    0.434    2.696
  353.310   50.554    0.300    0.420    2.818
  353.560   51.411    0.313    0.405    2.896
  353.810   53.945    0.299    0.408    2.907
  354.060   57.969    0.291    0.414    2.852
  354.310   60.584    0.284    0.414    2.767
  354.560   62.076    0.276    0.415    2.652
  354.810   62.620    0.270    0.414    2.577
  355.060   62.505    0.284    0.412    2.505
  355.310   59.706    0.297    0.416    2.454
  355.560   58.061    0.288    0.414    2.417
  355.810   57.902    0.280    0.403    2.391
  356.060   58.234    0.292    0.396    2.356
  356.310   56.236    0.298    0.393    2.322
  356.560   57.953    0.298    0.406    2.280
  356.810   62.562    0.287    0.417    2.196
  357.060   66.252    0.272    0.422    2.105
  357.310   69.234    0.260    0.424    2.050
  357.560   66.219    0.248    0.430    2.078
  357.810   62.472    0.256    0.425    2.111
  358.060   65.472    0.249    0.416    2.171
  358.310   63.679    0.255    0.409    2.224
  358.560   60.176    0.268    0.421    2.275
  358.810   58.566    0.284    0.420    2.307
  359.060   61.410    0.301    0.433    2.319
  359.310   67.185    0.309    0.417    2.291
  359.560   72.573    0.278    0.398    2.226
  359.810   76.438    0.239    0.379    2.107
  360.060   78.168    0.230    0.375    2.147
  360.310   79.234    0.243    0.381    2.279
  360.560   78.471    0.244    0.371    2.550
  360.810   75.719    0.235    0.365    2.734
  361.060   77.258    0.235    0.380    2.880
  361.310   79.619    0.227    0.383    3.024
  361.560   80.667    0.223    0.387    3.093
  361.810   81.127    0.220    0.393    3.142
  362.060   81.519    0.225    0.402    3.145
  362.310   81.002    0.236    0.415    3.130
  362.560   79.856    0.231    0.421    3.078
  362.810   77.734    0.224    0.410    3.024
  363.060   76.162    0.227    0.403    2.978
  363.310   75.057    0.223    0.396    2.926
  363.560   74.590    0.234    0.402    2.859
  363.810   74.898    0.233    0.396    2.806
  364.060   76.266    0.242    0.403    2.749
  364.310   77.718    0.231    0.406    2.711
  364.560   80.488    0.218    0.398    2.753
  364.810   81.862    0.227    0.391    2.844
  365.060   81.794    0.235    0.397    2.973
  365.310   79.779    0.236    0.396    3.088
  365.560   78.857    0.236    0.407    3.159
  365.810   78.187    0.246    0.421    3.170
  366.060   77.824    0.245    0.420    3.152
  366.310   77.485    0.237    0.415    3.089
  366.560   76.650    0.238    0.422    3.000
  366.810   74.837    0.249    0.414    2.943
  367.060   72.136    0.267    0.402    2.925
  367.310   72.493    0.272    0.391    2.885
  367.560   74.913    0.267    0.386    2.798
  367.810   76.240    0.259    0.391    2.741
  368.060   76.791    0.253    0.398    2.714
  368.310   75.271    0.251    0.404    2.720
  368.560   75.623    0.261    0.411    2.736
  368.810   79.779    0.248    0.422    2.747
  369.060   81.638    0.246    0.443    2.737
  369.310   82.498    0.261    0.443    2.716
  369.560   79.346    0.281    0.416    2.683
  369.810   75.326    0.299    0.429    2.641
  370.060   72.073    0.304    0.443    2.607
  370.310   73.520    0.302    0.437    2.586
  370.560   75.991    0.304    0.429    2.571
  370.810   76.763    0.297    0.422    2.558
  371.060   74.058    0.304    0.415    2.525
  371.310   71.827    0.308    0.429    2.417
  371.560   70.131    0.314    0.444    2.257
  371.810   68.839    0.314    0.440    2.056
  372.060   67.711    0.313    0.427    1.953
  372.310   66.385    0.313    0.417    1.896
  372.560   65.718    0.307    0.425    1.889
  372.810   65.445    0.311    0.427    1.887
  373.060   65.709    0.306    0.424    1.879
  373.310   67.934    0.303    0.435    1.878
  373.560   68.002    0.312    0.445    1.878
  373.810   66.280    0.319    0.453    1.867
  374.060   65.665    0.321    0.443    1.867
  374.310   66.752    0.320    0.435    1.867
  374.560   69.358    0.316    0.429    1.881
  374.810   70.608    0.313    0.425    1.918
  375.060   69.220    0.306    0.426    1.962
  375.310   68.024    0.298    0.421    2.018
  375.560   66.827    0.293    0.432    2.090
  375.810   66.975    0.288    0.433    2.135
  376.060   67.299    0.260    0.413    2.240
  376.310   65.607    0.225    0.370    2.383
