~V
VERS. 2.00: Ver 2.00
WRAP. NO:
VEND. PRIZM:GeoGraphix
~W
STRT.M 97.5000:START DEPTH
STOP.M 344.5000:STOP DEPTH
STEP.M 0.2500:STEP
NULL. -999.2500:NULL VALUE
WELL. 00/10-19-083-05W4/0 :WELL
COMP. :COMPANY
UWI. 00_10-19-083-05W4_0:UNIQUE WELL ID
FLD. :FIELD
CNTY. :COUNTY
STAT. :STATE
CTRY. :COUNTRY
PDAT. :PERMANENT DATUM
LMF. :LOG MEASURED FROM
DMF. :DRILLING MEASURED FROM
LOC1. :LOCATION LINE 1
LOC2. :LOCATION LINE 2
LOC3. :LOCATION LINE 3
SEC. :SECTION
TWP. :TOWNSHIP
RAN. :RANGE
SRVC. :Logging Company
BASE. :Logging Unit Location
ENG. :Logging Engineer
WITN. :Witnessed By
RUN. :Run No.
MUD_TYPE. :Type Fluid in Hole
MUDS. :Source of Mud Sample
RMFS. :Source of Mud Filtrate
RMCS. :Source of Mud Cake
LOC. :LOCATION
DATE. :LOG DATE
~C
DEPT.M :DEPTH
NPHI. :NPHI
GR.API :GR
DPHI. :Created by graphical digitiser entry.
ILD.Ohmm :ILD
~P
EKB. -999.2500:ELEVATION OF KELLY BUSHING
EDF. -999.2500:ELEVATION OF DRILLING FLOOR
EGL. -999.2500:ELEVATION OF GROUND LEVEL
EPD. -999.2500:ELEVATION OF PERMANENT DATUM
APD. -999.2500:LMF DISTANCE ABOVE PERMANENT DATUM
LAT. -999.2500:LATITUDE OF WELL LOCATION
LONG. -999.2500:LONGITUDE OF WELL LOCATION
TDD. -999.2500:Total Depth Driller
TDL. -999.2500:Total Depth Logger
LCSG1. -999.2500:Depth of Casing from Logger
CSIZE. -999.2500:Casing Size
CWT. -999.2500:Casing Weight
BS. -999.2500:Bit Size
TLI. 97.5000:Top Logged Interval
BLI. 344.4000:Bottom Logged Interval
MRT. 0.0000:Maximum Recorded Temperature
WMUD. -999.2500:Drilling Mud Density
DFV. -999.2500:Drilling Mud Viscosity
PH. -999.2500:Drilling Mud pH
DFL. -999.2500:Drilling Mud Fluid Loss
RM. -999.2500:Resistivity of Drilling Fluid
RMT. -999.2500:Measured Temp. of Drilling Fluid
RMF. -999.2500:Resistivity of Drilling Fluid Filtrate
RMFT. -999.2500:Measured Temp. of Drilling Fluid Filtrate
RMC. -999.2500:Resistivity of Mud Cake
RMCT. -999.2500:Measured Temp. of Mud Cake
PHImax.V/V 0.3900:Maximum allowable Porosity
RwBnd.OHMM 0.1500:Bound Water Resistivity
RhoHy.KG/MT 1000.0000:Hydrocarbon Bulk density
SwCutoff.V/V 0.7000:Water Saturation Cutoff
PHINsh.V/V 0.4800:New Description
Rw.OHMM 1.0000:Formation Water Resistivity
Rshl.OHMM 5.0000:Resistivity shale
Trw.DEGC 25.0000:Rw measured at Lab conditions
ShaleCutoff.V/V 0.4000:New Description
GRcln.API 45.0000:Gamma Ray clean
RhoM.KG/MT 2650.0000:Bulk Density Matrix
GRshl.API 90.0000:Gamma Ray shale
m. 2.0000:Archie "m"
n. 2.0000:Archie "n"
GasTol.V/V 0.0500:Gas Tollerance
BHTemp.DEGC 25.0000:Bottom Hole Temperature
BHTDepth.M 1000.0000:Bottom Hole Depth
PHIDsh.US/MT 0.1800:New Description
a. 1.0000:Archie "a"
Gas Tol.V/V 0.0500:Gas Tollerance
RhoF.KG/MT 1000.0000:Bulk Density Fluid
RhoShl.KG/MT 2300.0000:Bulk Density Shale
TarCutoff.V/V 0.0300:New Description
SurfTemp.DEGC 10.0000:New Description
HIshl.V/V 0.4000:Neutron Hydrogen Index shale
NULL. -999.2500:
~A
# ...
  169.0000     0.4348    48.8554     0.3172    21.4910 
  169.2500     0.4418    49.0917     0.3016    19.9613 
  169.5000     0.4469    50.4083     0.2919    18.4322 
  169.7500     0.4557    48.8046     0.3162    17.1124 
  170.0000     0.4741    48.9834     0.3356    15.7933 
  170.2500     0.4879    50.2265     0.3474    14.6386 
  170.5000     0.4881    50.8446     0.3554    13.7415 
  170.7500     0.4757    49.9718     0.3659    13.3948 
  171.0000     0.4657    49.3598     0.3831    14.3620 
  171.2500     0.4620    50.3031     0.3893    15.3347 
  171.5000     0.4617    51.3406     0.3748    16.5858 
  171.7500     0.4647    52.2651     0.3615    17.7108 
  172.0000     0.4664    53.0983     0.3557    18.2374 
  172.2500     0.4620    53.5619     0.3550    18.0675 
  172.5000     0.4515    52.5487     0.3560    17.9197 
  172.7500     0.4437    53.3850     0.3536    17.9330 
  173.0000     0.4366    56.3700     0.3492    17.9463 
  173.2500     0.4332    56.3831     0.3470    18.0956 
  173.5000     0.4404    54.0062     0.3450    18.4127 
  173.7500     0.4573    51.3182     0.3422    18.8451 
  174.0000     0.4621    47.6920     0.3454    19.2775 
  174.2500     0.4623    46.0284     0.3390    19.6831 
  174.5000     0.4644    46.2166     0.3448    20.0060 
  174.7500     0.4569    46.6397     0.3449    20.3083 
  175.0000     0.4412    47.1615     0.3427    20.6105 
  175.2500     0.4246    47.6626     0.3446    20.9105 
  175.5000     0.4120    46.5775     0.3409    21.2016 
  175.7500     0.4129    46.6415     0.3326    21.4881 
  176.0000     0.4212    47.5434     0.3395    21.6269 
  176.2500     0.4319    46.7344     0.3480    21.4237 
  176.5000     0.4403    46.1536     0.3567    20.6343 
  176.7500     0.4424    48.0234     0.3661    18.9494 
  177.0000     0.4361    50.6448     0.3666    15.9806 
  177.2500     0.4484    53.3493     0.3559    12.2224 
  177.5000     0.4649    51.4205     0.3318    10.8835 
  177.7500     0.4791    43.6007     0.3077    11.5406 
  178.0000     0.4776    33.3581     0.3100    13.6620 
  178.2500     0.4583    25.0528     0.3455    16.7155 
  178.5000     0.4498    20.1024     0.3704    20.2761 
  178.7500     0.4556    20.9930     0.3560    23.6027 
  179.0000     0.4617    24.2094     0.3528    24.8505 
  179.2500     0.4631    28.3615     0.3486    21.9522 
  179.5000     0.4624    35.5815     0.3389    16.7774 
  179.7500     0.4642    47.6012     0.3217    12.1787 
  180.0000     0.4705    61.8308     0.2935     9.0359 
  180.2500     0.4761    55.5546     0.2922     8.5529 
  180.5000     0.4772    42.1880     0.2854     8.8687 
  180.7500     0.4733    28.9717     0.3057    10.3170 
  181.0000     0.4630    22.0648     0.3314    12.5844 
  181.2500     0.4475    23.1566     0.3377    15.3321 
  181.5000     0.4341    26.0781     0.3466    18.8184 
  181.7500     0.4318    29.9977     0.3368    23.5979 
  182.0000     0.4245    37.7439     0.3147    21.0477 
  182.2500     0.4208    38.9489     0.2984    17.5040 
  182.5000     0.4247    37.8160     0.2969    14.8178 
  182.7500     0.4351    41.7770     0.3054    12.8077 
  183.0000     0.4452    50.1478     0.2999    11.7117 
  183.2500     0.4398    57.1143     0.2882    11.3537 
  183.5000     0.4349    45.7420     0.2827    11.1620 
  183.7500     0.4350    35.8152     0.3070    11.1070 
  184.0000     0.4373    33.6559     0.3248    11.2374 
  184.2500     0.4367    38.7855     0.3141    11.5456 
  184.5000     0.4315    50.5858     0.3420    11.8338 
  184.7500     0.4407    52.5250     0.3207    11.9775 
  185.0000     0.4518    45.5451     0.3191    12.1211 
  185.2500     0.4524    44.1615     0.3356    12.0841 
  185.5000     0.4473    50.4509     0.3495    11.7836 
  185.7500     0.4483    62.0850     0.3449    11.0471 
  186.0000     0.4640    80.3649     0.3348     9.4237 
  186.2500     0.4797    86.4988     0.3225     6.5324 
  186.5000     0.4931    89.1692     0.3104     4.6128 
  186.7500     0.4974    90.1697     0.3062     3.5172 
  187.0000     0.4919    90.1421     0.3034     3.0132 
  187.2500     0.4814    89.1685     0.2941     2.8270 
  187.5000     0.4750    87.3640     0.2814     2.6857 
  187.7500     0.4673    89.2463     0.2735     2.8778 
  188.0000     0.4593    90.8601     0.2775     3.0699 
  188.2500     0.4612    89.9949     0.2844     3.2350 
  188.5000     0.4682    87.4473     0.2941     3.3648 
  188.7500     0.4724    84.7908     0.3020     3.4614 
  189.0000     0.4752    82.1466     0.2868     3.5306 
  189.2500     0.4872    84.3647     0.2788     3.3169 
  189.5000     0.4977    85.9395     0.2900     3.2127 
  189.7500     0.5002    84.8478     0.2999     3.2630 
  190.0000     0.4996    81.9888     0.3122     3.4870 
  190.2500     0.5034    79.1141     0.3270     3.8609 
  190.5000     0.5137    76.7584     0.3127     4.3016 
  190.7500     0.5307    74.3028     0.3156     4.9133 
  191.0000     0.5340    71.4680     0.3126     5.5391 
  191.2500     0.5321    66.6617     0.3238     6.5995 
  191.5000     0.5284    61.6660     0.3373     8.2954 
  191.7500     0.5211    58.3695     0.3389    10.6445 
  192.0000     0.5026    55.4984     0.3421    13.5167 
  192.2500     0.4856    53.1321     0.3494    14.7829 
  192.5000     0.4728    51.3164     0.3509    15.4753 
  192.7500     0.4660    49.1136     0.3567    15.7589 
  193.0000     0.4625    47.0030     0.3656    15.8706 
  193.2500     0.4594    46.2547     0.3708    15.9897 
  193.5000     0.4577    48.3036     0.3663    16.1089 
  193.7500     0.4656    48.2609     0.3698    16.3232 
  194.0000     0.4689    46.0728     0.3636    16.7156 
  194.2500     0.4706    45.1031     0.3532    17.2007 
  194.5000     0.4737    45.7952     0.3433    17.8283 
  194.7500     0.4779    47.5177     0.3343    18.5729 
  195.0000     0.4751    50.4096     0.3186    19.1241 
  195.2500     0.4671    47.3417     0.2822    19.0433 
  195.5000     0.4671    48.1040     0.2720    18.9625 
  195.7500     0.4726    49.6387     0.3079    18.7857 
  196.0000     0.4812    50.3976     0.3515    18.2566 
  196.2500     0.4905    49.9974     0.3646    17.2952 
  196.5000     0.4995    48.8755     0.3679    16.3337 
  196.7500     0.5002    47.8061     0.3627    16.1829 
  197.0000     0.4968    47.7269     0.3612    16.1433 
  197.2500     0.4940    48.1076     0.3604    16.1315 
  197.5000     0.4920    48.2174     0.3573    16.1197 
  197.7500     0.4879    47.8113     0.3515    16.1295 
  198.0000     0.4769    47.8161     0.3468    16.2261 
  198.2500     0.4709    49.0619     0.3390    16.3785 
  198.5000     0.4720    48.6429     0.3460    16.5309 
  198.7500     0.4747    49.0594     0.3525    16.6833 
  199.0000     0.4774    50.0687     0.3531    16.8358 
  199.2500     0.4815    50.5441     0.3515    16.9859 
  199.5000     0.4909    50.3329     0.3600    17.1266 
  199.7500     0.4928    48.9408     0.3602    17.2087 
  200.0000     0.4853    49.2437     0.3492    17.2907 
  200.2500     0.4730    51.0285     0.3432    17.3727 
  200.5000     0.4619    52.7002     0.3472    17.4548 
  200.7500     0.4577    53.1185     0.3581    17.5369 
  201.0000     0.4627    53.4342     0.3669    17.6189 
  201.2500     0.4671    53.9294     0.3677    17.7010 
  201.5000     0.4665    52.8861     0.3645    17.7384 
  201.7500     0.4646    53.5374     0.3593    17.7625 
  202.0000     0.4605    54.6368     0.3543    17.7852 
  202.2500     0.4553    54.6973     0.3513    17.8078 
  202.5000     0.4583    56.2291     0.3499    17.8305 
  202.7500     0.4644    57.3921     0.3602    17.8531 
  203.0000     0.4701    57.6662     0.3539    17.8704 
  203.2500     0.4765    59.6768     0.3453    17.8563 
  203.5000     0.4770    60.6840     0.3442    17.8223 
  203.7500     0.4656    57.6409     0.3508    17.7882 
  204.0000     0.4471    52.2503     0.3493    17.7540 
  204.2500     0.4528    55.1649     0.3474    17.7199 
  204.5000     0.4614    56.4670     0.3475    17.6858 
