~VERSION INFORMATION
 VERS.                 2.0:   CWLS LOG ASCII STANDARD -VERSION 2.0
 WRAP.                  NO:   ONE LINE PER DEPTH STEP
~WELL INFORMATION BLOCK
#MNEM.UNIT           DATA                    DESCRIPTION OF MNEMONIC
#---------    -------------------            -------------------------------
# Generated from Intellog Unique Number	CN_91_93/WELL/3201
WELL.         11-34-092-18W4                 : Well_name    - WELL
LOC .         00/11-34-092-18W4/0            : Location     - LOCATION
UWI .         00/11-34-092-18W400            : Uwi          - UNIQUE WELL ID
ENTR.         JOETTE                         : Entered      - ENTERED BY
SRVC.         SCHLUMBERGER                   : Scn          - SERVICE COMPANY
DATE.         04/14/92                       : Date         - LOG DATE
STRT.M        75                             : top_depth    - START DEPTH
STOP.M        240                            : bot_depth    - STOP DEPTH
STEP.M        0.25                           : increment    - STEP LENGTH
 NULL. -999.2500:NULL Value
~CURVE INFORMATION BLOCK
#MNEM UNIT       ERCB CURVE CODE    CURVE DESCRIPTION
#-----------   ------------------   ----------------------------------
DEPT.M        00 001 00 00         : DEPTH        - DEPTH
CALI.MM       00 280 01 00         : CAL          - CALIPER
GR  .API      00 310 00 00         : GR           - GAMMA RAY
NPHI.V/V      00 330 00 00         : PHIN         - NEUTRON POROSITY (SANDSTONE)
DPHI.V/V      00 890 00 00         : PHID         - DENSITY POROSITY (SANDSTONE)
ILD .OHMM     00 120 00 00         : RESD         - DEEP RESISTIVITY (DIL)
~PARAMETER INFORMATION
#MNEM.UNIT           DATA             DESCRIPTION OF MNEMONIC
#---------         -----------     ------------------------------
GL  .M        510.7                : gl           - GROUND LEVEL ELEVATION
EREF.M        513.9                : kb           - ELEVATION OF DEPTH REFERENCE
DATM.M        513.9                : datum        - DATUM ELEVATION
TDD .M        245                  : tdd          - TOTAL DEPTH DRILLER
RUN .         ONE                  : Run          - RUN NUMBER
ENG .         BILL                 : Engineer     - RECORDING ENGINEER
WIT .         JIM                  : Witness      - WITNESSED BY
MUD .         GEL                  : Mud_type     - MUD TYPE
MATR.         SANDSTONE            : Logunit      - NEUTRON MATRIX
TMAX.C        18                   : BHT          - MAXIMUM RECORDED TEMPERATURE
BHTD.M        245                  : BHTDEP       - MAXIMUM RECORDED TEMPERATURE
RMT .C        15                   : MDTP         - TEMPERATURE OF MUD
MUDD.KG/M     1130                 : MWT          - MUD DENSITY
NEUT.         1                    : NEUTRON      - NEUTRON TYPE
RESI.         0                    : RESIST       - RESISTIVITY TYPE
RM  .OHMM     8.35                 : RM           - RESISTIVITY OF MUD
RMC .OHMM     8.35                 : RMC          - RESISTIVITY OF MUD CAKE
RMF .OHMM     8.35                 : RMF          - RESISTIVITY OF MUD FILTRATE
SUFT.C        4                    : SUFT         - SURFACE TEMPERATURE
~A  DEPTH      CAL       GR     PHIN     PHID     RESD
# ...
  148.000  172.058   81.082    0.332    0.217   11.307
  148.250  174.055   82.881    0.395    0.254   10.279
  148.500  174.054   86.482    0.411    0.272    9.889
  148.750  175.051   90.083    0.422    0.260    9.513
  149.000  175.047   90.682    0.453    0.255    9.152
  149.250  176.045   88.278    0.459    0.254    8.479
  149.500  176.041   79.869    0.463    0.243    7.708
  149.750  175.037   69.057    0.482    0.198    7.139
  150.000  175.035   67.254    0.439    0.156    7.693
  150.250  175.031   76.860    0.418    0.209    8.133
  150.500  176.029   82.863    0.432    0.248    7.973
  150.750  177.026   92.470    0.456    0.272    6.978
  151.000  177.023   96.671    0.489    0.277    6.110
  151.250  176.019   90.664    0.511    0.277    5.451
  151.500  172.011   80.453    0.510    0.260    5.983
  151.750  169.005   69.041    0.499    0.235    6.823
  152.000  164.998   64.234    0.452    0.237    8.231
  152.250  164.995   63.632    0.447    0.297   10.119
  152.500  165.993   64.831    0.458    0.303   11.536
  152.750  166.990   69.633    0.459    0.285   12.425
  153.000  166.985   74.435    0.447    0.269   12.181
  153.250  166.984   79.237    0.442    0.255   10.664
  153.500  166.979   83.439    0.460    0.260    9.692
  153.750  168.978   88.242    0.505    0.255    8.811
  154.000  169.975   91.242    0.525    0.260    8.479
  154.250  171.975   88.238    0.522    0.265    7.851
  154.500  172.971   88.836    0.517    0.263    7.556
  154.750  173.970   91.837    0.517    0.258    7.000
  155.000  173.967   88.231    0.519    0.255    6.244
  155.250  173.962   90.031    0.526    0.260    5.783
  155.500  173.957   91.231    0.515    0.257    5.669
  155.750  173.955   87.625    0.494    0.254    5.771
  156.000  173.952   85.821    0.477    0.248    6.100
  156.250  173.948   85.219    0.477    0.234    6.698
  156.500  171.943   85.216    0.488    0.209    7.496
  156.750  170.939   83.413    0.489    0.218    9.752
  157.000  168.934   81.610    0.475    0.268   14.753
  157.250  166.929   77.404    0.474    0.278   16.509
  157.500  165.925   73.198    0.482    0.225   18.821
  157.750  165.922   67.191    0.484    0.027   22.282
  158.000  165.918   61.784    0.269    0.003   23.999
  158.250  166.916   57.578    0.225    0.012   23.533
  158.500  167.914   68.386    0.259    0.117   22.211
  158.750  167.911   82.196    0.282    0.207   13.334
  159.000  168.908   90.602    0.332    0.240   11.241
  159.250  169.905   89.999    0.420    0.252    9.840
  159.500  170.903   90.597    0.472    0.253    8.141
  159.750  171.899   94.198    0.457    0.253    7.259
  160.000  173.897   99.001    0.460    0.248    6.853
  160.250  174.895   98.999    0.477    0.246    6.350
  160.500  175.894   97.195    0.493    0.246    5.992
  160.750  177.892   95.991    0.486    0.242    5.877
  161.000  178.889   97.191    0.483    0.230    5.761
  161.250  179.887  101.393    0.509    0.229    5.648
  161.500  179.883  107.997    0.533    0.222    5.536
  161.750  179.881  109.796    0.545    0.221    5.529
  162.000  179.877  105.590    0.524    0.224    5.526
  162.250  179.874   98.983    0.525    0.150    6.181
  162.500  178.869   90.573    0.581    0.061    6.917
  162.750  178.866   71.954    0.562    0.062    7.592
  163.000  178.863   81.561    0.379    0.084    7.303
  163.250  178.858   94.771    0.408    0.202    7.160
  163.500  178.856  103.176    0.514    0.236    7.428
  163.750  177.850  105.576    0.539    0.232    8.155
  164.000  176.847  103.172    0.534    0.228    8.785
  164.250  175.843  104.371    0.506    0.237   10.204
  164.500  174.838  112.176    0.449    0.236   11.418
  164.750  172.833  112.774    0.438    0.249   13.514
  165.000  171.829  103.764    0.433    0.247   14.563
  165.250  170.825   96.556    0.427    0.247   14.822
  165.500  169.820   89.948    0.420    0.251   13.993
  165.750  168.816   89.345    0.413    0.263   13.979
  166.000  168.814   89.344    0.401    0.282   14.779
  166.250  167.808   88.741    0.398    0.278   15.921
  166.500  167.806   67.120    0.392    0.144   16.209
  166.750  167.802   66.518    0.371    0.097   14.460
  167.000  168.800   69.518    0.314    0.037   13.399
  167.250  169.798   84.529    0.369    0.093   11.727
  167.500  173.797   92.334    0.403    0.222   10.462
  167.750  177.796   95.935    0.429    0.214    9.692
  168.000  178.795   98.335    0.444    0.210    8.972
  168.250  182.795  100.735    0.451    0.213    9.139
  168.500  184.794  102.535    0.482    0.215    9.304
  168.750  184.791  101.932    0.477    0.217   10.020
  169.000  183.786   96.526    0.456    0.225   11.004
  169.250  177.778   91.719    0.429    0.235   11.857
  169.500  172.768   88.714    0.365    0.181   14.037
  169.750  172.767   83.909    0.337    0.134   15.411
  170.000  171.763   90.513    0.356    0.217   16.919
  170.250  171.758   92.312    0.364    0.199   17.552
  170.500  171.756   89.908    0.355    0.207   15.366
  170.750  172.753   89.906    0.353    0.246   14.506
  171.000  172.749   92.306    0.371    0.254   13.952
  171.250  173.747   92.905    0.384    0.251   13.678
  171.500  173.743   94.104    0.394    0.264   13.661
  171.750  174.741   92.900    0.390    0.276   13.396
  172.000  174.738   91.697    0.387    0.275   13.383
  172.250  175.735   89.894    0.387    0.263   13.624
  172.500  175.732   90.492    0.392    0.258   13.607
  172.750  176.729   92.292    0.399    0.254   13.337
  173.000  176.725   95.893    0.404    0.248   13.078
  173.250  177.723   96.492    0.405    0.233   12.581
  173.500  177.720   96.490    0.406    0.236   11.658
  173.750  177.716   98.289    0.410    0.242   11.006
  174.000  177.713   94.684    0.416    0.247   11.413
  174.250  177.710   92.279    0.417    0.253   11.846
  174.500  178.708   92.878    0.412    0.257   12.289
  174.750  179.706   92.275    0.406    0.258   12.511
  175.000  180.703   88.070    0.407    0.248   12.498
  175.250  182.702   93.473    0.414    0.231   10.936
  175.500  181.696  101.277    0.443    0.212    9.942
  175.750  179.691  103.077    0.463    0.206    9.038
  176.000  178.687   99.472    0.461    0.194    8.535
  176.250  178.683  100.671    0.445    0.206    8.367
  176.500  179.680  101.870    0.459    0.221    8.516
  176.750  180.679   92.259    0.473    0.163    9.001
  177.000  180.676   86.252    0.470    0.122    9.518
  177.250  179.671   82.046    0.422    0.141   10.065
  177.500  179.668   83.246    0.383    0.243   11.047
  177.750  180.665   96.455    0.396    0.247   11.036
  178.000  180.663  100.056    0.403    0.252   10.033
  178.250  180.658  104.258    0.414    0.261    8.950
  178.500  179.655  111.462    0.427    0.265    7.835
  178.750  179.650  109.658    0.571    0.256    6.361
  179.000  179.649  106.654    0.578    0.248    5.361
  179.250  179.644  104.250    0.557    0.254    5.062
  179.500  179.641  100.645    0.499    0.264    5.454
  179.750  178.635   95.838    0.425    0.195    6.336
  180.000  177.633   90.431    0.398    0.153    8.089
  180.250  175.628   91.631    0.400    0.143    9.576
  180.500  172.622   94.631    0.410    0.173   10.918
  180.750  172.618   96.430    0.452    0.211   10.700
  181.000  172.615   97.629    0.476    0.222    9.728
  181.250  172.612   99.429    0.468    0.217    8.680
  181.500  173.608  101.229    0.470    0.214    7.889
  181.750  175.607  103.029    0.499    0.195    8.338
  182.000  180.608   85.611    0.520    0.164    9.331
  182.250  179.604   74.199    0.518    0.113   14.386
  182.500  174.596   72.396    0.298    0.037   15.502
  182.750  167.587   81.402    0.277    0.071   18.352
  183.000  165.582   89.807    0.286    0.150   20.917
  183.250  165.578   97.612    0.309    0.202   20.902
  183.500  165.574   99.411    0.384    0.237   19.359
  183.750  165.572  100.610    0.387    0.230   16.320
  184.000  165.568  101.208    0.375    0.220   14.287
  184.250  165.565  101.807    0.377    0.213   13.745
