~VERSION INFORMATION
 VERS.                 2.0:   CWLS LOG ASCII STANDARD -VERSION 2.0
 WRAP.                  NO:   ONE LINE PER DEPTH STEP
~WELL INFORMATION BLOCK
#MNEM.UNIT           DATA                    DESCRIPTION OF MNEMONIC
#---------    -------------------            -------------------------------
# Generated from Intellog Unique Number	CS_73_76/WELL/810
WELL.         PEX PHILLIPS AEC GRIST         : Well_name    - WELL
LOC .         00/10-04-073-08W4/0            : Location     - LOCATION
UWI .         00/10-04-073-08W4/0            : Uwi          - UNIQUE WELL ID
ENTR.         SP                             : Entered      - ENTERED BY
SRVC.         SCHLUMBERGER                   : Scn          - SERVICE COMPANY
STRT.M        315                            : top_depth    - START DEPTH
STOP.M        540                            : bot_depth    - STOP DEPTH
STEP.M        0.25                           : increment    - STEP LENGTH
 NULL. -999.2500:NULL Value
~CURVE INFORMATION BLOCK
#MNEM UNIT       ERCB CURVE CODE    CURVE DESCRIPTION
#-----------   ------------------   ----------------------------------
DEPT.M        00 001 00 00         : DEPTH        - DEPTH
ILD .OHMM     00 120 00 00         : RESD         - DEEP RESISTIVITY (DIL)
DPHI.V/V      00 890 00 00         : PHID         - DENSITY POROSITY (LIMESTONE)
NPHI.V/V      00 330 00 00         : PHIN         - NEUTRON POROSITY (LIMESTONE)
GR  .API      00 310 00 00         : GR           - GAMMA RAY
~PARAMETER INFORMATION
#MNEM.UNIT           DATA             DESCRIPTION OF MNEMONIC
#---------         -----------     ------------------------------
GL  .M        692.94               : gl           - GROUND LEVEL ELEVATION
EREF.M        696.02               : kb           - ELEVATION OF DEPTH REFERENCE
DATM.M        692.94               : datum        - DATUM ELEVATION
TDD .M        550.8                : tdd          - TOTAL DEPTH DRILLER
RUN .         ONE                  : Run          - RUN NUMBER
ENG .         BILL                 : Engineer     - RECORDING ENGINEER
WIT .         JIM                  : Witness      - WITNESSED BY
MUD .         GEL                  : Mud_type     - MUD TYPE
MATR.         LIMESTONE            : Logunit      - NEUTRON MATRIX
TMAX.C        29                   : BHT          - MAXIMUM RECORDED TEMPERATURE
BHTD.M        550.8                : BHTDEP       - MAXIMUM RECORDED TEMPERATURE
MATR.         1                    : LOGUNIT      - NEUTRON MATRIX
RMT .C        25                   : MDTP         - TEMPERATURE OF MUD
NEUT.         1                    : NEUTRON      - NEUTRON TYPE
RESI.         0                    : RESIST       - RESISTIVITY TYPE
RMC .OHMM     0.25                 : RMC          - RESISTIVITY OF MUD CAKE
RMF .OHMM     0.25                 : RMF          - RESISTIVITY OF MUD FILTRATE
SUFT.C        15                   : SUFT         - SURFACE TEMPERATURE
~A  DEPTH     RESD     PHID     PHIN       GR
# ...
  402.000   29.808    0.311    0.235   58.951
  402.250   42.637    0.244    0.202   58.339
  402.500   60.985    0.029    0.160   57.114
  402.750   84.006    0.012    0.136   55.890
  403.000   92.307    0.009    0.129   55.888
  403.250   85.615    0.007    0.191   55.271
  403.500   67.025    0.018    0.263   55.269
  403.750   47.755    0.154    0.324   57.704
  404.000   38.097    0.237    0.369   60.139
  404.250   29.825    0.288    0.368   60.745
  404.500   24.706    0.277    0.360   60.740
  404.750   22.487    0.273    0.358   63.175
  405.000   20.467    0.276    0.353   64.391
  405.250   18.983    0.273    0.352   67.434
  405.500   17.278    0.283    0.351   69.262
  405.750   16.025    0.287    0.349   71.086
  406.000   14.586    0.280    0.354   71.083
  406.250   13.786    0.275    0.358   69.858
  406.500   12.786    0.271    0.373   69.855
  406.750   11.858    0.276    0.362   72.900
  407.000    9.823    0.265    0.374   76.553
  407.250    8.292    0.255    0.378   79.598
  407.500    6.371    0.265    0.372   86.910
  407.750    5.179    0.262    0.399   90.566
  408.000    4.290    0.249    0.410   98.488
  408.250    3.690    0.239    0.401  107.630
  408.500    3.115    0.228    0.397  110.066
  408.750    2.944    0.218    0.406  112.500
  409.000    2.835    0.216    0.404  113.716
  409.250    2.889    0.223    0.409  111.273
  409.500    3.297    0.217    0.405  103.341
  409.750    3.692    0.227    0.397   99.069
  410.000    4.133    0.220    0.382   99.065
  410.250    4.897    0.229    0.369   98.452
  410.500    5.694    0.222    0.362   96.008
  410.750    6.875    0.217    0.362   94.786
  411.000    7.554    0.247    0.371   90.512
  411.250    8.458    0.242    0.374   88.680
  411.500    8.784    0.226    0.364   85.627
  411.750    8.784    0.220    0.368   88.671
  412.000    8.460    0.211    0.360   91.106
  412.250    8.303    0.217    0.373   91.102
  412.500    8.148    0.206    0.363   90.487
  412.750    8.149    0.193    0.358   89.874
  413.000    7.997    0.193    0.361   89.259
  413.250    7.998    0.200    0.353   88.647
  413.500    7.998    0.211    0.352   86.814
  413.750    8.151    0.228    0.361   83.761
  414.000    8.151    0.214    0.365   81.317
  414.250    8.000    0.217    0.363   80.705
  414.500    7.420    0.219    0.369   81.310
  414.750    6.627    0.241    0.369   84.355
  415.000    5.809    0.255    0.379   91.668
  415.250    5.189    0.250    0.389  100.809
  415.500    4.634    0.239    0.416  105.074
  415.750    4.298    0.231    0.433  105.067
  416.000    3.987    0.226    0.431  105.674
  416.250    3.698    0.220    0.430  109.939
  416.500    3.561    0.221    0.442  112.375
  416.750    3.366    0.226    0.428  114.810
  417.000    3.241    0.238    0.421  115.415
  417.250    3.122    0.235    0.428  114.800
  417.500    3.064    0.242    0.435  114.188
  417.750    3.182    0.248    0.424  111.745
  418.000    3.630    0.236    0.410  103.813
  418.250    4.466    0.225    0.393   99.542
  418.500    6.269    0.189    0.379   92.220
  418.750    7.428    0.195    0.367   87.948
  419.000    8.161    0.199    0.365   87.944
  419.250    8.801    0.194    0.355   90.989
  419.500    8.968    0.182    0.354   90.984
  419.750    8.802    0.210    0.359   90.370
  420.000    8.802    0.229    0.359   90.367
  420.250    8.639    0.231    0.356   89.753
  420.500    8.478    0.218    0.350   88.529
  420.750    8.321    0.209    0.349   88.525
  421.000    8.321    0.203    0.350   90.351
  421.250    8.322    0.207    0.348   90.957
  421.500    8.167    0.220    0.357   89.732
  421.750    8.167    0.230    0.367   90.338
  422.000    8.168    0.215    0.375   91.555
  422.250    8.324    0.181    0.364   92.159
  422.500    8.482    0.198    0.359   89.716
  422.750    8.483    0.196    0.353   87.273
  423.000    8.483    0.188    0.344   87.879
  423.250    8.484    0.203    0.327   82.997
  423.500    8.484    0.218    0.349   79.945
  423.750    8.327    0.230    0.361   89.696
  424.000    7.870    0.180    0.370   92.741
  424.250    7.723    0.183    0.380   91.517
  424.500    7.438    0.208    0.387   95.172
  424.750    7.164    0.207    0.378   95.168
  425.000    7.164    0.176    0.375   97.602
  425.250    7.301    0.154    0.385   96.989
  425.500    7.301    0.170    0.377   96.985
  425.750    7.302    0.205    0.364   96.371
  426.000    7.302    0.205    0.365   93.317
  426.250    7.167    0.207    0.382   90.264
  426.500    7.167    0.217    0.390   90.871
  426.750    7.034    0.167    0.382   93.916
  427.000    7.034    0.153    0.386   95.131
  427.250    7.035    0.140    0.376   96.347
  427.500    7.035    0.129    0.361   95.732
  427.750    7.035    0.125    0.361   94.509
  428.000    6.904    0.168    0.365   93.895
  428.250    6.526    0.212    0.374   95.721
  428.500    5.613    0.220    0.397   95.717
  428.750    5.305    0.240    0.396   94.493
  429.000    4.153    0.253    0.390   93.880
  429.250    3.640    0.240    0.387  101.192
  429.500    3.191    0.230    0.399  106.066
  429.750    2.960    0.226    0.390  109.721
  430.000    2.850    0.230    0.379  108.497
  430.250    2.797    0.233    0.379  105.444
  430.500    2.905    0.214    0.390  104.830
  430.750    3.192    0.223    0.393  107.266
  431.000    3.442    0.198    0.382  107.871
  431.250    3.712    0.175    0.381  106.038
  431.500    3.927    0.182    0.388  103.594
  431.750    4.481    0.189    0.376  102.372
  432.000    4.924    0.165    0.366  101.148
  432.250    5.514    0.157    0.362   99.315
  432.500    5.726    0.247    0.380   95.651
  432.750    6.174    0.272    0.371   93.819
  433.000    6.292    0.257    0.346   96.862
  433.250    6.292    0.212    0.336   96.858
  433.500    6.293    0.187    0.348   93.806
  433.750    6.293    0.218    0.369   91.364
  434.000    6.413    0.230    0.375   88.921
  434.250    6.413    0.220    0.347   90.135
  434.500    6.414    0.198    0.354   92.570
  434.750    6.536    0.175    0.373   94.395
  435.000    6.537    0.179    0.382   92.562
  435.250    6.537    0.207    0.385   88.290
  435.500    6.538    0.230    0.375   85.847
  435.750    6.538    0.245    0.367   82.794
  436.000    6.538    0.254    0.371   80.351
  436.250    6.539    0.266    0.359   82.787
  436.500    6.539    0.265    0.352   79.732
  436.750    6.664    0.273    0.345   78.510
  437.000    7.186    0.259    0.332   75.456
  437.250    7.896    0.248    0.291   73.624
  437.500    8.199    0.195    0.340   71.791
  437.750    8.047    0.120    0.354   79.713
  438.000    7.605    0.152    0.362   85.196
  438.250    7.464    0.184    0.349   87.632
  438.500    7.054    0.184    0.341   88.238
  438.750    6.543    0.196    0.342   90.671
  439.000    6.184    0.232    0.331   91.888
  439.250    6.069    0.235    0.342   85.175
  439.500    5.956    0.237    0.332   80.904
  439.750    6.069    0.250    0.331   79.071
  440.000    7.191    0.258    0.319   76.017
  440.250    8.682    0.264    0.300   74.795
  440.500   10.287    0.223    0.277   76.010
  440.750   10.682    0.184    0.210   77.225
  441.000    9.541    0.001    0.267   75.391
  441.250    8.054    0.010    0.310   74.169
  441.500    7.612    0.081    0.336   83.919
  441.750    7.060    0.137    0.342   93.061
  442.000    6.548    0.186    0.362   95.498
  442.250    6.073    0.193    0.352   98.542
  442.500    5.960    0.183    0.355  100.366
  442.750    5.740    0.191    0.367  101.583
  443.000    5.425    0.215    0.390   99.140
  443.250    5.426    0.253    0.402  100.965
  443.500    5.529    0.260    0.393  100.960
  443.750    5.742    0.226    0.379   97.908
  444.000    5.851    0.198    0.367   91.804
  444.250    5.852    0.179    0.355   88.753
  444.500    5.743    0.202    0.378   86.921
  444.750    5.743    0.227    0.400   93.014
  445.000    5.636    0.248    0.404   95.449
  445.250    5.637    0.245    0.393   93.005
