~VERSION INFORMATION
 VERS.                 2.0:   CWLS LOG ASCII STANDARD -VERSION 2.0
 WRAP.                  NO:   ONE LINE PER DEPTH STEP
~WELL INFORMATION BLOCK
#MNEM.UNIT           DATA                    DESCRIPTION OF MNEMONIC
#---------    -------------------            -------------------------------
# Generated from Intellog Unique Number	CN_91_93/WELL/3131
WELL.         PARAMOUNT RESOURCES LTD.       : Well_name    - WELL
LOC .         00/11-04-092-18W4/0            : Location     - LOCATION
UWI .         00/11-04-092-18W400            : Uwi          - UNIQUE WELL ID
ENTR.         JOETTE                         : Entered      - ENTERED BY
SRVC.         COMPUTALOG                     : Scn          - SERVICE COMPANY
DATE.         04/12/92                       : Date         - LOG DATE
STRT.M        70                             : top_depth    - START DEPTH
STOP.M        260                            : bot_depth    - STOP DEPTH
STEP.M        0.25                           : increment    - STEP LENGTH
 NULL. -999.2500:NULL Value
~CURVE INFORMATION BLOCK
#MNEM UNIT       ERCB CURVE CODE    CURVE DESCRIPTION
#-----------   ------------------   ----------------------------------
DEPT.M        00 001 00 00         : DEPTH        - DEPTH
CALI.MM       00 280 01 00         : CAL          - CALIPER
GR  .API      00 310 00 00         : GR           - GAMMA RAY
NPHI.V/V      00 330 00 00         : PHIN         - NEUTRON POROSITY (SANDSTONE)
DPHI.V/V      00 890 00 00         : PHID         - DENSITY POROSITY (SANDSTONE)
ILD .OHMM     00 120 00 00         : RESD         - DEEP RESISTIVITY (DIL)
~PARAMETER INFORMATION
#MNEM.UNIT           DATA             DESCRIPTION OF MNEMONIC
#---------         -----------     ------------------------------
GL  .M        520.6                : gl           - GROUND LEVEL ELEVATION
EREF.M        523.6                : kb           - ELEVATION OF DEPTH REFERENCE
DATM.M        523.6                : datum        - DATUM ELEVATION
TDD .M        262.4                : tdd          - TOTAL DEPTH DRILLER
RUN .         ONE                  : Run          - RUN NUMBER
ENG .         BILL                 : Engineer     - RECORDING ENGINEER
WIT .         JIM                  : Witness      - WITNESSED BY
MUD .         GEL                  : Mud_type     - MUD TYPE
MATR.         SANDSTONE            : Logunit      - NEUTRON MATRIX
TMAX.C        19                   : BHT          - MAXIMUM RECORDED TEMPERATURE
BHTD.M        262.4                : BHTDEP       - MAXIMUM RECORDED TEMPERATURE
RMT .C        11.1                 : MDTP         - TEMPERATURE OF MUD
MUDD.KG/M     1090                 : MWT          - MUD DENSITY
NEUT.         1                    : NEUTRON      - NEUTRON TYPE
RESI.         0                    : RESIST       - RESISTIVITY TYPE
RM  .OHMM     3.9                  : RM           - RESISTIVITY OF MUD
RMC .OHMM     3.9                  : RMC          - RESISTIVITY OF MUD CAKE
RMF .OHMM     4.9                  : RMF          - RESISTIVITY OF MUD FILTRATE
SUFT.C        4                    : SUFT         - SURFACE TEMPERATURE
~A  DEPTH      CAL       GR     PHIN     PHID     RESD
# ...
  143.000  170.955  114.857    0.423    0.199    9.179
  143.250  171.982  112.979    0.413    0.247    8.405
  143.500  170.923  115.463    0.397    0.260    8.273
  143.750  169.871  117.324    0.404    0.253    7.850
  144.000  168.812  117.314    0.427    0.198    7.590
  144.250  165.674  100.469    0.445    0.178    7.484
  144.500  164.627  104.199    0.435    0.211    7.505
  144.750  162.532  113.541    0.421    0.236    7.669
  145.000  161.468  113.531    0.406    0.246    7.843
  145.250  161.448  107.908    0.388    0.227    8.328
  145.500  161.436  104.160    0.372    0.208    9.549
  145.750  162.454  102.903    0.394    0.195    9.941
  146.000  162.446  104.759    0.410    0.192   11.176
  146.250  163.469  101.634    0.382    0.196   12.320
  146.500  162.409   97.260    0.328    0.173   13.081
  146.750  161.354   92.886    0.327    0.143   13.645
  147.000  157.177   92.253    0.339    0.192   13.696
  147.250  156.117   94.111    0.359    0.235   13.748
  147.500  155.062   95.351    0.369    0.254   13.543
  147.750  155.049   96.585    0.376    0.255   12.851
  148.000  156.076   98.443    0.380    0.255   12.649
  148.250  157.099  100.304    0.390    0.259   12.229
  148.500  160.191   97.803    0.383    0.260   12.299
  148.750  162.249   91.558    0.354    0.230   13.059
  149.000  162.241   83.444    0.317    0.195   13.866
  149.250  162.220   76.574    0.287    0.145   14.709
  149.500  160.130   78.434    0.297    0.092   16.229
  149.750  156.992   85.282    0.324    0.118   15.988
  150.000  155.937   93.377    0.360    0.172   14.328
  150.250  156.964  102.719    0.395    0.245   12.162
  150.500  160.060  110.190    0.420    0.268   10.900
  150.750  162.118  113.298    0.443    0.258    9.954
  151.000  162.105   98.949    0.449    0.229    9.445
  151.250  162.085   85.218    0.413    0.239   10.421
  151.500  162.073   85.832    0.387    0.274   11.926
  151.750  161.013   83.954    0.376    0.293   14.725
  152.000  159.962   76.463    0.367    0.297   16.538
  152.250  157.859   75.206    0.355    0.220   17.926
  152.500  157.847   77.690    0.370    0.178   17.994
  152.750  158.869   83.915    0.401    0.184   17.075
  153.000  159.892   95.750    0.419    0.224   15.607
  153.250  160.906  101.349    0.433    0.247   14.507
  153.500  160.898  101.962    0.419    0.249   12.772
  153.750  161.917  101.948    0.400    0.247   11.046
  154.000  161.905  101.943    0.408    0.244   10.278
  154.250  161.884  101.309    0.415    0.254    9.563
  154.500  160.824  100.050    0.423    0.263    8.427
  154.750  160.804   99.417    0.432    0.259    7.703
  155.000  160.796  102.524    0.435    0.254    7.047
  155.250  159.740  101.891    0.448    0.238    6.807
  155.500  158.681  104.998    0.444    0.241    6.465
  155.750  158.664  108.106    0.433    0.244    6.357
  156.000  158.644  101.862    0.432    0.234    6.381
  156.250  158.627   94.994    0.419    0.199    7.303
  156.500  158.607   88.124    0.405    0.168    9.195
  156.750  158.599   85.618    0.387    0.150   10.925
  157.000  158.582   86.231    0.359    0.173   13.730
  157.250  158.562   86.847    0.344    0.188   16.968
  157.500  158.549   85.591    0.334    0.173   18.687
  157.750  158.533   83.710    0.323    0.173   20.618
  158.000  158.508   86.194    0.306    0.144   19.547
  158.250  157.453   78.080    0.308    0.129   17.883
  158.500  157.437   73.704    0.330    0.094   16.027
  158.750  156.377   79.928    0.378    0.221   13.591
  159.000  156.369   87.399    0.397    0.251   12.411
  159.250  163.626  102.976    0.404    0.226   11.355
  159.500  164.644  111.070    0.411    0.220   10.176
  159.750  165.667  123.529    0.404    0.218    8.801
  160.000  166.690  124.143    0.398    0.216    8.037
  160.250  166.673  121.634    0.406    0.221    7.210
  160.500  166.649  122.253    0.417    0.222    6.714
  160.750  166.636  124.113    0.436    0.227    6.259
  161.000  166.620  131.585    0.450    0.230    6.046
  161.250  166.599  140.924    0.460    0.235    5.950
  161.500  166.591  139.667    0.469    0.227    5.984
  161.750  166.563  130.929    0.470    0.195    6.001
  162.000  166.554  123.438    0.464    0.185    6.254
  162.250  165.499  114.077    0.457    0.160    6.766
  162.500  164.443  110.950    0.436    0.181    7.458
  162.750  162.345  112.808    0.417    0.189    8.229
  163.000  161.293  107.187    0.402    0.175    9.071
  163.250  161.277  103.434    0.377    0.176   10.008
  163.500  161.248  106.544    0.348    0.201   10.828
  163.750  162.279  109.025    0.357    0.228   11.947
  164.000  162.263  109.641    0.362    0.235   12.925
  164.250  162.246  111.502    0.370    0.221   13.724
  164.500  161.191  105.255    0.358    0.194   14.288
  164.750  160.131   98.388    0.332    0.151   15.214
  165.000  159.076   91.520    0.318    0.130   15.531
  165.250  158.020   88.393    0.335    0.189   15.589
  165.500  158.000   97.111    0.372    0.209   15.663
  165.750  157.988  103.336    0.389    0.224   15.172
  166.000  157.967  109.560    0.410    0.222   14.656
  166.250  158.994  110.174    0.423    0.214   14.424
  166.500  162.095  112.655    0.409    0.203   13.946
  166.750  166.230  118.880    0.398    0.186   13.484
  167.000  168.296  115.129    0.399    0.203   12.570
  167.250  169.315  109.506    0.404    0.219   12.142
  167.500  170.333  110.743    0.409    0.208   11.961
  167.750  170.317  109.486    0.405    0.190   12.018
  168.000  170.300  105.115    0.398    0.171   12.268
  168.250  169.249  109.467    0.393    0.151   12.784
  168.500  166.115  121.926    0.363    0.202   13.587
  168.750  164.021  116.928    0.345    0.218   14.427
  169.000  165.039  109.437    0.322    0.213   15.318
  169.250  166.062  106.310    0.311    0.195   16.280
  169.500  165.007  105.053    0.330    0.144   16.635
  169.750  161.865  106.914    0.343    0.199   17.680
  170.000  160.809  108.772    0.341    0.247   18.099
  170.250  158.719  103.151    0.333    0.281   17.813
  170.500  157.663  103.765    0.330    0.279   17.565
  170.750  157.647  107.493    0.334    0.267   16.999
  171.000  157.631  107.486    0.335    0.258   16.730
  171.250  157.614  108.720    0.335    0.247   16.466
  171.500  157.594  108.710    0.336    0.233   15.669
  171.750  157.581  109.947    0.338    0.221   15.407
  172.000  158.600  109.938    0.348    0.225   15.178
  172.250  158.588  108.057    0.364    0.240   14.953
  172.500  158.567  112.412    0.383    0.231   14.731
  172.750  159.594  119.260    0.396    0.217   14.512
  173.000  160.604  122.988    0.389    0.210   14.566
  173.250  161.635  116.746    0.383    0.221   14.350
  173.500  161.619  112.370    0.379    0.223   14.404
  173.750  161.594  111.116    0.368    0.191   14.445
  174.000  160.547  105.492    0.343    0.159   14.787
  174.250  159.487   99.248    0.338    0.175   14.843
  174.500  159.475  102.979    0.354    0.202   15.181
  174.750  162.564  110.450    0.356    0.210   15.238
  175.000  163.594  119.792    0.340    0.202   14.747
  175.250  165.656  118.535    0.344    0.187   14.258
  175.500  165.636  114.159    0.369    0.168   13.530
  175.750  163.533  117.266    0.391    0.168   13.341
  176.000  162.486  116.007    0.398    0.185   13.366
  176.250  160.391  110.389    0.368    0.186   13.429
  176.500  159.336  102.274    0.336    0.160   13.735
  176.750  159.319   94.783    0.318    0.107   14.047
  177.000  159.295   98.514    0.331    0.072   13.839
  177.250  160.317  104.738    0.351    0.113   11.958
  177.500  160.305  113.457    0.416    0.197   10.508
  177.750  162.367  125.290    0.455    0.239    9.079
  178.000  163.385  129.020    0.444    0.240    8.001
  178.250  164.416  129.634    0.431    0.228    7.592
  178.500  165.435  124.013    0.417    0.216    7.480
  178.750  164.379  117.769    0.402    0.211    7.643
  179.000  163.320  110.901    0.391    0.215    8.115
  179.250  162.264  107.151    0.405    0.215    8.779
