~VERSION INFORMATION
 VERS.                 2.0:   CWLS LOG ASCII STANDARD -VERSION 2.0
 WRAP.                  NO:   ONE LINE PER DEPTH STEP
~WELL INFORMATION BLOCK
#MNEM.UNIT           DATA                    DESCRIPTION OF MNEMONIC
#---------    -------------------            -------------------------------
# Generated from Intellog Unique Number	CS_73_76/WELL/3274
WELL.         BOW VALLEY EXPLORATION         : Well_name    - WELL
LOC .         00/12-34-075-14W4/0            : Location     - LOCATION
UWI .         00/12-34-075-14W4/0            : Uwi          - UNIQUE WELL ID
ENTR.         SP                             : Entered      - ENTERED BY
SRVC.         SCHLUMBERGER                   : Scn          - SERVICE COMPANY
STRT.M        345                            : top_depth    - START DEPTH
STOP.M        585                            : bot_depth    - STOP DEPTH
STEP.M        0.25                           : increment    - STEP LENGTH
 NULL. -999.2500:NULL Value
~CURVE INFORMATION BLOCK
#MNEM UNIT       ERCB CURVE CODE    CURVE DESCRIPTION
#-----------   ------------------   ----------------------------------
DEPT.M        00 001 00 00         : DEPTH        - DEPTH
ILD .OHMM     00 120 00 00         : RESD         - DEEP RESISTIVITY (DIL)
NPHI.V/V      00 330 00 00         : PHIN         - NEUTRON POROSITY (LIMESTONE)
DPHI.V/V      00 890 00 00         : PHID         - DENSITY POROSITY (LIMESTONE)
GR  .API      00 310 00 00         : GR           - GAMMA RAY
~PARAMETER INFORMATION
#MNEM.UNIT           DATA             DESCRIPTION OF MNEMONIC
#---------         -----------     ------------------------------
GL  .M        720.2                : gl           - GROUND LEVEL ELEVATION
EREF.M        723.4                : kb           - ELEVATION OF DEPTH REFERENCE
DATM.M        720.2                : datum        - DATUM ELEVATION
TDD .M        595                  : tdd          - TOTAL DEPTH DRILLER
RUN .         ONE                  : Run          - RUN NUMBER
ENG .         BILL                 : Engineer     - RECORDING ENGINEER
WIT .         JIM                  : Witness      - WITNESSED BY
MUD .         GEL                  : Mud_type     - MUD TYPE
MATR.         LIMESTONE            : Logunit      - NEUTRON MATRIX
TMAX.C        17                   : BHT          - MAXIMUM RECORDED TEMPERATURE
BHTD.M        595                  : BHTDEP       - MAXIMUM RECORDED TEMPERATURE
MATR.         1                    : LOGUNIT      - NEUTRON MATRIX
RMT .C        25                   : MDTP         - TEMPERATURE OF MUD
NEUT.         1                    : NEUTRON      - NEUTRON TYPE
RESI.         0                    : RESIST       - RESISTIVITY TYPE
RMC .OHMM     0.25                 : RMC          - RESISTIVITY OF MUD CAKE
RMF .OHMM     0.25                 : RMF          - RESISTIVITY OF MUD FILTRATE
SUFT.C        15                   : SUFT         - SURFACE TEMPERATURE
~A  DEPTH     RESD     PHIN     PHID       GR
# ...
  475.500    6.038    0.455    0.327   77.850
  475.750    6.038    0.451    0.307   76.667
  476.000    6.037    0.443    0.312   76.086
  476.250    6.037    0.437    0.313   76.711
  476.500    6.149    0.434    0.323   76.739
  476.750    6.149    0.435    0.324   76.757
  477.000    6.381    0.437    0.322   76.786
  477.250    6.499    0.443    0.304   76.809
  477.500    6.499    0.449    0.300   77.435
  477.750    6.498    0.436    0.308   77.455
  478.000    6.379    0.426    0.300   78.083
  478.250    6.261    0.437    0.312   78.101
  478.500    6.261    0.445    0.318   78.130
  478.750    6.261    0.454    0.324   78.147
  479.000    7.127    0.437    0.314   78.170
  479.250    9.584    0.386    0.230   78.201
  479.500   15.226    0.235    0.130   77.613
  479.750   23.310    0.176    0.080   75.219
  480.000   33.757    0.165    0.023   74.631
  480.250   38.427    0.162    0.035   74.654
  480.500   40.620    0.161    0.047   74.073
  480.750   41.375    0.156    0.040   72.894
  481.000   39.869    0.155    0.027   71.706
  481.250   37.020    0.152    0.038   69.912
  481.500   34.374    0.161    0.014   68.718
  481.750   29.095    0.198    0.000   69.348
  482.000   23.731    0.244    0.087   72.398
  482.250   17.003    0.298    0.125   75.441
  482.500    8.106    0.335    0.183   79.702
  482.750    6.254    0.368    0.229   82.140
  483.000    5.293    0.409    0.292   85.796
  483.250    5.100    0.444    0.308   84.611
  483.500    5.007    0.473    0.312   84.026
  483.750    5.006    0.461    0.314   84.053
  484.000    5.099    0.453    0.308   84.071
  484.250    5.099    0.474    0.301   84.094
  484.500    5.194    0.469    0.293   85.332
  484.750    5.194    0.470    0.290   86.563
  485.000    5.193    0.480    0.275   87.187
  485.250    5.290    0.475    0.269   89.024
  485.500    5.290    0.470    0.279   86.025
  485.750    5.289    0.481    0.281   83.022
  486.000    5.192    0.485    0.292   84.263
  486.250    5.488    0.477    0.306   84.880
  486.500    5.591    0.476    0.320   84.300
  486.750    5.590    0.470    0.333   82.513
  487.000    5.487    0.469    0.335   82.535
  487.250    5.487    0.475    0.327   84.378
  487.500    5.386    0.482    0.323   85.605
  487.750    5.385    0.492    0.314   86.225
  488.000    5.385    0.495    0.311   88.065
  488.250    5.189    0.493    0.305   86.876
  488.500    4.908    0.492    0.305   85.086
  488.750    4.818    0.497    0.300   84.504
  489.000    4.729    0.493    0.294   84.526
  489.250    4.642    0.478    0.304   86.363
  489.500    4.728    0.483    0.310   83.969
  489.750    4.816    0.501    0.313   80.362
  490.000    4.816    0.509    0.315   79.779
  490.250    4.816    0.509    0.310   82.220
  490.500    4.815    0.498    0.300   83.454
  490.750    4.905    0.481    0.299   81.058
  491.000    4.905    0.475    0.307   80.474
  491.250    4.904    0.488    0.311   82.318
  491.500    4.904    0.494    0.306   83.545
  491.750    4.904    0.495    0.298   86.000
  492.000    4.903    0.490    0.293   86.619
  492.250    4.903    0.479    0.312   87.242
  492.500    4.903    0.472    0.301   87.268
  492.750    4.902    0.473    0.299   85.477
  493.000    4.994    0.473    0.301   82.478
  493.250    4.994    0.473    0.305   83.101
  493.500    4.993    0.470    0.306   82.518
  493.750    4.993    0.478    0.311   82.541
  494.000    5.086    0.488    0.314   84.384
  494.250    5.180    0.478    0.313   85.611
  494.500    5.180    0.466    0.317   85.641
  494.750    5.180    0.454    0.319   86.267
  495.000    5.180    0.455    0.311   87.493
  495.250    4.991    0.460    0.300   86.915
  495.500    5.179    0.462    0.282   85.725
  495.750    5.374    0.443    0.227   80.307
  496.000    5.895    0.417    0.170   74.277
  496.250    6.348    0.209    0.104   64.017
  496.500    6.963    0.195    0.019   60.412
  496.750    7.225    0.232    0.058   66.482
  497.000    6.116    0.313    0.105   76.191
  497.250    5.372    0.403    0.237   81.048
  497.500    5.081    0.429    0.268   84.698
  497.750    4.987    0.441    0.285   86.537
  498.000    4.895    0.461    0.297   85.951
  498.250    4.805    0.459    0.306   89.005
  498.500    4.805    0.438    0.314   91.442
  498.750    5.079    0.435    0.303   93.886
  499.000    5.270    0.453    0.287   96.331
  499.250    5.173    0.467    0.280   96.958
  499.500    5.173    0.459    0.272   95.771
  499.750    5.078    0.447    0.259   93.982
  500.000    4.984    0.460    0.251   94.000
  500.250    4.803    0.469    0.238   96.440
  500.500    4.714    0.475    0.225   98.278
  500.750    4.892    0.442    0.246   93.466
  501.000    5.076    0.371    0.206   87.439
  501.250    5.886    0.342    0.130   82.623
  501.500    6.701    0.345    0.136   84.460
  501.750    7.350    0.339    0.150   85.085
  502.000    7.627    0.319    0.148   84.508
  502.250    8.062    0.365    0.170   82.106
  502.500    8.366    0.372    0.143   77.894
  502.750    8.365    0.270    0.056   73.081
  503.000    7.767    0.305    0.075   78.548
  503.250    7.485    0.385    0.125   87.036
  503.500    6.574    0.423    0.173   97.345
  503.750    5.882    0.449    0.212  104.021
  504.000    5.362    0.461    0.217  107.067
  504.250    5.166    0.469    0.205  107.695
  504.500    5.071    0.479    0.211  106.506
  504.750    4.978    0.477    0.189   99.277
  505.000    5.071    0.442    0.172   94.458
  505.250    5.262    0.429    0.160   95.083
  505.500    5.562    0.448    0.198  101.164
  505.750    5.665    0.467    0.201  103.600
  506.000    5.665    0.477    0.200  107.859
  506.250    5.665    0.477    0.204  110.298
  506.500    5.664    0.473    0.215  110.319
  506.750    5.664    0.476    0.213  106.112
  507.000    5.769    0.480    0.208  106.742
  507.250    5.877    0.482    0.209  109.181
  507.500    5.986    0.461    0.207  108.595
  507.750    6.212    0.448    0.196  106.200
  508.000    6.327    0.446    0.212  107.435
  508.250    6.566    0.459    0.216  105.034
  508.500    6.688    0.463    0.226  104.455
  508.750    6.812    0.457    0.230  105.083
  509.000    6.812    0.439    0.232  104.500
  509.250    7.068    0.428    0.195  105.127
  509.500    7.200    0.423    0.168  100.313
  509.750    7.753    0.393    0.144   95.496
  510.000    8.196    0.369    0.109   92.493
  510.250    8.663    0.395    0.140   93.730
  510.500    9.158    0.394    0.147   99.802
  510.750    8.503    0.387    0.151  107.686
  511.000    7.197    0.444    0.175  116.181
  511.250    6.440    0.464    0.190  121.037
  511.500    6.205    0.490    0.177  124.082
  511.750    6.091    0.473    0.175  125.315
  512.000    6.091    0.458    0.193  128.366
  512.250    6.090    0.446    0.193  129.596
  512.500    5.978    0.440    0.193  124.785
  512.750    5.868    0.433    0.193  119.966
  513.000    5.551    0.435    0.195  116.359
  513.250    5.448    0.442    0.200  115.169
  513.500    5.154    0.447    0.197  113.983
  513.750    5.059    0.456    0.197  114.612
  514.000    5.058    0.462    0.193  111.010
  514.250    5.058    0.454    0.176  108.003
  514.500    5.057    0.441    0.166  109.236
  514.750    5.057    0.437    0.188  114.108
  515.000    5.057    0.469    0.212  116.540
  515.250    5.057    0.477    0.224  117.771
  515.500    3.011    0.486    0.253  113.562
  515.750    2.410    0.515    0.268  111.767
  516.000    2.157    0.530    0.258  111.187
  516.250    2.040    0.538    0.245  110.003
  516.500    2.002    0.546    0.259  108.208
  516.750    1.966    0.550    0.260  110.044
  517.000    2.002    0.544    0.264  111.884
  517.250    2.039    0.534    0.253  115.536
  517.500    2.002    0.528    0.239  118.581
  517.750    2.237    0.521    0.223  119.209
  518.000    2.409    0.512    0.231  115.602
  518.250    2.594    0.530    0.231  115.625
  518.500    2.953    0.548    0.231  113.833
  518.750    3.239    0.514    0.213  111.437
