~VERSION INFORMATION
 VERS.                 2.0:   CWLS LOG ASCII STANDARD -VERSION 2.0
 WRAP.                  NO:   ONE LINE PER DEPTH STEP
~WELL INFORMATION BLOCK
#MNEM.UNIT           DATA                    DESCRIPTION OF MNEMONIC
#---------    -------------------            -------------------------------
# Generated from Intellog Unique Number	CC_84_87/WELL/2321
NULL.         -999.25                        : NULL_VALUE
WELL.         SUNCOR CHEECHAM LEASE          : Well_name    - WELL
LOC .         11-05-085-06W4                 : Location     - LOCATION          
UWI .         00/11-05-085-06W400            : Uwi          - UNIQUE WELL ID    
ENTR.         JHS                            : Entered      - ENTERED BY        
SRVC.         SCHLUMBERGER                   : Scn          - SERVICE COMPANY   
DATE.         07 FEB 81                      : Date         - LOG DATE
STRT.M        100                            : top_depth    - START DEPTH       
STOP.M        265.001                        : bot_depth    - STOP DEPTH        
STEP.M        0.3                            : increment    - STEP LENGTH       
~CURVE INFORMATION BLOCK
#MNEM UNIT       ERCB CURVE CODE    CURVE DESCRIPTION
#-----------   ------------------   ----------------------------------
DEPT.M        00 001 00 00         : DEPTH        - DEPTH                       
DPHI.V/V      00 890 00 00         : PHID         - DENSITY POROSITY (LIMESTONE)
NPHI.V/V      00 330 00 00         : PHIN         - NEUTRON POROSITY (LIMESTONE)
GR  .API      00 310 00 00         : GR           - GAMMA RAY                   
ILD .OHMM     00 120 00 00         : RESD         - DEEP RESISTIVITY (DIL)      
~PARAMETER INFORMATION       
#MNEM.UNIT           DATA             DESCRIPTION OF MNEMONIC
#---------         -----------     ------------------------------
GL  .M        477                  : gl           - GROUND LEVEL ELEVATION      
EREF.M        480.63               : kb           - ELEVATION OF DEPTH REFERENCE
DATM.M        480.63               : datum        - DATUM ELEVATION             
TDD .M        269.5                : tdd          - TOTAL DEPTH DRILLER         
RUN .         ONE                  : Run          - RUN NUMBER                  
ENG .         BILL                 : Engineer     - RECORDING ENGINEER          
WIT .         JIM                  : Witness      - WITNESSED BY                
MUD .         GEL                  : Mud_type     - MUD TYPE                    
MATR.         LIMESTONE            : Logunit      - NEUTRON MATRIX              
TMAX.C        60                   : BHT          - MAXIMUM RECORDED TEMPERATURE
BHTD.M        269.5                : BHTDEP       - MAXIMUM RECORDED TEMPERATURE
MATR.         1                    : LOGUNIT      - NEUTRON MATRIX              
RMT .C        25                   : MDTP         - TEMPERATURE OF MUD          
NEUT.         1                    : NEUTRON      - NEUTRON TYPE                
RESI.         0                    : RESIST       - RESISTIVITY TYPE            
RMC .OHMM     0.25                 : RMC          - RESISTIVITY OF MUD CAKE     
RMF .OHMM     0.25                 : RMF          - RESISTIVITY OF MUD FILTRATE 
SUFT.C        15                   : SUFT         - SURFACE TEMPERATURE         
~A  DEPTH     PHID     PHIN       GR     RESD
  100.000    0.261    0.413   73.481    8.712
  100.300    0.263    0.425   75.323    8.723
  100.600    0.259    0.434   76.558    8.737
  100.900    0.269    0.435   77.185    8.753
  101.200    0.259    0.447   77.206    8.762
  101.500    0.257    0.438   72.367    8.777
  101.800    0.258    0.456   71.779    8.627
  102.100    0.253    0.434   70.585    8.479
  102.400    0.265    0.436   70.606    8.333
  102.700    0.275    0.456   76.698    8.189
  103.000    0.289    0.471   76.108    7.899
  103.300    0.277    0.471   74.308    7.619
  103.600    0.280    0.459   73.720    7.487
  103.900    0.269    0.450   73.135    7.498
  104.200    0.285    0.447   73.761    7.369
  104.500    0.295    0.438   74.995    7.380
  104.800    0.296    0.440   75.621    7.394
  105.100    0.301    0.451   75.033    7.405
  105.400    0.294    0.463   72.016    7.277
  105.700    0.303    0.439   69.608    7.151
  106.000    0.304    0.438   73.270    7.029
  106.300    0.286    0.438   73.290    6.909
  106.600    0.291    0.432   71.489    6.921
  106.900    0.298    0.436   69.687    6.802
  107.200    0.289    0.452   72.136    6.683
  107.500    0.287    0.488   75.193    6.692
  107.800    0.274    0.487   71.570    6.580
  108.100    0.270    0.476   66.123    6.464
  108.400    0.281    0.458   64.928    6.475
  108.700    0.290    0.444   66.770    6.485
  109.000    0.277    0.439   68.004    6.373
  109.300    0.295    0.435   67.419    6.266
  109.600    0.294    0.427   67.436    6.156
  109.900    0.285    0.433   68.065    6.165
  110.200    0.280    0.448   71.120    6.059
  110.500    0.274    0.448   71.140    5.957
  110.800    0.270    0.439   68.731    5.964
  111.100    0.277    0.436   66.323    5.862
  111.400    0.273    0.418   64.519    5.871
  111.700    0.270    0.419   63.931    5.992
  112.000    0.267    0.434   65.773    6.001
  112.300    0.269    0.425   68.829    6.010
  112.600    0.283    0.448   68.243    5.906
  112.900    0.279    0.450   67.048    5.918
  113.200    0.269    0.445   68.889    5.926
  113.500    0.263    0.423   67.088    5.824
  113.800    0.263    0.436   66.499    5.832
  114.100    0.250    0.421   68.342    5.732
  114.400    0.249    0.425   72.613    5.529
  114.700    0.242    0.445   73.239    5.536
  115.000    0.249    0.454   69.617    5.442
  115.300    0.247    0.442   68.421    5.449
  115.600    0.249    0.448   67.837    5.458
  115.900    0.256    0.452   67.246    5.466
  116.200    0.238    0.463   68.481    5.475
  116.500    0.256    0.441   69.106    5.482
  116.800    0.271    0.433   67.305    5.594
  117.100    0.264    0.448   66.718    5.603
  117.400    0.254    0.438   66.737    5.718
  117.700    0.241    0.447   65.546    5.835
  118.000    0.224    0.461   65.565    5.628
  118.300    0.234    0.448   66.191    5.328
  118.600    0.271    0.411   66.211    5.043
  118.900    0.249    0.400   65.016    4.772
  119.200    0.283    0.443   63.213    4.603
  119.500    0.276    0.466   64.450    4.525
  119.800    0.232    0.473   68.112    4.446
  120.100    0.241    0.448   68.739    4.537
  120.400    0.263    0.439   68.152    4.718
  120.700    0.267    0.452   66.956    4.908
  121.000    0.263    0.476   66.975    4.915
  121.300    0.268    0.465   67.603    4.830
  121.600    0.264    0.424   68.839    4.748
  121.900    0.259    0.402   66.430    4.666
  122.200    0.270    0.402   64.627    4.587
  122.500    0.273    0.409   65.254    4.594
  122.800    0.263    0.415   67.702    4.599
  123.100    0.249    0.430   70.759    4.695
  123.400    0.265    0.453   74.423    4.701
  123.700    0.300    0.461   74.443    4.798
  124.000    0.282    0.457   75.676    4.898
  124.300    0.282    0.448   74.483    4.904
  124.600    0.270    0.453   75.109    4.819
  124.900    0.265    0.454   77.558    4.736
  125.200    0.276    0.462   79.398    4.655
  125.500    0.274    0.476   83.062    4.576
  125.800    0.221    0.478   91.584    4.330
  126.100    0.215    0.483  104.357    4.099
  126.400    0.223    0.467  104.376    4.030
  126.700    0.185    0.462  106.827    3.961
  127.000    0.154    0.463  106.240    3.965
  127.300    0.181    0.481  106.865    3.972
  127.600    0.173    0.477  111.137    4.054
  127.900    0.184    0.506  113.586    4.136
  128.200    0.181    0.498  113.606    4.065
  128.500    0.192    0.524  113.625    3.996
  128.800    0.204    0.512  111.825    3.854
  129.100    0.201    0.491  113.060    3.580
  129.400    0.194    0.504  117.936    3.325
  129.700    0.167    0.533  119.781    2.975
  130.000    0.186    0.558  119.800    2.763
  130.300    0.175    0.569  121.034    2.665
  130.600    0.187    0.582  124.088    2.670
  130.900    0.180    0.563  123.500    2.776
  131.200    0.188    0.530  125.344    2.886
  131.500    0.187    0.518  127.792    3.002
  131.800    0.183    0.529  130.239    3.006
  132.100    0.172    0.577  130.259    3.010
  132.400    0.166    0.552  125.422    2.959
  132.700    0.197    0.558  120.584    2.963
  133.000    0.203    0.548  121.209    2.968
  133.300    0.209    0.552  122.444    2.972
  133.600    0.198    0.573  117.000    2.977
  133.900    0.205    0.507  108.518    2.926
  134.200    0.217    0.474  100.643    2.769
  134.500    0.226    0.474   96.412    2.524
  134.800    0.252    0.516   92.787    2.389
  135.100    0.293    0.565   96.452    2.348
  135.400    0.307    0.571  104.972    2.352
  135.700    0.238    0.547  114.102    2.400
  136.000    0.239    0.571  115.947    2.359
  136.300    0.253    0.599  116.570    2.150
  136.600    0.218    0.571  114.161    2.074
  136.900    0.192    0.571  116.610    2.077
  137.200    0.192    0.566  119.058    2.080
  137.500    0.206    0.562  121.507    2.123
  137.800    0.217    0.580  122.741    2.208
  138.100    0.214    0.561  118.511    2.384
  138.400    0.209    0.565  111.244    2.574
  138.700    0.193    0.557  104.583    2.579
  139.000    0.199    0.518  105.211    2.534
  139.300    0.214    0.530  110.697    2.398
  139.600    0.218    0.545  111.324    2.313
  139.900    0.223    0.535  108.306    2.232
  140.200    0.233    0.499  103.469    2.235
  140.500    0.229    0.499  102.882    2.281
  140.800    0.237    0.466  106.545    2.284
  141.100    0.225    0.441  115.065    2.330
  141.400    0.208    0.429  122.980    2.379
  141.700    0.218    0.439  127.251    2.473
  142.000    0.160    0.455  125.451    2.572
  142.300    0.131    0.417  119.396    2.576
  142.600    0.119    0.379   90.266    2.304
  142.900    0.209    0.440   87.859    2.061
  143.200    0.259    0.457   92.128    1.915
  143.500    0.258    0.466   92.147    1.882
  143.800    0.262    0.469   89.739    1.850
  144.100    0.259    0.467   85.510    1.852
  144.400    0.269    0.469   79.454    1.890
  144.700    0.265    0.478   73.402    2.003
  145.000    0.250    0.456   72.207    2.762
  145.300    0.221    0.432   71.620    3.810
  145.600    0.281    0.287   66.174    4.272
  145.900    0.199    0.190   58.301    4.442
  146.200    0.185    0.199   64.391    4.449
  146.500    0.336    0.291   72.306    5.481
  146.800    0.398    0.401   70.506    7.559
  147.100    0.240    0.329   64.451   10.039
  147.400    0.191    0.266   54.147   12.841
  147.700    0.198    0.241   55.381   13.357
  148.000    0.174    0.239   54.797    9.178
  148.300    0.181    0.249   54.815    2.654
  148.600    0.307    0.259   59.692    1.859
  148.900    0.400    0.411   71.857    1.760
  149.201    0.297    0.490   82.205    1.635
  149.501    0.241    0.486   79.792    1.490
  149.801    0.245    0.491   76.776    1.492
  150.101    0.252    0.478   76.188    1.494
  150.401    0.263    0.464   78.637    1.525
  150.701    0.262    0.460   78.658    1.499
  151.001    0.269    0.472   78.069    1.502
  151.301    0.253    0.452   81.735    1.476
  151.601    0.266    0.471   85.399    1.478
  151.901    0.256    0.481   84.810    1.452
