~VERSION INFORMATION
 VERS.                 2.0:   CWLS LOG ASCII STANDARD -VERSION 2.0
 WRAP.                  NO:   ONE LINE PER DEPTH STEP
~WELL INFORMATION BLOCK
#MNEM.UNIT           DATA                    DESCRIPTION OF MNEMONIC
#---------    -------------------            -------------------------------
# Generated from Intellog Unique Number	CS_77_79/WELL/995
WELL.         HOME LEISTER                   : Well_name    - WELL
LOC .         00/11-14-078-06W4/0            : Location     - LOCATION
UWI .         00/11-14-078-06W4/0            : Uwi          - UNIQUE WELL ID
ENTR.         JHS                            : Entered      - ENTERED BY
SRVC.         SCHLUMBERGER                   : Scn          - SERVICE COMPANY
STRT.M        140                            : top_depth    - START DEPTH
STOP.M        420                            : bot_depth    - STOP DEPTH
STEP.M        0.25                           : increment    - STEP LENGTH
 NULL. -999.2500:NULL Value
~CURVE INFORMATION BLOCK
#MNEM UNIT       ERCB CURVE CODE    CURVE DESCRIPTION
#-----------   ------------------   ----------------------------------
DEPT.M        00 001 00 00         : DEPTH        - DEPTH
DPHI.V/V      00 890 00 00         : PHID         - DENSITY POROSITY (LIMESTONE)
NPHI.V/V      00 330 00 00         : PHIN         - NEUTRON POROSITY (LIMESTONE)
GR  .API      00 310 00 00         : GR           - GAMMA RAY
ILD .OHMM     00 120 00 00         : RESD         - DEEP RESISTIVITY (DIL)
RHOB.KG/M3    00 350 00 00         : DENS         - BULK DENSITY
~PARAMETER INFORMATION
#MNEM.UNIT           DATA             DESCRIPTION OF MNEMONIC
#---------         -----------     ------------------------------
GL  .M        593.32               : gl           - GROUND LEVEL ELEVATION
EREF.M        596.32               : kb           - ELEVATION OF DEPTH REFERENCE
DATM.M        596.32               : datum        - DATUM ELEVATION
TDD .M        430                  : tdd          - TOTAL DEPTH DRILLER
RUN .         ONE                  : Run          - RUN NUMBER
ENG .         BILL                 : Engineer     - RECORDING ENGINEER
WIT .         JIM                  : Witness      - WITNESSED BY
MUD .         GEL                  : Mud_type     - MUD TYPE
MATR.         LIMESTONE            : Logunit      - NEUTRON MATRIX
TMAX.C        24                   : BHT          - MAXIMUM RECORDED TEMPERATURE
BHTD.M        430                  : BHTDEP       - MAXIMUM RECORDED TEMPERATURE
MATR.         1                    : LOGUNIT      - NEUTRON MATRIX
RMT .C        25                   : MDTP         - TEMPERATURE OF MUD
NEUT.         1                    : NEUTRON      - NEUTRON TYPE
RESI.         0                    : RESIST       - RESISTIVITY TYPE
RMC .OHMM     0.25                 : RMC          - RESISTIVITY OF MUD CAKE
RMF .OHMM     0.25                 : RMF          - RESISTIVITY OF MUD FILTRATE
SUFT.C        15                   : SUFT         - SURFACE TEMPERATURE
~A  DEPTH     PHID     PHIN       GR     RESD     DENS
# ...
  286.000    0.258    0.433   97.145    6.827    0.000
  286.250    0.247    0.415   97.154    6.843    0.000
  286.500    0.243    0.399   93.456    6.851    0.000
  286.750    0.255    0.401   92.845    6.609    0.000
  287.000    0.287    0.402   90.382    6.377    0.000
  287.250    0.227    0.421   81.130    6.151    0.000
  287.500    0.222    0.435   84.841    6.048    0.000
  287.750    0.238    0.407   91.020    6.053    0.000
  288.000    0.231    0.385   97.817    5.950    0.000
  288.250    0.231    0.418   96.590    5.739    0.000
  288.500    0.243    0.439   97.213    5.237    0.000
  288.750    0.234    0.401   94.751    4.865    0.000
  289.000    0.230    0.347   99.080    4.604    0.000
  289.250    0.233    0.331  102.173    4.279    0.000
  289.500    0.234    0.350  102.797    4.049    0.000
  289.750    0.226    0.383  100.334    3.557    0.000
  290.000    0.226    0.353  104.044    3.305    0.000
  290.250    0.232    0.357  107.755    3.070    0.000
  290.500    0.232    0.357  105.292    2.647    0.000
  290.750    0.244    0.411  106.534    2.459    0.000
  291.000    0.264    0.397  110.244    2.242    0.000
  291.250    0.259    0.503  110.868    2.204    0.000
  291.500    0.263    0.581  105.937    2.292    0.000
  291.750    0.260    0.607  102.240    2.475    0.000
  292.000    0.250    0.550  105.951    2.671    0.000
  292.250    0.242    0.465  108.426    2.995    0.000
  292.500    0.244    0.407  110.904    3.296    0.000
  292.750    0.238    0.357  113.377    3.491    0.000
  293.000    0.250    0.365  114.620    3.841    0.000
  293.250    0.243    0.381  110.305    4.305    0.000
  293.500    0.244    0.423  103.522    4.647    0.000
  293.750    0.248    0.424  102.294    5.309    0.000
  294.000    0.233    0.404  102.917    5.623    0.000
  294.250    0.238    0.396  101.073    6.304    0.000
  294.500    0.268    0.418   97.992    6.937    0.000
  294.750    0.264    0.399   97.382    7.210    0.000
  295.000    0.249    0.387   99.242    7.499    0.000
  295.250    0.289    0.301   96.778    7.235    0.000
  295.500    0.331    0.284   85.672    7.380    0.000
  295.750    0.305    0.260   83.210    7.968    0.000
  296.000    0.267    0.414   82.600    8.766    0.000
  296.250    0.267    0.350   78.286   10.206    0.000
  296.500    0.328    0.299   85.701   11.653    0.000
  296.750    0.354    0.218   91.262   13.816    0.000
  297.000    0.372    0.195   93.121   14.369    0.000
  297.250    0.381    0.180   90.041   12.157    0.000
  297.500    0.388    0.186   88.196   10.881    0.000
  297.750    0.352    0.250   91.908   10.297    0.000
  298.000    0.318    0.315   88.826    9.393    0.000
  298.250    0.303    0.413   81.427    9.063    0.000
  298.500    0.255    0.228   82.049    8.903    0.000
  298.750    0.105    0.190   70.945    8.588    0.000
  299.000    0.103    0.180   62.309    8.132    0.000
  299.250    0.266    0.216   58.613    7.417    0.000
  299.500    0.284    0.323   69.114    7.024    0.000
  299.750    0.278    0.385   77.145    6.900    0.000
  300.000    0.298    0.405   85.157    7.410    0.000
  300.250    0.222    0.377   82.652    7.545    0.000
  300.500    0.215    0.381   79.533    7.542    0.000
  300.750    0.253    0.401   78.888    7.260    0.000
  301.000    0.287    0.405   77.009    7.123    0.000
  301.250    0.286    0.381   74.512    6.730    0.000
  301.500    0.290    0.362   80.034    6.603    0.000
  301.750    0.277    0.339   80.621    6.476    0.000
  302.000    0.272    0.345   76.886    6.595    0.000
  302.250    0.264    0.343   80.555    6.592    0.000
  302.500    0.249    0.385   85.464    6.466    0.000
  302.750    0.245    0.388   90.366    6.344    0.000
  303.000    0.254    0.403   89.721    6.108    0.000
  303.250    0.246    0.402   89.076    5.991    0.000
  303.500    0.224    0.421   95.215    5.989    0.000
  303.750    0.232    0.432  101.973    5.873    0.000
  304.000    0.235    0.352  101.324    5.982    0.000
  304.250    0.237    0.329   96.352    6.092    0.000
  304.500    0.243    0.346   95.703    6.321    0.000
  304.750    0.261    0.363   96.907    6.438    0.000
  305.000    0.277    0.410   98.732    6.434    0.000
  305.250    0.296    0.425   96.850    6.311    0.000
  305.500    0.287    0.426   88.182    6.191    0.000
  305.750    0.273    0.399   83.216    5.960    0.000
  306.000    0.278    0.414   84.420    5.957    0.000
  306.250    0.276    0.433   81.920    5.844    0.000
  306.500    0.248    0.406   93.609    5.734    0.000
  306.750    0.237    0.391   97.282    5.624    0.000
  307.000    0.243    0.407   94.167    5.415 2293.690
  307.250    0.224    0.385   99.070    5.312 2327.150
  307.500    0.219    0.334   99.656    5.211 2335.440
  307.750    0.236    0.356   97.777    4.923 2305.980
  308.000    0.242    0.403  101.446    4.740 2295.370
  308.250    0.245    0.393  102.655    4.479 2291.090
  308.500    0.251    0.360  100.774    4.312 2280.510
  308.750    0.239    0.362   97.658    4.151 2301.380
  309.000    0.234    0.380  100.094    4.073 2309.670
  309.250    0.246    0.392  105.614    4.147 2288.600
  309.500    0.262    0.413  106.823    4.303 2261.230
  309.750    0.270    0.466  104.322    4.550 2248.530
  310.000    0.286    0.513   99.353    4.994 2221.160
  310.250    0.290    0.413   93.150    5.379 2214.790
  310.500    0.297    0.346   86.333    5.795 2202.070
  310.750    0.302    0.360   81.986    6.012 2193.590
  311.000    0.295    0.343   78.863    5.789 2206.100
  311.250    0.252    0.305   78.833    5.368 2279.410
  311.500    0.242    0.392   82.509    5.073 2296.090
  311.750    0.273    0.422   91.735    4.884 2243.560
  312.000    0.308    0.495  101.575    4.882 2182.630
  312.250    0.278    0.435  105.251    4.879 2234.970
  312.500    0.275    0.396  104.596    5.158 2239.060
  312.750    0.245    0.365   95.316    5.556 2291.390
  313.000    0.223    0.395   90.344    5.765 2329.040
  313.250    0.215    0.399   94.633    5.656 2341.540
  313.500    0.249    0.364   94.604    5.445 2284.800
  313.750    0.263    0.341   98.897    5.341 2259.540
  314.000    0.275    0.359   95.775    5.338 2240.560
  314.250    0.250    0.368   88.955    5.336 2282.390
  314.500    0.240    0.385   86.458    5.537 2299.080
  314.750    0.271    0.392   83.344    5.854 2246.540
  315.000    0.261    0.337   79.613    6.074 2263.240
  315.250    0.145    0.317   77.727    6.070 2462.390
  315.500    0.183    0.364   74.609    5.955 2397.280
  315.750    0.232    0.352   83.223    5.842 2313.280
  316.000    0.214    0.369   90.595    5.520 2344.640
  316.250    0.208    0.423   93.646    5.315 2355.020
  316.500    0.214    0.453   97.936    5.214 2344.440
  316.750    0.226    0.484   96.672    5.211 2323.340
  317.000    0.231    0.480   94.793    5.407 2314.870
  317.250    0.241    0.476   97.230    5.610 2298.000
  317.500    0.230    0.483   98.434    5.821 2316.770
  317.750    0.230    0.452   96.550    5.928 2316.670
  318.000    0.241    0.382  100.843    5.816 2297.700
  318.250    0.230    0.404  103.896    5.598 2316.440
  318.500    0.223    0.407   98.308    5.492 2328.950
  318.750    0.229    0.357   92.727    5.388 2318.370
  319.000    0.259    0.342   97.003    5.385 2267.900
  319.250    0.270    0.341   98.839    5.382 2248.910
  319.500    0.281    0.329   96.336    5.379 2229.960
  319.750    0.293    0.369   92.606    5.377 2208.900
  320.000    0.302    0.396   87.634    5.275 2194.120
  320.250    0.293    0.410   85.136    5.173 2208.700
  320.500    0.274    0.402   86.952    5.076 2242.140
  320.750    0.275    0.346   86.305    4.886 2239.930
  321.000    0.259    0.331   86.897    4.618 2267.140
  321.250    0.221    0.333   90.571    4.202 2332.050
  321.500    0.220    0.394   99.178    3.898 2334.020
  321.750    0.227    0.442   99.766    3.482 2321.380
  322.000    0.256    0.402   92.327    2.940 2273.030
  322.250    0.302    0.384   97.233    2.677 2193.220
