~VERSION INFORMATION
 VERS.                 2.0:   CWLS LOG ASCII STANDARD -VERSION 2.0
 WRAP.                  NO:   ONE LINE PER DEPTH STEP
~WELL INFORMATION BLOCK
#MNEM.UNIT           DATA                    DESCRIPTION OF MNEMONIC
#---------    -------------------            -------------------------------
# Generated from Intellog Unique Number	CN_91_93/WELL/3184
WELL.         MIAMI OIL PRODUCERS INC.       : Well_name    - WELL
LOC .         00/10-16-092-19W4/0            : Location     - LOCATION
UWI .         00/10-16-092-19W4/0            : Uwi          - UNIQUE WELL ID
ENTR.         JOETTE                         : Entered      - ENTERED BY
SRVC.         SCHLUMBERGER                   : Scn          - SERVICE COMPANY
DATE.         04/12/92                       : Date         - LOG DATE
STRT.F        600                            : top_depth    - START DEPTH
STOP.F        919.882                        : bot_depth    - STOP DEPTH
STEP.F        0.82                           : increment    - STEP LENGTH
 NULL. -999.2500:NULL Value
~CURVE INFORMATION BLOCK
#MNEM UNIT       ERCB CURVE CODE    CURVE DESCRIPTION
#-----------   ------------------   ----------------------------------
DEPT.F        00 001 00 00         : DEPTH        - DEPTH
CALI.IN       00 280 01 00         : CAL          - CALIPER
GR  .API      00 310 00 00         : GR           - GAMMA RAY
NPHI.V/V      00 330 00 00         : PHIN         - NEUTRON POROSITY (SANDSTONE)
DPHI.V/V      00 890 00 00         : PHID         - DENSITY POROSITY (SANDSTONE)
ILD .OHMM     00 120 00 00         : RESD         - DEEP RESISTIVITY (DIL)
~PARAMETER INFORMATION
#MNEM.UNIT           DATA             DESCRIPTION OF MNEMONIC
#---------         -----------     ------------------------------
GL  .F        1727                 : gl           - GROUND LEVEL ELEVATION
EREF.F        1740                 : kb           - ELEVATION OF DEPTH REFERENCE
DATM.F        1740                 : datum        - DATUM ELEVATION
TDD .F        1097                 : tdd          - TOTAL DEPTH DRILLER
RUN .         ONE                  : Run          - RUN NUMBER
ENG .         BILL                 : Engineer     - RECORDING ENGINEER
WIT .         JIM                  : Witness      - WITNESSED BY
MUD .         GEL                  : Mud_type     - MUD TYPE
MATR.         SANDSTONE            : Logunit      - NEUTRON MATRIX
TMAX.F        67                   : BHT          - MAXIMUM RECORDED TEMPERATURE
BHTD.F        1097                 : BHTDEP       - MAXIMUM RECORDED TEMPERATURE
RMT .F        65                   : MDTP         - TEMPERATURE OF MUD
MUDD.LB/G     8.5                  : MWT          - MUD DENSITY
NEUT.         1                    : NEUTRON      - NEUTRON TYPE
RESI.         0                    : RESIST       - RESISTIVITY TYPE
RM  .OHMM     6.7                  : RM           - RESISTIVITY OF MUD
RMC .OHMM     6.7                  : RMC          - RESISTIVITY OF MUD CAKE
RMF .OHMM     6.7                  : RMF          - RESISTIVITY OF MUD FILTRATE
SUFT.F        39.2                 : SUFT         - SURFACE TEMPERATURE
~A  DEPTH      CAL       GR     PHIN     PHID     RESD
# ...
  719.751    6.880  104.233    0.500    0.217   13.903
  720.571    6.918  112.171    0.500    0.195   11.975
  721.391    6.916  120.117    0.492    0.169   11.112
  722.211    6.914  123.134    0.484    0.174    9.752
  723.031    6.994  119.431    0.550    0.160    8.716
  723.852    7.523  113.872    0.565    0.145    8.236
  724.672    7.848  109.556    0.523    0.180    8.228
  725.492    7.273  111.976    0.500    0.205    8.528
  726.312    6.781  113.162    0.481    0.162    9.007
  727.133    6.451  111.290    0.500    0.137    9.690
  727.953    6.571  108.192    0.509    0.131   10.425
  728.773    6.731  104.473    0.520    0.192   11.428
  729.593    6.771  102.601    0.511    0.198   13.487
  730.413    6.809   95.212    0.455    0.206   18.804
  731.234    6.808   81.691    0.325    0.310   24.345
  732.054    6.765   67.558    0.252    0.374   38.638
  732.874    6.599   39.928    0.183    0.395   66.038
  733.694    6.473   28.231    0.175    0.387   92.048
  734.514    6.471   28.190    0.226    0.374   39.982
  735.335    6.510   28.174    0.240    0.355   26.567
  736.155    6.549   29.359    0.287    0.343   25.114
  736.975    6.588   29.335    0.353    0.323   22.446
  737.795    6.586   29.294    0.440    0.308   20.067
  738.615    6.460   27.423    0.436    0.306   18.617
  739.436    6.376   25.551    0.405    0.300   20.780
  740.256    6.332   22.453    0.381    0.291   22.356
  741.076    6.331   21.807    0.369    0.299   23.172
  741.896    6.329   23.614    0.355    0.316   23.155
  742.717    6.327   26.034    0.352    0.331   22.709
  743.537    6.325   27.228    0.359    0.327   24.425
  744.357    6.322   28.405    0.385    0.312   26.769
  745.177    6.278   28.381    0.432    0.299   31.021
  745.997    6.276   28.340    0.443    0.301   47.444
  746.818    6.275   27.703    0.454    0.305   68.626
  747.638    6.271   27.670    0.477    0.303   73.814
  748.458    6.270   28.251    0.483    0.303   73.761
  749.278    6.268   31.276    0.494    0.299   72.339
  750.098    6.265   35.527    0.490    0.291   68.333
  750.919    6.262   36.737    0.483    0.284   68.285
  751.739    6.261   37.922    0.481    0.284   68.236
  752.559    6.258   38.503    0.488    0.289   72.031
  753.379    6.257   38.462    0.499    0.301   74.712
  754.199    6.254   38.438    0.535    0.290   81.881
  755.020    6.252   37.792    0.556    0.284   88.071
  755.840    6.249   35.921    0.560    0.273   93.013
  756.660    6.248   34.662    0.563    0.279   98.232
  757.480    6.286   33.403    0.573    0.305  103.720
  758.301    6.284   32.750    0.596    0.312  111.560
  759.121    6.282   32.104    0.599    0.304  111.481
  759.941    6.320   32.685    0.597    0.308  111.375
  760.761    6.318   33.870    0.608    0.304  113.295
  761.581    6.316   35.064    0.622    0.301  111.137
  762.402    6.314   35.039    0.616    0.317  106.995
  763.222    6.352   32.547    0.606    0.318   99.263
  764.042    6.432   34.345    0.597    0.312   88.742
  764.862    6.511   37.999    0.602    0.279   61.206
  765.682    6.550   42.259    0.567    0.264   57.858
  766.503    6.547   46.518    0.539    0.243   50.764
  767.323    6.586   45.872    0.553    0.243   54.615
  768.143    6.584   43.379    0.582    0.262   59.855
  768.963    6.582   40.273    0.600    0.270   68.073
  769.783    6.621   38.418    0.615    0.283   98.441
  770.604    6.618   35.925    0.615    0.295  102.106
  771.424    6.575   34.666    0.611    0.296  116.125
  772.244    6.573   38.917    0.598    0.285  134.505
  773.064    6.530   41.337    0.542    0.272  134.346
  773.885    6.486   43.144    0.512    0.271  131.787
  774.705    6.524   43.724    0.493    0.276  124.519
  775.525    6.523   44.918    0.540    0.262  119.906
  776.345    6.521   47.338    0.508    0.240  115.410
  777.165    6.519   44.845    0.496    0.245  117.428
  777.986    6.516   42.360    0.498    0.222  121.771
  778.806    6.555   41.101    0.461    0.204  130.945
  779.626    6.553   44.748    0.445    0.178  133.328
  780.446    6.590   47.175    0.463    0.194  130.727
  781.266    6.630   49.595    0.480    0.240  121.251
  782.087    6.668   52.007    0.481    0.229  106.436
  782.907    6.667   54.419    0.475    0.229   76.197
  783.727    6.705   55.629    0.461    0.237   51.590
  784.547    6.703   60.493    0.470    0.286   36.247
  785.367    6.742   67.204    0.477    0.327   30.661
  786.188    6.903   73.924    0.506    0.314   26.902
  787.008    7.064   82.467    0.576    0.245   25.424
  787.828    7.061   83.047    0.484    0.152   24.465
  788.648    6.896   84.846    0.395    0.135   24.005
  789.469    6.812   88.500    0.399    0.136   22.681
  790.289    6.769  108.700    0.428    0.151   20.272
  791.109    6.766  114.185    0.585    0.162   18.128
  791.929    6.764  110.474    0.584    0.203   13.969
  792.749    6.966  104.924    0.570    0.246   12.491
  793.570    6.841   98.139    0.532    0.211   13.438
  794.390    6.676   93.210    0.372    0.177   24.274
  795.210    6.551   89.491    0.287    0.214   28.130
  796.030    6.467   85.167    0.249    0.222   34.451
  796.850    6.424   77.164    0.241    0.268   48.929
  797.671    6.380   71.614    0.268    0.338   56.687
  798.491    6.542   68.508    0.323    0.341   70.723
  799.311    6.540   69.701    0.491    0.328   85.028
  800.131    6.496   69.056    0.524    0.300   80.338
  800.951    6.454   64.119    0.542    0.293   67.926
  801.772    6.410   51.816    0.507    0.269   61.847
  802.592    6.368   46.266    0.483    0.280   61.817
  803.412    6.323   41.934    0.476    0.277   60.611
  804.232    6.322   40.062    0.469    0.271   60.568
  805.052    6.320   40.038    0.472    0.266   60.482
  805.873    6.317   41.836    0.478    0.273   59.302
  806.693    6.316   44.861    0.470    0.268   58.186
  807.513    6.313   47.894    0.459    0.261   56.018
  808.333    6.311   51.548    0.454    0.249   51.004
  809.154    6.267   55.194    0.444    0.244   45.587
  809.974    6.265   55.775    0.430    0.258   41.517
  810.794    6.263   57.566    0.430    0.252   37.108
  811.614    6.220   58.767    0.429    0.246   33.786
  812.434    6.217   61.187    0.422    0.239   32.543
  813.255    6.216   64.228    0.428    0.234   28.546
  814.075    6.172   67.866    0.455    0.241   26.985
  814.895    6.129   64.147    0.462    0.236   25.035
  815.715    6.086   67.793    0.428    0.224   23.225
  816.535    6.043   68.374    0.401    0.207   21.547
  817.356    5.999   65.284    0.437    0.215   21.929
  818.176    5.957   60.960    0.463    0.252   24.934
  818.996    5.954   49.884    0.462    0.302   27.837
  819.816    5.952   43.107    0.431    0.309   32.258
  820.636    5.950   39.388    0.425    0.296   46.671
  821.457    5.948   39.364    0.441    0.289   59.301
  822.277    5.986   38.097    0.432    0.272   61.465
  823.097    6.025   38.064    0.430    0.288   59.188
  823.917    6.105   36.798    0.447    0.296   56.969
  824.738    6.266   34.313    0.452    0.282   56.901
  825.558    6.468   32.441    0.457    0.266   57.923
  826.378    6.302   31.795    0.492    0.265   57.923
  827.198    6.218   32.384    0.500    0.277   63.376
  828.018    6.134   35.417    0.475    0.300   63.361
  828.839    6.091   38.442    0.450    0.311   65.689
  829.659    6.048   39.014    0.444    0.312   63.211
  830.479    6.046   38.990    0.454    0.301   60.855
  831.299    6.003   38.344    0.475    0.293   61.948
  832.119    6.000   37.086    0.472    0.298   66.647
  832.940    5.998   35.214    0.474    0.291   70.370
  833.760    5.995   33.955    0.477    0.282   72.955
  834.580    5.953   36.367    0.471    0.282   67.683
  835.400    5.951   38.174    0.459    0.287   61.640
  836.220    5.949   37.528    0.462    0.299   57.185
  837.041    5.987   35.044    0.461    0.303   57.131
  837.861    6.066   33.164    0.436    0.297   58.116
  838.681    6.064   31.905    0.436    0.278   58.088
