~VERSION INFORMATION
 VERS.                 2.0:   CWLS LOG ASCII STANDARD -VERSION 2.0
 WRAP.                  NO:   ONE LINE PER DEPTH STEP
~WELL INFORMATION BLOCK
#MNEM.UNIT           DATA                    DESCRIPTION OF MNEMONIC
#---------    -------------------            -------------------------------
# Generated from Intellog Unique Number	CW_76_78/WELL/2576
WELL.         10-19-078-24W4                 : Well_name    - WELL
LOC .         00/10-19-078-24W4/0            : Location     - LOCATION
UWI .         00/10-19-078-24W4/0            : Uwi          - UNIQUE WELL ID
ENTR.         MAX                            : Entered      - ENTERED BY
SRVC.         SCHLUMBERGER                   : Scn          - SERVICE COMPANY
STRT.M        274.32                         : top_depth    - START DEPTH
STOP.M        518.07                         : bot_depth    - STOP DEPTH
STEP.M        0.25                           : increment    - STEP LENGTH
 NULL. -999.2500:NULL Value
~CURVE INFORMATION BLOCK
#MNEM UNIT       ERCB CURVE CODE    CURVE DESCRIPTION
#-----------   ------------------   ----------------------------------
DEPT.M        00 001 00 00         : DEPTH        - DEPTH
ILD .OHMM     00 120 00 00         : RESD         - DEEP RESISTIVITY (DIL)
NPHI.V/V      00 330 00 00         : PHIN         - NEUTRON POROSITY (SANDSTONE)
DPHI.V/V      00 890 00 00         : PHID         - DENSITY POROSITY (SANDSTONE)
CALI.MM       00 280 01 00         : CAL          - CALIPER
GR  .API      00 310 00 00         : GR           - GAMMA RAY
~PARAMETER INFORMATION
#MNEM.UNIT           DATA             DESCRIPTION OF MNEMONIC
#---------         -----------     ------------------------------
GL  .M        592.531              : gl           - GROUND LEVEL ELEVATION
EREF.M        596.494              : kb           - ELEVATION OF DEPTH REFERENCE
DATM.M        592.531              : datum        - DATUM ELEVATION
TDD .M        537.667              : tdd          - TOTAL DEPTH DRILLER
RUN .         ONE                  : Run          - RUN NUMBER
ENG .         BILL                 : Engineer     - RECORDING ENGINEER
WIT .         JIM                  : Witness      - WITNESSED BY
MUD .         GEL                  : Mud_type     - MUD TYPE
MATR.         SANDSTONE            : Logunit      - NEUTRON MATRIX
TMAX.C        25.5556              : BHT          - MAXIMUM RECORDED TEMPERATURE
BHTD.M        537.667              : BHTDEP       - MAXIMUM RECORDED TEMPERATURE
RMT .C        14.4444              : MDTP         - TEMPERATURE OF MUD
MUDD.KG/M     9800                 : MWT          - MUD DENSITY
NEUT.         1                    : NEUTRON      - NEUTRON TYPE
RESI.         0                    : RESIST       - RESISTIVITY TYPE
RM  .OHMM     6.42                 : RM           - RESISTIVITY OF MUD
RMC .OHMM     6.05                 : RMC          - RESISTIVITY OF MUD CAKE
RMF .OHMM     7.72                 : RMF          - RESISTIVITY OF MUD FILTRATE
SUFT.C        -6.66667             : SUFT         - SURFACE TEMPERATURE
~A  DEPTH     RESD     PHIN     PHID      CAL       GR
  274.320    2.842    0.592    0.236  210.228   92.740
  274.570    2.868    0.585    0.238  210.295   92.482
  274.820    2.867    0.595    0.238  210.849   95.162
  275.070    2.867    0.601    0.244  211.411   96.367
  275.320    2.867    0.602    0.244  213.953   95.520
  275.570    2.867    0.600    0.241  214.996   92.049
  275.820    2.867    0.598    0.244  214.574   89.744
  276.070    2.866    0.599    0.244  214.138   89.491
  276.320    2.892    0.598    0.239  213.687   89.810
  276.570    2.944    0.594    0.232  212.275   88.692
  276.820    3.023    0.588    0.245  210.360   87.256
  277.070    3.133    0.582    0.248  208.933   84.946
  277.320    3.189    0.583    0.244  208.977   81.764
  277.570    3.133    0.596    0.225  208.548   77.996
  277.820    2.891    0.602    0.214  207.624   73.068
  278.070    2.644    0.597    0.234  206.693   73.391
  278.320    2.333    0.594    0.241  205.258   74.595
  278.570    2.172    0.580    0.249  204.837   73.465
  278.820    2.114    0.587    0.284  213.308   72.329
  279.070    2.133    0.607    0.315  226.754   70.609
  279.320    2.505    0.610    0.313  222.348   68.012
  279.570    3.103    0.597    0.296  222.415   65.707
  279.820    4.435    0.553    0.286  217.026   65.449
  280.070    6.170    0.461    0.270  209.656   66.366
  280.320    7.782    0.480    0.259  205.265   60.843
  280.570   13.779    0.477    0.269  204.333   56.783
  280.820   16.619    0.468    0.289  204.887   54.483
  281.070   19.170    0.463    0.288  205.442   55.395
  281.320   19.865    0.479    0.289  205.501   59.232
  281.570   20.222    0.497    0.295  205.559   59.856
  281.820   20.220    0.508    0.292  205.131   58.721
  282.070   20.219    0.504    0.291  205.197   56.412
  282.320   20.953    0.485    0.308  205.256   53.229
  282.570   22.503    0.502    0.307  205.315   50.929
  282.820   25.956    0.494    0.308  205.381   49.213
  283.070   28.378    0.483    0.313  205.433   48.370
  283.320   30.750    0.480    0.310  205.499   48.108
  283.570   32.731    0.480    0.312  205.551   49.318
  283.820   34.529    0.483    0.308  204.634   49.937
  284.070   35.782    0.489    0.310  204.693   47.934
  284.320   37.081    0.498    0.318  204.249   46.502
  284.570   38.771    0.502    0.318  205.321   45.956
  284.820   40.538    0.499    0.315  205.868   45.986
  285.070   43.149    0.471    0.317  206.422   45.733
  285.320   45.116    0.486    0.316  206.489   45.187
  285.570   45.518    0.472    0.311  206.540   45.519
  285.820   43.918    0.456    0.303  206.607   46.431
  286.070   40.888    0.458    0.302  205.675   47.627
  286.320   37.061    0.488    0.307  205.239   48.836
  286.570   30.998    0.493    0.318  204.315   48.871
  286.820   28.096    0.510    0.327  204.374   48.906
  287.070   22.676    0.526    0.323  205.430   49.238
  287.320   20.553    0.524    0.296  204.987   51.612
  287.570   20.553    0.518    0.293  204.063   51.647
  287.820   19.829    0.508    0.301  204.122   49.931
  288.070   18.962    0.504    0.320  204.188   51.726
  288.320   19.303    0.495    0.324  204.247   52.350
  288.570   19.474    0.489    0.310  203.811   51.498
  288.820   19.128    0.496    0.296  202.872   50.961
  289.070   18.788    0.489    0.286  201.962   51.280
  289.320   18.956    0.465    0.274  202.007   51.319
  289.570   23.907    0.448    0.254  203.551   50.184
  289.820   27.823    0.443    0.249  205.614   48.172
  290.070   28.833    0.462    0.261  206.153   47.914
  290.320   22.858    0.477    0.280  206.707   50.001
  290.570   19.119    0.480    0.289  206.278   52.087
  290.820   15.569    0.479    0.294  206.352   53.292
  291.070   12.565    0.483    0.295  205.901   54.492
  291.320   11.088    0.470    0.301  205.968   56.588
  291.570    9.029    0.462    0.300  206.529   58.958
  291.820    8.111    0.459    0.287  206.581   60.752
  292.070    8.111    0.465    0.271  207.135   60.791
  292.320    7.756    0.464    0.273  207.704   59.355
  292.570    7.550    0.448    0.271  207.756   54.710
  292.820    8.037    0.402    0.268  208.813   45.970
  293.070   11.485    0.358    0.268  209.359   37.523
  293.320   14.485    0.322    0.263  209.921   33.463
  293.570   16.122    0.300    0.228  209.492   34.672
  293.820   18.267    0.317    0.211  209.056   38.509
  294.070   19.100    0.343    0.225  207.149   42.643
  294.320   19.099    0.387    0.253  206.202   44.145
  294.570   17.466    0.460    0.286  209.736   44.180
  294.820   14.609    0.457    0.312  208.804   43.049
  295.070   13.601    0.453    0.313  206.889   41.320
  295.320   13.479    0.432    0.308  205.462   41.067
  295.570   13.721    0.429    0.306  205.019   41.979
  295.820   14.347    0.432    0.301  206.076   42.599
  296.070   15.135    0.441    0.292  207.620   40.591
  296.320   15.684    0.441    0.288  207.679   38.286
  296.570   15.684    0.444    0.283  207.251   38.028
  296.820   15.964    0.449    0.283  206.319   41.573
  297.070   15.963    0.451    0.281  205.883   45.414
  297.320   15.963    0.444    0.276  206.444   45.449
  297.570   15.961    0.438    0.277  206.511   44.611
  297.820   15.818    0.434    0.280  206.562   44.943
  298.070   15.817    0.430    0.283  206.629   46.147
  298.320   15.536    0.427    0.286  206.688   47.645
  298.570   15.124    0.436    0.284  206.251   49.727
  298.820   14.593    0.448    0.296  205.320   52.394
  299.070   13.954    0.465    0.304  203.893   55.070
  299.320   13.226    0.471    0.306  202.466   55.982
  299.570   12.313    0.469    0.301  201.542   61.574
  299.820   10.207    0.471    0.297  201.601   61.902
  300.070    8.614    0.447    0.288  201.675   62.818
  300.320    8.020    0.437    0.281  201.741   64.608
  300.570    7.204    0.498    0.285  201.297   67.280
  300.820    6.707    0.507    0.268  201.364   66.433
  301.070    6.414    0.470    0.271  201.423   66.777
  301.320    6.357    0.449    0.261  201.970   70.016
  301.570    6.413    0.453    0.250  205.008   76.198
  301.820    6.766    0.449    0.252  208.526   81.205
  302.070    7.011    0.443    0.250  214.543   85.636
  302.320    7.011    0.433    0.271  226.992   83.916
  302.570    7.136    0.423    0.255  228.529   80.144
  302.820    7.395    0.411    0.248  231.064   77.546
  303.070    7.528    0.405    0.244  222.711   77.878
  303.320    7.595    0.414    0.245  222.777   77.625
  303.570    7.801    0.427    0.247  225.801   75.315
  303.820    7.941    0.441    0.261  230.812   69.797
  304.070    8.229    0.444    0.275  229.896   67.200
  304.320    8.759    0.432    0.311  225.992   67.527
  304.570    9.240    0.428    0.282  219.110   70.779
  304.820    9.662    0.423    0.276  207.785   77.253
  305.070    9.747    0.413    0.249  203.394   83.138
  305.320    9.660    0.418    0.231  202.943   87.564
  305.570    8.994    0.430    0.223  204.503   92.576
  305.820    8.299    0.448    0.228  206.047   92.611
  306.070    7.657    0.446    0.233  207.097   96.159
  306.320    6.697    0.448    0.229  208.649   96.482
  306.570    6.070    0.462    0.229  209.691   96.225
  306.820    5.651    0.461    0.221  209.758   96.556
  307.070    5.453    0.463    0.218  208.323   96.596
  307.320    5.501    0.467    0.208  207.902   95.164
  307.570    5.650    0.442    0.214  208.449   91.396
  307.820    6.014    0.424    0.221  211.989   87.341
  308.070    6.402    0.435    0.216  213.542   87.668
  308.320    6.401    0.467    0.207  213.586   90.335
  308.570    6.176    0.490    0.206  213.157   94.766
  308.820    5.854    0.515    0.206  214.221   95.971
  309.070    5.401    0.531    0.209  213.297   98.346
  309.320    4.809    0.580    0.212  211.848   98.092
  309.570    3.712    0.584    0.205  209.933   99.297
  309.820    3.549    0.570    0.198  208.521   99.917
  310.070    3.486    0.542    0.241  208.566   96.145
  310.320    4.765    0.507    0.246  208.137   91.207
  310.570    5.072    0.491    0.266  207.708   86.563
