~VERSION INFORMATION
 VERS.                 2.0:   CWLS LOG ASCII STANDARD -VERSION 2.0
 WRAP.                  NO:   ONE LINE PER DEPTH STEP
~WELL INFORMATION BLOCK
#MNEM.UNIT           DATA                    DESCRIPTION OF MNEMONIC
#---------    -------------------            -------------------------------
# Generated from Intellog Unique Number	CS_71_72/WELL/871
WELL.         PACIFIC PHILLIPS AEC WIAU      : Well_name    - WELL
LOC .         00/10-25-072-09W4/0            : Location     - LOCATION
UWI .         00/10-25-072-09W4/0            : Uwi          - UNIQUE WELL ID
ENTR.         SP                             : Entered      - ENTERED BY
SRVC.         SCHLUMBERGER                   : Scn          - SERVICE COMPANY
STRT.M        315                            : top_depth    - START DEPTH
STOP.M        520                            : bot_depth    - STOP DEPTH
STEP.M        0.25                           : increment    - STEP LENGTH
 NULL. -999.2500:NULL Value
~CURVE INFORMATION BLOCK
#MNEM UNIT       ERCB CURVE CODE    CURVE DESCRIPTION
#-----------   ------------------   ----------------------------------
DEPT.M        00 001 00 00         : DEPTH        - DEPTH
GR  .API      00 310 00 00         : GR           - GAMMA RAY
NPHI.V/V      00 330 00 00         : PHIN         - NEUTRON POROSITY (LIMESTONE)
DPHI.V/V      00 890 00 00         : PHID         - DENSITY POROSITY (LIMESTONE)
ILD .OHMM     00 120 00 00         : RESD         - DEEP RESISTIVITY (DIL)
~PARAMETER INFORMATION
#MNEM.UNIT           DATA             DESCRIPTION OF MNEMONIC
#---------         -----------     ------------------------------
GL  .M        682.3                : gl           - GROUND LEVEL ELEVATION
EREF.M        685.3                : kb           - ELEVATION OF DEPTH REFERENCE
DATM.M        682.3                : datum        - DATUM ELEVATION
TDD .M        530                  : tdd          - TOTAL DEPTH DRILLER
RUN .         ONE                  : Run          - RUN NUMBER
ENG .         BILL                 : Engineer     - RECORDING ENGINEER
WIT .         JIM                  : Witness      - WITNESSED BY
MUD .         GEL                  : Mud_type     - MUD TYPE
MATR.         LIMESTONE            : Logunit      - NEUTRON MATRIX
TMAX.C        16                   : BHT          - MAXIMUM RECORDED TEMPERATURE
BHTD.M        530                  : BHTDEP       - MAXIMUM RECORDED TEMPERATURE
MATR.         1                    : LOGUNIT      - NEUTRON MATRIX
RMT .C        25                   : MDTP         - TEMPERATURE OF MUD
NEUT.         1                    : NEUTRON      - NEUTRON TYPE
RESI.         0                    : RESIST       - RESISTIVITY TYPE
RMC .OHMM     0.25                 : RMC          - RESISTIVITY OF MUD CAKE
RMF .OHMM     0.25                 : RMF          - RESISTIVITY OF MUD FILTRATE
SUFT.C        15                   : SUFT         - SURFACE TEMPERATURE
~A  DEPTH       GR     PHIN     PHID     RESD
  315.000   84.941    0.553    0.263    2.669
  315.250   84.340    0.564    0.256    2.670
  315.500   84.944    0.569    0.246    2.622
  315.750   84.343    0.579    0.229    2.672
  316.000   83.139    0.571    0.227    2.674
  316.250   85.551    0.560    0.237    2.725
  316.500   87.359    0.542    0.243    2.777
  316.750   88.565    0.523    0.227    2.883
  317.000   88.567    0.505    0.215    2.938
  317.250   86.762    0.485    0.204    3.050
  317.500   85.558    0.476    0.190    3.226
  317.750   83.150    0.478    0.177    3.413
  318.000   83.754    0.490    0.198    3.478
  318.250   89.779    0.513    0.211    3.544
  318.500   92.792    0.528    0.209    3.293
  318.750   87.975    0.542    0.202    3.116
  319.000   85.567    0.514    0.204    3.060
  319.250   85.568    0.518    0.216    3.061
  319.500   87.979    0.538    0.220    3.178
  319.750   89.186    0.547    0.226    3.362
  320.000   87.983    0.546    0.220    3.556
  320.250   86.779    0.536    0.212    3.691
  320.500   86.178    0.531    0.209    3.762
  320.750   85.577    0.513    0.211    3.763
  321.000   84.976    0.502    0.208    3.696
  321.250   84.978    0.491    0.211    3.563
  321.500   84.979    0.493    0.218    3.500
  321.750   85.583    0.499    0.217    3.501
  322.000   84.982    0.503    0.204    3.502
  322.250   82.574    0.521    0.196    3.636
  322.500   81.370    0.537    0.209    3.991
  322.750   79.564    0.546    0.232    4.545
  323.000   78.361    0.514    0.246    5.680
  323.250   78.363    0.449    0.247    6.838
  323.500   78.966    0.420    0.237    8.233
  323.750   78.365    0.433    0.240    9.731
  324.000   68.126    0.447    0.281   11.501
  324.250   54.272    0.462    0.332   13.593
  324.500   47.647    0.327    0.387   16.673
  324.750   43.431    0.278    0.354   20.449
  325.000   46.445    0.245    0.330   24.166
  325.250   44.639    0.221    0.333   30.759
  325.500   42.833    0.203    0.357   36.354
  325.750   42.835    0.185    0.371   40.646
  326.000   44.041    0.211    0.352   42.985
  326.250   47.055    0.239    0.328   42.219
  326.500   51.274    0.259    0.311   39.962
  326.750   53.082    0.272    0.301   38.521
  327.000   54.890    0.262    0.287   37.827
  327.250   56.096    0.256    0.270   38.554
  327.500   57.905    0.245    0.251   40.027
  327.750   62.124    0.256    0.290   40.046
  328.000   65.137    0.287    0.342   37.896
  328.250   66.343    0.326    0.325   32.699
  328.500   63.935    0.366    0.309   29.269
  328.750   62.732    0.393    0.294   23.887
  329.000   66.348    0.396    0.284   19.857
  329.250   70.566    0.393    0.256   17.775
  329.500   77.797    0.402    0.226   15.621
  329.750   81.413    0.412    0.212   14.245
  330.000   83.824    0.421    0.223   12.067
  330.250   86.838    0.431    0.203   11.849
  330.500   87.441    0.443    0.202   10.807
  330.750   87.443    0.419    0.221   10.612
  331.000   82.625    0.397    0.239   11.018
  331.250   77.205    0.384    0.262   11.438
  331.500   75.399    0.392    0.257   12.327
  331.750   77.208    0.398    0.249   12.797
  332.000   78.414    0.389    0.229   13.040
  332.250   76.006    0.378    0.214   13.288
  332.500   72.995    0.363    0.249   14.318
  332.750   65.768    0.348    0.280   16.311
  333.000   61.552    0.326    0.299   17.572
  333.250   59.746    0.320    0.304   19.283
  333.500   59.145    0.304    0.308   20.772
  333.750   49.508    0.331    0.327   23.659
  334.000   40.474    0.346    0.346   27.453
  334.250   35.656    0.348    0.345   29.030
  334.500   43.488    0.343    0.333   22.829
  334.750   54.334    0.328    0.311   13.852
  335.000   59.154    0.340    0.305    8.886
  335.250   69.397    0.577    0.338    6.369
  335.500   75.422    0.610    0.361    4.566
  335.750   79.640    0.507    0.321    4.484
  336.000   73.618    0.419    0.272    5.500
  336.250   54.945    0.386    0.226    6.872
  336.500   43.500    0.334    0.255    8.746
  336.750   33.863    0.323    0.280   11.340
  337.000   29.648    0.328    0.317   15.259
  337.250   27.842    0.369    0.310   18.713
  337.500   28.446    0.389    0.293   20.924
  337.750   31.460    0.380    0.280   21.324
  338.000   33.269    0.375    0.273   20.181
  338.250   33.872    0.385    0.263   18.068
  338.500   32.669    0.396    0.257   17.420
  338.750   29.055    0.385    0.267   17.106
  339.000   27.249    0.374    0.280   17.436
  339.250   26.649    0.386    0.271   17.768
  339.500   27.855    0.389    0.276   18.449
  339.750   28.459    0.381    0.281   18.800
  340.000   27.858    0.375    0.290   19.517
  340.250   27.257    0.369    0.297   19.890
  340.500   26.054    0.364    0.300   20.273
  340.750   24.851    0.358    0.302   20.280
  341.000   24.852    0.357    0.286   20.672
  341.250   24.853    0.372    0.279   20.303
  341.500   26.060    0.372    0.275   20.310
  341.750   26.663    0.368    0.276   20.318
  342.000   27.870    0.367    0.297   19.958
  342.250   29.678    0.369    0.300   19.597
  342.500   33.897    0.399    0.275   18.207
  342.750   41.127    0.443    0.251   16.606
  343.000   49.563    0.455    0.221   15.713
  343.250   62.215    0.461    0.198   14.870
  343.500   75.469    0.465    0.234   14.075
  343.750   79.688    0.475    0.264   14.079
  344.000   80.894    0.485    0.222   14.086
  344.250   81.498    0.477    0.224   13.088
  344.500   86.319    0.462    0.205   12.615
  344.750   89.935    0.456    0.193   11.295
  345.000   92.948    0.454    0.163   10.492
  345.250   94.757    0.457    0.165    9.395
  345.500   97.771    0.469    0.175    8.890
  345.750   98.977    0.483    0.187    7.960
  346.000  100.183    0.468    0.177    7.672
  346.250   95.365    0.471    0.166    6.744
  346.500   92.354    0.494    0.164    6.381
  346.750   92.356    0.518    0.175    5.713
  347.000   94.165    0.525    0.181    5.308
  347.250   97.781    0.544    0.198    5.212
  347.500   99.589    0.554    0.205    5.215
  347.750  100.193    0.527    0.192    5.831
  348.000   94.170    0.509    0.213    6.400
  348.250   84.533    0.489    0.244    6.767
  348.500   72.487    0.467    0.279    8.149
  348.750   68.873    0.448    0.302    8.942
  349.000   67.068    0.444    0.308   10.968
  349.250   63.455    0.459    0.306   12.724
  349.500   60.444    0.465    0.298   14.493
  349.750   69.482    0.457    0.285   15.048
  350.000   72.495    0.438    0.273   14.505
  350.250   77.316    0.453    0.259   13.983
  350.500   80.932    0.460    0.244   12.520
  350.750   79.729    0.445    0.235   11.208
  351.000   79.128    0.439    0.242    9.851
  351.250   80.937    0.428    0.213    8.657
  351.500   82.746    0.434    0.184    7.894
  351.750   83.952    0.444    0.166    7.067
  352.000   85.158    0.462    0.172    6.445
  352.250   83.352    0.477    0.180    5.770
  352.500   78.534    0.471    0.174    5.460
  352.750   73.114    0.471    0.168    5.993
  353.000   69.501    0.478    0.191    7.352
  353.250   67.695    0.439    0.210    8.068
  353.500   67.095    0.421    0.203    8.531
  353.750   67.096    0.408    0.224    9.023
  354.000   68.904    0.395    0.233    9.027
  354.250   71.316    0.407    0.215    8.703
  354.500   71.919    0.416    0.205    8.238
  354.750   69.511    0.431    0.210    8.241
  355.000   67.705    0.442    0.197    8.244
  355.250   69.514    0.428    0.192    8.402
  355.500   70.720    0.416    0.201    8.723
  355.750   70.722    0.401    0.212    8.890
  356.000   67.711    0.387    0.217    9.229
  356.250   64.701    0.405    0.234    9.406
  356.500   63.497    0.421    0.227    9.586
  356.750   62.896    0.428    0.221    9.951
  357.000   61.693    0.407    0.218   10.525
  357.250   59.887    0.404    0.251   11.343
  357.500   55.069    0.410    0.262   11.557
  357.750   49.650    0.419    0.254   12.924
  358.000   48.446    0.404    0.258   13.441
  358.250   44.833    0.398    0.280   14.724
