~VERSION INFORMATION
 VERS.                 2.0:   CWLS LOG ASCII STANDARD -VERSION 2.0
 WRAP.                  NO:   ONE LINE PER DEPTH STEP
~WELL INFORMATION BLOCK
#MNEM.UNIT           DATA                    DESCRIPTION OF MNEMONIC
#---------    -------------------            -------------------------------
# Generated from Intellog Unique Number	CS_73_76/WELL/3251
WELL.         10-32-076-08W4                 : Well_name    - WELL
LOC .         00/10-32-076-08W4/0            : Location     - LOCATION
UWI .         00/10-32-076-08W4/0            : Uwi          - UNIQUE WELL ID
ENTR.         SP                             : Entered      - ENTERED BY
SRVC.         SCHLUMBERGER                   : Scn          - SERVICE COMPANY
STRT.M        198.12                         : top_depth    - START DEPTH
STOP.M        426.37                         : bot_depth    - STOP DEPTH
STEP.M        0.25                           : increment    - STEP LENGTH
 NULL. -999.2500:NULL Value
~CURVE INFORMATION BLOCK
#MNEM UNIT       ERCB CURVE CODE    CURVE DESCRIPTION
#-----------   ------------------   ----------------------------------
DEPT.M        00 001 00 00         : DEPTH        - DEPTH
GR  .API      00 310 00 00         : GR           - GAMMA RAY
DPHI.V/V      00 890 00 00         : PHID         - DENSITY POROSITY (SANDSTONE)
NPHI.V/V      00 330 00 00         : PHIN         - NEUTRON POROSITY (SANDSTONE)
ILD .OHMM     00 120 00 00         : RESD         - DEEP RESISTIVITY (DIL)
~PARAMETER INFORMATION
#MNEM.UNIT           DATA             DESCRIPTION OF MNEMONIC
#---------         -----------     ------------------------------
GL  .M        615.696              : gl           - GROUND LEVEL ELEVATION
EREF.M        618.134              : kb           - ELEVATION OF DEPTH REFERENCE
DATM.M        615.696              : datum        - DATUM ELEVATION
TDD .M        426.72               : tdd          - TOTAL DEPTH DRILLER
RUN .         ONE                  : Run          - RUN NUMBER
ENG .         BILL                 : Engineer     - RECORDING ENGINEER
WIT .         JIM                  : Witness      - WITNESSED BY
MUD .         GEL                  : Mud_type     - MUD TYPE
MATR.         SANDSTONE            : Logunit      - NEUTRON MATRIX
TMAX.C        13.3333              : BHT          - MAXIMUM RECORDED TEMPERATURE
BHTD.M        426.72               : BHTDEP       - MAXIMUM RECORDED TEMPERATURE
MATR.         1                    : LOGUNIT      - NEUTRON MATRIX
RMT .C        25                   : MDTP         - TEMPERATURE OF MUD
NEUT.         1                    : NEUTRON      - NEUTRON TYPE
RESI.         0                    : RESIST       - RESISTIVITY TYPE
RMC .OHMM     0.25                 : RMC          - RESISTIVITY OF MUD CAKE
RMF .OHMM     0.25                 : RMF          - RESISTIVITY OF MUD FILTRATE
SUFT.C        15                   : SUFT         - SURFACE TEMPERATURE
~A  DEPTH       GR     PHID     PHIN     RESD
# ...
  285.120   98.016    0.261    0.533    4.130
  285.370   97.395    0.262    0.543    4.729
  285.620   93.719    0.258    0.517    5.068
  285.870   91.767    0.265    0.528    5.228
  286.120   91.520    0.275    0.547    5.348
  286.370   92.807    0.270    0.549    4.868
  286.620   94.582    0.282    0.535    4.664
  286.870   97.942    0.288    0.518    4.303
  287.120  102.583    0.276    0.512    3.862
  287.370  108.104    0.257    0.517    3.560
  287.620  113.294    0.246    0.533    3.429
  287.870  115.482    0.238    0.547    3.277
  288.120  117.403    0.239    0.552    3.308
  288.370  118.578    0.241    0.559    3.335
  288.620  118.250    0.244    0.551    3.337
  288.870  113.776    0.249    0.538    3.336
  289.120  110.758    0.249    0.527    3.334
  289.370  112.750    0.249    0.532    3.280
  289.620  113.933    0.251    0.559    3.189
  289.870  114.296    0.257    0.573    3.222
  290.120  114.287    0.269    0.581    3.431
  290.370  116.799    0.278    0.585    4.002
  290.620  116.087    0.276    0.581    4.625
  290.870  111.636    0.277    0.560    5.099
  291.120  101.574    0.276    0.502    5.641
  291.370   96.347    0.275    0.474    5.523
  291.620   97.633    0.262    0.464    5.082
  291.870   99.133    0.235    0.474    4.904
  292.120  100.641    0.220    0.500    4.817
  292.370  101.346    0.245    0.514    4.931
  292.620  101.953    0.236    0.516    4.924
  292.870  102.847    0.223    0.498    4.697
  293.120  104.641    0.234    0.479    4.161
  293.370  106.559    0.225    0.487    3.958
  293.620  107.544    0.246    0.514    3.570
  293.870  107.607    0.261    0.530    3.327
  294.120  106.627    0.261    0.560    3.223
  294.370  106.452    0.264    0.579    3.918
  294.620  108.446    0.277    0.602    4.878
  294.870  105.660    0.285    0.604    6.148
  295.120   96.612    0.280    0.559    6.705
  295.370   89.852    0.289    0.525    7.434
  295.620   88.452    0.278    0.506    8.012
  295.870   86.822    0.281    0.497    8.434
  296.120   83.073    0.296    0.507    8.243
  296.370   86.234    0.303    0.516    8.057
  296.620   87.560    0.298    0.504    7.781
  296.870   85.946    0.298    0.489    7.402
  297.120   86.573    0.308    0.482    7.322
  297.370   87.455    0.310    0.484    7.274
  297.620   89.911    0.305    0.506    7.149
  297.870   92.172    0.290    0.517    7.157
  298.120   93.733    0.281    0.509    7.016
  298.370   95.801    0.267    0.492    7.146
  298.620   96.688    0.261    0.486    7.091
  298.870   97.610    0.252    0.512    7.018
  299.120   96.603    0.243    0.499    7.018
  299.370   95.806    0.256    0.489    7.020
  299.620   95.263    0.268    0.490    7.023
  299.870   92.421    0.267    0.502    7.025
  300.120   95.585    0.266    0.510    7.027
  300.370   98.064    0.271    0.492    7.027
  300.620  100.010    0.264    0.478    6.959
  300.870  100.565    0.261    0.483    6.909
  301.120   99.957    0.235    0.496    6.907
  301.370   99.865    0.207    0.476    6.897
  301.620  100.577    0.214    0.484    7.047
  301.870  102.134    0.251    0.500    7.044
  302.120  102.175    0.246    0.496    7.095
  302.370  102.176    0.248    0.498    7.178
  302.620  101.557    0.257    0.488    6.824
  302.870  101.621    0.267    0.498    6.688
  303.120  101.012    0.278    0.492    6.676
  303.370  101.040    0.258    0.480    6.692
  303.620  100.161    0.250    0.480    6.554
  303.870   98.146    0.261    0.486    6.450
  304.120   98.600    0.251    0.505    6.325
  304.370   99.776    0.249    0.490    6.208
  304.620  100.676    0.243    0.483    6.017
  304.870  102.818    0.232    0.501    5.887
  305.120  105.739    0.228    0.525    5.777
  305.370  107.209    0.210    0.519    5.782
  305.620  107.966    0.223    0.505    5.748
  305.870  108.528    0.231    0.488    5.682
  306.120  109.430    0.221    0.503    5.572
  306.370  111.234    0.225    0.506    5.574
  306.620  112.084    0.212    0.500    5.133
  306.870  110.748    0.230    0.491    4.448
  307.120  110.900    0.233    0.503    3.608
  307.370  111.924    0.249    0.509    3.165
  307.620  113.214    0.262    0.524    2.835
  307.870  113.010    0.261    0.578    2.485
  308.120  111.062    0.266    0.598    2.267
  308.370  108.948    0.266    0.602    2.190
  308.620  105.992    0.274    0.591    2.125
  308.870  102.992    0.258    0.588    2.247
  309.120   99.707    0.253    0.593    2.577
  309.370   97.917    0.242    0.591    3.112
  309.620   96.797    0.255    0.563    3.864
  309.870   98.099    0.276    0.491    5.001
  310.120   94.571    0.319    0.424    5.849
  310.370   90.025    0.378    0.360    7.194
  310.620   86.964    0.392    0.308    9.067
  310.870   87.911    0.401    0.289   10.874
  311.120   90.946    0.411    0.236   11.861
  311.370   96.771    0.372    0.230   12.578
  311.620   95.546    0.338    0.256   12.951
  311.870   93.143    0.306    0.281   13.337
  312.120   91.341    0.292    0.287   14.020
  312.370   91.050    0.431    0.267   15.092
  312.620   87.024    0.438    0.230   16.251
  312.870   79.246    0.475    0.194   17.775
  313.120   72.388    0.493    0.156   18.875
  313.370   67.552    0.482    0.146   19.669
  313.620   66.666    0.484    0.149   17.137
  313.870   66.965    0.470    0.161   14.275
  314.120   67.284    0.457    0.279   12.198
  314.370   68.331    0.414    0.311   10.261
  314.620   68.395    0.375    0.370    8.496
  314.870   68.397    0.362    0.411    7.818
  315.120   68.455    0.357    0.429    7.274
  315.370   67.732    0.353    0.440    6.804
  315.620   67.790    0.350    0.438    6.655
  315.870   67.847    0.361    0.443    6.537
  316.120   67.130    0.368    0.455    6.407
  316.370   67.183    0.370    0.450    6.421
  316.620   67.157    0.377    0.446    6.420
  316.870   67.068    0.371    0.452    6.409
  317.120   66.637    0.369    0.463    6.306
  317.370   65.070    0.357    0.463    6.311
  317.620   64.220    0.341    0.458    6.313
  317.870   64.979    0.347    0.448    6.328
  318.120   62.490    0.345    0.436    6.191
  318.370   61.263    0.336    0.449    6.205
  318.620   63.675    0.328    0.452    6.286
  318.870   64.976    0.330    0.439    6.320
  319.120   67.623    0.333    0.438    6.327
  319.370   67.932    0.320    0.455    6.397
  319.620   68.922    0.327    0.452    6.444
  319.870   70.484    0.324    0.450    6.448
  320.120   70.839    0.321    0.446    6.451
  320.370   71.125    0.322    0.446    6.455
  320.620   69.187    0.346    0.458    6.358
  320.870   67.203    0.354    0.464    6.343
  321.120   64.596    0.350    0.457    6.341
  321.370   62.997    0.354    0.451    6.342
  321.620   63.900    0.366    0.453    6.345
  321.870   65.245    0.359    0.448    6.347
  322.120   65.270    0.342    0.444    6.275
  322.370   64.362    0.340    0.443    6.239
  322.620   62.882    0.335    0.462    6.235
  322.870   63.787    0.329    0.462    6.177
  323.120   64.677    0.328    0.448    6.130
  323.370   64.514    0.340    0.442    6.130
  323.620   65.856    0.352    0.452    6.132
  323.870   66.430    0.358    0.455    6.134
  324.120   67.404    0.361    0.454    6.126
  324.370   67.324    0.358    0.447    6.018
  324.620   66.320    0.347    0.455    5.813
  324.870   65.661    0.234    0.444    5.811
  325.120   66.542    0.116    0.440    5.813
  325.370   66.899    0.132    0.439    5.820
  325.620   66.597    0.376    0.445    5.692
  325.870   65.636    0.342    0.462    5.827
  326.120   66.262    0.350    0.470    5.828
  326.370   65.365    0.353    0.471    5.708
  326.620   64.402    0.354    0.466    5.722
  326.870   64.280    0.368    0.454    5.636
  327.120   65.771    0.370    0.469    5.622
  327.370   65.654    0.370    0.473    5.621
  327.620   66.432    0.368    0.478    5.623
  327.870   68.438    0.365    0.487    5.624
  328.120   69.736    0.359    0.498    5.626
  328.370   70.034    0.361    0.488    5.628
