~VERSION INFORMATION
 VERS.                 2.0:   CWLS LOG ASCII STANDARD -VERSION 2.0
 WRAP.                  NO:   ONE LINE PER DEPTH STEP
~WELL INFORMATION BLOCK
#MNEM.UNIT           DATA                    DESCRIPTION OF MNEMONIC
#---------    -------------------            -------------------------------
# Generated from Intellog Unique Number	CW_79_81/WELL/2469
WELL.         10-18-081-20W4                 : Well_name    - WELL
LOC .         00/10-18-081-20W4/0            : Location     - LOCATION
UWI .         00/10-18-081-20W4/0            : Uwi          - UNIQUE WELL ID
ENTR.         MAX                            : Entered      - ENTERED BY
SRVC.         COMPUTALOG                     : Scn          - SERVICE COMPANY
STRT.M        190                            : top_depth    - START DEPTH
STOP.M        415                            : bot_depth    - STOP DEPTH
STEP.M        0.3                            : increment    - STEP LENGTH
 NULL. -999.2500:NULL Value
~CURVE INFORMATION BLOCK
#MNEM UNIT       ERCB CURVE CODE    CURVE DESCRIPTION
#-----------   ------------------   ----------------------------------
DEPT.M        00 001 00 00         : DEPTH        - DEPTH
GR  .API      00 310 00 00         : GR           - GAMMA RAY
CALI.MM       00 280 01 00         : CAL          - CALIPER
DPHI.V/V      00 890 00 00         : PHID         - DENSITY POROSITY (SANDSTONE)
NPHI.V/V      00 330 00 00         : PHIN         - NEUTRON POROSITY (SANDSTONE)
ILD .OHMM     00 120 00 00         : RESD         - DEEP RESISTIVITY (DIL)
~PARAMETER INFORMATION
#MNEM.UNIT           DATA             DESCRIPTION OF MNEMONIC
#---------         -----------     ------------------------------
GL  .M        581.81               : gl           - GROUND LEVEL ELEVATION
EREF.M        585.04               : kb           - ELEVATION OF DEPTH REFERENCE
DATM.M        581.81               : datum        - DATUM ELEVATION
TDD .M        415                  : tdd          - TOTAL DEPTH DRILLER
RUN .         ONE                  : Run          - RUN NUMBER
ENG .         BILL                 : Engineer     - RECORDING ENGINEER
WIT .         JIM                  : Witness      - WITNESSED BY
MUD .         GEL                  : Mud_type     - MUD TYPE
MATR.         SANDSTONE            : Logunit      - NEUTRON MATRIX
TMAX.C        27                   : BHT          - MAXIMUM RECORDED TEMPERATURE
BHTD.M        415                  : BHTDEP       - MAXIMUM RECORDED TEMPERATURE
MATR.         1                    : LOGUNIT      - NEUTRON MATRIX
RMT .C        9                    : MDTP         - TEMPERATURE OF MUD
NEUT.         1                    : NEUTRON      - NEUTRON TYPE
RESI.         0                    : RESIST       - RESISTIVITY TYPE
RMC .OHMM     6.3                  : RMC          - RESISTIVITY OF MUD CAKE
RMF .OHMM     8                    : RMF          - RESISTIVITY OF MUD FILTRATE
SUFT.C        -20                  : SUFT         - SURFACE TEMPERATURE
~A  DEPTH       GR      CAL     PHID     PHIN     RESD
# ...
  321.400   89.839  227.932    0.309    0.407    7.266
  321.700   90.785  244.298    0.268    0.400    7.761
  322.000   88.488  204.511    0.214    0.337    8.841
  322.300   85.593  198.703    0.186    0.309   10.072
  322.600   76.791  198.823    0.137    0.277   11.369
  322.900   69.762  198.419    0.089    0.245   12.599
  323.200   64.511  198.540    0.061    0.215   14.091
  323.500   61.026  199.645    0.072    0.202   15.616
  323.800   64.932  199.744    0.132    0.227   17.144
  324.100   70.610  199.340    0.193    0.357   17.494
  324.400   70.676  198.957    0.245    0.431   16.576
  324.700   72.520  198.575    0.242    0.408   14.455
  325.000   74.615  195.075    0.212    0.389   12.036
  325.300   73.132  195.070    0.186    0.302   10.665
  325.600   66.912  195.067    0.144    0.242   10.757
  325.900   65.725  195.556    0.101    0.202   12.235
  326.200   67.796  196.046    0.033    0.162   14.442
  326.500   69.274  196.041    0.057    0.171   18.186
  326.800   71.936  195.544    0.099    0.189   21.664
  327.100   75.191  195.540    0.158    0.243   23.969
  327.400   81.110  195.043    0.199    0.284   23.730
  327.700   84.069  195.039    0.229    0.325   19.350
  328.000   87.027  195.035    0.237    0.362   14.788
  328.300   92.355  194.538    0.232    0.413   12.057
  328.600   99.162  196.508    0.242    0.416   10.295
  328.900   97.679  197.984    0.253    0.406    9.824
  329.200   89.979  198.967    0.250    0.384    9.726
  329.500   85.239  196.989    0.236    0.365   10.179
  329.800   90.566  192.050    0.222    0.384   10.852
  330.100   94.709  192.047    0.217    0.416   11.150
  330.400   91.450  192.536    0.215    0.435   11.350
  330.700   79.604  193.520    0.216    0.462   11.344
  331.000   75.456  194.502    0.214    0.454   11.231
  331.300   78.710  195.485    0.218    0.429   11.121
  331.600   84.630  195.974    0.214    0.405   11.011
  331.900   94.399  196.465    0.213    0.398   11.104
  332.200   96.173  196.460    0.210    0.384   11.202
  332.500   92.913  196.456    0.216    0.380   11.402
  332.800   87.285  196.453    0.215    0.382   11.394
  333.100   86.394  195.955    0.210    0.366   11.387
  333.400   89.945  194.964    0.205    0.346   11.378
  333.700   98.234  194.960    0.199    0.353   11.371
  334.000   99.119  195.944    0.198    0.374   11.363
  334.300   93.788  195.446    0.202    0.406   11.462
  334.600   91.120  194.455    0.208    0.437   11.454
  334.900   91.710  195.931    0.216    0.452   11.444
  335.200   85.786  197.901    0.225    0.376   11.438
  335.500   82.823  198.390    0.225    0.351   11.537
  335.800   89.927  198.387    0.219    0.363   11.853
  336.100   97.919  199.370    0.216    0.348   11.736
  336.400  100.877  199.860    0.210    0.351   11.620
  336.700   93.769  200.349    0.211    0.416   11.504
  337.000   91.101  201.825    0.217    0.429   11.604
  337.300   89.026  203.302    0.226    0.394   11.704
  337.600   83.990  203.298    0.237    0.395   11.804
  337.900   91.094  201.320    0.226    0.418   11.796
  338.200   94.053  198.355    0.207    0.386   11.788
  338.500   92.866  198.352    0.207    0.360   11.998
  338.800   96.713  197.359    0.198    0.355   12.214
  339.100   99.968  197.850    0.188    0.373   12.320
  339.400  102.630  201.300    0.189    0.382   12.312
  339.700  101.443  202.777    0.201    0.388   12.191
  340.000   95.519  203.266    0.214    0.370   11.959
  340.300   93.740  202.769    0.215    0.373   11.732
  340.600  100.844  203.752    0.226    0.409   11.509
  340.900  104.098  203.255    0.223    0.415   11.290
  341.200   99.655  203.744    0.192    0.420   11.283
  341.500  103.206  204.234    0.189    0.431   11.274
  341.800  103.796  204.230    0.207    0.421   11.268
  342.100  101.424  204.720    0.203    0.421   11.156
  342.400  103.495  205.702    0.219    0.415   11.149
  342.700  107.934  206.191    0.256    0.391   10.937
  343.000  110.596  206.682    0.249    0.363   10.828
  343.300  104.080  208.652    0.242    0.358   10.623
  343.600   96.971  220.985    0.381    0.394   10.615
  343.900   97.561  231.344    0.360    0.381   10.707
  344.200  101.408  216.536    0.292    0.368   10.700
  344.500  102.886  209.129    0.246    0.353   10.595
  344.800   97.258  214.554    0.336    0.345   10.490
  345.100   98.736  238.237    0.370    0.423   10.102
  345.400   95.180  238.727    0.363    0.430    9.818
  345.700   92.513  224.412    0.312    0.377    9.632
  346.000   94.287  206.641    0.302    0.357   10.174
  346.300   96.062  210.586    0.353    0.360   10.649
  346.600   94.282  235.750    0.373    0.404   10.840
  346.900   91.911  234.759    0.373    0.442   10.733
  347.200   91.909  239.197    0.351    0.376   10.824
  347.500   88.945  206.622    0.246    0.342   11.541
  347.800   85.686  201.684    0.217    0.375   12.420
  348.100   82.723  201.679    0.221    0.407   14.391
  348.400   78.576  199.208    0.228    0.391   16.522
  348.700   74.428  198.217    0.205    0.411   18.618
  349.000   73.241  198.213    0.166    0.393   19.666
  349.300   73.534  198.208    0.040    0.343   20.967
  349.600   71.756  197.712    0.043    0.237   22.984
  349.900   66.128  197.708    0.040    0.206   25.904
  350.200   61.388  197.703    0.009    0.206   30.295
  350.500   63.755  198.193    0.001    0.192   35.757
  350.800   68.489  198.189    0.006    0.186   42.995
  351.100   72.040  197.691    0.119    0.208   44.173
  351.400   79.144  197.688    0.190    0.286   33.139
  351.700   88.617  197.685    0.209    0.335   27.780
  352.000   94.536  198.174    0.218    0.399   23.505
  352.300   93.349  198.663    0.204    0.378   20.071
  352.600   87.721  199.646    0.191    0.326   17.296
  352.900   87.127  198.162    0.193    0.295   16.353
  353.200   93.934  197.171    0.224    0.349   15.602
  353.500   92.748  198.648    0.197    0.437   15.593
  353.800   78.829  200.124    0.171    0.365   16.470
  354.100   77.346  199.627    0.107    0.324   17.559
  354.400   85.634  200.610    0.130    0.272   18.380
  354.700   88.889  200.606    0.161    0.312   19.235
  355.000   89.775  200.601    0.166    0.328   19.580
  355.300   88.588  200.598    0.201    0.334   19.209
  355.600   81.775  199.607    0.215    0.399   18.499
  355.900   82.958  199.109    0.186    0.378   17.981
  356.200   91.542  199.599    0.136    0.304   18.474
  356.500   92.132  203.543    0.189    0.309   18.980
  356.800   88.576  207.487    0.218    0.372   18.621
  357.100   85.021  207.483    0.181    0.374   17.441
  357.400   81.169  201.064    0.174    0.416   16.797
  357.700   70.804  201.553    0.150    0.361   17.098
  358.000   74.354  201.549    0.087    0.279   18.915
  358.300   79.090  200.558    0.128    0.224   20.735
  358.600   83.232  200.061    0.174    0.281   21.107
  358.900   84.118  200.057    0.204    0.331   21.094
  359.200   84.708  200.052    0.190    0.370   19.943
  359.500   84.706  200.049    0.173    0.332   18.336
  359.800   91.514  199.551    0.167    0.328   15.512
  360.100   94.472  200.041    0.162    0.352   14.397
  360.400   93.285  200.036    0.183    0.388   13.992
  360.700   92.395  199.540    0.185    0.383   13.985
  361.000   95.945  200.029    0.182    0.394   14.104
  361.300   95.055  200.025    0.191    0.386   14.095
  361.600   93.868  200.021    0.183    0.372   13.827
  361.900   94.162  199.031    0.167    0.362   13.691
  362.200   97.713  201.494    0.168    0.409   13.307
  362.500   98.598  206.424    0.222    0.383   13.054
  362.800   97.708  214.810    0.256    0.343   12.571
  363.100   95.337  232.572    0.284    0.423   11.776
  363.400   93.558  233.555    0.249    0.456   10.827
  363.700   91.186  214.798    0.165    0.397   10.524
  364.000   92.961  204.431    0.177    0.385   10.614
  364.300   95.623  228.115    0.244    0.401   10.607
  364.600   96.509  243.408    0.272    0.464   10.502
  364.900   97.099  248.833    0.272    0.392   10.208
