~VERSION INFORMATION
 VERS.                 2.0:   CWLS LOG ASCII STANDARD -VERSION 2.0
 WRAP.                  NO:   ONE LINE PER DEPTH STEP
~WELL INFORMATION BLOCK
#MNEM.UNIT           DATA                    DESCRIPTION OF MNEMONIC
#---------    -------------------            -------------------------------
# Generated from Intellog Unique Number	CS_71_72/WELL/857
WELL.         AEC IPIATIK GRIST              : Well_name    - WELL
LOC .         00/10-17-071-06W4/0            : Location     - LOCATION
UWI .         00/10-17-071-06W4/0            : Uwi          - UNIQUE WELL ID
ENTR.         SP                             : Entered      - ENTERED BY
SRVC.         SCHLUMBERGER                   : Scn          - SERVICE COMPANY
STRT.M        300                            : top_depth    - START DEPTH
STOP.M        515                            : bot_depth    - STOP DEPTH
STEP.M        0.25                           : increment    - STEP LENGTH
 NULL. -999.2500:NULL Value
~CURVE INFORMATION BLOCK
#MNEM UNIT       ERCB CURVE CODE    CURVE DESCRIPTION
#-----------   ------------------   ----------------------------------
DEPT.M        00 001 00 00         : DEPTH        - DEPTH
ILD .OHMM     00 120 00 00         : RESD         - DEEP RESISTIVITY (DIL)
DPHI.V/V      00 890 00 00         : PHID         - DENSITY POROSITY (LIMESTONE)
NPHI.V/V      00 330 00 00         : PHIN         - NEUTRON POROSITY (LIMESTONE)
GR  .API      00 310 00 00         : GR           - GAMMA RAY
~PARAMETER INFORMATION
#MNEM.UNIT           DATA             DESCRIPTION OF MNEMONIC
#---------         -----------     ------------------------------
GL  .M        653                  : gl           - GROUND LEVEL ELEVATION
EREF.M        657.2                : kb           - ELEVATION OF DEPTH REFERENCE
DATM.M        653                  : datum        - DATUM ELEVATION
TDD .M        615                  : tdd          - TOTAL DEPTH DRILLER
RUN .         ONE                  : Run          - RUN NUMBER
ENG .         BILL                 : Engineer     - RECORDING ENGINEER
WIT .         JIM                  : Witness      - WITNESSED BY
MUD .         GEL                  : Mud_type     - MUD TYPE
MATR.         LIMESTONE            : Logunit      - NEUTRON MATRIX
TMAX.C        16                   : BHT          - MAXIMUM RECORDED TEMPERATURE
BHTD.M        615                  : BHTDEP       - MAXIMUM RECORDED TEMPERATURE
MATR.         1                    : LOGUNIT      - NEUTRON MATRIX
RMT .C        25                   : MDTP         - TEMPERATURE OF MUD
NEUT.         1                    : NEUTRON      - NEUTRON TYPE
RESI.         0                    : RESIST       - RESISTIVITY TYPE
RMC .OHMM     0.25                 : RMC          - RESISTIVITY OF MUD CAKE
RMF .OHMM     0.25                 : RMF          - RESISTIVITY OF MUD FILTRATE
SUFT.C        15                   : SUFT         - SURFACE TEMPERATURE
~A  DEPTH     RESD     PHID     PHIN       GR
# ...
  474.000    7.297    0.187    0.394   87.173
  474.250    7.276    0.197    0.407   89.566
  474.500    7.242    0.201    0.413   91.225
  474.750    7.220    0.190    0.403   93.984
  475.000    7.213    0.177    0.413   98.389
  475.250    7.369    0.191    0.422  102.242
  475.500    7.875    0.213    0.413   96.898
  475.750    8.350    0.226    0.397   92.161
  476.000    8.838    0.245    0.449   90.228
  476.250    9.406    0.267    0.477   93.108
  476.500    9.919    0.275    0.507   95.198
  476.750   10.059    0.251    0.478   93.325
  477.000    9.698    0.221    0.424   84.933
  477.250    8.975    0.199    0.388   75.688
  477.500    8.213    0.191    0.377   69.185
  477.750    7.419    0.203    0.368   74.991
  478.000    7.288    0.177    0.363   83.785
  478.250    7.432    0.161    0.358   88.674
  478.500    7.607    0.145    0.358   92.527
  478.750    7.888    0.150    0.380   89.133
  479.000    8.196    0.161    0.396   85.127
  479.250    8.451    0.167    0.378   81.550
  479.500    8.780    0.170    0.374   81.017
  479.750    9.139    0.183    0.370   80.974
  480.000    9.423    0.194    0.364   80.624
  480.250    9.663    0.190    0.362   77.961
  480.500    9.544    0.192    0.378   74.383
  480.750    9.360    0.210    0.387   71.840
  481.000    9.247    0.223    0.374   69.543
  481.250    9.665    0.229    0.377   69.253
  481.500    9.831    0.217    0.380   71.222
  481.750   10.823    0.202    0.376   72.762
  482.000   11.605    0.188    0.388   73.448
  482.250   12.168    0.202    0.389   71.026
  482.500   12.760    0.213    0.370   65.987
  482.750   13.086    0.221    0.361   61.497
  483.000   13.245    0.228    0.367   59.560
  483.250   13.305    0.236    0.398   57.566
  483.500   13.341    0.243    0.397   61.851
  483.750   13.603    0.242    0.388   64.306
  484.000   14.160    0.217    0.384   64.562
  484.250   15.101    0.205    0.393   61.045
  484.500   16.042    0.216    0.401   58.259
  484.750   17.106    0.219    0.405   56.387
  485.000   18.348    0.233    0.396   55.551
  485.250   19.237    0.243    0.400   56.055
  485.500   20.593    0.251    0.392   56.011
  485.750   21.313    0.239    0.398   52.127
  486.000   20.779    0.260    0.403   49.464
  486.250   20.379    0.258    0.384   49.788
  486.500   21.010    0.246    0.375   52.178
  486.750   21.828    0.244    0.388   53.903
  487.000   20.542    0.263    0.408   50.078
  487.250   17.350    0.263    0.417   47.231
  487.500   14.014    0.267    0.426   48.284
  487.750   10.628    0.282    0.430   47.569
  488.000    9.667    0.292    0.430   45.883
  488.250    7.706    0.289    0.415   44.740
  488.500    5.863    0.293    0.398   42.990
  488.750    5.017    0.275    0.386   47.454
  489.000    4.507    0.263    0.376   53.319
  489.250    4.273    0.250    0.379   57.601
  489.500    4.221    0.259    0.389   59.751
  489.750    4.224    0.275    0.393   60.072
  490.000    4.229    0.244    0.396   60.941
  490.250    4.224    0.246    0.398   61.690
  490.500    4.181    0.250    0.387   62.193
  490.750    4.069    0.225    0.378   68.913
  491.000    3.968    0.204    0.386   73.925
  491.250    3.876    0.222    0.400   68.215
  491.500    3.807    0.239    0.407   61.166
  491.750    3.818    0.262    0.407   55.574
  492.000    3.907    0.276    0.396   53.032
  492.250    4.037    0.270    0.393   57.009
  492.500    4.163    0.247    0.387   59.098
  492.750    4.253    0.264    0.383   56.068
  493.000    4.272    0.240    0.375   61.142
  493.250    4.276    0.216    0.370   64.816
  493.500    4.208    0.199    0.380   63.431
  493.750    4.157    0.219    0.394   59.852
  494.000    4.031    0.243    0.390   60.965
  494.250    3.823    0.239    0.379   63.053
  494.500    3.630    0.218    0.381   64.350
  494.750    3.335    0.204    0.376   64.492
  495.000    3.133    0.242    0.396   57.741
  495.250    3.182    0.280    0.410   47.462
  495.500    3.542    0.301    0.400   43.518
  495.750    3.906    0.312    0.389   42.254
  496.000    4.409    0.288    0.392   44.465
  496.250    4.426    0.267    0.391   49.297
  496.500    4.513    0.240    0.378   55.712
  496.750    4.401    0.210    0.370   60.906
  497.000    4.081    0.191    0.365   66.283
  497.250    3.762    0.190    0.369   70.321
  497.500    3.379    0.200    0.381   70.340
  497.750    3.121    0.191    0.402   66.276
  498.000    2.894    0.199    0.424   58.124
  498.250    2.745    0.258    0.445   49.976
  498.500    2.686    0.291    0.447   46.459
  498.750    2.663    0.305    0.449   43.247
  499.000    2.611    0.309    0.450   40.402
  499.250    2.575    0.314    0.443   38.468
  499.500    2.563    0.307    0.437   37.021
  499.750    2.565    0.317    0.431   36.245
  500.000    2.596    0.326    0.413   36.506
  500.250    2.627    0.320    0.400   37.253
  500.500    2.669    0.309    0.392   37.820
  500.750    2.697    0.304    0.393   36.373
  501.000    2.704    0.299    0.399   37.245
  501.250    2.696    0.316    0.407   38.417
  501.500    2.688    0.303    0.406   39.472
  501.750    2.641    0.296    0.400   40.101
  502.000    2.609    0.294    0.395   39.997
  502.250    2.558    0.295    0.392   39.947
  502.500    2.490    0.301    0.387   39.973
  502.750    2.446    0.306    0.385   39.736
  503.000    2.411    0.308    0.383   39.509
  503.250    2.365    0.303    0.384   37.882
  503.500    2.336    0.296    0.386   37.899
  503.750    2.308    0.292    0.392   38.097
  504.000    2.297    0.290    0.397   38.540
  504.250    2.286    0.292    0.391   35.632
  504.500    2.284    0.300    0.384   33.150
  504.750    2.282    0.305    0.381   31.887
  505.000    2.287    0.305    0.379   32.211
  505.250    2.289    0.301    0.379   32.957
  505.500    2.304    0.314    0.381   34.192
  505.750    2.341    0.323    0.381   33.113
  506.000    2.391    0.312    0.384   31.849
  506.250    2.480    0.302    0.392   31.500
  506.500    2.664    0.292    0.400   32.066
  506.750    3.039    0.303    0.405   32.997
  507.000    3.465    0.300    0.398   34.416
  507.250    4.026    0.288    0.365   34.614
  507.500    4.490    0.276    0.345   33.412
  507.750    4.989    0.264    0.324   40.557
  508.000    5.522    0.271    0.304   58.426
  508.250    5.900    0.196    0.315   73.492
  508.500    6.143    0.139    0.358   87.828
  508.750    6.262    0.125    0.403   98.385
  509.000    6.361    0.123    0.423  102.728
  509.250    6.392    0.129    0.424   99.577
  509.500    6.313    0.138    0.417  101.849
  509.750    6.355    0.124    0.408  104.972
  510.000    6.626    0.127    0.401  107.488
  510.250    7.557    0.117    0.411  108.421
  510.500   10.924    0.127    0.416  106.668
  510.750   16.981    0.136    0.409  100.042
  511.000   25.324    0.144    0.410   89.518
  511.250   34.224    0.135    0.418   77.105
  511.500   43.169    0.100    0.353   61.584
  511.750   51.675    0.034    0.244   36.863
  512.000   51.144    0.012    0.191   24.511
  512.250   49.593    0.009    0.137   20.994
  512.500   47.726    0.005    0.128   19.976
  512.750   44.915   -0.000    0.125   19.810
  513.000   40.800   -0.000    0.123   20.680
  513.250   36.925    0.004    0.126   21.976
  513.500   33.600    0.016    0.148   24.434
  513.750   30.922    0.013    0.168   25.908
  514.000   29.594    0.001    0.182   27.447
  514.250   29.896   -0.009    0.192   29.779
  514.500   32.421   -0.007    0.199   31.198
  514.750   35.822    0.001    0.204   32.251
  515.000   39.209    0.013    0.207   32.755
