~VERSION INFORMATION
 VERS.                 2.0:   CWLS LOG ASCII STANDARD -VERSION 2.0
 WRAP.                  NO:   ONE LINE PER DEPTH STEP
~WELL INFORMATION BLOCK
#MNEM.UNIT           DATA                    DESCRIPTION OF MNEMONIC
#---------    -------------------            -------------------------------
# Generated from Intellog Unique Number	CS_77_79/WELL/946
WELL.         AMOCO B-1 LEISMER              : Well_name    - WELL
LOC .         00/10-11-078-10W4/0            : Location     - LOCATION
UWI .         00/10-11-078-10W4/0            : Uwi          - UNIQUE WELL ID
ENTR.         JHS                            : Entered      - ENTERED BY
SRVC.         SCHLUMBERGER                   : Scn          - SERVICE COMPANY
STRT.M        198.12                         : top_depth    - START DEPTH
STOP.M        429.62                         : bot_depth    - STOP DEPTH
STEP.M        0.25                           : increment    - STEP LENGTH
 NULL. -999.2500:NULL Value
~CURVE INFORMATION BLOCK
#MNEM UNIT       ERCB CURVE CODE    CURVE DESCRIPTION
#-----------   ------------------   ----------------------------------
DEPT.M        00 001 00 00         : DEPTH        - DEPTH
RHOB.KG/M3    00 350 00 00         : DENS         - BULK DENSITY
GR  .API      00 310 00 00         : GR           - GAMMA RAY
DPHI.V/V      00 890 00 00         : PHID         - DENSITY POROSITY (SANDSTONE)
NPHI.V/V      00 330 00 00         : PHIN         - NEUTRON POROSITY (SANDSTONE)
ILD .OHMM     00 120 00 00         : RESD         - DEEP RESISTIVITY (DIL)
~PARAMETER INFORMATION
#MNEM.UNIT           DATA             DESCRIPTION OF MNEMONIC
#---------         -----------     ------------------------------
GL  .M        619.354              : gl           - GROUND LEVEL ELEVATION
EREF.M        622.097              : kb           - ELEVATION OF DEPTH REFERENCE
DATM.M        622.097              : datum        - DATUM ELEVATION
TDD .M        429.768              : tdd          - TOTAL DEPTH DRILLER
RUN .         ONE                  : Run          - RUN NUMBER
ENG .         BILL                 : Engineer     - RECORDING ENGINEER
WIT .         JIM                  : Witness      - WITNESSED BY
MUD .         GEL                  : Mud_type     - MUD TYPE
MATR.         SANDSTONE            : Logunit      - NEUTRON MATRIX
TMAX.C        30                   : BHT          - MAXIMUM RECORDED TEMPERATURE
BHTD.M        429.768              : BHTDEP       - MAXIMUM RECORDED TEMPERATURE
MATR.         1                    : LOGUNIT      - NEUTRON MATRIX
RMT .C        25                   : MDTP         - TEMPERATURE OF MUD
NEUT.         1                    : NEUTRON      - NEUTRON TYPE
RESI.         0                    : RESIST       - RESISTIVITY TYPE
RMC .OHMM     0.25                 : RMC          - RESISTIVITY OF MUD CAKE
RMF .OHMM     0.25                 : RMF          - RESISTIVITY OF MUD FILTRATE
SUFT.C        15                   : SUFT         - SURFACE TEMPERATURE
~A  DEPTH     DENS       GR     PHID     PHIN     RESD
  198.120    0.000   91.429    0.263    0.596    3.124
  198.370    0.000   91.730    0.247    0.603    3.128
  198.620    0.000   90.796    0.274    0.601    3.144
  198.870    0.000   92.022    0.259    0.587    3.187
  199.120    0.000   94.051    0.263    0.579    3.285
  199.370    0.000   95.204    0.270    0.551    3.387
  199.620    0.000   95.291    0.261    0.535    3.492
  199.870    0.000   93.735    0.258    0.552    3.602
  200.120    0.000   92.134    0.230    0.564    3.714
  200.370    0.000   90.159    0.246    0.567    3.831
  200.620    0.000   90.354    0.254    0.552    3.951
  200.870    0.000   92.416    0.258    0.515    4.075
  201.120    0.000   92.070    0.260    0.506    4.145
  201.370    0.000   90.214    0.240    0.540    4.239
  201.620    0.000   92.419    0.225    0.564    4.230
  201.870    0.000   94.516    0.234    0.537    4.320
  202.120    0.000   94.949    0.258    0.523    4.321
  202.370    0.000   94.430    0.263    0.526    4.250
  202.620    0.000   94.097    0.238    0.525    4.093
  202.870    0.000   93.782    0.213    0.527    3.855
  203.120    0.000   93.321    0.204    0.548    3.811
  203.370    0.000   91.356    0.212    0.574    3.763
  203.620    0.000   92.966    0.222    0.576    3.812
  203.870    0.000   93.937    0.231    0.569    3.994
  204.120    0.000   90.246    0.247    0.557    4.132
  204.370    0.000   88.675    0.256    0.547    4.264
  204.620    0.000   88.687    0.264    0.533    4.272
  204.870    0.000   89.749    0.233    0.542    4.162
  205.120    0.000   92.861    0.242    0.565    4.121
  205.370    0.000   93.774    0.229    0.577    4.039
  205.620    0.000   96.216    0.236    0.568    4.049
  205.870    0.000   94.143    0.217    0.554    4.052
  206.120    0.000   90.797    0.200    0.559    4.056
  206.370    0.000   95.279    0.187    0.558    4.061
  206.620    0.000   98.073    0.212    0.536    4.308
  206.870    0.000   94.475    0.251    0.531    4.700
  207.120    0.000   91.323    0.248    0.529    5.595
  207.370    0.000   88.820    0.215    0.537    6.564
  207.620    0.000   85.747    0.211    0.558    8.403
  207.870    0.000   80.870    0.242    0.528   10.555
  208.120    0.000   72.288    0.234    0.492   12.143
  208.370    0.000   67.293    0.257    0.460   13.624
  208.620    0.000   68.192    0.279    0.446   14.466
  208.870    0.000   70.885    0.311    0.457   14.403
  209.120    0.000   78.396    0.319    0.477   13.676
  209.370    0.000   84.209    0.309    0.547   12.289
  209.620    0.000   89.852    0.371    0.590   10.468
  209.870    0.000   94.891    0.532    0.612    8.608
  210.120    0.000   92.138    0.609    0.616    6.779
  210.370    0.000   85.184    0.504    0.615    6.056
  210.620    0.000   87.195    0.437    0.607    5.505
  210.870    0.000   93.674    0.373    0.576    5.397
  211.120    0.000   98.203    0.261    0.473    5.554
  211.370    0.000   97.384    0.226    0.480    5.620
  211.620    0.000   97.405    0.204    0.492    5.804
  211.870    0.000   96.396    0.205    0.504    5.846
  212.120    0.000   92.883    0.211    0.501    6.157
  212.370    0.000   91.371    0.229    0.492    6.220
  212.620    0.000   92.172    0.225    0.490    6.420
  212.870    0.000   92.284    0.231    0.487    6.418
  213.120    0.000   89.316    0.222    0.467    6.426
  213.370    0.000   87.476    0.216    0.459    6.432
  213.620    0.000   86.735    0.201    0.467    6.625
  213.870    0.000   83.487    0.203    0.481    7.279
  214.120    0.000   76.863    0.224    0.484    8.319
  214.370    0.000   69.360    0.235    0.497   10.606
  214.620    0.000   63.282    0.233    0.502   13.837
  214.870    0.000   45.397    0.245    0.447   17.477
  215.120    0.000   34.113    0.236    0.383   20.072
  215.370    0.000   32.116    0.194    0.366   22.000
  215.620    0.000   31.287    0.172    0.361   22.939
  215.870    0.000   28.490    0.181    0.418   23.938
  216.120    0.000   28.762    0.247    0.390   23.832
  216.370    0.000   31.790    0.269    0.382   23.453
  216.620    0.000   33.312    0.261    0.373   22.797
  216.870    0.000   34.754    0.237    0.405   23.061
  217.120    0.000   35.175    0.210    0.398   23.053
  217.370    0.000   35.290    0.284    0.392   23.008
  217.620    0.000   33.708    0.287    0.402   21.905
  217.870    0.000   33.036    0.276    0.404   20.689
  218.120    0.000   34.057    0.280    0.394   19.139
  218.370    0.000   37.068    0.311    0.396   18.030
  218.620    0.000   42.716    0.319    0.405   16.942
  218.870    0.000   50.836    0.322    0.406   16.349
  219.120    0.000   56.937    0.309    0.408   16.124
  219.370    0.000   68.322    0.291    0.405   16.215
  219.620    0.000   76.954    0.283    0.411   16.398
  219.870    0.000   87.101    0.278    0.456   16.714
  220.120    0.000   87.834    0.285    0.482   16.628
  220.370    0.000   87.203    0.289    0.482   16.120
  220.620    0.000   81.811    0.270    0.470   15.208
  220.870    0.000   72.737    0.258    0.454   13.975
  221.120    0.000   67.652    0.256    0.439   12.777
  221.370    0.000   68.410    0.265    0.432   12.246
  221.620    0.000   71.543    0.279    0.431   12.296
  221.870    0.000   74.399    0.248    0.442   12.902
  222.120    0.000   78.181    0.262    0.455   13.765
  222.370    0.000   80.360    0.263    0.472   15.778
  222.620    0.000   73.935    0.262    0.514   17.756
  222.870    0.000   63.871    0.311    0.491   19.702
  223.120    0.000   61.241    0.287    0.476   20.647
  223.370    0.000   59.974    0.304    0.465   21.040
  223.620    0.000   51.832    0.334    0.457   21.140
  223.870    0.000   51.793    0.337    0.447   21.448
  224.120    0.000   53.785    0.316    0.486   21.024
  224.370    0.000   57.015    0.305    0.504   20.997
  224.620    0.000   57.423    0.341    0.507   20.692
  224.870    0.000   55.996    0.336    0.490   20.520
  225.120    0.000   56.919    0.330    0.477   20.378
  225.370    0.000   58.454    0.345    0.487   20.057
  225.620    0.000   58.996    0.318    0.482   20.026
  225.870    0.000   58.635    0.343    0.474   20.025
  226.120    0.000   59.096    0.349    0.489   20.046
  226.370    0.000   58.917    0.338    0.487   20.075
  226.620    0.000   57.543    0.335    0.485   19.703
  226.870    0.000   56.493    0.341    0.486   19.346
  227.120    0.000   57.218    0.354    0.500   19.461
  227.370    0.000   58.179    0.347    0.483   19.748
  227.620    0.000   60.535    0.328    0.479   19.760
  227.870    0.000   62.931    0.315    0.481   19.775
  228.120    0.000   65.900    0.334    0.474   19.784
  228.370    0.000   68.339    0.324    0.483   19.785
  228.620    0.000   73.032    0.321    0.488   19.775
  228.870    0.000   75.361    0.329    0.497   19.506
  229.120    0.000   76.435    0.332    0.497   18.608
  229.370    0.000   76.459    0.336    0.497   17.746
  229.620    0.000   78.536    0.333    0.495   16.967
  229.870    0.000   79.543    0.316    0.481   15.614
  230.120    0.000   78.951    0.283    0.467   14.836
  230.370    0.000   77.308    0.271    0.455   13.725
  230.620    0.000   77.334    0.290    0.444   11.850
  230.870    0.000   80.612    0.281    0.447   10.090
  231.120    0.000   83.531    0.253    0.479    7.562
  231.370    0.000   87.998    0.231    0.491    6.549
  231.620    0.000   98.554    0.222    0.496    6.010
  231.870    0.000  107.873    0.247    0.514    5.557
  232.120    0.000  112.212    0.251    0.571    5.532
  232.370    0.000  113.022    0.255    0.573    5.789
  232.620    0.000  109.071    0.240    0.543    6.218
  232.870    0.000  106.759    0.239    0.526    7.723
  233.120    0.000  106.841    0.224    0.518    8.958
  233.370    0.000  108.734    0.227    0.509   10.699
  233.620    0.000  108.124    0.245    0.495   12.635
  233.870    0.000  104.500    0.265    0.481   13.429
  234.120    0.000  101.872    0.253    0.480   14.232
  234.370    0.000   98.359    0.269    0.488   13.803
