~VERSION INFORMATION
 VERS.                 2.0:   CWLS LOG ASCII STANDARD -VERSION 2.0
 WRAP.                  NO:   ONE LINE PER DEPTH STEP
~WELL INFORMATION BLOCK
#MNEM.UNIT           DATA                    DESCRIPTION OF MNEMONIC
#---------    -------------------            -------------------------------
# Generated from Intellog Unique Number	CW_82_90/WELL/913
WELL.         PARAMOUNT ET AL GRANOR 10-25   : Well_name    - WELL
LOC .         00/10-25-083-19W4/0            : Location     - LOCATION
UWI .         00/10-25-083-19W400            : Uwi          - UNIQUE WELL ID
ENTR.         JAYE                           : Entered      - ENTERED BY
SRVC.         COMPUTALOG                     : Scn          - SERVICE COMPANY
DATE.         4 MAR 77                       : Date         - LOG DATE
STRT.M        183.185                        : top_depth    - START DEPTH
STOP.M        336.685                        : bot_depth    - STOP DEPTH
STEP.M        0.25                           : increment    - STEP LENGTH
 NULL. -999.2500:NULL Value
~CURVE INFORMATION BLOCK
#MNEM UNIT       ERCB CURVE CODE    CURVE DESCRIPTION
#-----------   ------------------   ----------------------------------
DEPT.M        00 001 00 00         : DEPTH        - DEPTH
ILD .OHMM     00 120 00 00         : RESD         - DEEP RESISTIVITY (DIL)
CALI.MM       00 280 01 00         : CAL          - CALIPER
GR  .API      00 310 00 00         : GR           - GAMMA RAY
NPHI.V/V      00 330 00 00         : PHIN         - NEUTRON POROSITY (SANDSTONE)
DPHI.V/V      00 890 00 00         : PHID         - DENSITY POROSITY (SANDSTONE)
~PARAMETER INFORMATION
#MNEM.UNIT           DATA             DESCRIPTION OF MNEMONIC
#---------         -----------     ------------------------------
GL  .M        570.89               : gl           - GROUND LEVEL ELEVATION
EREF.M        573.938              : kb           - ELEVATION OF DEPTH REFERENCE
DATM.M        570.89               : datum        - DATUM ELEVATION
TDD .M        336.499              : tdd          - TOTAL DEPTH DRILLER
RUN .         ONE                  : Run          - RUN NUMBER
ENG .         KING/HALL            : Engineer     - RECORDING ENGINEER
WIT .         CONNELLY             : Witness      - WITNESSED BY
BASE.         MEDICINE HAT         : Branch       - HOME BASE OF LOGGING UNIT
MUD .         GEL CHEM             : Mud_type     - MUD TYPE
MATR.         SANDSTONE            : Logunit      - NEUTRON MATRIX
TMAX.C        0                    : BHT          - MAXIMUM RECORDED TEMPERATURE
BHTD.M        62                   : BHTDEP       - MAXIMUM RECORDED TEMPERATURE
RMT .C        1104                 : MDTP         - TEMPERATURE OF MUD
MUDD.KG/M     58                   : MWT          - MUD DENSITY
NEUT.         9.1                  : NEUTRON      - NEUTRON TYPE
RM  .OHMM     1                    : RM           - RESISTIVITY OF MUD
RMC .OHMM     4.1                  : RMC          - RESISTIVITY OF MUD CAKE
RMF .OHMM     0                    : RMF          - RESISTIVITY OF MUD FILTRATE
SUFT.C        3.5                  : SUFT         - SURFACE TEMPERATURE
SUFT.C        0                    : SUFT         - SURFACE TEMPERATURE
~A  DEPTH     RESD      CAL       GR     PHIN     PHID
# ...
  292.685   12.081  158.307   59.826    0.328    0.193
  292.935   12.313  158.840   61.378    0.321    0.180
  293.185   12.764  159.060   60.270    0.313    0.158
  293.435   13.127  159.067   60.833    0.281    0.126
  293.685   13.561  159.497   62.508    0.185    0.100
  293.935   13.810  159.400   58.739    0.215    0.116
  294.185   13.947  159.409   58.930    0.250    0.131
  294.435   13.679  159.420   62.029    0.316    0.153
  294.685   13.290  159.847   59.993    0.310    0.173
  294.935   12.821  160.169   58.452    0.298    0.162
  295.185   12.642  160.285   61.426    0.304    0.177
  295.435   12.302  161.025   62.050    0.332    0.186
  295.685   11.720  161.246   59.580    0.364    0.185
  295.935   11.226  161.469   55.998    0.366    0.196
  296.185   10.620  161.577   58.168    0.369    0.193
  296.435   10.013  161.377   62.567    0.380    0.187
  296.685    9.544  161.176   68.762    0.389    0.193
  296.935    9.252  160.872   68.085    0.392    0.194
  297.185    9.106  160.882   67.843    0.410    0.189
  297.435    9.056  160.888   70.076    0.398    0.195
  297.685    8.991  160.374   70.205    0.379    0.206
  297.935    8.909  160.382   64.146    0.378    0.200
  298.185    8.892  160.294   59.943    0.380    0.193
  298.435    8.802  160.296   61.991    0.378    0.187
  298.685    8.671  160.829   68.618    0.369    0.183
  298.935    8.549  161.156   69.615    0.361    0.179
  299.185    8.459  161.162   71.104    0.374    0.185
  299.435    8.272  161.484   74.761    0.390    0.186
  299.685    8.102  161.601   76.313    0.379    0.184
  299.935    7.786  161.611   80.278    0.424    0.186
  300.185    7.438  161.618   77.251    0.425    0.193
  300.435    7.130  161.843   79.546    0.424    0.186
  300.685    6.887  161.635   78.933    0.429    0.170
  300.935    6.595  161.226   77.453    0.433    0.169
  301.185    6.336  161.226   74.797    0.428    0.170
  301.435    6.068  161.037   79.629    0.428    0.161
  301.685    5.841  160.939   88.917    0.435    0.169
  301.935    5.598  160.529   90.284    0.430    0.173
  302.185    5.475  161.062   87.195    0.419    0.167
  302.435    5.499  161.069   93.204    0.412    0.164
  302.685    5.731  160.872   97.665    0.423    0.164
  302.935    6.166  160.773   85.355    0.410    0.159
  303.185    6.609  160.677   80.162    0.373    0.148
  303.435    7.125  161.631   74.165    0.334    0.142
  303.685    8.544  161.638   70.024    0.307    0.136
  303.935   10.198  162.066   64.460    0.261    0.118
  304.185   12.158  160.505   67.683    0.216    0.070
  304.435   14.418  161.353   74.619    0.238    0.162
  304.685   17.096  162.304   75.121    0.279    0.178
  304.935   16.724  162.524   74.011    0.334    0.180
  305.185   16.206  162.532   74.079    0.362    0.176
  305.435   15.721  162.644   75.754    0.340    0.176
  305.685   15.857  162.548   75.388    0.337    0.181
  305.935   16.687  162.138   73.661    0.335    0.190
  306.185   19.455  160.995   55.349    0.328    0.203
  306.435   20.116  159.958   43.411    0.247    0.222
  306.685   20.550  159.860   33.082    0.255    0.247
  306.935   20.719  159.975   27.146    0.266    0.257
  307.185   20.806  160.508   28.513    0.279    0.262
  307.435   20.854  160.832   26.724    0.302    0.260
  307.685   20.893  160.735   26.421    0.302    0.252
  307.935   20.900  160.638   27.663    0.290    0.266
  308.185   20.866  160.544   30.081    0.293    0.269
  308.435   20.777  160.552   33.491    0.328    0.262
  308.685   20.687  160.352   36.466    0.339    0.260
  308.935   20.306  160.360   39.504    0.332    0.256
  309.185   19.458  160.685   43.593    0.315    0.251
  309.435   15.291  161.847   47.621    0.332    0.254
  309.685   13.490  162.588   52.639    0.353    0.242
  309.935   12.286  162.807   61.061    0.363    0.213
  310.185   10.154  163.131   78.826    0.370    0.152
  310.435    8.821  163.245   77.470    0.352    0.148
  310.685    7.544  164.092   78.527    0.357    0.159
  310.935    5.759  164.521   75.253    0.385    0.161
  311.185    5.145  164.742   76.929    0.412    0.161
  311.435    4.433  164.750   80.523    0.430    0.183
  311.685    4.125  164.966   83.438    0.443    0.191
  311.935    3.987  165.081   82.763    0.426    0.180
  312.185    4.002  164.984   85.305    0.410    0.172
  312.435    4.178  165.202   86.115    0.416    0.170
  312.685    4.775  165.212   73.496    0.438    0.168
  312.935    5.113  164.698   76.595    0.427    0.162
  313.185    5.095  164.184   82.665    0.425    0.152
  313.435    4.900  163.981   85.644    0.429    0.144
  313.685    4.754  163.572   85.894    0.434    0.143
  313.935    4.728  163.163   83.796    0.425    0.147
  314.185    4.728  163.170   86.090    0.420    0.151
  314.435    5.090  162.864   81.330    0.416    0.156
  314.685    6.009  163.084   71.125    0.392    0.160
  314.935    6.977  162.987   65.066    0.326    0.178
  315.185    8.550  162.473   60.554    0.330    0.208
  315.435   13.997  162.272   65.572    0.351    0.201
  315.685   15.384  162.073   69.166    0.346    0.177
  315.935   14.600  161.767   65.396    0.328    0.177
  316.185   14.478  168.906   59.894    0.336    0.193
  316.435   15.147  159.584   51.236    0.325    0.207
  316.685   16.292  160.536   41.897    0.274    0.229
  316.935   17.857  161.489   42.088    0.278    0.245
  317.185   18.913  162.965   39.432    0.297    0.264
  317.435   19.526  164.860   49.772    0.326    0.274
  317.685   20.154  163.821   75.583    0.469    0.293
  317.935   20.412  163.305   85.985    0.513    0.401
  318.185   20.515  162.163   79.863    0.514    0.422
  318.435   20.684  161.648   64.150    0.485    0.317
  318.685   21.014  160.085   50.170    0.427    0.258
  318.935   21.472  157.789   36.685    0.374    0.244
  319.185   21.762  158.112   25.613    0.210    0.253
  319.435   21.995  160.007   27.227    0.221    0.262
  319.685   22.115  160.958   27.234    0.267    0.266
  319.935   22.082  161.284   28.290    0.162    0.254
  320.185   21.935  161.605   30.833    0.128    0.219
  320.435   21.732  161.196   35.293    0.159    0.215
  320.685   21.618  161.939   40.249    0.192    0.216
  320.935   21.528  162.577   38.955    0.201    0.217
  321.185   21.519  162.690   37.413    0.183    0.213
  321.435   21.494  163.643   36.181    0.178    0.208
  321.685   21.541  164.489   35.258    0.196    0.201
  321.935   21.637  165.021   31.241    0.193    0.198
  322.185   21.708  165.030   29.390    0.175    0.201
  322.435   21.651  162.946   29.891    0.135    0.201
  322.685   21.601  162.327   30.081    0.159    0.198
  322.935   21.616  162.648   34.666    0.253    0.218
  323.185   21.647  163.602   41.478    0.319    0.219
  323.435   21.654  163.611   60.853    0.317    0.196
  323.685   21.645  163.829   70.884    0.324    0.177
  323.935   21.466  163.839   63.525    0.290    0.176
  324.185   21.255  163.845   63.654    0.303    0.192
  324.435   21.052  163.750   70.096    0.307    0.186
  324.685   21.019  163.552   38.107    0.273    0.162
  324.935   21.050  163.246   22.827    0.072    0.190
  325.185   21.307  163.045   16.892    0.044    0.202
  325.435   21.452  163.053   25.499    0.096    0.205
  325.685   21.564  163.063   33.487    0.160    0.210
  325.935   21.635  163.386   38.876    0.189    0.204
  326.185   21.650  163.605   44.822    0.198    0.179
  326.435   21.617  163.717   32.203    0.200    0.177
  326.685   21.446  162.469   40.811    0.210    0.179
  326.935   21.090  163.945   70.025    0.196    0.173
  327.185   20.604  160.289   85.872    0.243    0.168
  327.435   19.965  160.297  102.091    0.293    0.174
  327.685   19.068  160.620  139.164    0.360    0.178
  327.935   18.422  161.361  127.165    0.396    0.175
  328.185   17.153  162.419  117.516    0.407    0.185
  328.435   15.094  164.000  119.625    0.413    0.193
  328.685   15.221  166.313  119.631    0.414    0.198
  328.935   15.471  166.324  103.732    0.397    0.194
