~VERSION INFORMATION
 VERS.                 2.0:   CWLS LOG ASCII STANDARD -VERSION 2.0
 WRAP.                  NO:   ONE LINE PER DEPTH STEP
~WELL INFORMATION BLOCK
#MNEM.UNIT           DATA                    DESCRIPTION OF MNEMONIC
#---------    -------------------            -------------------------------
# Generated from Intellog Unique Number	CW_82_90/WELL/3080
WELL.         11-32-086-22W4                 : Well_name    - WELL
LOC .         00/11-32-086-22W4/0            : Location     - LOCATION
UWI .         00/11-32-086-22W4/0            : Uwi          - UNIQUE WELL ID
ENTR.         MAX                            : Entered      - ENTERED BY
SRVC.         SCHLUMBERGER                   : Scn          - SERVICE COMPANY
STRT.M        152.4                          : top_depth    - START DEPTH
STOP.M        347.4                          : bot_depth    - STOP DEPTH
STEP.M        0.25                           : increment    - STEP LENGTH
 NULL. -999.2500:NULL Value
~CURVE INFORMATION BLOCK
#MNEM UNIT       ERCB CURVE CODE    CURVE DESCRIPTION
#-----------   ------------------   ----------------------------------
DEPT.M        00 001 00 00         : DEPTH        - DEPTH
ILD .OHMM     00 120 00 00         : RESD         - DEEP RESISTIVITY (DIL)
NPHI.V/V      00 330 00 00         : PHIN         - NEUTRON POROSITY (SANDSTONE)
DPHI.V/V      00 890 00 00         : PHID         - DENSITY POROSITY (SANDSTONE)
CALI.MM       00 280 01 00         : CAL          - CALIPER
GR  .API      00 310 00 00         : GR           - GAMMA RAY
~PARAMETER INFORMATION
#MNEM.UNIT           DATA             DESCRIPTION OF MNEMONIC
#---------         -----------     ------------------------------
GL  .M        563.88               : gl           - GROUND LEVEL ELEVATION
EREF.M        567.233              : kb           - ELEVATION OF DEPTH REFERENCE
DATM.M        563.88               : datum        - DATUM ELEVATION
TDD .M        350.52               : tdd          - TOTAL DEPTH DRILLER
RUN .         ONE                  : Run          - RUN NUMBER
ENG .         BILL                 : Engineer     - RECORDING ENGINEER
WIT .         JIM                  : Witness      - WITNESSED BY
MUD .         GEL                  : Mud_type     - MUD TYPE
MATR.         SANDSTONE            : Logunit      - NEUTRON MATRIX
TMAX.C        20.5556              : BHT          - MAXIMUM RECORDED TEMPERATURE
BHTD.M        2.56383e+06          : BHTDEP       - MAXIMUM RECORDED TEMPERATURE
MATR.         1                    : LOGUNIT      - NEUTRON MATRIX
RMT .C        15.5556              : MDTP         - TEMPERATURE OF MUD
NEUT.         1                    : NEUTRON      - NEUTRON TYPE
RESI.         0                    : RESIST       - RESISTIVITY TYPE
RMC .OHMM     4.28                 : RMC          - RESISTIVITY OF MUD CAKE
RMF .OHMM     3.31                 : RMF          - RESISTIVITY OF MUD FILTRATE
SUFT.C        -17.7778             : SUFT         - SURFACE TEMPERATURE
~A  DEPTH     RESD     PHIN     PHID      CAL       GR
# ...
  225.400   10.310    0.474    0.296  314.262   80.388
  225.650    9.508    0.445    0.271  314.759   78.959
  225.900    8.690    0.434    0.251  316.232   79.829
  226.150    8.014    0.435    0.233  316.247   80.125
  226.400    6.753    0.434    0.284  312.849   79.844
  226.650    5.953    0.438    0.298  312.375   81.576
  226.900    5.296    0.445    0.290  312.874   84.460
  227.150    4.973    0.457    0.279  313.861   86.768
  227.400    4.974    0.461    0.267  313.875   88.213
  227.650    5.252    0.461    0.251  310.965   91.959
  227.900    5.698    0.470    0.244  310.490   94.269
  228.150    6.466    0.477    0.247  311.476   89.673
  228.400    7.272    0.474    0.236  311.976   81.052
  228.650    8.106    0.475    0.232  306.632   72.721
  228.900    8.181    0.471    0.309  306.157   71.864
  229.150    7.410    0.456    0.313  308.604   74.749
  229.400    7.412    0.441    0.304  311.054   76.483
  229.650    7.617    0.428    0.302  311.553   77.064
  229.900    8.043    0.421    0.306  311.565   77.359
  230.150    8.265    0.446    0.307  311.099   77.655
  230.400    8.886    0.477    0.298  310.129   79.674
  230.650    9.467    0.480    0.280  310.140   80.258
  230.900    9.817    0.463    0.282  309.666   79.113
  231.150    9.219    0.446    0.311  308.705   75.958
  231.400    8.579    0.464    0.306  308.232   73.089
  231.650    7.912    0.445    0.285  307.270   70.221
  231.900    7.702    0.438    0.265  305.821   69.654
  232.150    7.635    0.466    0.308  305.346   70.523
  232.400    7.433    0.473    0.299  306.821   71.394
  232.650    6.917    0.473    0.286  308.296   73.126
  232.900    6.379    0.477    0.282  308.795   77.160
  233.150    5.830    0.466    0.288  309.295   81.481
  233.400    5.377    0.461    0.287  309.791   85.803
  233.650    5.004    0.469    0.266  310.291   87.535
  233.900    4.656    0.470    0.248  312.251   88.694
  234.150    4.333    0.470    0.249  313.240   89.851
  234.400    4.334    0.474    0.233  314.225   90.434
  234.650    4.535    0.492    0.223  315.212   89.004
  234.900    5.010    0.509    0.204  315.227   85.272
  235.150    5.634    0.489    0.212  314.752   86.430
  235.400    6.057    0.495    0.254  314.275   86.438
  235.650    6.453    0.493    0.256  315.750   86.445
  235.900    6.513    0.479    0.248  318.195   85.876
  236.150    6.694    0.469    0.239  321.132   84.158
  236.400    6.941    0.468    0.247  320.655   81.865
  236.650    7.329    0.467    0.254  314.826   80.146
  236.900    7.809    0.468    0.262  313.863   78.716
  237.150    8.704    0.471    0.280  313.389   74.410
  237.400    9.701    0.460    0.300  312.914   73.555
  237.650   10.429    0.439    0.305  311.952   71.836
  237.900   10.527    0.449    0.319  311.480   70.981
  238.150    9.196    0.465    0.307  311.980   74.727
  238.400    6.074    0.474    0.290  312.478   79.624
  238.650    5.914    0.472    0.267  313.463   83.658
  238.900    5.862    0.473    0.257  316.399   85.965
  239.150    5.863    0.473    0.283  319.334   86.835
  239.400    5.971    0.487    0.291  319.833   84.832
  239.650    6.596    0.491    0.299  314.490   81.961
  239.900    7.220    0.468    0.300  312.066   75.929
  240.150    8.572    0.461    0.304  311.590   70.760
  240.400    9.216    0.466    0.324  309.168   72.492
  240.650    8.972    0.467    0.316  307.719   75.952
  240.900    8.200    0.467    0.297  306.272   74.233
  241.150    7.100    0.475    0.281  306.285   75.104
  241.400    6.431    0.494    0.263  306.298   75.686
  241.650    6.038    0.475    0.261  306.797   77.707
  241.900    5.420    0.463    0.278  309.247   80.015
  242.150    5.229    0.466    0.283  310.717   81.748
  242.400    5.137    0.474    0.282  312.677   82.905
  242.650    5.185    0.484    0.282  313.667   83.775
  242.900    5.727    0.508    0.283  314.650   86.371
  243.150    6.213    0.511    0.279  315.638   84.941
  243.400    7.115    0.501    0.253  316.624   81.498
  243.650    8.447    0.492    0.229  317.612   79.779
  243.900   12.120    0.477    0.188  317.623   78.060
  244.150   12.913    0.434    0.130  317.636   73.754
  244.400   12.016    0.439    0.118  317.161   72.899
  244.650   10.126    0.440    0.150  317.173   77.795
  244.900    9.008    0.437    0.205  318.159   85.568
  245.150    8.613    0.434    0.236  317.687   88.452
  245.400    8.461    0.427    0.230  316.723   88.746
  245.650    8.312    0.410    0.217  316.738   89.616
  245.900    8.239    0.424    0.220  317.237   92.500
  246.150    8.241    0.434    0.236  318.711   93.370
  246.400    8.169    0.442    0.243  319.697   91.652
  246.650    8.170    0.443    0.245  319.709   90.508
  246.900    8.099    0.446    0.241  319.721   90.229
  247.150    8.028    0.447    0.236  319.736   89.948
  247.400    8.030    0.449    0.225  319.748   89.381
  247.650    8.032    0.453    0.216  319.273   88.814
  247.900    7.961    0.452    0.227  319.285   86.808
  248.150    7.892    0.450    0.233  319.297   87.104
  248.400    7.894    0.450    0.232  318.823   87.397
  248.650    7.825    0.441    0.227  319.810   88.842
  248.900    7.827    0.433    0.225  319.334   91.440
  249.150    7.758    0.422    0.236  319.349   91.733
  249.400    7.760    0.437    0.235  318.872   90.879
  249.650    7.762    0.446    0.230  318.884   91.460
  249.900    7.764    0.455    0.224  318.899   90.606
  250.150    7.766    0.465    0.224  319.399   89.750
  250.400    7.767    0.471    0.234  319.411   89.181
  250.650    7.769    0.464    0.235  319.912   88.326
  250.900    7.771    0.440    0.228  321.872   88.046
  251.150    7.703    0.430    0.220  323.345   87.480
  251.400    7.636    0.425    0.211  318.485   87.486
  251.650    7.501    0.418    0.204  318.985   87.493
  251.900    7.503    0.423    0.207  318.510   88.363
  252.150    7.505    0.429    0.235  317.551   89.521
  252.400    7.506    0.428    0.228  317.078   90.968
  252.650    7.645    0.425    0.210  317.086   92.412
  252.900    7.927    0.425    0.229  318.075   95.584
  253.150    8.370    0.438    0.231  319.063   99.617
  253.400    8.999    0.463    0.227  320.536   98.763
  253.650   10.305    0.461    0.222  320.546   95.318
  253.900   11.801    0.449    0.215  317.639   91.298
  254.150   14.011    0.440    0.188  318.136   80.953
  254.400   15.476    0.380    0.078  319.124   68.881
  254.650   17.250    0.261    0.024  319.624   63.711
  254.900   17.253    0.271    0.050  318.664   64.295
  255.150   16.201    0.317    0.148  315.752   67.465
  255.400   13.902    0.397    0.197  315.280   73.225
  255.650   11.820    0.442    0.286  315.290   68.630
  255.900    9.695    0.448    0.317  314.818   66.337
  256.150    8.470    0.459    0.322  314.827   69.220
  256.400    7.535    0.460    0.308  314.354   73.254
  256.650    6.763    0.445    0.292  314.371   81.889
  256.900    6.466    0.437    0.279  315.356   85.637
  257.150    6.127    0.441    0.259  315.852   87.944
  257.400    5.858    0.463    0.243  315.865   91.403
  257.650    5.652    0.460    0.233  315.392   91.985
  257.900    5.603    0.469    0.240  315.403   93.142
  258.150    5.604    0.474    0.243  315.902   96.602
  258.400    5.811    0.475    0.237  315.914   93.157
  258.650    6.136    0.480    0.250  314.955   88.275
  258.900    6.963    0.490    0.260  315.940   80.231
  259.150    8.342    0.479    0.291  316.928   73.335
  259.400    9.467    0.451    0.325  317.426   67.590
  259.650   10.178    0.431    0.324  316.464   64.147
  259.900   11.243    0.423    0.312  315.019   65.018
  260.150   11.554    0.418    0.295  314.541   67.326
  260.400   11.248    0.420    0.261  315.041   71.359
  260.650   10.951    0.422    0.242  317.003   76.832
  260.900   10.565    0.431    0.197  317.989   80.865
  261.150   10.567    0.434    0.212  316.054   82.597
  261.400   10.762    0.424    0.273  312.170   78.867
  261.650   11.996    0.430    0.265  308.288   76.285
