~VERSION INFORMATION
 VERS.                 2.0:   CWLS LOG ASCII STANDARD -VERSION 2.0
 WRAP.                  NO:   ONE LINE PER DEPTH STEP
~WELL INFORMATION BLOCK
#MNEM.UNIT           DATA                    DESCRIPTION OF MNEMONIC
#---------    -------------------            -------------------------------
# Generated from Intellog Unique Number	CS_71_72/WELL/862
WELL.         HB PITLOCHRIE                  : Well_name    - WELL
LOC .         00/10-20-071-12W4/0            : Location     - LOCATION
UWI .         00/10-20-071-12W4/0            : Uwi          - UNIQUE WELL ID
ENTR.         SP                             : Entered      - ENTERED BY
SRVC.         SCHLUMBERGER                   : Scn          - SERVICE COMPANY
STRT.M        262.128                        : top_depth    - START DEPTH
STOP.M        490.378                        : bot_depth    - STOP DEPTH
STEP.M        0.25                           : increment    - STEP LENGTH
 NULL. -999.2500:NULL Value
~CURVE INFORMATION BLOCK
#MNEM UNIT       ERCB CURVE CODE    CURVE DESCRIPTION
#-----------   ------------------   ----------------------------------
DEPT.M        00 001 00 00         : DEPTH        - DEPTH
GR  .API      00 310 00 00         : GR           - GAMMA RAY
DPHI.V/V      00 890 00 00         : PHID         - DENSITY POROSITY (SANDSTONE)
NPHI.V/V      00 330 00 00         : PHIN         - NEUTRON POROSITY (SANDSTONE)
ILD .OHMM     00 120 00 00         : RESD         - DEEP RESISTIVITY (DIL)
~PARAMETER INFORMATION
#MNEM.UNIT           DATA             DESCRIPTION OF MNEMONIC
#---------         -----------     ------------------------------
GL  .M        592.836              : gl           - GROUND LEVEL ELEVATION
EREF.M        595.884              : kb           - ELEVATION OF DEPTH REFERENCE
DATM.M        592.836              : datum        - DATUM ELEVATION
TDD .M        492.252              : tdd          - TOTAL DEPTH DRILLER
RUN .         ONE                  : Run          - RUN NUMBER
ENG .         BILL                 : Engineer     - RECORDING ENGINEER
WIT .         JIM                  : Witness      - WITNESSED BY
MUD .         GEL                  : Mud_type     - MUD TYPE
MATR.         SANDSTONE            : Logunit      - NEUTRON MATRIX
TMAX.C        16.1111              : BHT          - MAXIMUM RECORDED TEMPERATURE
BHTD.M        492.252              : BHTDEP       - MAXIMUM RECORDED TEMPERATURE
MATR.         1                    : LOGUNIT      - NEUTRON MATRIX
RMT .C        25                   : MDTP         - TEMPERATURE OF MUD
NEUT.         1                    : NEUTRON      - NEUTRON TYPE
RESI.         0                    : RESIST       - RESISTIVITY TYPE
RMC .OHMM     0.25                 : RMC          - RESISTIVITY OF MUD CAKE
RMF .OHMM     0.25                 : RMF          - RESISTIVITY OF MUD FILTRATE
SUFT.C        15                   : SUFT         - SURFACE TEMPERATURE
~A  DEPTH       GR     PHID     PHIN     RESD
# ...
  392.628  100.874    0.237    0.492    4.216
  392.878  100.552    0.243    0.486    4.140
  393.128  100.722    0.228    0.492    4.048
  393.378  101.285    0.224    0.488    3.997
  393.628  102.358    0.234    0.484    4.011
  393.878  103.030    0.237    0.479    4.053
  394.128  103.125    0.241    0.477    4.116
  394.378  102.610    0.234    0.483    4.136
  394.628  104.241    0.231    0.490    4.100
  394.878  106.602    0.239    0.491    4.004
  395.128  108.377    0.239    0.486    3.904
  395.378  107.805    0.236    0.485    3.884
  395.628  104.733    0.246    0.503    3.901
  395.878  100.425    0.257    0.500    3.940
  396.128  102.498    0.238    0.492    3.975
  396.378  105.545    0.221    0.496    3.985
  396.628  106.522    0.210    0.497    4.003
  396.878  105.193    0.199    0.495    3.975
  397.128  104.856    0.204    0.491    3.951
  397.378  106.103    0.214    0.484    3.899
  397.628  107.125    0.197    0.480    3.790
  397.878  107.303    0.186    0.476    3.665
  398.128  107.936    0.199    0.503    3.489
  398.378  109.890    0.202    0.526    3.228
  398.628  110.877    0.215    0.547    2.946
  398.878  110.798    0.234    0.564    2.663
  399.128  109.427    0.244    0.552    2.461
  399.378  108.617    0.242    0.534    2.349
  399.628  106.020    0.267    0.521    2.372
  399.878  101.202    0.275    0.501    2.441
  400.128   96.533    0.272    0.483    2.634
  400.378   94.638    0.291    0.472    2.847
  400.628   94.649    0.296    0.478    3.046
  400.878   94.229    0.281    0.482    3.176
  401.128   92.913    0.268    0.485    3.323
  401.378   91.819    0.261    0.476    3.427
  401.628   92.633    0.256    0.467    3.447
  401.878   94.192    0.251    0.461    3.467
  402.128   94.413    0.243    0.475    3.559
  402.378   91.289    0.217    0.480    3.668
  402.628   92.075    0.174    0.447    3.817
  402.878   96.441    0.135    0.445    3.952
  403.128  102.635    0.233    0.494    4.100
  403.378  109.738    0.229    0.507    4.097
  403.628  108.522    0.242    0.500    4.069
  403.878  105.098    0.243    0.495    3.969
  404.128  103.108    0.232    0.509    3.813
  404.378  102.153    0.204    0.516    3.781
  404.628  101.175    0.193    0.497    3.890
  404.878  100.697    0.197    0.471    4.030
  405.128  100.873    0.205    0.452    4.121
  405.378  102.716    0.217    0.446    4.164
  405.628  104.842    0.212    0.450    4.214
  405.878  102.045    0.208    0.458    4.218
  406.128  100.418    0.207    0.472    4.223
  406.378   98.619    0.206    0.480    4.302
  406.628   96.428    0.209    0.483    4.432
  406.878   94.236    0.200    0.490    4.737
  407.128   78.979    0.181    0.310    5.283
  407.378   66.403    0.129    0.260    6.465
  407.628   63.198    0.002    0.218    7.072
  407.878   60.540   -0.007    0.200    8.020
  408.128   62.256   -0.009    0.227    8.220
  408.378   76.051    0.011    0.285    6.645
  408.628   93.171    0.049    0.379    5.866
  408.878  100.782    0.101    0.433    5.164
  409.128  107.407    0.163    0.460    4.585
  409.378  111.405    0.194    0.460    4.323
  409.628  108.173    0.192    0.455    4.163
  409.878  104.387    0.208    0.455    4.107
  410.128  103.802    0.195    0.455    4.126
  410.378  105.224    0.190    0.456    4.145
  410.628  109.590    0.195    0.456    4.134
  410.878  111.789    0.193    0.452    4.113
  411.128  105.741    0.215    0.447    4.068
  411.378  104.304    0.225    0.453    4.022
  411.628  105.259    0.208    0.464    4.020
  411.878  107.740    0.202    0.478    4.063
  412.128  110.463    0.217    0.481    4.131
  412.378  113.932    0.234    0.471    4.160
  412.628  116.614    0.232    0.462    4.148
  412.878  118.372    0.212    0.457    3.976
  413.128  111.981    0.198    0.453    3.887
  413.378  110.886    0.226    0.454    4.010
  413.628  111.363    0.224    0.477    3.952
  413.878  109.504    0.223    0.492    3.700
  414.128  104.612    0.215    0.488    3.556
  414.378  102.200    0.224    0.500    3.559
  414.628  101.362    0.246    0.501    3.522
  414.878  100.808    0.234    0.489    3.392
  415.128  100.851    0.239    0.483    3.102
  415.378  101.756    0.260    0.497    2.702
  415.628  101.796    0.260    0.545    2.363
  415.878  101.655    0.243    0.549    2.081
  416.128  103.707    0.232    0.535    1.824
  416.378  105.958    0.226    0.523    1.624
  416.628  107.943    0.228    0.539    1.768
  416.878  108.579    0.244    0.554    1.972
  417.128  109.823    0.259    0.543    2.327
  417.378  104.694    0.249    0.515    2.574
  417.628  101.417    0.230    0.496    2.870
  417.878  100.031    0.217    0.475    3.195
  418.128  100.630    0.211    0.462    3.479
  418.378  101.442    0.224    0.468    3.595
  418.628  102.355    0.228    0.469    3.448
  418.878   99.226    0.215    0.477    3.274
  419.128   94.072    0.196    0.490    3.232
  419.378   92.359    0.166    0.468    3.333
  419.628   94.120    0.148    0.452    3.461
  419.878   97.004    0.191    0.468    3.702
  420.128  100.166    0.264    0.479    3.942
  420.378   93.076    0.206    0.448    4.129
  420.628   83.302    0.133    0.414    4.335
  420.878   78.997    0.081    0.350    4.514
  421.128   89.588    0.040    0.358    4.655
  421.378   96.378    0.123    0.408    4.618
  421.628  102.581    0.164    0.431    4.011
  421.878  103.163    0.208    0.450    3.424
  422.128  105.700    0.215    0.473    3.057
  422.378  108.899    0.226    0.490    2.851
  422.628  111.196    0.209    0.508    2.628
  422.878  113.018    0.193    0.521    2.421
  423.128  113.787    0.215    0.518    2.307
  423.378  112.628    0.215    0.524    2.267
  423.628  113.695    0.216    0.521    2.233
  423.878  114.918    0.204    0.515    2.225
  424.128  115.843    0.196    0.506    2.257
  424.378  119.330    0.207    0.493    2.358
  424.628  121.457    0.196    0.491    2.275
  424.878  119.381    0.181    0.507    2.401
  425.128  114.030    0.175    0.519    2.610
  425.378  108.497    0.184    0.483    2.769
  425.628  105.255    0.151    0.460    2.842
  425.878  108.578    0.142    0.465    2.832
  426.128  112.836    0.182    0.482    2.560
  426.378  115.058    0.199    0.471    2.474
  426.628  118.681    0.189    0.487    2.392
  426.878  121.332    0.195    0.508    2.454
  427.128  123.456    0.204    0.524    2.562
  427.378  121.342    0.186    0.490    2.651
  427.628  116.089    0.160    0.463    2.735
  427.878  113.348    0.146    0.455    2.760
  428.128  116.627    0.148    0.484    2.644
  428.378  119.755    0.198    0.505    2.355
  428.628  120.967    0.199    0.525    2.232
  428.878  120.978    0.197    0.538    2.131
  429.128  119.653    0.198    0.541    2.155
  429.378  115.832    0.205    0.525    2.409
  429.628  111.152    0.190    0.502    2.717
  429.878  108.143    0.169    0.478    3.177
  430.128  104.839    0.154    0.455    3.592
  430.378  103.095    0.151    0.433    4.018
  430.628  103.585    0.131    0.419    4.448
  430.878  103.352    0.147    0.416    4.666
  431.128  102.155    0.203    0.426    4.697
  431.378   98.547    0.198    0.418    4.468
  431.628   91.373    0.219    0.404    4.365
  431.878   89.051    0.211    0.395    4.615
  432.128   87.878    0.202    0.393    5.138
  432.378   84.950    0.222    0.396    5.604
  432.628   80.388    0.223    0.399    6.150
  432.878   77.346    0.223    0.403    6.428
  433.128   76.118    0.211    0.394    7.043
  433.378   75.568    0.187    0.380    7.638
  433.628   74.704    0.107    0.359    8.419
  433.878   71.955    0.080    0.341    9.029
  434.128   69.353    0.061    0.317    9.811
  434.378   66.040    0.048    0.299   10.663
  434.628   60.885    0.105    0.338   11.524
  434.878   56.003    0.184    0.335   11.904
  435.128   52.159    0.269    0.319   12.042
  435.378   55.779    0.287    0.323   11.962
  435.628   63.526    0.255    0.356   11.976
  435.878   68.138    0.235    0.382   12.177
