~VERSION INFORMATION
 VERS.                 2.0:   CWLS LOG ASCII STANDARD -VERSION 2.0
 WRAP.                  NO:   ONE LINE PER DEPTH STEP
~WELL INFORMATION BLOCK
#MNEM.UNIT           DATA                    DESCRIPTION OF MNEMONIC
#---------    -------------------            -------------------------------
# Generated from Intellog Unique Number	CC_80_83/WELL/2409
NULL.         -999.25                        : NULL_VALUE
WELL.         PEX HOUSE                      : Well_name    - WELL
LOC .         11-26-080-16W4                 : Location     - LOCATION          
UWI .         00/11-26-080-16W4/0            : Uwi          - UNIQUE WELL ID    
ENTR.         DW                             : Entered      - ENTERED BY        
SRVC.         SCHLUMBERGER                   : Scn          - SERVICE COMPANY   
DATE.         13 FEB 82                      : Date         - LOG DATE
STRT.M        152                            : top_depth    - START DEPTH       
STOP.M        385.096                        : bot_depth    - STOP DEPTH        
STEP.M        0.3                            : increment    - STEP LENGTH       
~CURVE INFORMATION BLOCK
#MNEM UNIT       ERCB CURVE CODE    CURVE DESCRIPTION
#-----------   ------------------   ----------------------------------
DEPT.M        00 001 00 00         : DEPTH        - DEPTH                       
DPHI.V/V      00 890 00 00         : PHID         - DENSITY POROSITY (LIMESTONE)
NPHI.V/V      00 330 00 00         : PHIN         - NEUTRON POROSITY (LIMESTONE)
GR  .API      00 310 00 00         : GR           - GAMMA RAY                   
ILD .OHMM     00 120 00 00         : RESD         - DEEP RESISTIVITY (DIL)      
~PARAMETER INFORMATION       
#MNEM.UNIT           DATA             DESCRIPTION OF MNEMONIC
#---------         -----------     ------------------------------
GL  .M        566.17               : gl           - GROUND LEVEL ELEVATION      
EREF.M        569.97               : kb           - ELEVATION OF DEPTH REFERENCE
DATM.M        569.97               : datum        - DATUM ELEVATION             
TDD .M        380                  : tdd          - TOTAL DEPTH DRILLER         
RUN .         ONE                  : Run          - RUN NUMBER                  
ENG .         BILL                 : Engineer     - RECORDING ENGINEER          
WIT .         JIM                  : Witness      - WITNESSED BY                
MUD .         GEL                  : Mud_type     - MUD TYPE                    
MATR.         LIMESTONE            : Logunit      - NEUTRON MATRIX              
TMAX.C        19.4                 : BHT          - MAXIMUM RECORDED TEMPERATURE
BHTD.M        380                  : BHTDEP       - MAXIMUM RECORDED TEMPERATURE
MATR.         1                    : LOGUNIT      - NEUTRON MATRIX              
RMT .C        25                   : MDTP         - TEMPERATURE OF MUD          
NEUT.         1                    : NEUTRON      - NEUTRON TYPE                
RESI.         0                    : RESIST       - RESISTIVITY TYPE            
RMC .OHMM     0.25                 : RMC          - RESISTIVITY OF MUD CAKE     
RMF .OHMM     0.25                 : RMF          - RESISTIVITY OF MUD FILTRATE 
SUFT.C        15                   : SUFT         - SURFACE TEMPERATURE         
~A  DEPTH     PHID     PHIN       GR     RESD
# ...
  308.599    0.297    0.427   85.504    8.124
  308.899    0.290    0.441   70.632    8.124
  309.199    0.123    0.469   57.619    8.769
  309.499    0.027    0.290   52.665   11.900
  309.799    0.041    0.207   57.630   18.814
  310.099    0.103    0.209   62.593   20.307
  310.399    0.158    0.341   68.796   20.308
  310.699    0.245    0.404   73.760   10.414
  310.999    0.290    0.433   76.863    9.287
  311.299    0.286    0.436   75.629    8.940
  311.599    0.277    0.421   73.154    8.442
  311.899    0.243    0.410   70.060    8.127
  312.199    0.250    0.410   68.204    7.675
  312.499    0.241    0.439   67.589    7.675
  312.799    0.243    0.444   70.693    7.530
  313.099    0.270    0.431   73.176    7.388
  313.399    0.277    0.403   73.801    7.248
  313.699    0.282    0.398   74.426    7.249
  313.999    0.282    0.404   68.853    7.388
  314.299    0.270    0.445   68.236    7.389
  314.599    0.231    0.459   76.919    7.389
  314.899    0.235    0.446   80.644    7.389
  315.199    0.245    0.424   72.590    7.250
  315.499    0.262    0.404   66.395    7.113
  315.799    0.333    0.425   67.640    6.717
  316.099    0.352    0.471   80.661    6.224
  316.399    0.220    0.445   82.528    6.224
  316.699    0.248    0.435   81.912    6.106
  316.999    0.260    0.450   81.298    5.658
  317.299    0.231    0.460   81.920    4.950
  317.599    0.240    0.469   94.942    4.500
  317.899    0.225    0.467   98.667    4.587
  318.199    0.201    0.451   97.431    4.951
  318.499    0.232    0.444   94.956    5.344
  318.798    0.177    0.436   86.903    5.768
  319.098    0.142    0.416   69.551    6.592
  319.398    0.201    0.383   68.316    7.253
  319.698    0.226    0.399   78.238    7.535
  319.998    0.223    0.450   83.823    8.133
  320.298    0.225    0.434   81.348    8.449
  320.598    0.222    0.398   79.493    8.948
  320.898    0.194    0.416   78.877    9.296
  321.198    0.177    0.415   80.123    9.296
  321.498    0.196    0.403   81.366    9.658
  321.798    0.227    0.405   81.990   10.424
  322.098    0.233    0.444   74.556   11.252
  322.398    0.162    0.439   67.123   12.145
  322.698    0.129    0.338   67.747   11.915
  322.998    0.171    0.373   81.389   11.690
  323.298    0.192    0.394   84.493   10.426
  323.598    0.186    0.385   82.018   10.229
  323.898    0.186    0.395   79.545   10.036
  324.198    0.175    0.400   80.790   10.230
  324.498    0.175    0.399   80.793   10.628
  324.798    0.160    0.394   76.458   11.255
  325.098    0.151    0.381   76.464   11.042
  325.398    0.180    0.366   80.187   10.428
  325.698    0.173    0.378   87.630    8.952
  325.998    0.177    0.389   94.453    7.833
  326.298    0.185    0.385   94.460    6.853
  326.598    0.180    0.391   93.843    5.883
  326.898    0.178    0.425   92.608    5.247
  327.198    0.192    0.422   90.133    4.504
  327.498    0.225    0.445   85.799    3.383
  327.798    0.295    0.533   78.985    2.795
  328.098    0.302    0.541   73.411    2.541
  328.398    0.290    0.522   67.836    2.640
  328.698    0.248    0.426   60.402    3.652
  328.998    0.248    0.410   56.068    5.557
  329.298    0.251    0.398   55.453    7.542
  329.598    0.158    0.366   55.457    9.483
  329.898    0.167    0.333   58.562   11.923
  330.198    0.219    0.351   64.766   12.153
  330.498    0.193    0.375   72.209   11.477
  330.798    0.185    0.392   83.990    9.129
  331.098    0.227    0.415   92.053    6.353
  331.398    0.251    0.437   93.299    4.957
  331.698    0.241    0.466   88.964    4.096
  331.998    0.223    0.471   81.530    4.019
  332.298    0.216    0.447   75.336    4.421
  332.598    0.213    0.465   75.960    4.593
  332.898    0.206    0.453   85.263    4.682
  333.198    0.196    0.450   93.946    4.507
  333.498    0.180    0.465   90.851    4.338
  333.798    0.166    0.457   83.418    4.338
  334.098    0.160    0.420   82.182    4.338
  334.398    0.165    0.395   85.906    4.422
  334.698    0.201    0.434   93.349    4.422
  334.998    0.219    0.472   94.593    4.257
  335.298    0.226    0.483   93.980    4.176
  335.598    0.213    0.491   95.224    4.176
  335.898    0.203    0.482   97.089    4.339
  336.198    0.191    0.451   97.092    4.774
  336.498    0.180    0.437   83.460    5.456
  336.798    0.186    0.374   72.926    7.264
  337.098    0.231    0.321   64.872   11.268
  337.398    0.254    0.365   67.357   15.886
  337.698    0.252    0.402   57.443   17.814
  337.998    0.255    0.407   51.251   19.598
  338.298    0.272    0.356   51.255   19.599
  338.598    0.284    0.370   45.680   19.977
  338.898    0.290    0.382   46.925   19.977
  339.198    0.294    0.400   50.648   20.363
  339.498    0.285    0.435   50.033   21.156
  339.798    0.278    0.428   47.559   21.980
  340.098    0.293    0.422   46.945   22.403
  340.398    0.260    0.427   48.188   21.981
  340.698    0.191    0.399   55.631   20.758
  340.998    0.199    0.408   65.553   17.820
  341.298    0.213    0.401   71.137   15.008
  341.598    0.233    0.380   69.282   13.905
  341.898    0.229    0.365   72.386   12.884
  342.198    0.207    0.385   86.028   12.884
  342.498    0.212    0.392   83.552   16.830
  342.798    0.280    0.395   74.880   19.985
  343.098    0.285    0.397   79.843   26.609
  343.397    0.244    0.398   76.749   27.645
  343.697    0.204    0.374   72.414   27.123
  343.997    0.217    0.360   70.560   24.655
  344.297    0.242    0.342   71.185   23.284
  344.597    0.227    0.326   73.668   20.766
  344.897    0.191    0.347   76.151   18.520
  345.197    0.182    0.374   79.256   16.835
  345.497    0.201    0.384   81.120   16.205
  345.797    0.217    0.355   79.886   16.205
  346.097    0.192    0.318   76.790   16.518
  346.397    0.178    0.350   76.795   17.492
  346.697    0.204    0.361   73.700   18.172
  346.997    0.239    0.347   58.829   23.290
  347.297    0.261    0.355   61.312   27.132
  347.597    0.247    0.350   72.475   27.656
  347.897    0.229    0.336   76.819   25.624
  348.197    0.195    0.346   78.683   21.581
  348.497    0.147    0.365   73.108   20.773
  348.797    0.152    0.386   60.096   21.998
  349.097    0.260    0.418   61.962   23.295
  349.397    0.249    0.417   63.825   24.202
  349.697    0.237    0.401   70.028   25.144
  349.997    0.231    0.370   77.067   23.545
  350.297    0.229    0.362   78.280   23.101
  350.597    0.226    0.358   78.260   22.666
  350.897    0.219    0.361   75.777   21.819
  351.197    0.218    0.369   54.178   21.819
  351.497    0.208    0.389   57.857   22.239
  351.797    0.191    0.415   51.058   23.101
  352.097    0.245    0.430   43.634   23.545
  352.397    0.258    0.452   44.229   23.545
  352.697    0.234    0.445   45.443   22.239
  352.997    0.239    0.429   47.277   21.005
  353.297    0.259    0.420   50.333   20.220
  353.597    0.258    0.422   51.553   18.738
  353.897    0.242    0.461   54.612   16.092
  354.197    0.222    0.428   57.682   15.199
  354.497    0.208    0.426   60.748   15.199
  354.797    0.196    0.421   63.194   15.491
  355.097    0.181    0.385   65.020   16.092
  355.397    0.164    0.405   58.840   17.038
  355.697    0.196    0.410   56.350   18.038
  355.997    0.204    0.403   58.185   18.738
  356.297    0.207    0.400   58.165   19.465
  356.597    0.255    0.424   55.677   20.609
  356.897    0.244    0.445   53.810   21.819
  357.197    0.235    0.434   50.084   23.101
  357.497    0.256    0.434   48.837   23.545
  357.797    0.272    0.438   49.434   23.997
  358.097    0.276    0.428   54.345   24.928
  358.397    0.282    0.428   56.178   24.928
  358.697    0.306    0.433   43.211   25.895
  358.997    0.295    0.454   46.890   25.895
  359.297    0.309    0.472   53.038   25.407
  359.597    0.306    0.461   49.316   24.459
  359.897    0.294    0.436   50.532   23.545
  360.197    0.278    0.445   51.745   23.545
  360.497    0.253    0.453   51.107   24.928
