~VERSION INFORMATION
 VERS.                 2.0:   CWLS LOG ASCII STANDARD -VERSION 2.0
 WRAP.                  NO:   ONE LINE PER DEPTH STEP
~WELL INFORMATION BLOCK
#MNEM.UNIT           DATA                    DESCRIPTION OF MNEMONIC
#---------    -------------------            -------------------------------
# Generated from Intellog Unique Number	CS_67_68/WELL/804
WELL.         DOME PETROLEUM LIMITED         : Well_name    - WELL
LOC .         00/10-08-068-02W4/0            : Location     - LOCATION
UWI .         00/10-08-068-02W4/0            : Uwi          - UNIQUE WELL ID
ENTR.         SP                             : Entered      - ENTERED BY
SRVC.         SCHLUMBERGER                   : Scn          - SERVICE COMPANY
STRT.M        410                            : top_depth    - START DEPTH
STOP.M        665                            : bot_depth    - STOP DEPTH
STEP.M        0.25                           : increment    - STEP LENGTH
 NULL. -999.2500:NULL Value
~CURVE INFORMATION BLOCK
#MNEM UNIT       ERCB CURVE CODE    CURVE DESCRIPTION
#-----------   ------------------   ----------------------------------
DEPT.M        00 001 00 00         : DEPTH        - DEPTH
ILD .OHMM     00 120 00 00         : RESD         - DEEP RESISTIVITY (DIL)
DPHI.V/V      00 890 00 00         : PHID         - DENSITY POROSITY (LIMESTONE)
NPHI.V/V      00 330 00 00         : PHIN         - NEUTRON POROSITY (LIMESTONE)
GR  .API      00 310 00 00         : GR           - GAMMA RAY
~PARAMETER INFORMATION
#MNEM.UNIT           DATA             DESCRIPTION OF MNEMONIC
#---------         -----------     ------------------------------
GL  .M        743.94               : gl           - GROUND LEVEL ELEVATION
EREF.M        746.86               : kb           - ELEVATION OF DEPTH REFERENCE
DATM.M        743.94               : datum        - DATUM ELEVATION
TDD .M        667                  : tdd          - TOTAL DEPTH DRILLER
RUN .         ONE                  : Run          - RUN NUMBER
ENG .         BILL                 : Engineer     - RECORDING ENGINEER
WIT .         JIM                  : Witness      - WITNESSED BY
MUD .         GEL                  : Mud_type     - MUD TYPE
MATR.         LIMESTONE            : Logunit      - NEUTRON MATRIX
TMAX.C        31                   : BHT          - MAXIMUM RECORDED TEMPERATURE
BHTD.M        667                  : BHTDEP       - MAXIMUM RECORDED TEMPERATURE
MATR.         1                    : LOGUNIT      - NEUTRON MATRIX
RMT .C        25                   : MDTP         - TEMPERATURE OF MUD
NEUT.         1                    : NEUTRON      - NEUTRON TYPE
RESI.         0                    : RESIST       - RESISTIVITY TYPE
RMC .OHMM     0.25                 : RMC          - RESISTIVITY OF MUD CAKE
RMF .OHMM     0.25                 : RMF          - RESISTIVITY OF MUD FILTRATE
SUFT.C        15                   : SUFT         - SURFACE TEMPERATURE
~A  DEPTH     RESD     PHID     PHIN       GR
# ...
  540.500   21.601    0.341    0.466   72.706
  540.750   22.670    0.334    0.458   73.566
  541.000   26.259    0.315    0.425   73.515
  541.250   29.195    0.284    0.331   72.002
  541.500   33.008    0.086    0.279   66.909
  541.750   37.804    0.038    0.228   61.450
  542.000   39.378    0.027    0.197   54.170
  542.250   40.182    0.019    0.195   49.320
  542.500   35.582    0.137    0.252   46.717
  542.750   23.030    0.195    0.319   54.564
  543.000   18.649    0.285    0.392   62.959
  543.250   12.117    0.324    0.423   68.921
  543.500    7.334    0.340    0.442   74.884
  543.750    6.234    0.325    0.456   76.716
  544.000    5.181    0.312    0.470   81.042
  544.250    4.387    0.301    0.473   83.783
  544.500    4.032    0.291    0.462   87.135
  544.750    3.618    0.281    0.447   90.366
  545.000    3.451    0.275    0.438   93.109
  545.250    3.355    0.268    0.460   96.095
  545.500    3.379    0.267    0.476   93.128
  545.750    3.493    0.267    0.472   94.960
  546.000    3.564    0.267    0.451   96.974
  546.250    3.650    0.276    0.432   96.316
  546.500    3.725    0.286    0.454   92.681
  546.750    3.360    0.292    0.472   92.876
  547.000    3.729    0.286    0.480   93.552
  547.250    3.714    0.284    0.479   93.743
  547.500    3.761    0.291    0.468   93.449
  547.750    3.795    0.286    0.468   92.669
  548.000    3.916    0.281    0.465   91.281
  548.250    4.041    0.274    0.458   89.044
  548.500    4.272    0.266    0.446   85.954
  548.750    5.576    0.262    0.442   83.655
  549.000    5.873    0.265    0.448   83.059
  549.250    6.139    0.263    0.453   83.492
  549.500    6.276    0.260    0.456   83.198
  549.750    6.357    0.259    0.445   83.269
  550.000    6.450    0.258    0.431   84.980
  550.250    6.520    0.262    0.424   87.176
  550.500    6.616    0.265    0.420   84.817
  550.750    6.713    0.266    0.421   84.463
  551.000    6.823    0.267    0.434   86.173
  551.250    6.860    0.264    0.447   87.824
  551.500    6.921    0.259    0.434   88.441
  551.750    6.868    0.255    0.419   89.483
  552.000    6.602    0.252    0.420   91.863
  552.250    6.382    0.247    0.433   93.332
  552.500    6.157    0.247    0.443   93.462
  552.750    6.820    0.279    0.450   92.620
  553.000    7.540    0.297    0.459   86.130
  553.250    8.653    0.307    0.467   80.307
  553.500    9.584    0.315    0.481   76.369
  553.750   10.304    0.315    0.468   74.495
  554.000   10.792    0.306    0.456   77.118
  554.250   10.909    0.281    0.463   77.855
  554.500   10.845    0.185    0.479   78.047
  554.750   11.465    0.113    0.458   67.304
  555.000   11.985    0.010    0.186   58.626
  555.250   11.629   -0.003    0.177   57.420
  555.500   10.201   -0.012    0.193   84.528
  555.750    9.238    0.209    0.260   93.588
  556.000    7.607    0.220    0.336  100.766
  556.250    6.624    0.230    0.392  104.056
  556.500    5.423    0.239    0.424   98.537
  556.750    4.559    0.245    0.425   96.725
  557.000    3.817    0.249    0.425   95.947
  557.250    3.528    0.251    0.452   98.872
  557.500    3.298    0.249    0.448  102.100
  557.750    2.942    0.250    0.455  103.753
  558.000    2.634    0.260    0.470  103.335
  558.250    2.422    0.269    0.475  103.102
  558.500    2.238    0.279    0.478  103.962
  558.750    2.136    0.283    0.484  103.123
  559.000    2.042    0.285    0.498  101.248
  559.250    2.014    0.288    0.511   97.065
  559.500    2.013    0.294    0.519   92.884
  559.750    1.972    0.298    0.496   91.435
  560.000    1.942    0.303    0.490   92.174
  560.250    1.927    0.309    0.510   91.272
  560.500    1.941    0.314    0.511   91.889
  560.750    1.999    0.312    0.501   94.329
  561.000    2.078    0.306    0.504   95.736
  561.250    2.152    0.302    0.515   95.321
  561.500    2.258    0.306    0.505   94.420
  561.750    2.348    0.306    0.489   94.310
  562.000    2.409    0.296    0.474   94.257
  562.250    2.476    0.289    0.468   94.266
  562.500    2.499    0.280    0.471   95.126
  562.750    2.526    0.276    0.483   97.749
  563.000    2.534    0.273    0.496   99.581
  563.250    2.487    0.270    0.509  100.137
  563.500    2.505    0.269    0.516   99.237
  563.750    2.648    0.260    0.504   99.184
  564.000    3.016    0.243    0.491   97.920
  564.250    3.054    0.242    0.482   96.045
  564.500    3.036    0.249    0.476   96.176
  564.750    2.996    0.250    0.469   97.826
  565.000    3.001    0.250    0.481   97.654
  565.250    3.324    0.254    0.488   95.780
  565.500    3.828    0.267    0.471   92.754
  565.750    4.240    0.288    0.456   88.998
  566.000    4.812    0.299    0.441   85.786
  566.250    5.320    0.313    0.435   81.361
  566.500    5.859    0.316    0.428   77.786
  566.750    6.195    0.310    0.435   74.636
  567.000    6.672    0.304    0.445   73.917
  567.250    6.988    0.301    0.439   75.020
  567.500    7.078    0.302    0.428   75.881
  567.750    6.970    0.301    0.421   75.830
  568.000    6.852    0.296    0.419   76.993
  568.250    6.685    0.293    0.427   79.193
  568.500    6.583    0.291    0.440   80.963
  568.750    6.594    0.288    0.444   81.883
  569.000    6.604    0.287    0.434   80.312
  569.250    6.565    0.285    0.430   82.451
  569.500    6.322    0.278    0.425   84.767
  569.750    5.999    0.266    0.432   87.632
  570.000    5.701    0.260    0.438   90.740
  570.250    5.647    0.253    0.431   93.485
  570.500    5.644    0.245    0.420   94.648
  570.750    5.664    0.238    0.415   96.602
  571.000    5.888    0.239    0.425  100.137
  571.250    6.144    0.223    0.444  103.913
  571.500    6.557    0.182    0.433  106.838
  571.750    7.275    0.132    0.376   91.659
  572.000    7.999    0.104    0.320   73.566
  572.250    8.551    0.101    0.365   71.569
  572.500    9.091    0.145    0.384   75.711
  572.750    9.190    0.175    0.394   79.670
  573.000    8.622    0.195    0.402   82.595
  573.250    7.808    0.249    0.410   81.997
  573.500    7.071    0.277    0.412   77.147
  573.750    6.560    0.284    0.414   76.245
  574.000    6.401    0.299    0.404   74.918
  574.250    6.339    0.316    0.393   72.013
  574.500    6.313    0.315    0.399   68.923
  574.750    6.148    0.294    0.404   69.662
  575.000    5.999    0.278    0.400   71.374
  575.250    5.766    0.263    0.403   71.868
  575.500    5.585    0.291    0.416   69.509
  575.750    5.438    0.305    0.407   73.347
  576.000    5.386    0.301    0.394   79.614
  576.250    5.334    0.289    0.389   85.699
  576.500    5.403    0.283    0.415   90.326
  576.750    5.701    0.307    0.396   82.559
  577.000    6.027    0.323    0.375   73.882
  577.250    6.384    0.334    0.361   71.521
  577.500    6.736    0.329    0.354   72.868
  577.750    6.899    0.326    0.352   73.059
  578.000    6.935    0.325    0.364   72.219
  578.250    6.972    0.323    0.386   74.355
  578.500    7.060    0.314    0.388   77.647
  578.750    7.178    0.314    0.378   79.842
  579.000    7.434    0.316    0.370   79.062
  579.250    7.599    0.316    0.367   79.741
  579.500    7.711    0.311    0.367   82.241
  579.750    7.766    0.308    0.391   84.620
  580.000    7.850    0.304    0.411   86.877
  580.250    7.907    0.298    0.412   85.066
  580.500    7.948    0.281    0.394   82.281
  580.750    8.065    0.257    0.371   81.439
  581.000    8.168    0.238    0.351   82.724
  581.250    8.225    0.233    0.344   82.492
  581.500    8.268    0.235    0.340   80.921
  581.750    8.281    0.238    0.333   76.739
  582.000    8.294    0.239    0.328   75.169
  582.250    8.307    0.233    0.334   77.245
  582.500    8.366    0.216    0.338   80.353
  582.750    8.379    0.213    0.344   82.186
  583.000    8.345    0.227    0.342   80.797
  583.250    8.036    0.238    0.333   76.068
  583.500    7.900    0.234    0.333   72.615
  583.750    7.867    0.236    0.336   72.020
