~VERSION INFORMATION
 VERS.                 2.0:   CWLS LOG ASCII STANDARD -VERSION 2.0
 WRAP.                  NO:   ONE LINE PER DEPTH STEP
~WELL INFORMATION BLOCK
#MNEM.UNIT           DATA                    DESCRIPTION OF MNEMONIC
#---------    -------------------            -------------------------------
# Generated from Intellog Unique Number	CS_73_76/WELL/3250
WELL.         CANADIAN SUPERIOR OIL          : Well_name    - WELL
LOC .         00/10-30-076-14W4/0            : Location     - LOCATION
UWI .         00/10-30-076-14W4/0            : Uwi          - UNIQUE WELL ID
ENTR.         SP                             : Entered      - ENTERED BY
SRVC.         SCHLUMBERGER                   : Scn          - SERVICE COMPANY
STRT.M        298.704                        : top_depth    - START DEPTH
STOP.M        526.954                        : bot_depth    - STOP DEPTH
STEP.M        0.25                           : increment    - STEP LENGTH
 NULL. -999.2500:NULL Value
~CURVE INFORMATION BLOCK
#MNEM UNIT       ERCB CURVE CODE    CURVE DESCRIPTION
#-----------   ------------------   ----------------------------------
DEPT.M        00 001 00 00         : DEPTH        - DEPTH
GR  .API      00 310 00 00         : GR           - GAMMA RAY
DPHI.V/V      00 890 00 00         : PHID         - DENSITY POROSITY (SANDSTONE)
NPHI.V/V      00 330 00 00         : PHIN         - NEUTRON POROSITY (SANDSTONE)
ILD .OHMM     00 120 00 00         : RESD         - DEEP RESISTIVITY (DIL)
~PARAMETER INFORMATION
#MNEM.UNIT           DATA             DESCRIPTION OF MNEMONIC
#---------         -----------     ------------------------------
GL  .M        681.076              : gl           - GROUND LEVEL ELEVATION
EREF.M        682.752              : kb           - ELEVATION OF DEPTH REFERENCE
DATM.M        681.076              : datum        - DATUM ELEVATION
TDD .M        549.25               : tdd          - TOTAL DEPTH DRILLER
RUN .         ONE                  : Run          - RUN NUMBER
ENG .         BILL                 : Engineer     - RECORDING ENGINEER
WIT .         JIM                  : Witness      - WITNESSED BY
MUD .         GEL                  : Mud_type     - MUD TYPE
MATR.         SANDSTONE            : Logunit      - NEUTRON MATRIX
TMAX.C        24.4444              : BHT          - MAXIMUM RECORDED TEMPERATURE
BHTD.M        549.25               : BHTDEP       - MAXIMUM RECORDED TEMPERATURE
MATR.         1                    : LOGUNIT      - NEUTRON MATRIX
RMT .C        25                   : MDTP         - TEMPERATURE OF MUD
NEUT.         1                    : NEUTRON      - NEUTRON TYPE
RESI.         0                    : RESIST       - RESISTIVITY TYPE
RMC .OHMM     0.25                 : RMC          - RESISTIVITY OF MUD CAKE
RMF .OHMM     0.25                 : RMF          - RESISTIVITY OF MUD FILTRATE
SUFT.C        15                   : SUFT         - SURFACE TEMPERATURE
~A  DEPTH       GR     PHID     PHIN     RESD
# ...
  385.704   67.603    0.363    0.497   14.621
  385.954   66.558    0.355    0.471   12.932
  386.204   67.065    0.337    0.424   11.685
  386.454   69.032    0.323    0.367   10.344
  386.704   71.108    0.332    0.387    9.265
  386.954   74.751    0.356    0.429    8.307
  387.204   76.876    0.345    0.461    7.792
  387.454   76.484    0.300    0.494    7.399
  387.704   71.119    0.185    0.446    7.326
  387.954   70.141    0.153    0.440    7.462
  388.204   73.275    0.265    0.452    7.625
  388.454   75.143    0.300    0.462    7.475
  388.704   74.741    0.317    0.475    7.030
  388.954   75.990    0.289    0.479    4.977
  389.204   80.455    0.224    0.446    3.548
  389.454   84.352    0.190    0.452    2.597
  389.704   86.594    0.224    0.467    1.947
  389.954   88.315    0.236    0.479    1.541
  390.204   88.449    0.222    0.486    1.258
  390.454   88.796    0.237    0.492    1.098
  390.704   89.981    0.237    0.501    1.032
  390.954   90.491    0.237    0.515    1.173
  391.204   89.390    0.234    0.524    1.361
  391.454   88.763    0.237    0.501    1.830
  391.704   88.064    0.259    0.522    2.444
  391.954   88.635    0.257    0.543    3.064
  392.204   89.587    0.250    0.535    3.914
  392.454   90.507    0.255    0.524    4.319
  392.704   90.978    0.247    0.513    4.617
  392.954   91.278    0.238    0.497    4.652
  393.204   91.626    0.234    0.507    4.701
  393.454   91.062    0.247    0.527    4.614
  393.704   90.189    0.258    0.532    4.617
  393.954   89.285    0.246    0.557    4.701
  394.204   84.552    0.252    0.573    5.024
  394.454   83.148    0.248    0.560    5.414
  394.704   82.155    0.265    0.537    5.746
  394.954   79.977    0.290    0.526    6.038
  395.204   77.151    0.278    0.515    6.476
  395.454   75.229    0.286    0.508    6.791
  395.704   73.156    0.291    0.512    6.859
  395.954   71.931    0.306    0.508    6.767
  396.204   72.922    0.317    0.497    5.702
  396.454   74.987    0.327    0.490    5.142
  396.704   77.287    0.330    0.485    4.198
  396.954   80.978    0.322    0.486    3.640
  397.204   83.663    0.323    0.490    3.001
  397.454   89.546    0.330    0.505    2.569
  397.704   96.554    0.341    0.500    2.301
  397.954   99.177    0.308    0.487    2.116
  398.204   97.593    0.297    0.511    2.024
  398.454   95.884    0.299    0.556    1.958
  398.704   94.976    0.313    0.605    1.941
  398.954   95.427    0.312    0.628    1.969
  399.204   97.310    0.295    0.637    2.043
  399.454   99.245    0.283    0.628    2.174
  399.704  100.732    0.277    0.612    2.424
  399.954  102.394    0.290    0.608    2.627
  400.204  103.288    0.292    0.629    3.074
  400.454  103.570    0.279    0.637    3.568
  400.704  101.252    0.286    0.639    4.020
  400.954   96.319    0.293    0.615    4.585
  401.204   92.421    0.284    0.599    5.240
  401.454   88.578    0.275    0.576    5.749
  401.704   85.743    0.291    0.543    6.389
  401.954   82.164    0.305    0.508    6.973
  402.204   78.649    0.303    0.486    7.620
  402.454   75.753    0.286    0.474    8.111
  402.704   72.906    0.268    0.474    8.154
  402.954   69.808    0.237    0.468    8.160
  403.204   68.731    0.217    0.451    7.908
  403.454   71.299    0.213    0.438    7.629
  403.704   74.552    0.224    0.421    7.445
  403.954   76.492    0.246    0.430    7.239
  404.204   78.412    0.261    0.445    6.879
  404.454   77.691    0.269    0.444    6.562
  404.704   76.629    0.266    0.438    6.496
  404.954   75.537    0.247    0.453    6.288
  405.204   74.998    0.249    0.467    6.099
  405.454   76.955    0.267    0.464    5.918
  405.704   79.980    0.283    0.468    5.742
  405.954   82.531    0.300    0.475    5.559
  406.204   84.215    0.313    0.498    5.509
  406.454   82.822    0.308    0.498    5.440
  406.704   81.865    0.295    0.492    5.438
  406.954   80.976    0.310    0.498    5.433
  407.204   81.003    0.307    0.505    5.534
  407.454   80.547    0.295    0.517    5.540
  407.704   77.070    0.287    0.527    5.557
  407.954   72.601    0.303    0.535    5.645
  408.204   68.704    0.295    0.532    5.632
  408.454   67.218    0.287    0.518    5.751
  408.704   68.643    0.306    0.504    5.822
  408.954   69.738    0.309    0.480    6.005
  409.204   68.386    0.299    0.463    6.191
  409.454   67.497    0.302    0.455    6.367
  409.704   65.769    0.302    0.462    6.710
  409.954   64.872    0.287    0.460    6.901
  410.204   63.240    0.292    0.467    7.084
  410.454   62.392    0.288    0.478    7.624
  410.704   61.989    0.311    0.467    7.973
  410.954   59.676    0.337    0.462    8.305
  411.204   58.122    0.346    0.477    8.622
  411.454   56.564    0.345    0.453    8.516
  411.704   56.971    0.326    0.416    7.867
  411.954   58.922    0.290    0.360    7.275
  412.204   59.772    0.270    0.378    6.993
  412.454   60.406    0.320    0.418    6.383
  412.704   59.967    0.366    0.461    6.067
  412.954   59.032    0.366    0.471    5.823
  413.204   57.335    0.365    0.459    5.984
  413.454   56.408    0.363    0.467    6.373
  413.704   55.097    0.354    0.472    7.635
  413.954   53.958    0.358    0.480    8.879
  414.204   53.492    0.358    0.488   10.015
  414.454   51.233    0.320    0.485   10.509
  414.704   48.851    0.258    0.424    9.701
  414.954   45.228    0.097    0.399    7.919
  415.204   45.510    0.070    0.309    6.819
  415.454   48.706    0.072    0.213    6.051
  415.704   54.123    0.184    0.320    5.895
  415.954   56.876    0.233    0.384    5.589
  416.204   59.799    0.302    0.429    5.433
  416.454   62.185    0.354    0.447    5.263
  416.704   63.712    0.363    0.448    5.235
  416.954   66.814    0.354    0.441    5.233
  417.204   67.599    0.343    0.444    5.222
  417.454   66.764    0.348    0.455    5.337
  417.704   67.257    0.349    0.465    5.336
  417.954   69.431    0.330    0.469    5.222
  418.204   72.375    0.317    0.463    5.231
  418.454   72.818    0.315    0.473    5.243
  418.704   73.719    0.325    0.467    5.158
  418.954   74.024    0.334    0.459    5.230
  419.204   74.661    0.318    0.459    5.083
  419.454   74.725    0.309    0.466    4.827
  419.704   75.743    0.324    0.475    4.610
  419.954   76.830    0.315    0.490    4.390
  420.204   76.351    0.290    0.482    4.187
  420.454   77.954    0.285    0.479    4.058
  420.704   79.709    0.295    0.489    4.045
  420.954   79.926    0.299    0.480    4.040
  421.204   81.389    0.307    0.489    4.091
  421.454   81.553    0.276    0.500    4.341
  421.704   77.465    0.294    0.509    4.512
  421.954   79.615    0.303    0.502    4.310
  422.204   80.826    0.308    0.497    4.144
  422.454   82.210    0.289    0.498    3.966
  422.704   83.195    0.275    0.483    3.962
  422.954   84.289    0.259    0.476    4.079
  423.204   85.684    0.254    0.487    4.258
  423.454   87.342    0.279    0.501    4.479
  423.704   87.338    0.270    0.521    4.601
  423.954   83.682    0.291    0.517    4.585
  424.204   82.963    0.309    0.494    4.647
  424.454   83.979    0.294    0.484    4.589
  424.704   85.363    0.277    0.471    4.505
  424.954   87.157    0.269    0.476    4.516
  425.204   88.079    0.257    0.485    4.426
  425.454   87.273    0.245    0.483    4.428
  425.704   86.107    0.253    0.481    4.428
  425.954   85.074    0.246    0.474    4.424
  426.204   84.772    0.240    0.460    4.518
  426.454   83.843    0.246    0.448    4.522
  426.704   83.309    0.240    0.467    4.666
  426.954   83.194    0.253    0.482    4.800
  427.204   83.869    0.249    0.491    5.056
  427.454   83.809    0.250    0.480    5.195
  427.704   83.804    0.260    0.473    5.513
  427.954   83.800    0.263    0.464    5.860
  428.204   83.486    0.300    0.456    6.937
  428.454   80.695    0.268    0.444    7.867
  428.704   78.421    0.247    0.431    9.236
  428.954   73.447    0.216    0.413   10.883
