~VERSION INFORMATION
 VERS.                 2.0:   CWLS LOG ASCII STANDARD -VERSION 2.0
 WRAP.                  NO:   ONE LINE PER DEPTH STEP
~WELL INFORMATION BLOCK
#MNEM.UNIT           DATA                    DESCRIPTION OF MNEMONIC
#---------    -------------------            -------------------------------
# Generated from Intellog Unique Number	CS_67_68/WELL/840
WELL.         INTER-CITY MANUFACTURING       : Well_name    - WELL
LOC .         00/11-22-068-14W4/0            : Location     - LOCATION
UWI .         00/11-22-068-14W4/0            : Uwi          - UNIQUE WELL ID
ENTR.         SP                             : Entered      - ENTERED BY
SRVC.         SCHLUMBERGER                   : Scn          - SERVICE COMPANY
STRT.M        280                            : top_depth    - START DEPTH
STOP.M        474                            : bot_depth    - STOP DEPTH
STEP.M        0.25                           : increment    - STEP LENGTH
 NULL. -999.2500:NULL Value
~CURVE INFORMATION BLOCK
#MNEM UNIT       ERCB CURVE CODE    CURVE DESCRIPTION
#-----------   ------------------   ----------------------------------
DEPT.M        00 001 00 00         : DEPTH        - DEPTH
ILD .OHMM     00 120 00 00         : RESD         - DEEP RESISTIVITY (DIL)
DPHI.V/V      00 890 00 00         : PHID         - DENSITY POROSITY (LIMESTONE)
NPHI.V/V      00 330 00 00         : PHIN         - NEUTRON POROSITY (LIMESTONE)
GR  .API      00 310 00 00         : GR           - GAMMA RAY
~PARAMETER INFORMATION
#MNEM.UNIT           DATA             DESCRIPTION OF MNEMONIC
#---------         -----------     ------------------------------
GL  .M        564.76               : gl           - GROUND LEVEL ELEVATION
EREF.M        567.8                : kb           - ELEVATION OF DEPTH REFERENCE
DATM.M        564.76               : datum        - DATUM ELEVATION
TDD .M        471                  : tdd          - TOTAL DEPTH DRILLER
RUN .         ONE                  : Run          - RUN NUMBER
ENG .         BILL                 : Engineer     - RECORDING ENGINEER
WIT .         JIM                  : Witness      - WITNESSED BY
MUD .         GEL                  : Mud_type     - MUD TYPE
MATR.         LIMESTONE            : Logunit      - NEUTRON MATRIX
TMAX.C        21                   : BHT          - MAXIMUM RECORDED TEMPERATURE
BHTD.M        471                  : BHTDEP       - MAXIMUM RECORDED TEMPERATURE
MATR.         1                    : LOGUNIT      - NEUTRON MATRIX
RMT .C        25                   : MDTP         - TEMPERATURE OF MUD
NEUT.         1                    : NEUTRON      - NEUTRON TYPE
RESI.         0                    : RESIST       - RESISTIVITY TYPE
RMC .OHMM     0.25                 : RMC          - RESISTIVITY OF MUD CAKE
RMF .OHMM     0.25                 : RMF          - RESISTIVITY OF MUD FILTRATE
SUFT.C        15                   : SUFT         - SURFACE TEMPERATURE
~A  DEPTH     RESD     PHID     PHIN       GR
# ...
  410.500    2.702    0.241    0.444  124.839
  410.750    2.531    0.248    0.451  125.939
  411.000    2.407    0.258    0.461  127.830
  411.250    2.314    0.264    0.470  129.234
  411.500    2.225    0.268    0.478  129.726
  411.750    2.144    0.279    0.490  128.515
  412.000    2.077    0.285    0.505  127.242
  412.250    2.053    0.275    0.517  125.727
  412.500    2.012    0.264    0.509  124.271
  412.750    1.982    0.259    0.498  130.907
  413.000    1.982    0.262    0.497  129.696
  413.250    1.989    0.252    0.503  128.545
  413.500    2.007    0.244    0.495  131.713
  413.750    2.030    0.246    0.483  134.699
  414.000    2.037    0.249    0.476  133.913
  414.250    2.041    0.253    0.470  127.349
  414.500    2.079    0.255    0.469  125.773
  414.750    2.162    0.224    0.458  123.894
  415.000    2.342    0.220    0.442  122.133
  415.250    2.571    0.219    0.431  117.942
  415.500    2.990    0.209    0.422  112.290
  415.750    3.239    0.200    0.412  106.881
  416.000    3.568    0.205    0.396  101.290
  416.250    3.888    0.086    0.358   95.639
  416.500    4.315    0.075    0.322   96.617
  416.750    4.165    0.072    0.336  102.584
  417.000    3.829    0.090    0.361  109.219
  417.250    3.627    0.127    0.387  113.908
  417.500    3.475    0.184    0.392  116.163
  417.750    3.348    0.200    0.388  113.067
  418.000    3.243    0.186    0.388  110.760
  418.250    3.171    0.175    0.394  107.663
  418.500    3.124    0.170    0.398  104.991
  418.750    3.106    0.202    0.400  108.769
  419.000    3.112    0.225    0.399  110.598
  419.250    3.117    0.229    0.399  112.246
  419.500    3.193    0.206    0.405  111.643
  419.750    3.284    0.193    0.409  108.971
  420.000    3.672    0.167    0.403   97.845
  420.250    4.550    0.132    0.319   86.293
  420.500    6.063    0.083    0.236   77.539
  420.750    7.442    0.054    0.225   72.252
  421.000    8.655    0.040    0.230   80.347
  421.250    8.245    0.069    0.260   92.701
  421.500    6.665    0.143    0.283  101.404
  421.750    5.656    0.161    0.373  109.256
  422.000    5.086    0.145    0.366  114.675
  422.250    4.624    0.163    0.356  119.850
  422.500    4.197    0.170    0.374  118.335
  422.750    3.851    0.166    0.383  122.720
  423.000    3.601    0.164    0.373  125.158
  423.250    3.456    0.185    0.381  126.622
  423.500    3.348    0.207    0.393  126.567
  423.750    3.292    0.205    0.404  127.546
  424.000    3.267    0.194    0.411  128.402
  424.250    3.261    0.180    0.416  122.994
  424.500    3.279    0.189    0.415  119.106
  424.750    3.303    0.193    0.407  117.956
  425.000    3.322    0.181    0.399  118.508
  425.250    3.334    0.201    0.391  118.574
  425.500    3.340    0.216    0.393  118.275
  425.750    3.352    0.233    0.400  117.307
  426.000    3.371    0.224    0.405  119.441
  426.250    3.389    0.222    0.407  119.020
  426.500    3.408    0.202    0.408  115.863
  426.750    3.408    0.158    0.411  119.762
  427.000    3.414    0.164    0.414  122.321
  427.250    3.420    0.192    0.423  125.124
  427.500    3.426    0.215    0.424  127.501
  427.750    3.458    0.207    0.405  129.209
  428.000    3.497    0.202    0.382  123.558
  428.250    3.509    0.193    0.370  119.063
  428.500    3.522    0.177    0.361  117.424
  428.750    3.542    0.179    0.369  116.882
  429.000    3.541    0.179    0.375  117.679
  429.250    3.521    0.176    0.376  118.961
  429.500    3.392    0.192    0.373  120.732
  429.750    3.050    0.188    0.372  120.918
  430.000    2.627    0.170    0.376  114.353
  430.250    2.225    0.159    0.388  113.385
  430.500    1.942    0.191    0.401  119.474
  430.750    1.786    0.213    0.425  123.736
  431.000    1.714    0.226    0.451  124.654
  431.250    1.685    0.235    0.473  120.766
  431.500    1.648    0.240    0.477  123.387
  431.750    1.626    0.232    0.471  125.948
  432.000    1.626    0.222    0.464  127.352
  432.250    1.815    0.213    0.454  128.573
  432.500    2.072    0.179    0.469  128.152
  432.750    2.506    0.128    0.479  112.099
  433.000    2.849    0.098    0.462  104.622
  433.250    3.338    0.098    0.412  105.418
  433.500    3.941    0.124    0.337  109.317
  433.750    4.293    0.158    0.358  112.181
  434.000    4.456    0.167    0.377  111.638
  434.250    4.190    0.148    0.394  102.884
  434.500    4.006    0.123    0.405   97.536
  434.750    4.096    0.102    0.392   94.317
  435.000    4.181    0.117    0.384   90.186
  435.250    4.212    0.089    0.340   91.165
  435.500    4.073    0.079    0.315  104.613
  435.750    3.567    0.156    0.345  120.676
  436.000    3.329    0.193    0.367  127.799
  436.250    3.195    0.179    0.384  128.534
  436.500    3.107    0.170    0.402  128.478
  436.750    3.027    0.180    0.412  127.997
  437.000    3.021    0.188    0.424  125.204
  437.250    3.055    0.188    0.435  121.924
  437.500    3.095    0.201    0.449  122.598
  437.750    3.176    0.191    0.455  123.578
  438.000    3.194    0.196    0.436  124.373
  438.250    3.094    0.165    0.425  125.656
  438.500    2.887    0.107    0.418  126.634
  438.750    2.660    0.142    0.428  127.734
  439.000    2.510    0.176    0.431  129.138
  439.250    2.427    0.192    0.441  130.239
  439.500    2.400    0.181    0.463  131.400
  439.750    2.378    0.170    0.458  132.134
  440.000    2.360    0.173    0.451  133.721
  440.250    2.368    0.191    0.444  137.133
  440.500    2.373    0.208    0.440  140.118
  440.750    2.364    0.208    0.440  142.435
  441.000    2.350    0.211    0.452  144.084
  441.250    2.337    0.195    0.464  143.541
  441.500    2.363    0.183    0.472  139.165
  441.750    2.448    0.182    0.466  136.068
  442.000    2.532    0.197    0.467  129.626
  442.250    2.613    0.196    0.473  121.602
  442.500    2.627    0.168    0.435  120.087
  442.750    2.489    0.135    0.406  122.889
  443.000    2.327    0.163    0.412  130.559
  443.250    2.176    0.182    0.447  138.776
  443.500    2.065    0.203    0.464  143.039
  443.750    2.031    0.212    0.480  142.984
  444.000    2.046    0.204    0.480  142.807
  444.250    2.061    0.197    0.475  142.933
  444.500    2.143    0.187    0.469  143.303
  444.750    2.405    0.168    0.466  143.308
  445.000    2.839    0.175    0.454  133.945
  445.250    3.370    0.177    0.424  115.581
  445.500    4.008    0.190    0.389   99.528
  445.750    4.661    0.174    0.368   88.645
  446.000    5.533    0.184    0.343   84.331
  446.250    6.446    0.197    0.326   80.565
  446.500    7.344    0.213    0.310   76.556
  446.750    7.854    0.225    0.301   74.128
  447.000    8.588    0.237    0.317   73.342
  447.250    9.098    0.247    0.340   75.963
  447.500    9.408    0.229    0.360   78.583
  447.750    9.620    0.219    0.359   82.117
  448.000    9.233    0.210    0.350   81.088
  448.250    8.796    0.226    0.340   73.733
  448.500    8.616    0.149    0.333   69.176
  448.750    8.745    0.107    0.318   65.105
  449.000    9.077    0.055    0.298   65.536
  449.250    8.842    0.003    0.271   78.802
  449.500    7.448    0.045    0.269   92.128
  449.750    6.416    0.121    0.326   97.182
  450.000    5.434    0.139    0.331   98.587
  450.250    4.787    0.146    0.331  101.635
  450.500    4.193    0.152    0.330  104.436
  450.750    3.632    0.161    0.333  115.938
  451.000    3.266    0.183    0.356  127.804
  451.250    3.199    0.212    0.453  125.803
  451.500    3.339    0.215    0.459  122.585
  451.750    3.679    0.189    0.452  121.007
  452.000    4.358    0.188    0.430  118.762
  452.250    4.938    0.180    0.399  114.327
  452.500    5.280    0.171    0.362  110.439
  452.750    5.764    0.179    0.348  106.429
  453.000    6.244    0.191    0.343   95.546
  453.250    6.628    0.207    0.345   90.747
  453.500    6.943    0.174    0.354   93.368
  453.750    7.087    0.119    0.362   97.326
