~VERSION INFORMATION
 VERS.                 2.0:   CWLS LOG ASCII STANDARD -VERSION 2.0
 WRAP.                  NO:   ONE LINE PER DEPTH STEP
~WELL INFORMATION BLOCK
#MNEM.UNIT           DATA                    DESCRIPTION OF MNEMONIC
#---------    -------------------            -------------------------------
# Generated from Intellog Unique Number	CX_WELLS/WELL/2500
WELL.         PCI NEWBY                      : Well_name    - WELL
LOC .         00/10-32-084-04W4/0            : Location     - LOCATION
UWI .         00/10-32-084-04W4/0            : Uwi          - UNIQUE WELL ID
ENTR.         T                              : Entered      - ENTERED BY
SRVC.         SCHLUMBERGER                   : Scn          - SERVICE COMPANY
STRT.M        75                             : top_depth    - START DEPTH
STOP.M        215                            : bot_depth    - STOP DEPTH
STEP.M        0.25                           : increment    - STEP LENGTH
 NULL. -999.2500:NULL Value
~CURVE INFORMATION BLOCK
#MNEM UNIT       ERCB CURVE CODE    CURVE DESCRIPTION
#-----------   ------------------   ----------------------------------
DEPT.M        00 001 00 00         : DEPTH        - DEPTH
GR  .API      00 310 00 00         : GR           - GAMMA RAY
NPHI.V/V      00 330 00 00         : PHIN         - NEUTRON POROSITY (SANDSTONE)
DPHI.V/V      00 890 00 00         : PHID         - DENSITY POROSITY (SANDSTONE)
ILD .OHMM     00 120 00 00         : RESD         - DEEP RESISTIVITY (DIL)
~PARAMETER INFORMATION
#MNEM.UNIT           DATA             DESCRIPTION OF MNEMONIC
#---------         -----------     ------------------------------
GL  .M        458                  : gl           - GROUND LEVEL ELEVATION
EREF.M        563                  : kb           - ELEVATION OF DEPTH REFERENCE
DATM.M        563                  : datum        - DATUM ELEVATION
TDD .M        231                  : tdd          - TOTAL DEPTH DRILLER
RUN .         ONE                  : Run          - RUN NUMBER
ENG .         BILL                 : Engineer     - RECORDING ENGINEER
WIT .         JIM                  : Witness      - WITNESSED BY
MUD .         GEL                  : Mud_type     - MUD TYPE
MATR.         SANDSTONE            : Logunit      - NEUTRON MATRIX
TMAX.C        11                   : BHT          - MAXIMUM RECORDED TEMPERATURE
BHTD.M        232                  : BHTDEP       - MAXIMUM RECORDED TEMPERATURE
MATR.         1                    : LOGUNIT      - NEUTRON MATRIX
RMT .C        11                   : MDTP         - TEMPERATURE OF MUD
NEUT.         1                    : NEUTRON      - NEUTRON TYPE
RESI.         2.7                  : RESIST       - RESISTIVITY TYPE
RMC .OHMM     3                    : RMC          - RESISTIVITY OF MUD CAKE
RMF .OHMM     2                    : RMF          - RESISTIVITY OF MUD FILTRATE
SUFT.C        4                    : SUFT         - SURFACE TEMPERATURE
~A  DEPTH       GR     PHIN     PHID     RESD
# ...
  118.500   90.768    0.468    0.270    3.568
  118.750   90.765    0.472    0.275    3.996
  119.000   90.142    0.473    0.287    4.228
  119.250   87.658    0.462    0.287    4.474
  119.500   85.794    0.446    0.278    4.915
  119.750   87.033    0.429    0.272    5.104
  120.000   87.651    0.424    0.281    5.501
  120.250   87.648    0.415    0.291    5.605
  120.500   85.165    0.403    0.291    5.930
  120.750   80.199    0.390    0.286    6.273
  121.000   78.336    0.392    0.279    6.512
  121.250   79.574    0.402    0.275    6.635
  121.500   81.433    0.411    0.280    6.888
  121.750   82.670    0.414    0.289    7.016
  122.000   82.668    0.401    0.290    7.012
  122.250   81.425    0.377    0.292    6.877
  122.500   80.182    0.381    0.311    6.743
  122.750   82.041    0.410    0.310    6.613
  123.000   84.519    0.417    0.296    6.484
  123.250   85.138    0.436    0.279    6.481
  123.500   86.376    0.434    0.268    6.478
  123.750   85.752    0.413    0.262    6.474
  124.000   85.751    0.400    0.264    6.470
  124.250   85.128    0.389    0.262    6.466
  124.500   85.125    0.388    0.256    6.463
  124.750   84.503    0.386    0.248    6.459
  125.000   82.639    0.390    0.235    6.457
  125.250   81.396    0.401    0.238    6.454
  125.500   80.773    0.417    0.250    6.451
  125.750   80.771    0.417    0.259    6.325
  126.000   79.528    0.412    0.267    6.203
  126.250   78.285    0.409    0.260    6.083
  126.500   82.624    0.413    0.247    6.081
  126.750   86.344    0.415    0.234    5.850
  127.000   88.203    0.416    0.242    5.522
  127.250   88.200    0.410    0.256    5.315
  127.500   88.819    0.408    0.257    4.740
  127.750   90.677    0.411    0.261    4.476
  128.000   91.295    0.415    0.270    4.226
  128.250   91.292    0.424    0.278    4.066
  128.500   91.290    0.447    0.278    4.064
  128.750   90.667    0.453    0.265    4.062
  129.000   88.803    0.447    0.256    4.060
  129.250   87.561    0.429    0.255    4.058
  129.500   86.317    0.414    0.261    4.056
  129.750   86.936    0.417    0.277    4.130
  130.000   85.692    0.414    0.286    4.207
  130.250   83.828    0.407    0.296    4.206
  130.500   81.965    0.399    0.297    4.365
  130.750   80.101    0.396    0.298    4.201
  131.000   77.618    0.425    0.313    3.966
  131.250   75.134    0.430    0.327    3.816
  131.500   72.030    0.439    0.328    3.815
  131.750   73.268    0.445    0.303    3.812
  132.000   76.367    0.435    0.266    4.111
  132.250   78.846    0.411    0.243    4.518
  132.500   80.705    0.384    0.238    5.256
  132.750   81.943    0.377    0.253    6.113
  133.000   81.320    0.360    0.276    7.112
  133.250   78.216    0.343    0.304    7.815
  133.500   74.491    0.315    0.321    8.426
  133.750   73.868    0.295    0.332    8.748
  134.000   73.246    0.322    0.332    8.910
  134.250   72.002    0.338    0.331    8.906
  134.500   70.759    0.339    0.326    8.901
  134.750   67.655    0.310    0.312    8.405
  135.000   62.689    0.265    0.277    7.935
  135.250   57.104    0.232    0.106    7.782
  135.500   57.102    0.226    0.172    7.925
  135.750   60.821    0.262    0.205    7.922
  136.000   64.541    0.342    0.235    7.770
  136.250   67.020    0.377    0.292    7.619
  136.500   69.499    0.378    0.308    7.472
  136.750   68.877    0.385    0.309    7.052
  137.000   67.634    0.398    0.313    6.918
  137.250   67.631    0.409    0.311    6.784
  137.500   67.628    0.403    0.304    6.779
  137.750   67.006    0.394    0.290    6.776
  138.000   65.142    0.382    0.226    6.772
  138.250   65.760    0.377    0.154    6.770
  138.500   70.720    0.384    0.187    6.639
  138.750   75.061    0.393    0.220    6.510
  139.000   77.539    0.407    0.239    6.384
  139.250   78.777    0.391    0.241    6.382
  139.500   79.396    0.381    0.244    6.378
  139.750   80.634    0.372    0.241    6.254
  140.000   82.492    0.376    0.238    6.251
  140.250   84.351    0.378    0.235    6.014
  140.500   85.589    0.375    0.238    5.898
  140.750   84.346    0.374    0.243    5.785
  141.000   81.862    0.380    0.244    5.062
  141.250   82.480    0.393    0.247    4.515
  141.500   83.099    0.418    0.264    4.105
  141.750   83.096    0.435    0.289    3.330
  142.000   81.232    0.450    0.310    2.859
  142.250   78.747    0.463    0.318    2.599
  142.500   77.505    0.471    0.321    2.598
  142.750   75.641    0.471    0.316    2.697
  143.000   75.019    0.465    0.299    2.853
  143.250   75.637    0.458    0.286    3.076
  143.500   75.635    0.445    0.283    3.445
  143.750   74.391    0.433    0.276    3.645
  144.000   73.769    0.420    0.268    4.006
  144.250   73.766    0.408    0.260    4.318
  144.500   73.763    0.400    0.259    4.317
  144.750   74.382    0.399    0.258    4.314
  145.000   74.999    0.420    0.253    4.313
  145.250   75.617    0.416    0.248    4.229
  145.500   74.995    0.414    0.245    4.147
  145.750   74.372    0.409    0.246    3.991
  146.000   75.610    0.414    0.248    3.767
  146.250   78.089    0.421    0.248    3.490
  146.500   80.568    0.419    0.256    3.295
  146.750   83.047    0.429    0.264    3.171
  147.000   84.285    0.443    0.263    3.110
  147.250   84.283    0.443    0.257    3.049
  147.500   84.281    0.437    0.256    3.048
  147.750   84.278    0.434    0.261    3.047
  148.000   84.275    0.434    0.263    3.045
  148.250   84.893    0.435    0.265    3.043
  148.500   86.131    0.441    0.266    3.041
  148.750   86.129    0.445    0.265    3.040
  149.000   82.405    0.456    0.267    3.038
  149.250   79.300    0.465    0.271    3.036
  149.500   83.020    0.460    0.270    3.093
  149.750   86.120    0.456    0.262    3.092
  150.000   86.737    0.447    0.254    3.149
  150.250   83.633    0.423    0.246    3.207
  150.500   81.150    0.409    0.243    3.267
  150.750   82.388    0.404    0.240    3.392
  151.000   85.487    0.415    0.238    3.521
  151.250   87.346    0.423    0.234    3.587
  151.500   86.102    0.408    0.232    3.942
  151.750   82.998    0.395    0.231    4.250
  152.000   80.514    0.384    0.228    4.851
  152.250   76.169    0.380    0.228    5.752
  152.500   74.306    0.363    0.240    6.565
  152.750   68.100    0.227    0.312    7.353
  153.000   61.894    0.194    0.401    8.393
  153.250   53.827    0.178    0.382    9.400
  153.500   47.001    0.190    0.369    8.874
  153.750   51.340    0.222    0.352    8.066
  154.000   56.300    0.257    0.338    7.330
  154.250   59.401    0.307    0.321    7.191
  154.500   64.360    0.323    0.311    7.185
  154.750   64.357    0.328    0.315    7.320
  155.000   64.355    0.328    0.320    7.457
  155.250   64.353    0.321    0.323    7.889
  155.500   64.351    0.312    0.309    8.346
  155.750   66.210    0.290    0.288    9.173
  156.000   70.549    0.280    0.283   10.469
  156.250   71.168    0.278    0.290   11.506
  156.500   57.517    0.127    0.341   13.385
  156.750   54.413    0.104    0.400   15.278
  157.000   46.346    0.115    0.404   18.113
  157.250   34.557    0.134    0.403   11.480
  157.500   32.693    0.165    0.411    9.313
  157.750   33.930    0.214    0.408    7.699
  158.000   35.790    0.241    0.313    6.365
  158.250   42.611    0.297    0.266    5.677
  158.500   59.979    0.324    0.255    5.674
  158.750   66.800    0.346    0.245    5.671
  159.000   70.520    0.341    0.247    5.886
  159.250   67.415    0.326    0.268    6.112
  159.500   66.173    0.319    0.278    6.591
  159.750   68.651    0.318    0.276    7.379
  160.000   70.511    0.308    0.288    7.517
  160.250   64.925    0.296    0.299    7.513
  160.500   61.200    0.281    0.297    7.229
  160.750   61.197    0.265    0.299    7.090
  161.000   61.196    0.254    0.306    6.569
  161.250   65.535    0.260    0.275    6.202
  161.500   69.875    0.293    0.258    6.198
  161.750   74.215    0.319    0.259    6.682
