~VERSION INFORMATION
 VERS.                 2.0:   CWLS LOG ASCII STANDARD -VERSION 2.0
 WRAP.                  NO:   ONE LINE PER DEPTH STEP
~WELL INFORMATION BLOCK
#MNEM.UNIT           DATA                    DESCRIPTION OF MNEMONIC
#---------    -------------------            -------------------------------
# Generated from Intellog Unique Number	CS_67_68/WELL/2201
WELL.         ICG ET AL TWEEDIE              : Well_name    - WELL
LOC .         00/10-34-067-13W4/0            : Location     - LOCATION
UWI .         00/10-34-067-13W4/0            : Uwi          - UNIQUE WELL ID
ENTR.         SP                             : Entered      - ENTERED BY
SRVC.         SCHLUMBERGER                   : Scn          - SERVICE COMPANY
STRT.M        289.56                         : top_depth    - START DEPTH
STOP.M        457.06                         : bot_depth    - STOP DEPTH
STEP.M        0.25                           : increment    - STEP LENGTH
 NULL. -999.2500:NULL Value
~CURVE INFORMATION BLOCK
#MNEM UNIT       ERCB CURVE CODE    CURVE DESCRIPTION
#-----------   ------------------   ----------------------------------
DEPT.M        00 001 00 00         : DEPTH        - DEPTH
CALI.MM       00 280 01 00         : CAL          - CALIPER
GR  .API      00 310 00 00         : GR           - GAMMA RAY
DPHI.V/V      00 890 00 00         : PHID         - DENSITY POROSITY (SANDSTONE)
NPHI.V/V      00 330 00 00         : PHIN         - NEUTRON POROSITY (SANDSTONE)
ILD .OHMM     00 120 00 00         : RESD         - DEEP RESISTIVITY (DIL)
~PARAMETER INFORMATION
#MNEM.UNIT           DATA             DESCRIPTION OF MNEMONIC
#---------         -----------     ------------------------------
GL  .M        575.158              : gl           - GROUND LEVEL ELEVATION
EREF.M        577.901              : kb           - ELEVATION OF DEPTH REFERENCE
DATM.M        577.901              : datum        - DATUM ELEVATION
TDD .M        463.906              : tdd          - TOTAL DEPTH DRILLER
RUN .         ONE                  : Run          - RUN NUMBER
ENG .         BILL                 : Engineer     - RECORDING ENGINEER
WIT .         JIM                  : Witness      - WITNESSED BY
MUD .         GEL                  : Mud_type     - MUD TYPE
MATR.         SANDSTONE            : Logunit      - NEUTRON MATRIX
TMAX.C        23.8889              : BHT          - MAXIMUM RECORDED TEMPERATURE
BHTD.M        464.21               : BHTDEP       - MAXIMUM RECORDED TEMPERATURE
MATR.         1                    : LOGUNIT      - NEUTRON MATRIX
RMT .C        25                   : MDTP         - TEMPERATURE OF MUD
NEUT.         1                    : NEUTRON      - NEUTRON TYPE
RESI.         0                    : RESIST       - RESISTIVITY TYPE
RMC .OHMM     0.25                 : RMC          - RESISTIVITY OF MUD CAKE
RMF .OHMM     0.25                 : RMF          - RESISTIVITY OF MUD FILTRATE
SUFT.C        15                   : SUFT         - SURFACE TEMPERATURE
~A  DEPTH      CAL       GR     PHID     PHIN     RESD
# ...
  399.060  146.658   76.060    0.348    0.455    2.233
  399.310  146.798   77.298    0.358    0.479    2.066
  399.560  147.914   77.911    0.363    0.492    2.031
  399.810  148.968   78.574    0.363    0.485    2.023
  400.060  149.845   78.741    0.348    0.455    2.031
  400.310  150.293   77.682    0.335    0.432    2.042
  400.560  150.967   78.818    0.328    0.432    2.034
  400.810  151.313   78.844    0.341    0.434    2.053
  401.060  151.574   77.405    0.329    0.431    2.112
  401.310  152.075   75.651    0.324    0.426    2.146
  401.560  152.299   74.400    0.336    0.419    2.131
  401.810  152.023   74.642    0.317    0.432    2.088
  402.060  151.612   74.975    0.319    0.432    1.994
  402.310  150.947   74.939    0.325    0.421    1.928
  402.560  150.382   74.408    0.341    0.416    1.910
  402.810  151.043   75.197    0.332    0.410    1.924
  403.060  153.242   77.264    0.332    0.407    1.962
  403.310  155.114   78.590    0.335    0.422    2.009
  403.560  156.218   77.200    0.343    0.428    2.054
  403.810  154.378   77.520    0.340    0.428    2.087
  404.060  153.809   79.044    0.343    0.431    2.066
  404.310  153.633   80.528    0.347    0.436    2.011
  404.560  153.855   81.929    0.346    0.431    2.162
  404.810  153.930   81.477    0.328    0.426    2.444
  405.060  153.990   77.929    0.234    0.416    2.640
  405.310  154.513   78.020    0.198    0.357    2.839
  405.560  154.944   82.222    0.183    0.337    2.812
  405.810  155.394   85.734    0.252    0.382    2.664
  406.060  155.279   89.078    0.299    0.411    2.557
  406.310  154.506   91.272    0.319    0.435    2.445
  406.560  153.058   91.230    0.316    0.450    2.424
  406.810  152.355   92.702    0.306    0.457    2.467
  407.060  151.858   96.563    0.307    0.449    2.571
  407.310  151.662   99.774    0.326    0.443    2.727
  407.560  152.127  102.609    0.332    0.439    2.836
  407.810  152.556  105.744    0.315    0.433    2.870
  408.060  151.717  107.931    0.266    0.429    2.674
  408.310  152.053  109.992    0.262    0.431    2.574
  408.560  153.298  110.634    0.267    0.433    2.497
  408.810  155.286  110.007    0.258    0.433    2.531
  409.060  156.028  109.415    0.266    0.432    2.678
  409.310  156.215  109.075    0.251    0.431    2.857
  409.560  156.410  109.250    0.266    0.429    2.961
  409.810  156.047  109.977    0.270    0.432    3.113
  410.060  155.858  111.539    0.277    0.436    3.220
  410.310  156.054  113.440    0.297    0.442    3.025
  410.560  157.931  115.067    0.289    0.469    2.765
  410.810  160.661  116.536    0.260    0.489    2.551
  411.060  163.448  119.021    0.286    0.509    2.379
  411.310  165.958  121.122    0.302    0.533    2.230
  411.560  166.524  122.879    0.284    0.524    2.068
  411.810  166.709  123.667    0.291    0.519    1.973
  412.060  168.612  123.629    0.291    0.519    1.865
  412.310  169.289  123.129    0.293    0.521    1.797
  412.560  166.328  121.364    0.279    0.525    1.726
  412.810  164.070  119.925    0.296    0.535    1.688
  413.060  164.129  119.018    0.301    0.524    1.734
  413.310  166.269  118.482    0.286    0.501    1.890
  413.560  167.236  117.734    0.285    0.490    2.106
  413.810  166.577  115.911    0.273    0.479    2.266
  414.060  166.446  113.374    0.255    0.459    2.373
  414.310  166.808  112.397    0.247    0.476    2.552
  414.560  167.348  111.735    0.266    0.489    2.844
  414.810  168.259  109.892    0.288    0.464    3.133
  415.060  166.915  105.855    0.292    0.418    3.398
  415.310  160.844  101.499    0.212    0.400    3.544
  415.560  154.365   96.756    0.165    0.390    3.646
  415.810  153.335   97.306    0.178    0.404    3.623
  416.060  153.970  100.333    0.244    0.418    3.559
  416.310  155.372  101.832    0.262    0.426    3.501
  416.560  156.612  100.583    0.268    0.427    3.491
  416.810  157.247   98.215    0.283    0.412    3.536
  417.060  157.326   97.080    0.267    0.397    3.659
  417.310  156.744   96.868    0.250    0.381    3.725
  417.560  156.139   99.143    0.225    0.381    3.715
  417.810  155.779  101.135    0.221    0.391    3.549
  418.060  155.433  102.667    0.233    0.399    3.472
  418.310  155.334  102.558    0.240    0.406    3.412
  418.560  155.272  102.612    0.252    0.405    3.409
  418.810  155.311  103.015    0.257    0.401    3.460
  419.060  155.000  102.896    0.251    0.402    3.569
  419.310  155.300  101.515    0.237    0.406    4.022
  419.560  155.565   98.362    0.233    0.413    5.008
  419.810  156.089   97.407    0.221    0.422    6.995
  420.060  156.524   93.125    0.167    0.384    9.595
  420.310  156.733   84.358    0.112    0.307   11.309
  420.560  156.881   76.333    0.094    0.229   12.098
  420.810  157.017   67.603    0.079    0.216    9.979
  421.060  157.092   73.754    0.109    0.256    7.221
  421.310  157.181   87.014    0.154    0.305    5.348
  421.560  157.280  100.725    0.185    0.355    4.610
  421.810  157.379  107.795    0.202    0.394    4.306
  422.060  157.252  110.866    0.216    0.396    4.187
  422.310  157.023  112.519    0.224    0.389    4.126
  422.560  156.933  113.451    0.236    0.399    4.098
  422.810  156.999  113.521    0.230    0.404    4.079
  423.060  157.175  110.258    0.212    0.397    4.094
  423.310  157.319  106.405    0.197    0.394    4.118
  423.560  157.609  107.916    0.189    0.389    4.137
  423.810  157.866  109.308    0.179    0.393    4.125
  424.060  156.911  110.418    0.245    0.400    4.085
  424.310  155.529  111.283    0.258    0.398    4.031
  424.560  152.250  111.879    0.247    0.409    3.945
  424.810  148.709  112.022    0.254    0.401    3.849
  425.060  152.176  110.905    0.251    0.393    3.805
  425.310  155.216  107.672    0.258    0.399    3.899
  425.560  156.444  105.041    0.258    0.397    4.064
  425.810  155.803  102.148    0.224    0.390    4.357
  426.060  155.880  102.496    0.197    0.392    4.477
  426.310  155.754  106.751    0.197    0.402    4.633
  426.560  155.860  109.511    0.267    0.412    4.873
  426.810  155.847  110.374    0.266    0.414    5.148
  427.060  155.924  109.794    0.277    0.409    5.288
  427.310  155.993  108.616    0.256    0.403    5.035
  427.560  156.271  106.886    0.259    0.397    4.610
  427.810  156.288  108.772    0.257    0.391    4.373
  428.060  156.277  114.651    0.247    0.406    4.112
  428.310  156.258  120.453    0.256    0.414    4.088
  428.560  156.356  123.634    0.250    0.407    4.222
  428.810  156.520  116.255    0.252    0.405    4.483
  429.060  156.882  109.593    0.232    0.395    4.822
  429.310  157.012  104.881    0.185    0.388    4.988
  429.560  157.050  107.585    0.174    0.379    5.216
  429.810  157.198  106.929    0.194    0.365    4.560
  430.060  157.157  104.552    0.182    0.351    3.544
  430.310  157.314  107.162    0.221    0.358    2.844
  430.560  157.348  111.925    0.245    0.374    2.361
  430.810  157.187  116.227    0.259    0.397    2.093
  431.060  158.718  119.337    0.264    0.421    1.911
  431.310  162.091  121.170    0.275    0.451    1.797
  431.560  165.408  120.749    0.286    0.481    1.731
  431.810  166.666  118.884    0.285    0.500    1.774
  432.060  166.789  120.268    0.272    0.491    1.884
  432.310  165.661  124.857    0.270    0.486    1.979
  432.560  162.979  126.985    0.275    0.477    2.122
  432.810  156.555  123.397    0.271    0.465    2.214
  433.060  156.095  121.498    0.263    0.456    2.278
  433.310  156.294  119.910    0.263    0.467    2.311
  433.560  156.610  118.626    0.253    0.478    2.357
  433.810  156.936  117.044    0.224    0.484    2.402
  434.060  157.377  114.329    0.239    0.481    2.455
  434.310  157.582  117.123    0.262    0.471    2.527
  434.560  158.127  120.282    0.251    0.467    2.683
  434.810  158.423  119.540    0.248    0.474    2.893
  435.060  158.840  111.811    0.252    0.477    3.237
  435.310  159.112  108.500    0.238    0.473    3.614
