~VERSION INFORMATION
 VERS.                 2.0:   CWLS LOG ASCII STANDARD -VERSION 2.0
 WRAP.                  NO:   ONE LINE PER DEPTH STEP
~WELL INFORMATION BLOCK
#MNEM.UNIT           DATA                    DESCRIPTION OF MNEMONIC
#---------    -------------------            -------------------------------
# Generated from Intellog Unique Number	CW_82_90/WELL/829
WELL.         PACIFIC ISADORE 10-17          : Well_name    - WELL
LOC .         00/10-17-083-19W4/0            : Location     - LOCATION
UWI .         00/10-17-083-19W400            : Uwi          - UNIQUE WELL ID
ENTR.         J                              : Entered      - ENTERED BY
SRVC.         SCHLUMBERGER                   : Scn          - SERVICE COMPANY
DATE.         28 FEB 75                      : Date         - LOG DATE
STRT.M        192.024                        : top_depth    - START DEPTH
STOP.M        350.524                        : bot_depth    - STOP DEPTH
STEP.M        0.25                           : increment    - STEP LENGTH
 NULL. -999.2500:NULL Value
~CURVE INFORMATION BLOCK
#MNEM UNIT       ERCB CURVE CODE    CURVE DESCRIPTION
#-----------   ------------------   ----------------------------------
DEPT.M        00 001 00 00         : DEPTH        - DEPTH
CALI.MM       00 280 01 00         : CAL          - CALIPER
GR  .API      00 310 00 00         : GR           - GAMMA RAY
NPHI.V/V      00 330 00 00         : PHIN         - NEUTRON POROSITY (SANDSTONE)
DPHI.V/V      00 890 00 00         : PHID         - DENSITY POROSITY (SANDSTONE)
ILD .OHMM     00 120 00 00         : RESD         - DEEP RESISTIVITY (DIL)
~PARAMETER INFORMATION
#MNEM.UNIT           DATA             DESCRIPTION OF MNEMONIC
#---------         -----------     ------------------------------
GL  .M        586.74               : gl           - GROUND LEVEL ELEVATION
EREF.M        589.239              : kb           - ELEVATION OF DEPTH REFERENCE
DATM.M        586.74               : datum        - DATUM ELEVATION
TDD .M        426.72               : tdd          - TOTAL DEPTH DRILLER
RUN .         ONE                  : Run          - RUN NUMBER
ENG .         BERNISKY             : Engineer     - RECORDING ENGINEER
WIT .         ROSS                 : Witness      - WITNESSED BY
BASE.         EDMONTON             : Branch       - HOME BASE OF LOGGING UNIT
MUD .         GEL CHEM             : Mud_type     - MUD TYPE
MATR.         SANDSTONE            : Logunit      - NEUTRON MATRIX
TMAX.C        20.5556              : BHT          - MAXIMUM RECORDED TEMPERATURE
BHTD.M        426.72               : BHTDEP       - MAXIMUM RECORDED TEMPERATURE
RMT .C        12.2222              : MDTP         - TEMPERATURE OF MUD
MUDD.KG/M     1000                 : MWT          - MUD DENSITY
NEUT.         0                    : NEUTRON      - NEUTRON TYPE
RESI.         54                   : RESIST       - RESISTIVITY TYPE
RM  .OHMM     2.82                 : RM           - RESISTIVITY OF MUD
RMC .OHMM     0                    : RMC          - RESISTIVITY OF MUD CAKE
RMF .OHMM     2.45                 : RMF          - RESISTIVITY OF MUD FILTRATE
SUFT.C        -17.7778             : SUFT         - SURFACE TEMPERATURE
~A  DEPTH      CAL       GR     PHIN     PHID     RESD
  192.024  176.676   94.156    0.458    0.243    6.443
  192.274  178.347   88.133    0.446    0.251    6.804
  192.524  179.395   86.169    0.428    0.263    7.287
  192.774  179.713   88.510    0.416    0.252    7.524
  193.024  179.823   90.112    0.422    0.234    7.665
  193.274  180.142   92.083    0.430    0.256    7.685
  193.524  180.043   93.686    0.438    0.248    7.348
  193.774  179.216   93.689    0.444    0.226    6.940
  194.024  176.306   91.540    0.442    0.220    6.512
  194.274  173.709   90.929    0.438    0.243    5.773
  194.524  169.549   91.854    0.439    0.256    5.358
  194.774  166.535   92.657    0.439    0.254    4.808
  195.024  167.165   94.075    0.445    0.245    4.660
  195.274  170.816   95.371    0.451    0.232    4.674
  195.524  173.634   97.465    0.476    0.220    4.803
  195.774  175.410   99.437    0.476    0.229    4.767
  196.024  175.311   99.933    0.465    0.230    4.683
  196.274  176.985   99.751    0.458    0.235    4.501
  196.524  178.344  100.431    0.452    0.245    4.429
  196.774  179.599  102.464    0.449    0.250    4.374
  197.024  179.918  105.050    0.452    0.247    4.312
  197.274  181.798  107.822    0.499    0.215    4.187
  197.524  181.908  108.501    0.485    0.200    4.003
  197.774  179.623  108.997    0.482    0.194    3.717
  198.024  177.650  110.046    0.485    0.181    3.530
  198.274  177.552  111.772    0.489    0.165    3.457
  198.524  180.474  113.066    0.512    0.161    3.575
  198.774  180.168  113.624    0.543    0.195    4.064
  199.024  180.694  113.688    0.568    0.229    5.093
  199.274  181.533  108.710    0.556    0.254    6.981
  199.524  177.374  102.072    0.525    0.266    9.818
  199.774  171.859   98.447    0.495    0.291    9.290
  200.024  166.659   95.006    0.469    0.293    9.111
  200.274  166.249   93.411    0.450    0.292    9.378
  200.524  166.567   95.137    0.446    0.284   10.229
  200.774  167.303   96.923    0.446    0.272   13.158
  201.024  167.724   99.018    0.448    0.269   17.582
  201.274  167.730   98.468    0.445    0.265   20.260
  201.524  167.424   90.784    0.448    0.269   21.209
  201.774  166.493   81.747    0.451    0.290   19.766
  202.024  164.832   66.560    0.427    0.308   15.270
  202.274  164.108   59.306    0.429    0.329   13.214
  202.524  164.114   57.834    0.439    0.334   12.640
  202.774  165.267   59.498    0.439    0.327   13.052
  203.024  165.793   61.223    0.437    0.325   13.568
  203.274  166.320   63.995    0.429    0.323   14.856
  203.524  166.534   67.258    0.428    0.318   16.118
  203.774  165.186   71.504    0.436    0.307   16.990
  204.024  163.213   74.706    0.439    0.311   17.246
  204.274  161.761   76.985    0.435    0.322   17.274
  204.524  160.933   78.096    0.435    0.330   17.711
  204.774  160.003   78.837    0.448    0.326   19.026
  205.024  159.695   79.579    0.454    0.320   21.300
  205.274  159.910   80.135    0.451    0.324   23.278
  205.524  160.541   79.708    0.458    0.332   25.481
  205.774  160.546   77.314    0.471    0.338   29.629
  206.024  161.074   75.103    0.463    0.342   32.761
  206.274  161.079   75.230    0.451    0.344   34.554
  206.524  161.398   74.802    0.447    0.345   36.310
  206.774  161.196   71.116    0.450    0.346   38.655
  207.024  161.618   68.721    0.443    0.346   43.580
  207.274  162.561   68.417    0.445    0.347   49.202
  207.524  163.504   68.113    0.452    0.349   54.213
  207.774  164.134   67.563    0.454    0.350   59.348
  208.024  164.140   66.521    0.461    0.351   62.031
  208.274  164.251   65.479    0.467    0.355   60.880
  208.524  164.257   63.637    0.452    0.362   57.663
  208.774  164.367   61.304    0.441    0.360   52.171
  209.024  164.894   60.139    0.439    0.357   44.394
  209.274  165.003   59.835    0.440    0.356   37.526
  209.524  164.281   60.454    0.446    0.361   34.183
  209.774  162.724   60.641    0.463    0.369   31.130
  210.024  161.273   60.645    0.462    0.368   28.271
  210.274  160.862   58.742    0.462    0.365   25.981
  210.524  160.555   59.115    0.463    0.365   24.203
  210.774  160.249   59.979    0.458    0.365   22.203
  211.024  160.462   60.229    0.453    0.364   20.375
  211.274  160.469   60.170    0.451    0.364   19.312
  211.524  160.267   60.113    0.456    0.362   18.746
  211.774  159.544   60.054    0.463    0.360   18.642
  212.024  159.445   59.873    0.461    0.357   18.700
  212.274  158.930   59.323    0.458    0.354   18.814
  212.524  158.728   56.498    0.449    0.355   18.789
  212.774  158.943   54.595    0.448    0.361   18.672
  213.024  159.261   55.090    0.449    0.363   18.442
  213.274  159.162   56.693    0.452    0.365   18.003
  213.524  158.440   57.804    0.456    0.366   17.563
  213.774  157.925   56.515    0.478    0.362   17.227
  214.024  157.722   55.904    0.468    0.360   17.246
  214.274  158.248   56.462    0.458    0.361   17.485
  214.524  158.776   57.264    0.456    0.364   17.681
  214.774  158.885   59.235    0.457    0.364   17.772
  215.024  159.100   60.653    0.453    0.359   17.889
  215.274  158.690   62.687    0.451    0.357   17.750
  215.524  158.590   63.612    0.455    0.348   17.322
  215.774  159.221   57.958    0.462    0.352   17.019
  216.024  159.852   55.009    0.454    0.361   16.955
  216.274  159.963   54.767    0.451    0.370   16.838
  216.524  159.655   55.447    0.455    0.376   16.896
  216.774  159.974   56.188    0.462    0.362   16.878
  217.024  159.669   58.652    0.458    0.354   16.757
  217.274  159.362   61.177    0.460    0.348   16.584
  217.524  159.575   60.319    0.457    0.353   16.507
  217.774  159.893   56.817    0.459    0.361   16.396
  218.024  160.212   57.251    0.461    0.364   16.414
  218.274  160.322   59.531    0.462    0.367   16.355
  218.524  160.328   60.087    0.461    0.367   16.228
  218.774  160.335   56.831    0.461    0.365   15.861
  219.024  160.027   56.835    0.462    0.359   15.615
  219.274  163.990   58.068    0.459    0.353   15.533
  219.524  160.456   61.823    0.467    0.349   15.419
  219.774  159.629   62.503    0.484    0.351   15.361
  220.024  159.634   62.015    0.507    0.357   15.352
  220.274  159.640   60.481    0.505    0.362   15.405
  220.524  159.751   60.177    0.493    0.364   15.365
  220.774  159.965   60.610    0.483    0.349   15.327
  221.024  160.284   61.844    0.468    0.338   15.372
  221.274  160.395   61.540    0.457    0.332   15.293
  221.524  160.711   60.313    0.477    0.328   15.078
  221.774  161.446   61.118    0.499    0.332   14.488
  222.024  161.556   61.919    0.508    0.348   13.681
  222.274  161.875   63.030    0.494    0.354   12.488
  222.524  161.984   64.202    0.478    0.355   10.210
  222.774  161.782   65.682    0.473    0.353    7.093
  223.024  161.788   65.008    0.477    0.346    4.658
  223.274  161.482   64.705    0.474    0.342    4.969
  223.524  161.800   67.168    0.471    0.345    5.610
  223.774  163.472   70.000    0.474    0.336    6.346
  224.024  165.978   73.509    0.503    0.312    7.596
  224.274  167.233   77.756    0.534    0.296    8.345
  224.524  167.343   76.530    0.536    0.279    8.071
  224.774  164.745   71.122    0.510    0.280    7.419
  225.024  162.460   67.373    0.481    0.300    7.379
  225.274  163.091   69.530    0.475    0.311    7.567
  225.524  164.450   72.116    0.477    0.322    7.629
  225.774  164.978   75.625    0.497    0.317    7.652
  226.024  164.359   78.457    0.506    0.310    7.820
  226.274  163.427   75.817    0.491    0.306    8.359
  226.524  163.433   72.499    0.482    0.318    9.276
  226.774  163.855   71.272    0.492    0.310   10.874
  227.024  164.694   69.000    0.499    0.318   11.761
  227.274  165.950   65.867    0.493    0.310   12.769
  227.524  166.061   62.304    0.496    0.314   13.578
  227.774  165.649   58.371    0.497    0.315   13.996
  228.024  164.822   53.332    0.485    0.313   14.158
  228.274  164.724   51.244    0.474    0.329   14.277
