~VERSION INFORMATION
 VERS.                 2.0:   CWLS LOG ASCII STANDARD -VERSION 2.0
 WRAP.                  NO:   ONE LINE PER DEPTH STEP
~WELL INFORMATION BLOCK
#MNEM.UNIT           DATA                    DESCRIPTION OF MNEMONIC
#---------    -------------------            -------------------------------
# Generated from Intellog Unique Number	CX_WELLS/WELL/2862
WELL.         ARCOR ET AL HOUSE              : Well_name    - WELL
LOC .         00/10-35-081-15W4/0            : Location     - LOCATION
UWI .         00/10-35-081-15W400            : Uwi          - UNIQUE WELL ID
ENTR.         T                              : Entered      - ENTERED BY
SRVC.         SCHLUMBERGER                   : Scn          - SERVICE COMPANY
STRT.M        140                            : top_depth    - START DEPTH
STOP.M        360                            : bot_depth    - STOP DEPTH
STEP.M        0.25                           : increment    - STEP LENGTH
 NULL. -999.2500:NULL Value
~CURVE INFORMATION BLOCK
#MNEM UNIT       ERCB CURVE CODE    CURVE DESCRIPTION
#-----------   ------------------   ----------------------------------
DEPT.M        00 001 00 00         : DEPTH        - DEPTH
GR  .API      00 310 00 00         : GR           - GAMMA RAY
NPHI.V/V      00 330 00 00         : PHIN         - NEUTRON POROSITY (SANDSTONE)
DPHI.V/V      00 890 00 00         : PHID         - DENSITY POROSITY (SANDSTONE)
ILD .OHMM     00 120 00 00         : RESD         - DEEP RESISTIVITY (OTHER)
~PARAMETER INFORMATION
#MNEM.UNIT           DATA             DESCRIPTION OF MNEMONIC
#---------         -----------     ------------------------------
GL  .M        572                  : gl           - GROUND LEVEL ELEVATION
EREF.M        576.6                : kb           - ELEVATION OF DEPTH REFERENCE
DATM.M        576.6                : datum        - DATUM ELEVATION
TDD .M        365                  : tdd          - TOTAL DEPTH DRILLER
RUN .         ONE                  : Run          - RUN NUMBER
ENG .         BILL                 : Engineer     - RECORDING ENGINEER
WIT .         JIM                  : Witness      - WITNESSED BY
MUD .         GEL                  : Mud_type     - MUD TYPE
MATR.         SANDSTONE            : Logunit      - NEUTRON MATRIX
TMAX.C        24                   : BHT          - MAXIMUM RECORDED TEMPERATURE
BHTD.M        365                  : BHTDEP       - MAXIMUM RECORDED TEMPERATURE
MATR.         1                    : LOGUNIT      - NEUTRON MATRIX
RMT .C        133333               : MDTP         - TEMPERATURE OF MUD
NEUT.         1                    : NEUTRON      - NEUTRON TYPE
RESI.         2.2                  : RESIST       - RESISTIVITY TYPE
RMC .OHMM     2.5                  : RMC          - RESISTIVITY OF MUD CAKE
RMF .OHMM     2.9                  : RMF          - RESISTIVITY OF MUD FILTRATE
SUFT.C        4                    : SUFT         - SURFACE TEMPERATURE
~A  DEPTH       GR     PHIN     PHID     RESD
# ...
  270.500   89.681    0.440    0.239    7.896
  270.750   92.059    0.450    0.237    7.458
  271.000   94.438    0.461    0.237    7.316
  271.250   96.222    0.474    0.236    7.311
  271.500   96.214    0.479    0.236    7.447
  271.750   96.210    0.479    0.237    7.731
  272.000   94.411    0.471    0.240    8.331
  272.250   93.811    0.460    0.243    8.813
  272.500   91.417    0.451    0.245   10.240
  272.750   89.026    0.447    0.245   10.833
  273.000   85.438    0.434    0.209   11.672
  273.250   81.852    0.408    0.195   11.669
  273.500   82.442    0.411    0.227   10.815
  273.750   85.418    0.435    0.239   10.412
  274.000   87.798    0.439    0.239    9.470
  274.250   90.180    0.448    0.230    8.946
  274.500   94.350    0.449    0.227    8.136
  274.750   97.325    0.449    0.225    7.832
  275.000   97.319    0.444    0.224    7.682
  275.250   98.505    0.436    0.224    7.534
  275.500   98.499    0.446    0.224    7.531
  275.750   99.088    0.464    0.226    7.386
  276.000   99.677    0.466    0.224    7.384
  276.250   99.673    0.468    0.223    7.520
  276.500  100.262    0.463    0.223    7.516
  276.750  101.451    0.459    0.222    7.513
  277.000  103.233    0.453    0.222    7.652
  277.250  103.824    0.449    0.221    7.792
  277.500  105.605    0.442    0.221    7.939
  277.750  105.598    0.437    0.218    8.557
  278.000  105.592    0.438    0.216    9.398
  278.250  104.989    0.439    0.213   10.322
  278.500  104.386    0.433    0.211   11.125
  278.750  101.398    0.423    0.185   11.546
  279.000   97.216    0.415    0.179   11.539
  279.250   95.420    0.406    0.192   11.319
  279.500   96.605    0.416    0.209   10.690
  279.750  101.370    0.440    0.221   10.292
  280.000  100.766    0.446    0.221    9.538
  280.250  100.164    0.451    0.219    9.356
  280.500   99.563    0.452    0.214    9.178
  280.750   98.363    0.456    0.211    9.001
  281.000   97.760    0.461    0.201    9.169
  281.250   97.157    0.448    0.191    9.515
  281.500   96.555    0.411    0.182   10.451
  281.750   95.948    0.385    0.169   10.848
  282.000   95.347    0.369    0.170   11.691
  282.250   92.954    0.378    0.203   11.908
  282.500   88.772    0.403    0.230   11.679
  282.750   87.572    0.415    0.243   11.242
  283.000   88.757    0.431    0.280   11.027
  283.250   88.751    0.432    0.285   10.816
  283.500   89.341    0.426    0.276   10.610
  283.750   89.930    0.421    0.260   10.605
  284.000   90.520    0.414    0.234   10.401
  284.250   90.514    0.400    0.238   10.395
  284.500   89.911    0.392    0.243   10.392
  284.750   86.920    0.393    0.249   10.384
  285.000   86.320    0.422    0.249   10.579
  285.250   83.328    0.433    0.240   10.775
  285.500   81.533    0.435    0.229   11.181
  285.750   80.332    0.408    0.202   11.605
  286.000   80.326    0.391    0.146   12.048
  286.250   80.916    0.391    0.137   12.271
  286.500   85.088    0.398    0.205   12.037
  286.750   88.064    0.408    0.229   11.154
  287.000   92.828    0.418    0.238   10.737
  287.250   94.016    0.419    0.242   10.334
  287.500   95.202    0.422    0.242   10.138
  287.750   95.794    0.426    0.238   10.133
  288.000   93.403    0.429    0.239   10.129
  288.250   89.815    0.431    0.239   10.316
  288.500   87.421    0.431    0.242   10.310
  288.750   86.221    0.431    0.245   10.500
  289.000   86.215    0.428    0.243   10.697
  289.250   86.210    0.427    0.243   10.692
  289.500   85.607    0.425    0.245   10.686
  289.750   84.407    0.420    0.246   10.884
  290.000   83.803    0.410    0.245   10.880
  290.250   82.600    0.402    0.238   10.875
  290.500   80.211    0.405    0.230   10.868
  290.750   76.623    0.406    0.229   10.863
  291.000   79.005    0.405    0.241   10.859
  291.250   81.981    0.399    0.239   10.851
  291.500   83.765    0.386    0.170   10.846
  291.750   83.162    0.373    0.143   10.842
  292.000   84.347    0.370    0.132   10.838
  292.250   86.729    0.370    0.240   10.630
  292.500   87.318    0.386    0.256   10.427
  292.750   83.134    0.422    0.265   10.226
  293.000   80.741    0.430    0.269   10.031
  293.250   79.543    0.431    0.269    9.839
  293.500   78.940    0.437    0.257    9.468
  293.750   81.319    0.446    0.249    9.465
  294.000   83.102    0.451    0.253    9.111
  294.250   84.291    0.452    0.249    8.937
  294.500   86.669    0.449    0.246    8.602
  294.750   88.451    0.445    0.242    7.972
  295.000   89.043    0.448    0.237    7.674
  295.250   90.230    0.454    0.233    7.250
  295.500   92.013    0.456    0.232    6.718
  295.750   94.989    0.458    0.232    6.591
  296.000   97.370    0.458    0.231    6.109
  296.250  100.944    0.455    0.228    5.992
  296.500  105.112    0.438    0.227    6.102
  296.750  107.494    0.415    0.223    6.335
  297.000  105.100    0.401    0.218    7.090
  297.250  100.917    0.392    0.213    8.557
  297.500   95.541    0.399    0.195    9.223
  297.750   90.165    0.427    0.189    9.940
  298.000   88.368    0.433    0.197   10.316
  298.250   88.361    0.440    0.208   10.311
  298.500   87.758    0.418    0.218   10.500
  298.750   87.752    0.410    0.221   10.496
  299.000   87.746    0.419    0.216   10.492
  299.250   88.931    0.420    0.211   10.487
  299.500   88.926    0.422    0.191   10.480
  299.750   89.515    0.426    0.179   10.478
  300.000   90.107    0.437    0.186   10.471
  300.250   90.099    0.433    0.196   10.467
  300.500   90.691    0.427    0.207   10.461
  300.750   90.683    0.416    0.210   10.457
  301.000   91.275    0.411    0.206   10.451
  301.250   92.460    0.406    0.200   10.446
  301.500   93.647    0.412    0.198   10.443
  301.750   93.044    0.421    0.189   10.437
  302.000   92.441    0.420    0.170   10.433
  302.250   92.432    0.409    0.153   10.040
  302.500   93.025    0.404    0.169    9.665
  302.750   94.210    0.395    0.189    8.789
  303.000   97.186    0.394    0.199    8.148
  303.250  100.162    0.399    0.207    7.554
  303.500  104.332    0.404    0.213    6.372
  303.750  104.924    0.419    0.218    5.079
  304.000   99.549    0.430    0.234    4.366
  304.250   92.979    0.441    0.255    3.824
  304.500   87.007    0.436    0.277    3.823
  304.750   82.228    0.433    0.285    4.278
  305.000   78.045    0.425    0.273    4.612
  305.250   70.876    0.417    0.258    5.360
  305.500   69.082    0.410    0.255    6.348
  305.750   69.672    0.410    0.253    7.240
  306.000   70.261    0.410    0.247    8.254
  306.250   72.044    0.409    0.242    8.250
  306.500   74.423    0.408    0.242    8.094
  306.750   75.611    0.415    0.243    7.938
  307.000   76.800    0.420    0.245    7.642
  307.250   79.177    0.432    0.250    6.951
  307.500   81.555    0.432    0.253    6.204
  307.750   82.745    0.430    0.257    5.644
  308.000   85.126    0.437    0.256    5.037
  308.250   86.312    0.452    0.248    4.669
  308.500   87.498    0.457    0.239    4.494
  308.750   86.297    0.450    0.227    4.665
  309.000   85.099    0.442    0.218    5.124
  309.250   83.901    0.436    0.222    5.522
  309.500   82.105    0.431    0.228    5.625
  309.750   85.080    0.433    0.236    5.729
  310.000   92.829    0.441    0.237    5.619
  310.250   97.594    0.457    0.226    5.308
  310.500  101.766    0.459    0.202    5.109
  310.750  105.338    0.459    0.191    5.106
  311.000  101.750    0.463    0.200    5.104
  311.250  100.552    0.473    0.215    5.101
  311.500  101.141    0.478    0.224    5.099
  311.750  102.926    0.481    0.226    5.193
  312.000  106.498    0.481    0.223    5.492
  312.250  110.666    0.483    0.220    5.701
  312.500  113.048    0.484    0.211    6.030
  312.750  112.445    0.479    0.197    6.498
  313.000  109.457    0.471    0.200    6.746
  313.250   97.519    0.458    0.226    7.840
  313.500   95.722    0.445    0.231    8.775
  313.750   92.136    0.413    0.251   10.392
