~VERSION INFORMATION
 VERS.                 2.0:   CWLS LOG ASCII STANDARD -VERSION 2.0
 WRAP.                  NO:   ONE LINE PER DEPTH STEP
~WELL INFORMATION BLOCK
#MNEM.UNIT           DATA                    DESCRIPTION OF MNEMONIC
#---------    -------------------            -------------------------------
# Generated from Intellog Unique Number	CS_77_79/WELL/957
WELL.         MESA HB LEISMER                : Well_name    - WELL
LOC .         00/10-18-078-10W4/0            : Location     - LOCATION
UWI .         00/10-18-078-10W4/0            : Uwi          - UNIQUE WELL ID
ENTR.         JHS                            : Entered      - ENTERED BY
SRVC.         SCHLUMBERGER                   : Scn          - SERVICE COMPANY
STRT.M        243.84                         : top_depth    - START DEPTH
STOP.M        475.34                         : bot_depth    - STOP DEPTH
STEP.M        0.25                           : increment    - STEP LENGTH
 NULL. -999.2500:NULL Value
~CURVE INFORMATION BLOCK
#MNEM UNIT       ERCB CURVE CODE    CURVE DESCRIPTION
#-----------   ------------------   ----------------------------------
DEPT.M        00 001 00 00         : DEPTH        - DEPTH
RHOB.KG/M3    00 350 00 00         : DENS         - BULK DENSITY
GR  .API      00 310 00 00         : GR           - GAMMA RAY
DPHI.V/V      00 890 00 00         : PHID         - DENSITY POROSITY (SANDSTONE)
NPHI.V/V      00 330 00 00         : PHIN         - NEUTRON POROSITY (SANDSTONE)
ILD .OHMM     00 120 00 00         : RESD         - DEEP RESISTIVITY (DIL)
~PARAMETER INFORMATION
#MNEM.UNIT           DATA             DESCRIPTION OF MNEMONIC
#---------         -----------     ------------------------------
GL  .M        662.33               : gl           - GROUND LEVEL ELEVATION
EREF.M        666.293              : kb           - ELEVATION OF DEPTH REFERENCE
DATM.M        666.293              : datum        - DATUM ELEVATION
TDD .M        487.68               : tdd          - TOTAL DEPTH DRILLER
RUN .         ONE                  : Run          - RUN NUMBER
ENG .         BILL                 : Engineer     - RECORDING ENGINEER
WIT .         JIM                  : Witness      - WITNESSED BY
MUD .         GEL                  : Mud_type     - MUD TYPE
MATR.         SANDSTONE            : Logunit      - NEUTRON MATRIX
TMAX.C        22.2222              : BHT          - MAXIMUM RECORDED TEMPERATURE
BHTD.M        487.68               : BHTDEP       - MAXIMUM RECORDED TEMPERATURE
MATR.         1                    : LOGUNIT      - NEUTRON MATRIX
RMT .C        25                   : MDTP         - TEMPERATURE OF MUD
NEUT.         1                    : NEUTRON      - NEUTRON TYPE
RESI.         0                    : RESIST       - RESISTIVITY TYPE
RMC .OHMM     0.25                 : RMC          - RESISTIVITY OF MUD CAKE
RMF .OHMM     0.25                 : RMF          - RESISTIVITY OF MUD FILTRATE
SUFT.C        15                   : SUFT         - SURFACE TEMPERATURE
~A  DEPTH     DENS       GR     PHID     PHIN     RESD
# ...
  316.840    0.000   65.970    0.288    0.368   15.652
  317.090    0.000   62.766    0.275    0.360   15.648
  317.340    0.000   59.192    0.327    0.421   15.584
  317.590   -0.000   58.097    0.371    0.432   15.374
  317.840   -0.000   60.653    0.370    0.447   14.901
  318.090   -0.000   63.312    0.356    0.454   14.789
  318.340    0.000   60.959    0.373    0.450   14.300
  318.590    0.000   58.773    0.373    0.457   14.158
  318.840    0.000   58.984    0.354    0.447   14.003
  319.090   -0.000   61.096    0.359    0.439   13.776
  319.340   -0.000   59.722    0.348    0.440   13.488
  319.590   -0.000   56.300    0.333    0.454   13.518
  319.840    0.000   56.746    0.344    0.460   13.493
  320.090    0.000   57.988    0.357    0.455   13.799
  320.340   -0.000   61.073    0.354    0.454   13.776
  320.590   -0.000   62.772    0.356    0.443   13.932
  320.840   -0.000   62.841    0.351    0.449   14.025
  321.090    0.000   61.823    0.348    0.467   14.053
  321.340    0.000   61.078    0.331    0.454   13.750
  321.590    0.000   61.072    0.327    0.459   13.751
  321.840   -0.000   60.101    0.355    0.463   13.522
  322.090   -0.000   60.002    0.345    0.467   13.527
  322.340   -0.000   61.775    0.354    0.457   13.523
  322.590    0.000   62.377    0.366    0.437   13.270
  322.840    0.000   62.365    0.363    0.447   13.223
  323.090    0.000   62.338    0.347    0.468   12.811
  323.340   -0.000   63.952    0.340    0.470   12.448
  323.590   -0.000   64.657    0.343    0.476   11.768
  323.840    0.000   64.112    0.345    0.466   11.271
  324.090    0.000   65.235    0.335    0.479   11.362
  324.340    0.000   63.865    0.339    0.479   11.696
  324.590   -0.000   62.672    0.354    0.456   11.857
  324.840   -0.000   67.981    0.358    0.443   12.066
  325.090   -0.000   70.338    0.350    0.448   11.696
  325.340    0.000   70.574    0.341    0.458   11.232
  325.590    0.000   70.363    0.350    0.468   10.592
  325.840    0.000   73.190    0.348    0.457   10.078
  326.090   -0.000   72.352    0.344    0.455    9.808
  326.340   -0.000   71.146    0.348    0.464    9.323
  326.590    0.000   71.297    0.348    0.468    8.722
  326.840    0.000   73.130    0.339    0.480    8.388
  327.090    0.000   69.493    0.357    0.503    7.929
  327.340   -0.000   66.667    0.351    0.504    7.803
  327.590   -0.000   64.989    0.356    0.497    8.014
  327.840   -0.000   64.143    0.343    0.492    8.446
  328.090    0.000   65.283    0.363    0.499    8.318
  328.340    0.000   65.723    0.358    0.509    7.825
  328.590    0.000   68.536    0.336    0.477    7.202
  328.840   -0.000   74.704    0.334    0.448    6.476
  329.090   -0.000   84.731    0.338    0.444    5.601
  329.340   -0.000   92.446    0.291    0.450    4.915
  329.590    0.000   92.698    0.301    0.449    4.390
  329.840    0.000   91.794    0.286    0.463    4.240
  330.090   -0.000   91.803    0.277    0.477    4.245
  330.340   -0.000   94.353    0.271    0.488    4.283
  330.590   -0.000   97.427    0.283    0.501    4.421
  330.840    0.000   98.818    0.265    0.498    4.561
  331.090    0.000  101.772    0.262    0.498    4.528
  331.340    0.000  103.939    0.260    0.507    4.484
  331.590   -0.000  103.404    0.269    0.520    4.337
  331.840   -0.000  102.187    0.256    0.559    4.323
  332.090   -0.000  100.833    0.259    0.540    4.412
  332.340    0.000   97.188    0.277    0.507    4.597
  332.590    0.000   91.755    0.270    0.501    5.038
  332.840   -0.000   88.799    0.275    0.485    5.800
  333.090   -0.000   88.467    0.269    0.478    6.739
  333.340   -0.000   85.147    0.269    0.476    7.559
  333.590    0.000   79.255    0.265    0.458    8.834
  333.840    0.000   77.325    0.288    0.449    9.887
  334.090    0.000   75.447    0.297    0.455   11.021
  334.340   -0.000   73.454    0.308    0.480   11.550
  334.590   -0.000   71.071    0.320    0.481   11.536
  334.840   -0.000   69.423    0.329    0.472   11.534
  335.090    0.000   68.896    0.337    0.461   11.495
  335.340    0.000   74.489    0.333    0.457   12.076
  335.590    0.000   76.745    0.317    0.461   12.423
  335.840   -0.000   77.142    0.320    0.478   12.436
  336.090   -0.000   77.212    0.338    0.448   12.101
  336.340    0.000   79.569    0.350    0.430   10.971
  336.590    0.000   87.485    0.329    0.430    9.388
  336.840    0.000  101.155    0.301    0.478    7.152
  337.090   -0.000  109.762    0.263    0.500    4.849
  337.340   -0.000  116.765    0.258    0.514    3.666
  337.590   -0.000  119.875    0.275    0.526    3.142
  337.840    0.000  126.988    0.279    0.551    3.031
  338.090    0.000  129.164    0.292    0.539    3.405
  338.340    0.000  126.638    0.299    0.497    4.461
  338.590   -0.000  122.257    0.287    0.473    5.760
  338.840   -0.000  116.225    0.293    0.474    7.047
  339.090    0.000  109.391    0.272    0.494    7.021
  339.340    0.000   95.003    0.268    0.516    6.697
  339.590    0.000   92.640    0.270    0.498    5.595
  339.840   -0.000   95.725    0.247    0.497    4.477
  340.090   -0.000  100.626    0.252    0.491    3.620
  340.340   -0.000  104.440    0.236    0.493    2.992
  340.590    0.000  102.241    0.229    0.519    2.698
  340.840    0.000  100.887    0.218    0.545    2.734
  341.090    0.000  102.715    0.236    0.541    2.853
  341.340   -0.000  103.738    0.254    0.534    3.378
  341.590   -0.000  102.593    0.260    0.544    3.834
  341.840   -0.000   98.904    0.265    0.548    4.198
  342.090    0.000   92.605    0.251    0.552    4.629
  342.340    0.000   92.123    0.270    0.537    5.058
  342.590   -0.000   89.532    0.282    0.500    5.716
  342.840   -0.000   85.754    0.251    0.486    6.492
  343.090   -0.000   91.542    0.251    0.496    6.635
  343.340    0.000   90.581    0.259    0.486    6.227
  343.590    0.000   91.787    0.293    0.454    5.588
  343.840    0.000   97.680    0.268    0.432    4.886
  344.090   -0.000  103.709    0.248    0.438    4.111
  344.340   -0.000  106.404    0.251    0.507    3.631
  344.590   -0.000  106.698    0.250    0.541    3.355
  344.840    0.000  103.058    0.238    0.549    3.340
  345.090    0.000  101.173    0.239    0.516    3.613
  345.340   -0.000   99.623    0.253    0.503    4.195
  345.590   -0.000   95.504    0.238    0.482    4.463
  345.840   -0.000   94.124    0.238    0.462    4.613
  346.090    0.000   95.210    0.241    0.453    4.530
  346.340    0.000   99.270    0.248    0.450    4.400
  346.590    0.000  100.790    0.263    0.490    4.169
  346.840   -0.000  101.270    0.271    0.500    3.925
  347.090   -0.000  102.118    0.260    0.512    3.683
  347.340   -0.000  105.208    0.263    0.542    3.622
  347.590    0.000  105.131    0.269    0.520    3.503
  347.840    0.000  106.427    0.282    0.521    3.495
  348.090    0.000  111.157    0.268    0.507    3.494
  348.340   -0.000  115.284    0.258    0.517    3.498
  348.590   -0.000  115.254    0.291    0.600    3.395
  348.840    0.000  111.769    0.306    0.596    3.193
  349.090    0.000  107.463    0.294    0.582    3.032
  349.340    0.000  103.382    0.281    0.575    2.935
  349.590   -0.000   99.841    0.276    0.566    2.849
  349.840   -0.000  101.640    0.275    0.552    2.939
  350.090   -0.000  105.658    0.281    0.555    3.042
  350.340    0.000  105.289    0.288    0.570    3.217
  350.590    0.000  101.956    0.286    0.534    3.766
  350.840    0.000   95.612    0.282    0.501    4.232
  351.090   -0.000   92.035    0.270    0.470    4.892
  351.340   -0.000   90.094    0.270    0.453    5.811
  351.590    0.000   88.129    0.289    0.455    6.680
  351.840    0.000   86.859    0.271    0.461    7.534
  352.090    0.000   87.016    0.257    0.455    7.736
  352.340   -0.000   91.494    0.262    0.453    7.617
  352.590   -0.000   92.583    0.278    0.465    7.319
  352.840   -0.000   93.122    0.261    0.472    7.065
  353.090    0.000   95.850    0.256    0.474    6.953
