~VERSION INFORMATION
 VERS.                 2.0:   CWLS LOG ASCII STANDARD -VERSION 2.0
 WRAP.                  NO:   ONE LINE PER DEPTH STEP
~WELL INFORMATION BLOCK
#MNEM.UNIT           DATA                    DESCRIPTION OF MNEMONIC
#---------    -------------------            -------------------------------
# Generated from Intellog Unique Number	CS_71_72/WELL/879
WELL.         SUN OIL COMPANY                : Well_name    - WELL
LOC .         00/10-33-071-18W4/0            : Location     - LOCATION
UWI .         00/10-33-071-18W4/0            : Uwi          - UNIQUE WELL ID
ENTR.         SP                             : Entered      - ENTERED BY
SRVC.         SCHLUMBERGER                   : Scn          - SERVICE COMPANY
STRT.M        298.704                        : top_depth    - START DEPTH
STOP.M        487.454                        : bot_depth    - STOP DEPTH
STEP.M        0.25                           : increment    - STEP LENGTH
 NULL. -999.2500:NULL Value
~CURVE INFORMATION BLOCK
#MNEM UNIT       ERCB CURVE CODE    CURVE DESCRIPTION
#-----------   ------------------   ----------------------------------
DEPT.M        00 001 00 00         : DEPTH        - DEPTH
GR  .API      00 310 00 00         : GR           - GAMMA RAY
DPHI.V/V      00 890 00 00         : PHID         - DENSITY POROSITY (SANDSTONE)
NPHI.V/V      00 330 00 00         : PHIN         - NEUTRON POROSITY (SANDSTONE)
ILD .OHMM     00 120 00 00         : RESD         - DEEP RESISTIVITY (DIL)
~PARAMETER INFORMATION
#MNEM.UNIT           DATA             DESCRIPTION OF MNEMONIC
#---------         -----------     ------------------------------
GL  .M        592.684              : gl           - GROUND LEVEL ELEVATION
EREF.M        595.579              : kb           - ELEVATION OF DEPTH REFERENCE
DATM.M        592.684              : datum        - DATUM ELEVATION
TDD .M        489.814              : tdd          - TOTAL DEPTH DRILLER
RUN .         ONE                  : Run          - RUN NUMBER
ENG .         BILL                 : Engineer     - RECORDING ENGINEER
WIT .         JIM                  : Witness      - WITNESSED BY
MUD .         GEL                  : Mud_type     - MUD TYPE
MATR.         SANDSTONE            : Logunit      - NEUTRON MATRIX
TMAX.C        12.2222              : BHT          - MAXIMUM RECORDED TEMPERATURE
BHTD.M        489.814              : BHTDEP       - MAXIMUM RECORDED TEMPERATURE
MATR.         1                    : LOGUNIT      - NEUTRON MATRIX
RMT .C        25                   : MDTP         - TEMPERATURE OF MUD
NEUT.         1                    : NEUTRON      - NEUTRON TYPE
RESI.         0                    : RESIST       - RESISTIVITY TYPE
RMC .OHMM     0.25                 : RMC          - RESISTIVITY OF MUD CAKE
RMF .OHMM     0.25                 : RMF          - RESISTIVITY OF MUD FILTRATE
SUFT.C        15                   : SUFT         - SURFACE TEMPERATURE
~A  DEPTH       GR     PHID     PHIN     RESD
  298.704  113.153    0.197    0.519    3.445
  298.954  109.414    0.212    0.534    3.547
  299.204  106.044    0.204    0.526    3.584
  299.454  103.414    0.191    0.507    3.503
  299.704  111.069    0.204    0.515    3.432
  299.954  113.535    0.221    0.532    3.315
  300.204  112.819    0.227    0.527    3.200
  300.454  111.319    0.211    0.516    2.999
  300.704  110.349    0.220    0.535    2.845
  300.954  109.455    0.231    0.553    2.781
  301.204  108.538    0.235    0.562    2.790
  301.454  107.297    0.236    0.548    2.804
  301.704  106.469    0.256    0.539    2.859
  301.954  106.336    0.238    0.535    2.989
  302.204  106.544    0.250    0.539    3.062
  302.454  105.898    0.263    0.542    3.041
  302.704  103.958    0.248    0.542    2.883
  302.954  103.447    0.238    0.560    2.796
  303.204  102.452    0.246    0.545    2.820
  303.454   96.536    0.233    0.536    2.967
  303.704   88.335    0.209    0.542    3.459
  303.954   82.359    0.159    0.503    4.117
  304.204   76.752    0.116    0.409    4.490
  304.454   82.899    0.186    0.399    4.953
  304.704   87.073    0.236    0.423    5.391
  304.954   87.298    0.233    0.415    5.788
  305.204   84.938    0.233    0.423    5.831
  305.454   85.201    0.240    0.443    5.669
  305.704   88.841    0.221    0.459    5.490
  305.954   91.308    0.206    0.463    5.189
  306.204   91.296    0.214    0.445    4.978
  306.454   88.674    0.221    0.439    4.989
  306.704   89.109    0.233    0.448    4.998
  306.954   90.782    0.238    0.454    4.959
  307.204   92.721    0.222    0.451    4.929
  307.454   93.255    0.221    0.445    4.915
  307.704   92.285    0.222    0.438    4.959
  307.954   88.071    0.225    0.441    4.956
  308.204   87.657    0.231    0.441    4.971
  308.454   91.235    0.238    0.429    5.039
  308.704   91.997    0.243    0.421    5.095
  308.954   92.356    0.244    0.426    5.101
  309.204   91.569    0.210    0.433    5.066
  309.454   90.260    0.202    0.440    5.128
  309.704   88.363    0.210    0.446    5.143
  309.954   87.372    0.205    0.452    5.141
  310.204   86.257    0.208    0.455    5.073
  310.454   85.786    0.197    0.458    4.894
  310.704   85.765    0.207    0.447    4.732
  310.954   91.120    0.217    0.445    4.608
  311.204   92.369    0.224    0.437    4.577
  311.454   93.818    0.215    0.437    4.600
  311.704   94.501    0.212    0.436    4.660
  311.954   93.902    0.205    0.431    4.768
  312.204   93.054    0.217    0.437    4.912
  312.454   92.453    0.228    0.427    5.004
  312.704   89.744    0.207    0.417    4.956
  312.954   87.992    0.216    0.424    4.899
  313.204   89.572    0.231    0.433    4.808
  313.454   91.540    0.241    0.440    4.720
  313.704   94.357    0.214    0.441    4.716
  313.954   98.094    0.207    0.429    4.791
  314.204  102.765    0.226    0.429    4.918
  314.454  100.695    0.223    0.438    4.959
  314.704   95.127    0.202    0.446    4.902
  314.954   95.453    0.224    0.457    4.731
  315.204  101.000    0.258    0.466    4.511
  315.454  104.714    0.277    0.458    4.279
  315.704  106.264    0.290    0.460    4.107
  315.954  107.465    0.305    0.481    3.940
  316.204  107.627    0.327    0.497    3.729
  316.454  109.300    0.159    0.488    3.521
  316.704  114.599    0.190    0.505    3.328
  316.954  119.159    0.227    0.526    3.197
  317.204  119.001    0.240    0.543    3.056
  317.454  119.577    0.242    0.559    2.998
  317.704  121.813    0.203    0.566    2.941
  317.954  124.965    0.212    0.577    2.941
  318.204  128.100    0.218    0.594    2.933
  318.454  125.907    0.204    0.587    2.907
  318.704  122.679    0.200    0.538    2.862
  318.954  123.051    0.218    0.540    2.767
  319.204  129.192    0.238    0.555    2.739
  319.454  133.969    0.221    0.563    2.810
  319.704  128.900    0.225    0.550    3.026
  319.954  121.174    0.241    0.518    3.483
  320.204  113.018    0.253    0.493    3.997
  320.454  110.131    0.220    0.469    4.594
  320.704  105.022    0.189    0.460    5.101
  320.954   95.986    0.177    0.462    5.336
  321.204   85.979    0.187    0.462    5.324
  321.454   76.504    0.211    0.446    5.230
  321.704   70.026    0.241    0.440    5.052
  321.954   74.251    0.249    0.438    4.997
  322.204   80.113    0.228    0.448    5.074
  322.454   84.575    0.197    0.463    5.330
  322.704   89.770    0.170    0.469    5.583
  322.954   95.365    0.156    0.479    5.608
  323.204  103.552    0.160    0.488    5.446
  323.454  110.271    0.183    0.493    5.233
  323.704  114.082    0.232    0.498    5.164
  323.954  108.862    0.252    0.468    5.283
  324.204  102.209    0.224    0.451    5.415
  324.454   98.194    0.207    0.441    5.596
  324.704   98.042    0.197    0.429    5.770
  324.954   99.804    0.215    0.422    5.898
  325.204   99.867    0.225    0.439    6.002
  325.454   98.853    0.234    0.456    6.018
  325.704   96.209    0.241    0.465    6.001
  325.954   94.945    0.246    0.436    5.874
  326.204   92.683    0.248    0.432    5.809
  326.454   90.659    0.231    0.447    5.830
  326.704   92.204    0.216    0.445    5.968
  326.954   94.405    0.210    0.432    6.117
  327.204   95.898    0.219    0.413    6.250
  327.454   97.055    0.225    0.416    6.269
  327.704   98.835    0.213    0.430    6.199
  327.954  100.339    0.223    0.441    5.999
  328.204  100.502    0.214    0.440    5.691
  328.454  103.977    0.201    0.438    5.518
  328.704  106.844    0.209    0.438    5.307
  328.954  109.666    0.218    0.453    5.180
  329.204  112.495    0.210    0.465    5.193
  329.454  115.178    0.226    0.480    5.250
  329.704  116.615    0.234    0.484    5.362
  329.954  122.387    0.238    0.470    5.480
  330.204  130.165    0.242    0.462    5.522
  330.454  135.199    0.221    0.450    5.451
  330.704  128.348    0.210    0.453    5.250
  330.954  121.157    0.197    0.477    5.177
  331.204  117.437    0.228    0.498    5.247
  331.454  114.912    0.262    0.445    5.515
  331.704  112.658    0.229    0.414    5.704
  331.954  111.744    0.204    0.407    5.673
  332.204  118.976    0.191    0.429    5.190
  332.454  124.694    0.190    0.448    4.820
  332.704  128.438    0.198    0.472    4.381
  332.954  133.110    0.194    0.506    3.937
  333.204  135.442    0.211    0.513    3.607
  333.454  136.617    0.195    0.492    3.361
  333.704  129.476    0.220    0.489    3.252
  333.954  119.260    0.235    0.484    3.301
  334.204  108.233    0.226    0.495    3.581
  334.454  101.277    0.241    0.501    3.861
  334.704   93.829    0.241    0.452    4.294
  334.954   87.938    0.218    0.446    4.705
  335.204   83.673    0.246    0.459    5.079
  335.454   81.955    0.264    0.461    5.367
  335.704   83.231    0.284    0.444    5.626
  335.954   85.520    0.297    0.448    5.613
  336.204   86.764    0.306    0.455    5.344
  336.454   88.379    0.290    0.434    5.069
  336.704   90.927    0.281    0.424    4.836
  336.954   94.044    0.268    0.421    4.724
  337.204   96.183    0.249    0.437    4.796
  337.454   96.779    0.256    0.455    4.960
  337.704   92.323    0.283    0.475    5.139
  337.954   87.617    0.306    0.478    5.397
  338.204   83.072    0.292    0.462    5.644
  338.454   78.923    0.281    0.455    5.786
  338.704   86.562    0.278    0.460    5.861
  338.954   90.971    0.283    0.463    5.855
  339.204   93.005    0.259    0.470    5.797
  339.454   95.052    0.250    0.476    5.718
  339.704   97.857    0.238    0.470    5.647
  339.954   95.194    0.223    0.486    5.623
  340.204   92.703    0.228    0.477    5.632
  340.454   91.164    0.237    0.484    5.738
  340.704   89.449    0.241    0.468    5.795
  340.954   87.549    0.244    0.462    5.840
  341.204   90.727    0.245    0.476    5.814
  341.454   93.917    0.236    0.465    5.780
  341.704   95.531    0.207    0.459    5.647
  341.954   95.500    0.197    0.462    5.465
