~VERSION INFORMATION
 VERS.                 2.0:   CWLS LOG ASCII STANDARD -VERSION 2.0
 WRAP.                  NO:   ONE LINE PER DEPTH STEP
~WELL INFORMATION BLOCK
#MNEM.UNIT           DATA                    DESCRIPTION OF MNEMONIC
#---------    -------------------            -------------------------------
# Generated from Intellog Unique Number	CW_82_90/WELL/879
WELL.         10-20-083-20W4                 : Well_name    - WELL
LOC .         00/10-20-083-20W4/0            : Location     - LOCATION
UWI .         00/10-20-083-20W4/0            : Uwi          - UNIQUE WELL ID
ENTR.         JAYE                           : Entered      - ENTERED BY
SRVC.         SCHLUMBERGER                   : Scn          - SERVICE COMPANY
DATE.         16 MAR 74                      : Date         - LOG DATE
STRT.M        222.504                        : top_depth    - START DEPTH
STOP.M        436.504                        : bot_depth    - STOP DEPTH
STEP.M        0.25                           : increment    - STEP LENGTH
 NULL. -999.2500:NULL Value
~CURVE INFORMATION BLOCK
#MNEM UNIT       ERCB CURVE CODE    CURVE DESCRIPTION
#-----------   ------------------   ----------------------------------
DEPT.M        00 001 00 00         : DEPTH        - DEPTH
ILD .OHMM     00 120 00 00         : RESD         - DEEP RESISTIVITY (DIL)
CALI.MM       00 280 01 00         : CAL          - CALIPER
GR  .API      00 310 00 00         : GR           - GAMMA RAY
NPHI.V/V      00 330 00 00         : PHIN         - NEUTRON POROSITY (SANDSTONE)
DPHI.V/V      00 890 00 00         : PHID         - DENSITY POROSITY (SANDSTONE)
~PARAMETER INFORMATION
#MNEM.UNIT           DATA             DESCRIPTION OF MNEMONIC
#---------         -----------     ------------------------------
GL  .M        632.765              : gl           - GROUND LEVEL ELEVATION
EREF.M        637.032              : kb           - ELEVATION OF DEPTH REFERENCE
DATM.M        632.765              : datum        - DATUM ELEVATION
TDD .M        444.094              : tdd          - TOTAL DEPTH DRILLER
RUN .         ONE                  : Run          - RUN NUMBER
ENG .         AUGUSTIN             : Engineer     - RECORDING ENGINEER
WIT .         FYFFE                : Witness      - WITNESSED BY
BASE.         EDMONTON             : Branch       - HOME BASE OF LOGGING UNIT
MUD .         GEL CHEM             : Mud_type     - MUD TYPE
MATR.         SANDSTONE            : Logunit      - NEUTRON MATRIX
TMAX.C        22.2222              : BHT          - MAXIMUM RECORDED TEMPERATURE
BHTD.M        444.094              : BHTDEP       - MAXIMUM RECORDED TEMPERATURE
RMT .C        15.5556              : MDTP         - TEMPERATURE OF MUD
MUDD.KG/M     8500                 : MWT          - MUD DENSITY
NEUT.         1                    : NEUTRON      - NEUTRON TYPE
RESI.         0                    : RESIST       - RESISTIVITY TYPE
RM  .OHMM     4.85                 : RM           - RESISTIVITY OF MUD
RMC .OHMM     0                    : RMC          - RESISTIVITY OF MUD CAKE
RMF .OHMM     0                    : RMF          - RESISTIVITY OF MUD FILTRATE
SUFT.C        -17.7778             : SUFT         - SURFACE TEMPERATURE
~A  DEPTH     RESD      CAL       GR     PHIN     PHID
# ...
  405.004    7.242  216.514  104.927    0.519    0.214
  405.254    6.483  214.817  103.133    0.537    0.243
  405.504    5.135  210.236  102.620    0.527    0.246
  405.754    4.588  209.059  103.080    0.515    0.246
  406.004    4.323  209.412   97.154    0.493    0.241
  406.254    4.873  208.950   90.863    0.455    0.231
  406.504    5.531  211.686   78.672    0.421    0.199
  406.754    7.321  215.045   74.509    0.387    0.208
  407.004   10.695  213.449   74.298    0.357    0.187
  407.254   18.351  211.242   74.088    0.340    0.153
  407.504   20.719  211.603   73.999    0.368    0.120
  407.754   20.887  213.203   73.847    0.439    0.191
  408.004   19.646  211.093   70.903    0.441    0.210
  408.254   18.610  207.650   71.722    0.445    0.237
  408.504   17.698  206.571   73.517    0.451    0.256
  408.754   16.981  206.109   72.520    0.423    0.236
  409.004   16.116  205.655   71.581    0.411    0.235
  409.254   14.454  205.192   74.468    0.419    0.219
  409.504   13.035  205.147   77.482    0.458    0.221
  409.754   11.861  207.259   80.251    0.497    0.226
  410.004   10.794  211.737   83.198    0.487    0.237
  410.254   10.512  204.692   84.997    0.444    0.246
  410.504   10.811  201.133   87.402    0.417    0.237
  410.754   11.600  200.169   91.264    0.411    0.218
  411.004   12.104  200.114   97.256    0.392    0.205
  411.254   13.346  199.765   93.701    0.395    0.205
  411.504   15.096  199.510   76.646    0.369    0.237
  411.754   16.951  199.149   63.303    0.326    0.256
  412.004   18.792  194.576   60.655    0.302    0.275
  412.254   18.498  194.012   63.123    0.299    0.292
  412.504   17.655  194.061   66.501    0.389    0.292
  412.754   16.940  194.737   68.040    0.501    0.281
  413.004   16.953  194.790   50.271    0.348    0.274
  413.254   17.471  193.921   23.185    0.350    0.289
  413.504   20.088  190.167   21.507    0.313    0.300
  413.754   26.783  189.912   22.701    0.330    0.304
  414.004   37.590  193.365   25.163    0.341    0.305
  414.254   43.862  195.989   27.872    0.343    0.302
  414.504   43.733  195.844   30.339    0.331    0.297
  414.754   33.762  196.818   34.017    0.326    0.286
  415.004   25.969  198.323   39.645    0.328    0.267
  415.254   20.344  200.852   56.398    0.338    0.237
  415.504   17.148  204.092   78.322    0.366    0.194
  415.754   15.128  208.371   89.785    0.374    0.213
  416.004   13.791  212.853  108.179    0.371    0.222
  416.254   12.736  211.159  122.074    0.354    0.210
  416.504   12.110  209.672  132.261    0.366    0.189
  416.754   11.705  208.694  139.104    0.424    0.194
  417.004   11.296  205.664  135.490    0.420    0.193
  417.254   11.200  205.203  127.433    0.417    0.212
  417.504   11.208  204.432  127.224    0.411    0.224
  417.754   11.488  203.460  127.193    0.392    0.218
  418.004   11.991  202.484  126.010    0.386    0.185
  418.254   12.287  203.035  122.943    0.398    0.173
  418.504   12.708  204.536  121.274    0.421    0.189
  418.754   13.141  206.355  118.082    0.406    0.193
  419.004   13.742  208.780  113.069    0.372    0.178
  419.254   14.239  209.966  109.087    0.345    0.157
  419.504   14.434  206.623  109.058    0.344    0.164
  419.754   14.183  207.710  109.335    0.356    0.176
  420.004   13.988  208.995  109.852    0.364    0.163
  420.254   13.895  210.077  111.286    0.392    0.165
  420.504   13.833  209.930  114.236    0.406    0.166
  420.754   13.841  209.667  114.694    0.398    0.158
  421.004   13.956  209.615  111.565    0.356    0.148
  421.254   14.248  209.475  108.558    0.340    0.144
  421.504   14.682  209.531  106.706    0.336    0.137
  421.754   15.607  208.867  103.270    0.322    0.145
  422.004   16.836  207.275   91.568    0.310    0.197
  422.254   17.733  206.815   92.632    0.311    0.201
  422.504   18.540  207.070   91.511    0.324    0.191
  422.754   19.743  207.126   78.290    0.337    0.210
  423.004   21.256  207.994   61.602    0.350    0.239
  423.254   23.480  210.633   51.784    0.387    0.259
  423.504   26.753  215.430   43.911    0.377    0.267
  423.754   29.767  216.412   40.053    0.363    0.274
  424.004   32.824  208.438   40.207    0.367    0.281
  424.254   33.759  208.695   42.488    0.386    0.290
  424.504   33.234  208.945   48.417    0.380    0.298
  424.754   32.298  208.180   55.992    0.371    0.297
  425.004   30.657  208.143   64.352    0.359    0.290
  425.254   29.419  209.524   74.721    0.416    0.275
  425.504   28.853  209.898   76.094    0.412    0.276
  425.754   28.458  207.171   74.362    0.391    0.286
  426.004   28.428  205.068   76.706    0.362    0.277
  426.254   27.936  203.167   84.095    0.363    0.239
  426.504   27.252  201.155   87.228    0.360    0.235
  426.754   26.534  199.674   85.250    0.348    0.224
  427.004   25.229  198.791   85.340    0.343    0.190
  427.254   23.900  198.135   86.839    0.340    0.160
  427.504   23.399  197.469   94.289    0.339    0.155
  427.754   23.547  197.003   97.906    0.340    0.142
  428.004   24.001  196.435   98.913    0.341    0.133
  428.254   24.958  195.677  103.932    0.347    0.154
  428.504   26.048  195.114  108.708    0.361    0.190
  428.754   27.436  196.502  114.210    0.380    0.208
  429.004   29.436  197.282  114.000    0.373    0.215
  429.254   30.666  196.716  113.426    0.356    0.233
  429.504   31.138  195.327  114.431    0.340    0.242
  429.754   31.276  194.768  116.532    0.331    0.234
  430.004   29.363  194.207  108.842    0.337    0.241
  430.254   27.162  194.160  104.981    0.364    0.245
  430.504   26.840  194.424  103.983    0.373    0.222
  430.754   27.402  195.190  102.130    0.368    0.205
  431.004   30.271  194.941   97.176    0.424    0.183
  431.254   33.068  195.101   83.467    0.526    0.122
  431.504   36.130  195.158   70.610    0.535    0.006
  431.754   37.364  193.652   72.953    0.519   -0.014
  432.004   34.004  192.480   82.531    0.488   -0.013
  432.254   29.136  191.719   95.697    0.398    0.002
  432.504   25.797  193.829  102.844    0.422    0.030
  432.754   23.347  203.977  106.340    0.456    0.228
  433.004   24.727  214.844   98.407    0.432    0.230
  433.254   29.013  209.958   83.909    0.380    0.195
  433.504   32.637  197.346   63.327    0.356    0.073
  433.754   36.848  195.027   45.297    0.373    0.076
  434.004   40.480  195.599   47.585    0.384    0.094
  434.254   40.213  196.069   50.962    0.357    0.141
  434.504   37.338  196.434   52.939    0.314    0.107
  434.754   35.308  196.795   50.784    0.332    0.096
  435.004   35.014  196.744   46.071    0.349    0.100
  435.254   38.258  195.877   41.905    0.369    0.103
  435.504   40.592  194.694   37.869    0.373    0.147
  435.754   43.703  193.923   34.737    0.287    0.133
  436.004   49.434  194.391   35.138    0.259    0.103
  436.254   56.427  195.068   36.021    0.258    0.074
  436.504   56.783  195.914   34.532    0.268    0.035
