~VERSION INFORMATION
 VERS.                 2.0:   CWLS LOG ASCII STANDARD -VERSION 2.0
 WRAP.                  NO:   ONE LINE PER DEPTH STEP
~WELL INFORMATION BLOCK
#MNEM.UNIT           DATA                    DESCRIPTION OF MNEMONIC
#---------    -------------------            -------------------------------
# Generated from Intellog Unique Number	CC_80_83/WELL/2402
NULL.         -999.25                        : NULL_VALUE
WELL.         PARA ET AL GRANOR              : Well_name    - WELL
LOC .         11-19-083-17W4                 : Location     - LOCATION          
UWI .         00/11-19-083-17W400            : Uwi          - UNIQUE WELL ID    
ENTR.         DW                             : Entered      - ENTERED BY        
SRVC.         COMPUTALOG                     : Scn          - SERVICE COMPANY   
DATE.         31 JAN 82                      : Date         - LOG DATE
STRT.M        100                            : top_depth    - START DEPTH       
STOP.M        300.1                          : bot_depth    - STOP DEPTH        
STEP.M        0.3                            : increment    - STEP LENGTH       
~CURVE INFORMATION BLOCK
#MNEM UNIT       ERCB CURVE CODE    CURVE DESCRIPTION
#-----------   ------------------   ----------------------------------
DEPT.M        00 001 00 00         : DEPTH        - DEPTH                       
ILD .OHMM     00 120 00 00         : RESD         - DEEP RESISTIVITY (DIL)      
GR  .API      00 310 00 00         : GR           - GAMMA RAY                   
NPHI.V/V      00 330 00 00         : PHIN         - NEUTRON POROSITY (LIMESTONE)
DPHI.V/V      00 890 00 00         : PHID         - DENSITY POROSITY (LIMESTONE)
~PARAMETER INFORMATION       
#MNEM.UNIT           DATA             DESCRIPTION OF MNEMONIC
#---------         -----------     ------------------------------
GL  .M        542.3                : gl           - GROUND LEVEL ELEVATION      
EREF.M        545.33               : kb           - ELEVATION OF DEPTH REFERENCE
DATM.M        545.33               : datum        - DATUM ELEVATION             
TDD .M        304                  : tdd          - TOTAL DEPTH DRILLER         
RUN .         ONE                  : Run          - RUN NUMBER                  
ENG .         BILL                 : Engineer     - RECORDING ENGINEER          
WIT .         JIM                  : Witness      - WITNESSED BY                
MUD .         GEL                  : Mud_type     - MUD TYPE                    
MATR.         LIMESTONE            : Logunit      - NEUTRON MATRIX              
TMAX.C        22                   : BHT          - MAXIMUM RECORDED TEMPERATURE
BHTD.M        304                  : BHTDEP       - MAXIMUM RECORDED TEMPERATURE
MATR.         1                    : LOGUNIT      - NEUTRON MATRIX              
RMT .C        25                   : MDTP         - TEMPERATURE OF MUD          
NEUT.         1                    : NEUTRON      - NEUTRON TYPE                
RESI.         0                    : RESIST       - RESISTIVITY TYPE            
RMC .OHMM     0.25                 : RMC          - RESISTIVITY OF MUD CAKE     
RMF .OHMM     0.25                 : RMF          - RESISTIVITY OF MUD FILTRATE 
SUFT.C        15                   : SUFT         - SURFACE TEMPERATURE         
~A  DEPTH     RESD       GR     PHIN     PHID
# ...
  152.201   16.364   72.130    0.204    0.152
  152.501   19.036   65.266    0.202    0.265
  152.801   19.390   67.125    0.425    0.328
  153.101   17.967   72.095    0.486    0.309
  153.401   13.008   72.081    0.453    0.285
  153.701    8.895   75.185    0.466    0.275
  154.001    9.591   84.513    0.479    0.289
  154.301   10.949   82.634    0.413    0.325
  154.601   14.272   71.416    0.368    0.357
  154.901   20.848   63.310    0.360    0.353
  155.201   26.162   62.054    0.337    0.347
  155.501   25.659   65.156    0.350    0.350
  155.801   24.691   64.519    0.342    0.360
  156.101   22.446   65.130    0.334    0.355
  156.401   19.276   68.858    0.320    0.339
  156.701   16.553   76.317    0.312    0.324
  157.001   14.214   78.798    0.355    0.324
  157.301   12.679   76.917    0.411    0.335
  157.601   11.746   72.549    0.380    0.357
  157.901   10.678   69.425    0.351    0.362
  158.201    9.345   88.714    0.360    0.300
  158.501    8.178   98.041    0.463    0.278
  158.801    8.175   89.315    0.434    0.296
  159.101    9.509   76.228    0.352    0.330
  159.401   12.634   79.951    0.359    0.336
  159.701   14.976   85.543    0.418    0.319
  160.001   15.548   83.043    0.477    0.316
  160.301   15.540   76.182    0.479    0.314
  160.601   14.955   76.172    0.470    0.308
  160.901   14.390   78.648    0.444    0.303
  161.201   14.110   79.886    0.434    0.303
  161.501   14.377   79.251    0.427    0.302
  161.801   15.502   77.370    0.502    0.274
  162.101   16.402   73.621    0.330    0.232
  162.401   16.706   71.123    0.288    0.264
  162.701   15.774   72.979    0.372    0.295
  163.001   14.894   79.814    0.400    0.318
  163.301   15.463   81.671    0.437    0.305
  163.601   19.038   79.793    0.317    0.257
  163.901   20.533   72.313    0.158    0.021
  164.201   20.914   57.983    0.129    0.084
  164.501   19.013   61.083    0.283    0.173
  164.801   17.283   78.506    0.428    0.262
  165.101   17.603   84.719    0.351    0.320
  165.401   18.625   81.595    0.233    0.281
  165.701   18.974   67.265    0.210    0.120
  166.001   18.256   61.029    0.371    0.196
  166.301   17.570   68.488    0.419    0.319
  166.601   15.967   74.080    0.420    0.324
  166.901   15.662   76.558    0.446    0.324
  167.201   15.362   76.545    0.434    0.323
  167.501   15.354   75.291    0.405    0.319
  167.801   15.933   72.788    0.391    0.312
  168.101   16.541   70.908    0.408    0.302
  168.401   16.854   72.145    0.348    0.301
  168.701   17.831   73.378    0.338    0.308
  169.001   18.866   70.877    0.363    0.321
  169.301   19.589   65.883    0.379    0.327
  169.601   19.952   62.135    0.406    0.307
  169.901   19.938   63.372    0.425    0.308
  170.201   20.313   67.096    0.440    0.344
  170.501   20.305   57.124    0.486    0.351
  170.801   21.078   57.734    0.476    0.348
  171.101   21.876   60.838    0.444    0.346
  171.401   21.869   64.558    0.459    0.342
  171.701   22.277   61.433    0.493    0.338
  172.001   22.694   60.177    0.522    0.336
  172.301   23.116   61.414    0.439    0.334
  172.601   23.107   65.137    0.420    0.332
  172.901   23.091   64.503    0.443    0.328
  173.201   22.642   60.755    0.459    0.344
  173.501   22.633   57.632    0.440    0.343
  173.801   22.622   55.130    0.394    0.344
  174.101   22.614   53.874    0.376    0.347
  174.401   22.174   55.109    0.379    0.340
  174.701   22.167   58.832    0.441    0.343
  175.001   22.150   61.314    0.468    0.337
  175.301   22.145   63.168    0.417    0.331
  175.601   22.131   61.290    0.418    0.327
  175.901   22.118   55.677    0.443    0.326
  176.201   22.110   52.550    0.443    0.326
  176.501   22.097   56.275    0.432    0.321
  176.801   22.506   59.379    0.420    0.315
  177.101   22.500   56.250    0.392    0.331
  177.401   21.652   53.127    0.423    0.330
  177.701   22.052   50.627    0.458    0.339
  178.001   22.888   48.748    0.427    0.335
  178.301   22.881   47.493    0.421    0.330
  178.601   23.308   47.482    0.481    0.320
  178.901   22.431   46.844    0.520    0.309
  179.201   22.416   46.215    0.474    0.310
  179.501   22.406   45.580    0.445    0.320
  179.801   21.976   49.924    0.396    0.327
  180.101   21.960   52.405    0.431    0.326
  180.401   21.951   52.392    0.382    0.325
  180.701   21.943   52.381    0.392    0.325
  181.001   22.776   53.615    0.442    0.325
  181.301   23.650   52.984    0.503    0.324
  181.601   32.020   49.857    0.269    0.311
  181.901   76.592   45.489    0.129    0.000
  182.201   84.167   41.121    0.108    0.000
  182.501   80.990   39.240    0.077    0.000
  182.801   66.964   39.230    0.088    0.108
  183.101   46.675   41.710    0.144    0.196
  183.401   30.157   49.793    0.297    0.287
  183.701   24.003   60.363    0.390    0.313
  184.001   21.409   63.463    0.407    0.307
  184.301   19.835   64.076    0.408    0.308
  184.601   18.726   64.688    0.416    0.317
  184.901   18.716   69.034    0.427    0.308
  185.201   18.710   70.892    0.448    0.288
  185.501   18.349   72.124    0.433    0.266
  185.801   17.325   74.604    0.404    0.271
  186.101   15.452   77.706    0.381    0.294
  186.401   14.049   75.827    0.386    0.276
  186.701   12.769   74.572    0.423    0.278
  187.001   11.832   75.806    0.426    0.287
  187.301    9.968   86.377    0.445    0.279
  187.601    9.063   96.328    0.421    0.235
  187.901    7.781  101.920    0.421    0.175
  188.201    7.210  114.361    0.453    0.176
  188.501    6.310  124.311    0.419    0.194
  188.801    5.846  124.295    0.467    0.179
  189.101    5.733  122.420    0.508    0.165
  189.401    5.839  122.408    0.497    0.157
  189.701    5.835  123.020    0.481    0.240
  190.001    5.833  119.274    0.522    0.262
  190.301    5.722  118.640    0.542    0.252
  190.601    5.505  121.741    0.429    0.221
  190.901    5.399  124.215    0.411    0.196
  191.201    5.397  124.829    0.456    0.178
  191.501    5.291  126.066    0.442    0.170
  191.801    5.289  129.165    0.483    0.178
  192.101    5.187  128.533    0.475    0.198
  192.401    5.285  124.787    0.446    0.203
  192.701    5.281  121.038    0.450    0.206
  193.001    5.380  119.782    0.534    0.200
  193.301    5.480  121.639    0.580    0.192
  193.601    5.478  125.986    0.513    0.189
  193.901    5.372  125.973    0.487    0.210
  194.201    5.369  124.717    0.493    0.236
  194.501    5.573  120.971    0.541    0.246
  194.801    5.787  115.358    0.508    0.226
  195.101    7.835  107.252    0.451    0.216
  195.401   10.812   91.677    0.516    0.217
  195.701   11.658   92.289    0.464    0.256
  196.001   11.432   98.500    0.433    0.253
  196.301   10.793  100.981    0.389    0.224
  196.601   10.001  102.837    0.368    0.209
  196.901    9.264  103.446    0.362    0.191
  197.201    9.439  102.816    0.382    0.200
  197.501    9.615  102.804    0.497    0.222
  197.801   10.172  102.171    0.499    0.239
  198.101   10.762  100.292    0.443    0.244
  198.401   10.961   97.168    0.427    0.230
  198.701   10.546   95.912    0.440    0.212
  199.001   10.345  102.749    0.427    0.202
  199.301   10.144  108.340    0.388    0.203
  199.601   10.335  107.084    0.345    0.219
  199.901   10.728  107.696    0.366    0.227
  200.201   10.722  110.174    0.368    0.206
  200.501   10.719  107.670    0.398    0.193
  200.801   10.713  104.550    0.392    0.193
  201.101   10.506   97.066    0.411    0.201
  201.401   10.501   92.073    0.450    0.217
  201.701   10.902   92.061    0.489    0.223
  202.001   10.896   94.539    0.431    0.218
  202.301   10.683   98.264    0.385    0.221
  202.601   10.479  100.124    0.367    0.233
  202.901   10.475  100.734    0.340    0.219
  203.201   10.469   98.855    0.372    0.198
  203.501   10.267   94.486    0.428    0.171
  203.801   10.068   95.718    0.298    0.129
  204.101    9.874   98.822    0.331    0.130
