~VERSION INFORMATION
 VERS.                 2.0:   CWLS LOG ASCII STANDARD -VERSION 2.0
 WRAP.                  NO:   ONE LINE PER DEPTH STEP
~WELL INFORMATION BLOCK
#MNEM.UNIT           DATA                    DESCRIPTION OF MNEMONIC
#---------    -------------------            -------------------------------
# Generated from Intellog Unique Number	CW_82_90/WELL/3455
WELL.         NUMAC LIEGE                    : Well_name    - WELL
LOC .         00/11-25-088-21W4/0            : Location     - LOCATION
UWI .         00/11-25-088-21W4/0            : Uwi          - UNIQUE WELL ID
ENTR.         MAX                            : Entered      - ENTERED BY
SRVC.         WESTERN ATLAS                  : Scn          - SERVICE COMPANY
STRT.M        125                            : top_depth    - START DEPTH
STOP.M        281                            : bot_depth    - STOP DEPTH
STEP.M        0.25                           : increment    - STEP LENGTH
 NULL. -999.2500:NULL Value
~CURVE INFORMATION BLOCK
#MNEM UNIT       ERCB CURVE CODE    CURVE DESCRIPTION
#-----------   ------------------   ----------------------------------
DEPT.M        00 001 00 00         : DEPTH        - DEPTH
ILD .OHMM     00 120 00 00         : RESD         - DEEP RESISTIVITY (DIL)
NPHI.V/V      00 330 00 00         : PHIN         - NEUTRON POROSITY (SANDSTONE)
DPHI.V/V      00 890 00 00         : PHID         - DENSITY POROSITY (SANDSTONE)
CALI.MM       00 280 01 00         : CAL          - CALIPER
GR  .API      00 310 00 00         : GR           - GAMMA RAY
~PARAMETER INFORMATION
#MNEM.UNIT           DATA             DESCRIPTION OF MNEMONIC
#---------         -----------     ------------------------------
GL  .M        530.14               : gl           - GROUND LEVEL ELEVATION
EREF.M        533.79               : kb           - ELEVATION OF DEPTH REFERENCE
DATM.M        530.14               : datum        - DATUM ELEVATION
TDD .M        285.8                : tdd          - TOTAL DEPTH DRILLER
RUN .         ONE                  : Run          - RUN NUMBER
ENG .         BILL                 : Engineer     - RECORDING ENGINEER
WIT .         JIM                  : Witness      - WITNESSED BY
MUD .         GEL                  : Mud_type     - MUD TYPE
MATR.         SANDSTONE            : Logunit      - NEUTRON MATRIX
TMAX.C        25                   : BHT          - MAXIMUM RECORDED TEMPERATURE
BHTD.M        285.8                : BHTDEP       - MAXIMUM RECORDED TEMPERATURE
MATR.         1                    : LOGUNIT      - NEUTRON MATRIX
RMT .C        16                   : MDTP         - TEMPERATURE OF MUD
NEUT.         1                    : NEUTRON      - NEUTRON TYPE
RESI.         0                    : RESIST       - RESISTIVITY TYPE
RMC .OHMM     4                    : RMC          - RESISTIVITY OF MUD CAKE
RMF .OHMM     2.7                  : RMF          - RESISTIVITY OF MUD FILTRATE
SUFT.C        -5                   : SUFT         - SURFACE TEMPERATURE
~A  DEPTH     RESD     PHIN     PHID      CAL       GR
# ...
  234.500   16.415    0.339    0.135  224.454   77.278
  234.750   15.982    0.331    0.184  225.009   79.704
  235.000   15.139    0.353    0.116  224.567   78.841
  235.250   14.607    0.347    0.109  224.630   77.981
  235.500   14.622    0.342    0.144  225.669   81.002
  235.750   14.505    0.351    0.197  226.237   90.012
  236.000   13.243    0.368    0.165  224.791   83.466
  236.250   12.897    0.367    0.180  223.857   80.509
  236.500   12.793    0.352    0.202  223.415   82.935
  236.750   12.576    0.347    0.206  223.478   88.053
  237.000   12.587    0.365    0.204  224.032   97.064
  237.250   13.076    0.367    0.200  224.573   97.093
  237.500   13.837    0.377    0.194  225.135   93.538
  237.750   13.984    0.375    0.150  224.187   80.112
  238.000   15.072    0.387    0.117  221.750   78.356
  238.250   15.810    0.346    0.159  219.820   83.171
  238.500   15.968    0.355    0.234  219.883   91.280
  238.750   15.989    0.357    0.248  220.922   91.322
  239.000   16.461    0.352    0.231  222.979   90.155
  239.250   16.785    0.347    0.215  223.540   89.898
  239.500   17.599    0.336    0.210  224.081   90.530
  239.750   19.146    0.327    0.193  225.155   90.858
  240.000   21.614    0.312    0.142  225.204   86.999
  240.250   22.247    0.301    0.042  225.766   81.944
  240.500   19.393    0.287    0.006  227.310   74.800
  240.750   16.291    0.282    0.058  228.869   78.726
  241.000   15.012    0.334    0.186  229.409   89.527
  241.250   14.482    0.353    0.192  225.983   95.846
  241.500   14.634    0.373    0.190  226.545   97.670
  241.750   15.067    0.384    0.188  227.085  101.002
  242.000   15.504    0.367    0.181  226.643  104.924
  242.250   16.562    0.341    0.160  226.200  103.159
  242.500   16.278    0.318    0.056  226.257   80.465
  242.750   14.451    0.314    0.135  226.818   82.883
  243.000   12.597    0.385    0.173  228.882   97.278
  243.250   10.293    0.422    0.200  230.427  104.490
  243.500    9.058    0.439    0.201  231.480  106.019
  243.750    9.068    0.432    0.207  231.529  105.159
  244.000    9.773    0.399    0.221  231.585  100.707
  244.250   11.135    0.392    0.221  230.146   98.642
  244.500   12.455    0.363    0.211  225.722   93.591
  244.750   14.726    0.346    0.190  224.283   85.554
  245.000   16.474    0.349    0.121  223.834   81.695
  245.250   16.957    0.350    0.203  224.395   85.916
  245.500   16.974    0.373    0.214  224.950   95.525
  245.750   16.230    0.380    0.214  225.006   95.563
  246.000   14.677    0.368    0.208  225.062   92.601
  246.250   14.164    0.348    0.208  225.118   95.327
  246.500   13.921    0.357    0.207  225.181  101.641
  246.750   13.309    0.380    0.206  225.223  104.965
  247.000   12.608    0.379    0.199  225.279   96.325
  247.250   12.505    0.374    0.187  225.848   84.989
  247.500   12.291    0.363    0.189  225.399   84.125
  247.750   11.859    0.372    0.196  225.462   93.140
  248.000   12.095    0.383    0.204  225.511   96.160
  248.250   12.335    0.376    0.196  226.079   98.890
  248.500   12.466    0.377    0.176  226.129   95.634
  248.750   12.248    0.383    0.129  225.181   97.458
  249.000   11.709    0.383    0.126  223.257   99.888
  249.250   11.091    0.371    0.166  223.299  102.913
  249.500   10.314    0.376    0.190  224.359  106.237
  249.750    9.244    0.386    0.195  225.903  105.672
  250.000    9.001    0.398    0.195  227.462  100.626
  250.250    9.352    0.405    0.198  229.014  100.061
  250.500   10.079    0.386    0.198  226.072   99.796
  250.750   11.382    0.356    0.203  226.135  101.624
  251.000   12.729    0.332    0.205  223.200  106.140
  251.250   18.444    0.318    0.155  222.765   98.995
  251.500   19.698    0.320    0.046  222.814   76.293
  251.750   18.487    0.298   -0.064  222.870   70.354
  252.000   15.964    0.291   -0.003  222.933   74.570
  252.250   14.305    0.306    0.111  223.481   89.260
  252.500   15.003    0.350    0.194  224.042   92.588
  252.750   15.018    0.365    0.178  224.091   94.711
  253.000   14.493    0.343    0.134  224.646   94.449
  253.250   14.245    0.348    0.127  225.207   97.474
  253.500   14.128    0.349    0.197  226.253  105.882
  253.750   15.229    0.384    0.193  227.307  110.406
  254.000   17.192    0.385    0.191  225.867  108.945
  254.250   20.713    0.333    0.186  224.428  111.072
  254.500   21.711    0.324    0.100  224.491  101.830
  254.750   21.146    0.298    0.015  225.046   95.587
  255.000   18.430    0.272    0.061  225.614   97.710
  255.250   15.197    0.276    0.158  226.155   95.051
  255.500   14.665    0.298    0.189  226.218   95.683
  255.750   15.519    0.326    0.196  226.288  100.208
  256.000   17.519    0.321    0.193  226.323   94.255
  256.250   20.715    0.329    0.173  225.881   85.017
  256.500   18.907    0.319    0.101  225.944   77.573
  256.750   14.619    0.318    0.024  226.000   79.401
  257.000   12.739    0.349    0.145  225.557   88.408
  257.250   10.125    0.382    0.192  225.621   97.120
  257.500    8.908    0.404    0.200  226.168  104.630
  257.750    8.437    0.424    0.206  228.218  102.570
  258.000    8.371    0.437    0.207  229.777   98.720
  258.250    8.616    0.442    0.208  227.846   98.160
  258.500    9.288    0.414    0.206  225.901   96.989
  258.750   10.483    0.374    0.195  225.452   97.920
  259.000   12.171    0.349    0.176  225.515   96.761
  259.250   13.737    0.343    0.161  225.571   94.697
  259.500   14.808    0.362    0.152  226.118   81.870
  259.750   12.789    0.356   -0.055  226.182   65.449
  260.000   11.357    0.315   -0.128  226.231   72.063
  260.250   10.464    0.322    0.165  225.788   85.859
  260.500   10.098    0.338    0.178  225.851   90.977
  260.750   10.110    0.336    0.154  225.907   98.193
  261.000   10.307    0.339    0.157  225.458   96.731
  261.250   11.113    0.364    0.195  225.521  100.653
  261.500   12.429    0.381    0.202  225.079  105.771
  261.750   15.821    0.387    0.196  225.142  107.001
  262.000   19.408    0.382    0.181  223.696   95.669
  262.250   25.168    0.393    0.175  220.262   73.865
  262.500   31.160    0.379    0.237  219.820   54.753
  262.750   40.782    0.385    0.264  221.371   56.581
  263.000   41.984    0.376    0.268  223.421   56.316
  263.250   39.762    0.386    0.303  224.987   47.676
  263.500   35.306    0.408    0.317  225.528   48.607
  263.750   30.488    0.423    0.313  226.082   52.828
  264.000   26.090    0.381    0.284  226.138   57.352
  264.250   21.122    0.380    0.234  225.696   64.564
  264.500   16.634    0.385    0.097  225.268   63.405
  264.750   13.590    0.381    0.067  224.818   65.528
  265.000   10.801    0.368    0.145  223.379   72.146
  265.250    8.584    0.376    0.197  222.438   82.947
  265.500    7.692    0.387    0.206  221.995   89.868
  265.750    8.605    0.398    0.201  221.055   99.768
  266.000   10.173    0.408    0.227  219.615   99.502
  266.250   13.314    0.378    0.254  218.674   84.577
  266.500   18.079    0.371    0.292  217.733   74.741
  266.750   23.229    0.355    0.299  217.291   70.886
  267.000   26.470    0.322    0.261  217.361   67.929
  267.250   29.334    0.323    0.222  217.902   63.476
  267.500   32.206    0.324    0.139  218.463   55.430
  267.750   34.721    0.325    0.081  218.512   56.664
  268.000   38.490    0.323    0.068  217.073   63.278
  268.250   42.655    0.314    0.118  217.129   68.097
  268.500   45.125    0.304    0.150  217.691   62.448
  268.750   49.101    0.304    0.145  218.238   52.612
  269.000   52.928    0.309    0.142  218.807   46.066
  269.250   58.117    0.330    0.154  219.348   49.090
  269.500   60.375    0.339    0.143  219.404   44.932
  269.750   61.583    0.328    0.155  219.467   42.278
  270.000   59.428    0.322    0.167  218.027   41.111
  270.250   57.333    0.332    0.188  216.083   37.556
  270.500   56.864    0.343    0.220  214.650   43.576
  270.750   55.890    0.346    0.249  214.215   48.694
