~VERSION INFORMATION
 VERS.                 2.0:   CWLS LOG ASCII STANDARD -VERSION 2.0
 WRAP.                  NO:   ONE LINE PER DEPTH STEP
~WELL INFORMATION BLOCK
#MNEM.UNIT           DATA                    DESCRIPTION OF MNEMONIC
#---------    -------------------            -------------------------------
# Generated from Intellog Unique Number	CS_73_76/WELL/2206
WELL.         DOME ET AL KIRBY               : Well_name    - WELL
LOC .         00/11-31-074-06W4/0            : Location     - LOCATION
UWI .         00/11-31-074-06W4/0            : Uwi          - UNIQUE WELL ID
ENTR.         SP                             : Entered      - ENTERED BY
SRVC.         SCHLUMBERGER                   : Scn          - SERVICE COMPANY
STRT.M        240                            : top_depth    - START DEPTH
STOP.M        470                            : bot_depth    - STOP DEPTH
STEP.M        0.25                           : increment    - STEP LENGTH
 NULL. -999.2500:NULL Value
~CURVE INFORMATION BLOCK
#MNEM UNIT       ERCB CURVE CODE    CURVE DESCRIPTION
#-----------   ------------------   ----------------------------------
DEPT.M        00 001 00 00         : DEPTH        - DEPTH
ILD .OHMM     00 120 00 00         : RESD         - DEEP RESISTIVITY (DIL)
DPHI.V/V      00 890 00 00         : PHID         - DENSITY POROSITY (LIMESTONE)
NPHI.V/V      00 330 00 00         : PHIN         - NEUTRON POROSITY (LIMESTONE)
GR  .API      00 310 00 00         : GR           - GAMMA RAY
~PARAMETER INFORMATION
#MNEM.UNIT           DATA             DESCRIPTION OF MNEMONIC
#---------         -----------     ------------------------------
GL  .M        632.87               : gl           - GROUND LEVEL ELEVATION
EREF.M        637.33               : kb           - ELEVATION OF DEPTH REFERENCE
DATM.M        632.87               : datum        - DATUM ELEVATION
TDD .M        478                  : tdd          - TOTAL DEPTH DRILLER
RUN .         ONE                  : Run          - RUN NUMBER
ENG .         BILL                 : Engineer     - RECORDING ENGINEER
WIT .         JIM                  : Witness      - WITNESSED BY
MUD .         GEL                  : Mud_type     - MUD TYPE
MATR.         LIMESTONE            : Logunit      - NEUTRON MATRIX
TMAX.C        21                   : BHT          - MAXIMUM RECORDED TEMPERATURE
BHTD.M        478                  : BHTDEP       - MAXIMUM RECORDED TEMPERATURE
MATR.         1                    : LOGUNIT      - NEUTRON MATRIX
RMT .C        25                   : MDTP         - TEMPERATURE OF MUD
NEUT.         1                    : NEUTRON      - NEUTRON TYPE
RESI.         0                    : RESIST       - RESISTIVITY TYPE
RMC .OHMM     0.25                 : RMC          - RESISTIVITY OF MUD CAKE
RMF .OHMM     0.25                 : RMF          - RESISTIVITY OF MUD FILTRATE
SUFT.C        15                   : SUFT         - SURFACE TEMPERATURE
~A  DEPTH     RESD     PHID     PHIN       GR
  240.000    3.190    0.271    0.450  126.099
  240.250    3.313    0.259    0.458  128.530
  240.500    3.506    0.246    0.452  125.439
  240.750    3.710    0.243    0.442  122.966
  241.000    3.709    0.248    0.422  122.950
  241.250    3.925    0.251    0.443  129.667
  241.500    3.925    0.234    0.446  132.704
  241.750    3.925    0.202    0.436  127.175
  242.000    3.708    0.175    0.410  120.418
  242.250    3.503    0.169    0.415  113.663
  242.500    3.247    0.221    0.414  109.962
  242.750    3.186    0.245    0.440  118.512
  243.000    3.186    0.259    0.456  127.674
  243.250    3.246    0.264    0.438  133.162
  243.500    3.568    0.260    0.443  126.403
  243.750    3.635    0.274    0.440  126.997
  244.000    3.635    0.279    0.439  129.427
  244.250    3.635    0.283    0.430  123.892
  244.500    3.566    0.272    0.420  127.546
  244.750    3.499    0.278    0.427  123.240
  245.000    3.369    0.269    0.418  133.009
  245.250    3.183    0.262    0.410  126.870
  245.500    3.064    0.262    0.424  118.277
  245.750    3.006    0.269    0.430  125.601
  246.000    3.063    0.276    0.425  123.125
  246.250    3.304    0.273    0.428  131.674
  246.500    3.563    0.258    0.424  136.554
  246.750    3.916    0.246    0.435  123.061
  247.000    4.913    0.225    0.425  124.269
  247.250    7.171    0.193    0.409  127.920
  247.500   10.870    0.095    0.387  118.712
  247.750   15.865    0.078    0.376  108.282
  248.000   17.436    0.268    0.370  103.368
  248.250   17.767    0.297    0.372  107.628
  248.500   17.433    0.312    0.359  111.882
  248.750   16.469    0.293    0.371  119.208
  249.000   15.856    0.281    0.374  125.926
  249.250   15.266    0.261    0.365  127.132
  249.500   14.697    0.251    0.359  120.988
  249.750   13.885    0.248    0.360  127.696
  250.000   13.884    0.256    0.363  132.575
  250.250   14.147    0.275    0.352  128.270
  250.500   14.416    0.293    0.361  130.082
  250.750   14.144    0.308    0.370  123.328
  251.000   14.412    0.296    0.363  114.121
  251.250   19.137    0.284    0.360  106.756
  251.500   23.119    0.275    0.339   96.323
  251.750   22.683    0.281    0.323   85.897
  252.000   21.028    0.284    0.331   76.084
  252.250   18.419    0.283    0.321   58.307
  252.500   16.134    0.197    0.310   76.036
  252.750   14.130    0.203    0.312   88.257
  253.000   13.605    0.228    0.326  103.537
  253.250   12.612    0.269    0.333  112.089
  253.500   12.375    0.254    0.322  116.354
  253.750   12.851    0.262    0.331  118.166
  254.000   13.858    0.266    0.348  116.922
  254.250   15.819    0.268    0.357  122.409
  254.500   18.751    0.278    0.366  121.772
  254.750   19.472    0.284    0.367  122.972
  255.000   19.842    0.293    0.356  126.626
  255.250   20.218    0.295    0.357  117.420
  255.500   19.101    0.311    0.358  108.835
  255.750   16.417    0.329    0.355  102.078
  256.000   13.846    0.342    0.354   97.771
  256.250   11.901    0.349    0.346  101.424
  256.500   10.037    0.334    0.360  104.456
  256.750    8.465    0.307    0.369  109.950
  257.000    7.997    0.271    0.357  124.620
  257.250    8.305    0.245    0.372  133.781
  257.500   10.821    0.226    0.387  138.044
  257.750   14.100    0.218    0.384  121.489
  258.000   14.641    0.235    0.361  126.365
  258.250   13.069    0.267    0.368  126.955
  258.500   11.233    0.301    0.381  111.016
  258.750    9.839    0.308    0.368  101.814
  259.000   10.412    0.293    0.359  100.572
  259.250   13.826    0.274    0.365   99.325
  259.500   16.082    0.255    0.358  101.138
  259.750   16.701    0.245    0.367  109.680
  260.000   18.011    0.256    0.380  114.564
  260.250   18.009    0.261    0.389  107.806
  260.500   16.694    0.254    0.386   93.705
  260.750   15.772    0.240    0.383   93.681
  261.000   13.556    0.262    0.385   85.704
  261.250   10.803    0.276    0.391   78.335
  261.500    8.773    0.284    0.392   85.048
  261.750    7.831    0.275    0.399   81.354
  262.000    6.859    0.234    0.406   91.736
  262.250    6.239    0.190    0.405  114.366
  262.500    6.007    0.163    0.434  133.321
  262.750    5.569    0.136    0.468  140.646
  263.000    5.163    0.111    0.489  132.662
  263.250    4.696    0.163    0.488  142.431
  263.500    4.192    0.205    0.491  146.700
  263.750    3.672    0.226    0.509  147.291
  264.000    3.469    0.236    0.516  142.980
  264.250    3.216    0.234    0.512  140.515
  264.500    3.096    0.225    0.495  145.390
  264.750    3.276    0.246    0.488  146.588
  265.000    4.034    0.263    0.474  145.346
  265.250    5.157    0.277    0.467  148.378
  265.500    6.720    0.286    0.481  148.363
  265.750    8.592    0.304    0.487  135.487
  266.000   10.185    0.318    0.459  110.365
  266.250   12.073    0.298    0.443   98.712
  266.500   12.777    0.275    0.416   99.305
  266.750   12.536    0.269    0.380  103.565
  267.000   11.843    0.269    0.395  107.218
  267.250   11.188    0.262    0.397   99.238
  267.500   10.978    0.250    0.397   94.321
  267.750   10.371    0.255    0.392  102.257
  268.000    9.985    0.250    0.394  112.638
  268.250    9.613    0.246    0.405  108.328
  268.500    9.432    0.253    0.397  113.823
  268.750    9.254    0.260    0.405  109.515
  269.000    9.254    0.265    0.398  111.939
  269.250    8.908    0.258    0.389  115.593
  269.500    8.741    0.257    0.403  111.287
  269.750    8.576    0.263    0.403  110.639
  270.000    8.576    0.253    0.403  109.398
  270.250    8.574    0.246    0.424  107.547
  270.500    8.904    0.241    0.436  104.466
  270.750    9.603    0.244    0.430  109.951
  271.000   10.961    0.252    0.435  117.277
  271.250   12.277    0.277    0.424  120.316
  271.500   13.750    0.288    0.434  122.124
  271.750   14.278    0.296    0.419  123.333
  272.000   14.549    0.294    0.412  123.311
  272.250   14.548    0.306    0.410  115.940
  272.500   14.006    0.316    0.417  111.633
  272.750   13.742    0.329    0.431  116.500
  273.000   12.983    0.329    0.423  119.541
  273.250   14.002    0.319    0.417  117.080
  273.500   14.540    0.314    0.407  108.487
  273.750   14.538    0.325    0.393   98.672
  274.000   14.537    0.331    0.388   83.959
  274.250   14.812    0.322    0.391   80.261
  274.500   14.811    0.323    0.398   83.304
  274.750   14.809    0.328    0.400   74.710
  275.000   14.807    0.319    0.401   70.403
  275.250   14.805    0.309    0.406   75.890
  275.500   14.804    0.314    0.403   72.197
  275.750   14.802    0.312    0.385   77.068
  276.000   14.523    0.308    0.376   77.049
  276.250   14.250    0.319    0.386   77.640
  276.500   13.719    0.311    0.380   77.616
  276.750   13.718    0.293    0.379   78.822
  277.000   13.207    0.272    0.392   84.309
  277.250   12.477    0.282    0.395   91.019
  277.500   11.788    0.295    0.381   85.489
  277.750   12.955    0.307    0.370   88.527
  278.000   14.239    0.306    0.367   91.569
  278.250   15.356    0.307    0.372   86.643
  278.500   15.066    0.322    0.367   80.502
  278.750   13.706    0.332    0.377   75.587
  279.000   12.706    0.322    0.370   81.074
  279.250   12.704    0.314    0.378   93.288
  279.500   12.703    0.307    0.377  100.005
  279.750   12.701    0.289    0.392  114.061
  280.000   12.942    0.293    0.406  123.226
  280.250   12.941    0.291    0.399  112.176
  280.500   12.697    0.289    0.392  107.877
  280.750   12.224    0.293    0.377  112.138
  281.000   11.332    0.282    0.391  118.237
  281.250   10.505    0.278    0.397  121.278
  281.500    9.925    0.278    0.393  123.092
  281.750    9.028    0.268    0.397  132.247
  282.000    8.369    0.263    0.413  135.907
  282.250    8.058    0.265    0.422  137.715
  282.500    7.758    0.278    0.444  129.740
  282.750    7.469    0.300    0.450  137.062
  283.000    7.611    0.330    0.446  133.370
  283.250    7.903    0.377    0.450  132.736
