~VERSION INFORMATION
 VERS.                 2.0:   CWLS LOG ASCII STANDARD -VERSION 2.0
 WRAP.                  NO:   ONE LINE PER DEPTH STEP
~WELL INFORMATION BLOCK
#MNEM.UNIT           DATA                    DESCRIPTION OF MNEMONIC
#---------    -------------------            -------------------------------
# Generated from Intellog Unique Number	CS_77_79/WELL/991
WELL.         HOME OIL COMPANY LIMITED       : Well_name    - WELL
LOC .         00/11-07-077-06W4/0            : Location     - LOCATION
UWI .         00/11-07-077-06W4/0            : Uwi          - UNIQUE WELL ID
ENTR.         SP                             : Entered      - ENTERED BY
SRVC.         SCHLUMBERGER                   : Scn          - SERVICE COMPANY
STRT.M        140.208                        : top_depth    - START DEPTH
STOP.M        368.458                        : bot_depth    - STOP DEPTH
STEP.M        0.25                           : increment    - STEP LENGTH
 NULL. -999.2500:NULL Value
~CURVE INFORMATION BLOCK
#MNEM UNIT       ERCB CURVE CODE    CURVE DESCRIPTION
#-----------   ------------------   ----------------------------------
DEPT.M        00 001 00 00         : DEPTH        - DEPTH
GR  .API      00 310 00 00         : GR           - GAMMA RAY
DPHI.V/V      00 890 00 00         : PHID         - DENSITY POROSITY (SANDSTONE)
NPHI.V/V      00 330 00 00         : PHIN         - NEUTRON POROSITY (SANDSTONE)
ILD .OHMM     00 120 00 00         : RESD         - DEEP RESISTIVITY (DIL)
~PARAMETER INFORMATION
#MNEM.UNIT           DATA             DESCRIPTION OF MNEMONIC
#---------         -----------     ------------------------------
GL  .M        561.96               : gl           - GROUND LEVEL ELEVATION
EREF.M        565.8                : kb           - ELEVATION OF DEPTH REFERENCE
DATM.M        561.96               : datum        - DATUM ELEVATION
TDD .M        372.466              : tdd          - TOTAL DEPTH DRILLER
RUN .         ONE                  : Run          - RUN NUMBER
ENG .         BILL                 : Engineer     - RECORDING ENGINEER
WIT .         JIM                  : Witness      - WITNESSED BY
MUD .         GEL                  : Mud_type     - MUD TYPE
MATR.         SANDSTONE            : Logunit      - NEUTRON MATRIX
TMAX.C        15.5556              : BHT          - MAXIMUM RECORDED TEMPERATURE
BHTD.M        372.466              : BHTDEP       - MAXIMUM RECORDED TEMPERATURE
MATR.         1                    : LOGUNIT      - NEUTRON MATRIX
RMT .C        25                   : MDTP         - TEMPERATURE OF MUD
NEUT.         1                    : NEUTRON      - NEUTRON TYPE
RESI.         0                    : RESIST       - RESISTIVITY TYPE
RMC .OHMM     0.25                 : RMC          - RESISTIVITY OF MUD CAKE
RMF .OHMM     0.25                 : RMF          - RESISTIVITY OF MUD FILTRATE
SUFT.C        15                   : SUFT         - SURFACE TEMPERATURE
~A  DEPTH       GR     PHID     PHIN     RESD
# ...
  227.208  101.525    0.249    0.562    3.485
  227.458  101.806    0.263    0.573    3.762
  227.708  102.132    0.262    0.577    4.161
  227.958  103.159    0.256    0.565    4.636
  228.208  104.171    0.257    0.556    4.956
  228.458  103.085    0.281    0.539    5.161
  228.708   95.696    0.302    0.520    5.108
  228.958   88.062    0.307    0.504    4.848
  229.208   91.228    0.288    0.492    4.626
  229.458   94.636    0.255    0.466    4.453
  229.708   96.255    0.240    0.482    4.373
  229.958   95.582    0.231    0.472    4.605
  230.208   94.286    0.232    0.448    5.005
  230.458   92.263    0.221    0.465    5.966
  230.708   90.218    0.225    0.480    6.579
  230.958   90.492    0.251    0.495    7.641
  231.208   92.460    0.263    0.513    8.858
  231.458   88.186    0.272    0.526    9.781
  231.708   83.282    0.302    0.534   10.815
  231.958   77.423    0.333    0.502   11.618
  232.208   68.379    0.367    0.499   12.077
  232.458   62.228    0.370    0.510   12.061
  232.708   59.529    0.370    0.508   10.671
  232.958   60.103    0.348    0.482    9.519
  233.208   62.076    0.354    0.458    7.755
  233.458   65.675    0.351    0.451    6.580
  233.708   70.604    0.327    0.460    5.508
  233.958   74.808    0.311    0.487    6.046
  234.208   80.006    0.304    0.512    7.989
  234.458   81.709    0.278    0.535    9.612
  234.708   77.207    0.297    0.544   11.053
  234.958   73.205    0.307    0.500   12.426
  235.208   71.855    0.319    0.486   12.813
  235.458   70.804    0.329    0.478   13.221
  235.708   70.487    0.334    0.463   12.950
  235.958   69.572    0.338    0.462   12.925
  236.208   69.064    0.345    0.464   12.741
  236.458   68.392    0.362    0.472   12.751
  236.708   67.664    0.363    0.475   12.782
  236.958   66.616    0.349    0.481   12.990
  237.208   67.681    0.352    0.486   12.939
  237.458   69.623    0.369    0.500   13.499
  237.708   68.641    0.367    0.495   13.466
  237.958   67.513    0.351    0.468   13.473
  238.208   66.512    0.355    0.452   13.475
  238.458   65.231    0.363    0.454   13.476
  238.708   66.343    0.363    0.455   13.476
  238.958   69.992    0.358    0.455   13.477
  239.208   72.946    0.348    0.457   13.478
  239.458   70.272    0.346    0.473   13.476
  239.708   68.422    0.347    0.469   13.491
  239.958   67.287    0.357    0.466   13.081
  240.208   67.717    0.364    0.477   12.970
  240.458   68.099    0.367    0.482   12.746
  240.708   68.881    0.356    0.477   12.755
  240.958   68.811    0.355    0.468   12.758
  241.208   66.736    0.365    0.462   12.759
  241.458   65.662    0.356    0.460   12.764
  241.708   64.650    0.350    0.467   12.758
  241.958   64.599    0.363    0.483   13.017
  242.208   65.407    0.374    0.491   13.001
  242.458   66.354    0.370    0.482   12.999
  242.708   67.019    0.367    0.489   13.001
  242.958   66.820    0.372    0.503   13.001
  243.208   65.752    0.374    0.503   13.002
  243.458   65.701    0.372    0.497   13.004
  243.708   66.336    0.364    0.494   13.009
  243.958   64.272    0.355    0.494   12.818
  244.208   62.496    0.350    0.505   12.774
  244.458   61.566    0.365    0.516   12.768
  244.708   62.308    0.372    0.509   12.768
  244.958   64.191    0.357    0.502   12.765
  245.208   65.115    0.355    0.497   12.777
  245.458   65.956    0.351    0.494   12.477
  245.708   68.342    0.353    0.490   10.995
  245.958   69.767    0.354    0.491    8.979
  246.208   70.851    0.352    0.476    7.772
  246.458   71.152    0.349    0.471    6.735
  246.708   71.675    0.358    0.485    5.574
  246.958   76.064    0.345    0.510    5.030
  247.208   82.040    0.329    0.509    4.547
  247.458   91.553    0.292    0.523    4.555
  247.708   95.663    0.252    0.532    4.530
  247.958   95.543    0.251    0.532    4.390
  248.208   94.466    0.257    0.521    3.931
  248.458   92.357    0.262    0.509    3.296
  248.708   91.368    0.255    0.501    2.893
  248.958   91.416    0.270    0.531    2.529
  249.208   95.432    0.283    0.574    2.371
  249.458   97.266    0.296    0.590    2.301
  249.708   97.586    0.286    0.611    2.393
  249.958   97.100    0.271    0.608    2.498
  250.208   94.352    0.282    0.568    2.791
  250.458   95.906    0.282    0.558    3.068
  250.708   99.150    0.283    0.558    3.467
  250.958   99.948    0.272    0.551    4.036
  251.208   97.986    0.274    0.543    4.561
  251.458   93.744    0.255    0.531    5.463
  251.708   89.564    0.265    0.495    6.888
  251.958   85.017    0.286    0.473    7.833
  252.208   86.257    0.304    0.417    9.709
  252.458   90.091    0.325    0.380   11.766
  252.708   88.230    0.336    0.346   14.340
  252.958   81.660    0.375    0.333   16.884
  253.208   77.825    0.387    0.269   19.860
  253.458   74.902    0.383    0.256   22.341
  253.708   72.523    0.345    0.243   25.395
  253.958   67.994    0.244    0.230   26.657
  254.208   65.475    0.125    0.214   29.320
  254.458   61.102    0.138    0.199   30.211
  254.708   62.230    0.231    0.187   30.039
  254.958   69.412    0.370    0.216   27.793
  255.208   73.324    0.370    0.228   27.160
  255.458   78.110    0.381    0.238   27.843
  255.708   81.419    0.397    0.229   29.146
  255.958   84.553    0.408    0.223   30.936
  256.208   87.742    0.410    0.215   33.635
  256.458   89.103    0.394    0.207   36.221
  256.708   91.607    0.406    0.201   39.114
  256.958   93.439    0.432    0.180   40.185
  257.208   88.478    0.451    0.162   42.300
  257.458   80.619    0.470    0.146   42.625
  257.708   73.818    0.493    0.153   38.769
  257.958   70.530    0.488    0.164   33.580
  258.208   68.561    0.479    0.182   30.316
  258.458   65.053    0.471    0.186   31.416
  258.708   62.078    0.474    0.172   34.081
  258.958   64.674    0.484    0.147   36.075
  259.208   67.915    0.490    0.141   37.733
  259.458   64.605    0.498    0.156   38.735
  259.708   63.483    0.494    0.183   37.781
  259.958   62.435    0.481    0.197   33.637
  260.208   62.182    0.472    0.206   27.574
  260.458   61.121    0.463    0.194   26.266
  260.708   60.720    0.454    0.185   25.375
  260.958   60.531    0.463    0.209   22.397
  261.208   60.509    0.469    0.279   19.702
  261.458   60.536    0.475    0.314   17.138
  261.708   59.680    0.466    0.348   13.797
  261.958   57.596    0.441    0.427   10.619
  262.208   57.509    0.396    0.436    9.253
  262.458   57.455    0.364    0.449    8.683
  262.708   58.419    0.356    0.462    8.292
  262.958   59.602    0.356    0.448    8.248
  263.208   58.544    0.348    0.456    8.240
  263.458   56.374    0.340    0.444    8.246
  263.708   55.442    0.334    0.439    8.301
  263.958   54.466    0.331    0.447    8.244
  264.208   53.811    0.343    0.433    8.248
  264.458   53.838    0.351    0.424    8.254
  264.708   53.834    0.360    0.435    8.097
  264.958   53.833    0.349    0.448    7.856
  265.208   53.855    0.350    0.446    8.620
  265.458   55.876    0.357    0.447    8.559
  265.708   57.572    0.352    0.438    8.388
  265.958   59.865    0.345    0.439    8.215
  266.208   59.789    0.343    0.446    7.832
  266.458   58.917    0.348    0.455    7.605
  266.708   57.946    0.345    0.463    7.380
  266.958   56.910    0.337    0.463    7.150
  267.208   56.782    0.336    0.459    7.121
  267.458   56.716    0.351    0.461    7.117
  267.708   58.616    0.360    0.464    7.091
  267.958   60.301    0.348    0.463    7.424
  268.208   59.248    0.335    0.469    7.872
  268.458   56.508    0.334    0.462    9.164
  268.708   56.021    0.338    0.464   10.435
  268.958   53.895    0.327    0.451   11.790
  269.208   52.614    0.302    0.426   13.921
  269.458   51.275    0.237    0.369   15.503
  269.708   50.237    0.153    0.197   17.925
  269.958   50.212    0.052    0.175   19.139
  270.208   52.470    0.083    0.210   16.038
  270.458   56.324    0.128    0.246   12.629
