~VERSION INFORMATION
VERS.                2.00:   CWLS LOG ASCII STANDARD -VERSION 2.0
WRAP.                  NO:
~WELL INFORMATION BLOCK
#MNEM.UNIT           DATA                    DESCRIPTION OF MNEMONIC
#---------    -------------------            -------------------------------
# Generated from Intellog Unique Number	CN_91_93/WELL/2737
LOC .         11-07-093-18W4                 : Location     - LOCATION          
UWI .         00/11-07-093-18W400            : Uwi          - UNIQUE WELL ID    
ENTR.         JOETTE                         : Entered      - ENTERED BY        
STRT.M            70.0000:
STOP.M           250.0000:
STEP.M             0.2500:
NULL.           -999.2500:
COMP.     :COMPANY
WELL.  PETRO-CANADA INC. :WELL
FLD.      :FIELD
LOC.      :LOCATION
CTRY.     :COUNTRY
PROV.     :PROVINCE
SRVC.  SCHLUMBERGER  :SERVICE COMPANY
DATE.  03/23/92  :LOG DATE
UWI.      :UNIQUE WELL ID
~Curve Information Block
#MNEM UNIT       ERCB CURVE CODE    CURVE DESCRIPTION
#MNEM.UNIT        API CODE    Curve Description
#---------    ------------    -------------------------------------------
DEPT.M                    :   DEPTH
CALI.MM       00 280 01 00:   CAL          - CALIPER
DPHI.V/V      00 890 00 00:   PHID         - DENSITY POROSITY (SANDSTONE)
GR  .API      00 310 00 00:   GR           - GAMMA RAY
ILD .OHMM     00 120 00 00:   RESD         - DEEP RESISTIVITY (DIL)
NPHI.V/V      00 330 00 00:   PHIN         - NEUTRON POROSITY (SANDSTONE)
~PARAMETER INFORMATION       
#MNEM.UNIT           DATA             DESCRIPTION OF MNEMONIC
#---------         -----------     ------------------------------
GL  .M        512.3                : gl           - GROUND LEVEL ELEVATION      
EREF.M        515.6                : kb           - ELEVATION OF DEPTH REFERENCE
DATM.M        515.6                : datum        - DATUM ELEVATION             
TDD .M        250.8                : tdd          - TOTAL DEPTH DRILLER         
RUN .         ONE                  : Run          - RUN NUMBER                  
ENG .         BILL                 : Engineer     - RECORDING ENGINEER          
WIT .         JIM                  : Witness      - WITNESSED BY                
MUD .         GEL                  : Mud_type     - MUD TYPE                    
MATR.         SANDSTONE            : Logunit      - NEUTRON MATRIX              
TMAX.C        18                   : BHT          - MAXIMUM RECORDED TEMPERATURE
BHTD.M        250.8                : BHTDEP       - MAXIMUM RECORDED TEMPERATURE
RMT .C        15                   : MDTP         - TEMPERATURE OF MUD          
MUDD.KG/M     1150                 : MWT          - MUD DENSITY                 
NEUT.         1                    : NEUTRON      - NEUTRON TYPE                
RESI.         0                    : RESIST       - RESISTIVITY TYPE            
RM  .OHMM     2.66                 : RM           - RESISTIVITY OF MUD          
RMC .OHMM     2.66                 : RMC          - RESISTIVITY OF MUD CAKE     
RMF .OHMM     2.66                 : RMF          - RESISTIVITY OF MUD FILTRATE 
SUFT.C        4                    : SUFT         - SURFACE TEMPERATURE         
~A  Depth           CALI        DPHI          GR         ILD        NPHI
# ...
152.5000        167.4010      0.2430     76.0980     10.9139      0.3930
152.7500        165.2950      0.2520     80.8740     10.1993      0.3870
153.0000        163.2090      0.2530     85.0580      9.4742      0.3930
153.2500        163.1700      0.2410     86.2170      9.0183      0.4030
153.5000        163.0930      0.2400     81.9400      8.6454      0.3920
153.7500        168.0380      0.2420     81.8820      8.2843      0.3930
154.0000        165.9520      0.2470     81.8590      7.8414      0.4060
154.2500        161.8560      0.2600     80.5830      7.4767      0.4170
154.5000        157.7210      0.2520     79.9340      6.9534      0.4120
154.7500        160.6580      0.2440     81.0930      6.3948      0.4130
155.0000        164.5990      0.2400     84.6630      5.8747      0.4200
155.2500        166.5110      0.2490     89.4510      5.2549      0.4390
155.5000        167.4770      0.2540     94.8410      5.0791      0.4600
155.7500        168.3850      0.2550     87.5500      5.2838      0.4760
156.0000        170.3360      0.2570     76.6530      5.8164      0.4980
156.2500        168.2500      0.2590     67.5650      6.5333      0.5080
156.5000        162.1440      0.2580     62.6850      7.4014      0.4980
156.7500        157.0240      0.2530     62.0240      8.9780      0.4540
157.0000        155.9620      0.2640     66.8110     10.4573      0.4100
157.2500        155.8840      0.3010     67.3560     10.7632      0.4090
157.5000        155.8070      0.3060     68.5150     10.4330      0.4070
157.7500        155.7290      0.2790     70.8910      9.7179      0.4100
158.0000        155.6330      0.2610     77.4750      8.7834      0.3880
158.2500        156.5790      0.2400     79.8400      7.9159      0.4050
158.5000        160.5200      0.2300     82.8190      7.1323      0.4400
158.7500        162.4520      0.2400     88.1750      6.1381      0.4600
159.0000        161.3700      0.2500     88.7540      5.7261      0.4430
159.2500        158.2400      0.2420     87.4790      5.7600      0.4550
159.5000        160.1330      0.2280     86.2390      5.9131      0.4910
159.7500        160.1140      0.2110     83.1670      6.1802      0.4990
160.0000        162.0260      0.2130     81.3120      6.5650      0.4650
160.2500        164.9630      0.2270     84.2790      7.1702      0.4580
160.5000        170.9130      0.2410     86.0530      7.9286      0.4630
160.7500        166.8170      0.2510     86.0060      8.6832      0.4650
161.0000        160.7120      0.2660     83.5490      9.6108      0.4640
161.2500        156.6360      0.2800     81.0910     10.9814      0.4430
161.5000        156.5580      0.2720     76.2220     12.4528      0.4300
161.7500        156.4810      0.2550     72.5590     13.9595      0.4260
162.0000        157.3690      0.2310     67.0650     14.2463      0.4260
162.2500        158.3350      0.1350     65.2100     12.8983      0.4200
162.5000        160.2670      0.1030     67.5750     10.5160      0.3760
162.7500        167.2030      0.1520     75.3760      9.2146      0.3380
163.0000        167.1250      0.1980     85.5880      8.2814      0.3850
163.2500        165.0580      0.2220     89.7610      7.8652      0.4010
163.5000        163.9760      0.2230     87.3040      7.4375      0.4160
163.7500        162.8750      0.2260     86.0520      6.7876      0.4380
164.0000        162.7970      0.2410     90.2250      6.3436      0.4380
164.2500        165.7340      0.2190     91.9750      6.1513      0.4220
164.5000        169.6550      0.2070     90.1200      5.9284      0.4210
164.7500        169.5970      0.2190     94.2930      5.5636      0.4340
165.0000        167.4910      0.2230     99.6830      5.3023      0.4410
165.2500        165.4050      0.2280    103.8570      5.2840      0.4250
165.5000        166.3510      0.2220    100.1820      5.6888      0.4570
165.7500        172.3020      0.2090     96.5070      6.6159      0.4590
166.0000        171.2200      0.1780     86.2250      6.0396      0.4620
166.2500        166.1190      0.1200     68.6860      6.9028      0.4820
166.5000        160.9990      0.0990     63.2030      7.4545      0.3460
166.7500        158.9120      0.1340     69.1960      7.8801      0.3460
167.0000        161.8680      0.1770     76.9970      8.5439      0.3620
167.2500        165.8090      0.2150     87.1980      8.7085      0.3860
167.5000        163.7230      0.2080     96.7960      8.7346      0.4190
167.7500        160.6310      0.2080     97.9550      8.8885      0.4420
168.0000        158.5250      0.2040     95.4980      9.6788      0.4140
168.2500        155.3950      0.1650     93.0400     10.5921      0.3830
168.5000        154.3330      0.1460     93.5970     11.1057      0.3640
168.7500        154.2740      0.2060     94.1530     11.4282      0.3500
169.0000        153.1730      0.2260     90.4900     11.5504      0.3530
169.2500        152.0720      0.2180     85.6090     11.7550      0.3580
169.5000        152.0330      0.2160     84.3340     11.8880      0.3650
169.7500        153.9450      0.2190     81.2970     11.8876      0.3700
170.0000        160.9200      0.2210     79.4420     11.8861      0.3620
170.2500        168.8600      0.2080     83.6150     11.0517      0.3680
170.5000        167.7980      0.2070     91.4050     10.2503      0.3840
170.7500        167.7200      0.2090     97.9780      9.5954      0.3980
171.0000        167.6430      0.2140     99.1480      9.3225      0.4090
171.2500        170.5790      0.2200     96.0760      9.0923      0.4020
171.5000        174.5200      0.2130     95.4270      8.9162      0.3930
171.7500        177.4570      0.2120     94.7780      8.8872      0.3980
172.0000        178.3840      0.2150     91.7290      9.2775      0.4100
172.2500        179.3110      0.2160     95.2990     10.2017      0.4340
172.5000        174.2110      0.1980     90.4310     11.3966      0.4160
172.7500        166.0960      0.1660     80.1250     13.4631      0.4010
173.0000        157.9430      0.0970     75.2570     14.8927      0.3890
173.2500        159.8940      0.0280     73.4020     16.1245      0.2410
173.5000        164.8210      0.1880     77.5750     16.7412      0.2600
173.7500        165.7670      0.2100     82.9530     13.8142      0.2940
174.0000        163.6800      0.2250     83.4980     13.4031      0.3310
174.2500        157.5750      0.2410     81.6430     13.6373      0.3510
174.5000        154.4650      0.2520     80.9940     13.2821      0.3630
174.7500        154.4060      0.2560     81.5620     13.0321      0.3550
175.0000        156.3000      0.2510     84.5290     13.0183      0.3560
175.2500        156.2610      0.2420     88.7030     13.0159      0.3560
175.5000        159.1970      0.2520     91.0670     13.0141      0.3510
175.7500        162.1340      0.2500     91.6120     12.5754      0.3550
176.0000        166.0750      0.2220     92.1680     12.2571      0.3690
176.2500        167.9880      0.2100     94.5210     12.1063      0.3940
176.5000        168.9340      0.2110     95.1010     11.7740      0.3910
176.7500        171.8710      0.2090     96.2490     11.5164      0.3910
177.0000        175.8120      0.2070     95.0080     11.4087      0.3940
177.2500        171.7160      0.2220     88.9340     11.6153      0.3960
177.5000        162.5770      0.2270     81.6420     11.7242      0.3870
177.7500        159.4670      0.1750     81.5960     11.5208      0.3890
178.0000        164.4320      0.1270     86.9750     10.9115      0.3700
178.2500        171.3870      0.1640     92.3650     10.4611      0.3380
178.5000        178.3030      0.1940     98.3340      9.9348      0.3980
178.7500        179.2690      0.1690     96.4910      9.6482      0.4460
179.0000        177.1820      0.1420     89.2000      9.7147      0.4650
179.2500        170.0730      0.1260     84.3310     10.6572      0.4030
179.5000        164.9720      0.1040     81.2710     11.2780      0.3070
179.7500        160.8760      0.1580     83.6350     10.5768      0.3210
