~VERSION INFORMATION
 VERS.                 2.0:   CWLS LOG ASCII STANDARD -VERSION 2.0
 WRAP.                  NO:   ONE LINE PER DEPTH STEP
~WELL INFORMATION BLOCK
#MNEM.UNIT           DATA                    DESCRIPTION OF MNEMONIC
#---------    -------------------            -------------------------------
# Generated from Intellog Unique Number	CW_73_75/WELL/993
WELL.         HB MARTEN HILLS 10-27          : Well_name    - WELL
LOC .         00/10-27-074-01W5/0            : Location     - LOCATION
UWI .         00/10-27-074-01W5/0            : Uwi          - UNIQUE WELL ID
ENTR.         JAYE                           : Entered      - ENTERED BY
SRVC.         SCHLUMBERGER                   : Scn          - SERVICE COMPANY
DATE.         3 MAR 75                       : Date         - LOG DATE
STRT.M        466.344                        : top_depth    - START DEPTH
STOP.M        673.594                        : bot_depth    - STOP DEPTH
STEP.M        0.25                           : increment    - STEP LENGTH
 NULL. -999.2500:NULL Value
~CURVE INFORMATION BLOCK
#MNEM UNIT       ERCB CURVE CODE    CURVE DESCRIPTION
#-----------   ------------------   ----------------------------------
DEPT.M        00 001 00 00         : DEPTH        - DEPTH
ILD .OHMM     00 120 00 00         : RESD         - DEEP RESISTIVITY (DIL)
NPHI.V/V      00 330 00 00         : PHIN         - NEUTRON POROSITY (SANDSTONE)
DPHI.V/V      00 890 00 00         : PHID         - DENSITY POROSITY (SANDSTONE)
GR  .API      00 310 00 00         : GR           - GAMMA RAY
CALI.MM       00 280 01 00         : CAL          - CALIPER
~PARAMETER INFORMATION
#MNEM.UNIT           DATA             DESCRIPTION OF MNEMONIC
#---------         -----------     ------------------------------
GL  .M        720.547              : gl           - GROUND LEVEL ELEVATION
EREF.M        730.301              : kb           - ELEVATION OF DEPTH REFERENCE
DATM.M        720.547              : datum        - DATUM ELEVATION
TDD .M        688.848              : tdd          - TOTAL DEPTH DRILLER
RUN .         ONE                  : Run          - RUN NUMBER
ENG .         CROCKFORD            : Engineer     - RECORDING ENGINEER
WIT .         CAMPBELL/GARBIES     : Witness      - WITNESSED BY
BASE.         EDM                  : Branch       - HOME BASE OF LOGGING UNIT
MUD .         GEL CHEM             : Mud_type     - MUD TYPE
MATR.         SANDSTONE            : Logunit      - NEUTRON MATRIX
TMAX.C        25.5556              : BHT          - MAXIMUM RECORDED TEMPERATURE
BHTD.M        690.982              : BHTDEP       - MAXIMUM RECORDED TEMPERATURE
RMT .C        18.3333              : MDTP         - TEMPERATURE OF MUD
MUDD.KG/M     1152                 : MWT          - MUD DENSITY
NEUT.         1                    : NEUTRON      - NEUTRON TYPE
RESI.         0                    : RESIST       - RESISTIVITY TYPE
RM  .OHMM     5.2                  : RM           - RESISTIVITY OF MUD
RMC .OHMM     0                    : RMC          - RESISTIVITY OF MUD CAKE
RMF .OHMM     0                    : RMF          - RESISTIVITY OF MUD FILTRATE
SUFT.C        -17.7778             : SUFT         - SURFACE TEMPERATURE
~A  DEPTH     RESD     PHIN     PHID       GR      CAL
# ...
  575.844    5.372    0.450    0.300   60.914  194.525
  576.094    4.914    0.446    0.316   59.664  194.170
  576.344    4.397    0.457    0.323   59.693  194.011
  576.594    3.855    0.457    0.330   59.604  193.861
  576.844    3.425    0.452    0.337   58.839  193.508
  577.094    2.943    0.448    0.349   57.033  193.250
  577.344    2.460    0.467    0.367   54.311  192.997
  577.594    1.890    0.508    0.381   53.235  193.465
  577.844    1.506    0.541    0.395   56.090  193.935
  578.094    1.477    0.660    0.512   60.787  194.723
  578.344    1.645    0.660    0.463   68.244  196.542
  578.594    1.940    0.613    0.388   76.065  198.886
  578.844    2.330    0.546    0.338   85.114  201.332
  579.094    3.040    0.456    0.309   95.145  203.255
  579.344    3.922    0.435    0.202   93.342  202.072
  579.594    3.941    0.443    0.201   87.668  201.193
  579.844    3.989    0.444    0.190   85.621  200.629
  580.094    4.044    0.442    0.196   86.630  200.366
  580.344    4.086    0.448    0.202   86.543  199.806
  580.594    4.290    0.454    0.210   82.037  199.139
  580.844    4.473    0.459    0.218   77.531  198.771
  581.094    4.706    0.459    0.235   71.369  198.315
  581.344    5.024    0.446    0.281   67.172  197.857
  581.594    5.084    0.444    0.299   66.715  197.694
  581.844    4.978    0.446    0.287   66.317  197.239
  582.094    4.866    0.445    0.277   67.396  196.980
  582.344    4.827    0.447    0.272   68.101  196.832
  582.594    4.805    0.449    0.260   67.831  196.791
  582.844    4.810    0.436    0.263   67.556  196.327
  583.094    4.860    0.448    0.266   67.283  195.758
  583.344    4.928    0.458    0.257   66.642  195.397
  583.594    5.053    0.457    0.267   65.450  195.253
  583.844    5.171    0.449    0.276   63.887  195.200
  584.094    5.331    0.446    0.285   62.938  195.153
  584.344    5.619    0.442    0.288   62.727  194.998
  584.594    6.088    0.436    0.270   61.596  195.071
  584.844    6.499    0.424    0.250   59.914  195.326
  585.094    6.938    0.412    0.239   58.719  195.279
  585.344    7.205    0.410    0.233   57.586  195.327
  585.594    7.200    0.404    0.224   56.456  195.589
  585.844    7.025    0.378    0.201   56.859  196.168
  586.094    6.804    0.374    0.202   57.502  197.059
  586.344    6.625    0.374    0.200   56.864  197.633
  586.594    6.571    0.374    0.192   55.913  198.004
  586.844    6.590    0.378    0.190   55.211  198.061
  587.094    6.646    0.374    0.182   55.923  198.215
  587.344    6.890    0.370    0.186   57.918  197.961
  587.594    7.234    0.366    0.188   60.034  197.502
  587.844    7.681    0.359    0.188   61.845  197.250
  588.094    8.201    0.357    0.192   63.965  196.888
  588.344    8.149    0.357    0.197   66.698  197.667
  588.594    7.400    0.351    0.197   71.701  198.665
  588.844    6.634    0.335    0.149   75.784  199.339
  589.094    6.035    0.301    0.113   79.494  200.126
  589.344    5.440    0.339    0.113   83.514  200.186
  589.594    5.049    0.393    0.152   79.317  200.244
  589.844    4.855    0.389    0.194   79.230  200.095
  590.094    4.633    0.403    0.202   77.790  200.352
  590.344    4.495    0.417    0.208   73.100  200.304
  590.594    4.385    0.416    0.223   76.694  199.948
  590.844    4.333    0.423    0.221   79.855  199.494
  591.094    4.299    0.429    0.206   83.995  199.545
  591.344    4.217    0.434    0.212   88.507  199.180
  591.594    4.167    0.439    0.209   89.526  198.621
  591.844    4.111    0.440    0.204   89.247  198.361
  592.094    4.092    0.434    0.209   90.081  198.210
  592.344    4.112    0.424    0.210   93.121  197.956
  592.594    4.192    0.425    0.214   93.584  197.699
  592.844    4.275    0.431    0.220   92.818  197.553
  593.094    4.351    0.437    0.217   90.702  197.707
  593.344    4.436    0.440    0.200   87.179  197.566
  593.594    4.482    0.431    0.192   86.169  197.411
  593.844    4.503    0.426    0.205   89.395  196.942
  594.094    4.483    0.430    0.215   90.839  196.795
  594.344    4.422    0.440    0.208   92.222  196.960
  594.594    4.378    0.450    0.197   90.536  197.222
  594.844    4.375    0.454    0.198   92.347  197.798
  595.094    4.403    0.454    0.223   95.143  198.269
  595.344    4.457    0.448    0.222   96.708  198.644
  595.594    4.528    0.443    0.210   97.113  199.000
  595.844    4.642    0.449    0.198   95.550  199.168
  596.094    4.769    0.448    0.188   93.129  199.227
  596.344    4.998    0.437    0.182   90.648  199.277
  596.594    5.229    0.422    0.178   86.693  199.538
  596.844    5.461    0.412    0.177   87.159  199.703
  597.094    5.714    0.404    0.180   86.947  200.386
  597.344    5.923    0.394    0.177   84.833  200.760
  597.594    6.006    0.382    0.170   80.694  201.231
  597.844    5.881    0.372    0.142   79.439  201.279
  598.094    5.791    0.362    0.148   83.401  201.231
  598.344    5.744    0.405    0.160   87.542  201.289
  598.594    5.686    0.423    0.175   90.951  200.935
  598.844    5.599    0.427    0.191   91.534  200.472
  599.094    5.412    0.418    0.167   89.852  199.693
  599.344    5.222    0.384    0.145   89.884  199.234
  599.594    5.123    0.380    0.154   92.373  199.595
  599.844    4.971    0.400    0.171   95.962  200.074
  600.094    4.726    0.416    0.195   99.063  200.442
  600.344    4.502    0.424    0.207   99.770  200.808
  600.594    4.424    0.412    0.199   98.515  201.385
  600.844    4.421    0.404    0.179   95.975  201.540
  601.094    4.466    0.412    0.181   91.897  201.603
  601.344    4.512    0.419    0.191   88.190  201.551
  601.594    4.644    0.417    0.196   84.484  201.301
  601.844    4.831    0.414    0.195   82.309  200.732
  602.094    5.055    0.409    0.185   80.500  199.954
  602.344    5.318    0.412    0.177   78.446  198.666
  602.594    5.698    0.459    0.182   75.413  197.790
  602.844    5.984    0.476    0.212   67.903  197.219
  603.094    6.215    0.465    0.251   62.417  196.447
  603.344    6.337    0.448    0.276   60.306  196.293
  603.594    6.343    0.447    0.285   59.603  196.357
  603.844    6.408    0.450    0.294   58.961  196.511
  604.094    6.533    0.445    0.284   58.010  196.988
  604.344    6.687    0.434    0.273   56.820  197.455
  604.594    6.971    0.419    0.253   55.563  197.729
  604.844    7.525    0.406    0.235   54.247  197.774
  605.094    8.350    0.383    0.235   56.800  197.833
  605.344    9.738    0.358    0.223   57.198  197.998
  605.594   10.512    0.246    0.165   56.740  198.256
  605.844   10.562    0.254    0.108   58.799  198.314
  606.094    9.503    0.329    0.178   58.586  198.370
  606.344    8.394    0.415    0.234   56.906  198.124
  606.594    7.835    0.422    0.251   56.818  198.180
  606.844    7.630    0.414    0.249   57.154  198.445
  607.094    7.723    0.405    0.256   58.475  198.492
  607.344    7.903    0.402    0.252   59.920  198.763
  607.594    7.956    0.402    0.239   61.487  199.024
  607.844    7.905    0.409    0.223   62.686  199.199
  608.094    7.741    0.423    0.247   64.375  199.346
  608.344    7.539    0.429    0.248   63.672  199.502
  608.594    7.395    0.422    0.257   62.171  199.564
  608.844    7.241    0.416    0.259   61.346  199.721
  609.094    7.065    0.414    0.246   62.240  199.991
  609.344    6.930    0.415    0.252   62.946  199.949
  609.594    6.811    0.417    0.259   63.840  199.894
  609.844    6.669    0.415    0.265   64.240  199.843
  610.094    6.447    0.417    0.270   63.970  199.598
  610.344    6.301    0.425    0.280   60.995  199.344
  610.594    6.251    0.428    0.281   57.474  199.285
  610.844    6.268    0.429    0.274   56.586  199.456
  611.094    6.310    0.422    0.268   56.681  199.614
  611.344    6.351    0.414    0.261   56.897  199.566
  611.594    6.335    0.408    0.271   58.033  199.314
  611.844    6.248    0.397    0.254   59.478  199.060
  612.094    6.051    0.397    0.253   61.416  199.110
