~VERSION INFORMATION
 VERS.                 2.0:   CWLS LOG ASCII STANDARD -VERSION 2.0
 WRAP.                  NO:   ONE LINE PER DEPTH STEP
~WELL INFORMATION BLOCK
#MNEM.UNIT           DATA                    DESCRIPTION OF MNEMONIC
#---------    -------------------            -------------------------------
# Generated from Intellog Unique Number	CW_70_72/WELL/1058
NULL.         -999.25                        : NULL_VALUE
WELL.         WINCAN ET AL SMITH 11-16       : Well_name    - WELL              
LOC .         11-16-071-26W4                 : Location     - LOCATION          
UWI .         00/11-16-071-26W4/0            : Uwi          - UNIQUE WELL ID    
ENTR.         JAYE                           : Entered      - ENTERED BY        
SRVC.         COMPUTALOG                     : Scn          - SERVICE COMPANY   
DATE.         13 AUG 83                      : Date         - LOG DATE          
STRT.M        400                            : top_depth    - START DEPTH       
STOP.M        668.5                          : bot_depth    - STOP DEPTH        
STEP.M        0.25                           : increment    - STEP LENGTH       
~CURVE INFORMATION BLOCK
#MNEM UNIT       ERCB CURVE CODE    CURVE DESCRIPTION
#-----------   ------------------   ----------------------------------
DEPT.M        00 001 00 00         : DEPTH        - DEPTH                       
DPHI.V/V      00 890 00 00         : PHID         - DENSITY POROSITY (SANDSTONE)
NPHI.V/V      00 330 00 00         : PHIN         - NEUTRON POROSITY (SANDSTONE)
GR  .API      00 310 00 00         : GR           - GAMMA RAY                   
CALI.MM       00 280 01 00         : CAL          - CALIPER                     
ILD .OHMM     00 120 00 00         : RESD         - DEEP RESISTIVITY (DIL)      
~PARAMETER INFORMATION       
#MNEM.UNIT           DATA             DESCRIPTION OF MNEMONIC
#---------         -----------     ------------------------------
GL  .M        593.18               : gl           - GROUND LEVEL ELEVATION      
EREF.M        596.48               : kb           - ELEVATION OF DEPTH REFERENCE
DATM.M        593.18               : datum        - DATUM ELEVATION             
TDD .M        668                  : tdd          - TOTAL DEPTH DRILLER         
RUN .         ONE                  : Run          - RUN NUMBER                  
ENG .         WOOD                 : Engineer     - RECORDING ENGINEER          
WIT .         VAN FRAASEN          : Witness      - WITNESSED BY                
BASE.         LLOYD                : Branch       - HOME BASE OF LOGGING UNIT   
MUD .         GEL CHEM             : Mud_type     - MUD TYPE                    
MATR.         SANDSTONE            : Logunit      - NEUTRON MATRIX              
TMAX.C        31                   : BHT          - MAXIMUM RECORDED TEMPERATURE
BHTD.M        668.3                : BHTDEP       - MAXIMUM RECORDED TEMPERATURE
RMT .C        22                   : MDTP         - TEMPERATURE OF MUD          
MUDD.KG/M     1120                 : MWT          - MUD DENSITY                 
NEUT.         1                    : NEUTRON      - NEUTRON TYPE                
RESI.         0                    : RESIST       - RESISTIVITY TYPE            
RM  .OHMM     2.6                  : RM           - RESISTIVITY OF MUD          
RMC .OHMM     0                    : RMC          - RESISTIVITY OF MUD CAKE     
RMF .OHMM     3.2                  : RMF          - RESISTIVITY OF MUD FILTRATE 
SUFT.C        0                    : SUFT         - SURFACE TEMPERATURE         
~A  DEPTH     PHID     PHIN       GR      CAL     RESD
# ...
  582.500    0.175    0.279   84.948  167.327    4.564
  582.750    0.205    0.401   91.954  167.714    3.598
  583.000    0.279    0.452   97.964  168.821    2.835
  583.250    0.251    0.454  103.042  175.624    2.507
  583.500    0.223    0.423  104.638  192.276    2.368
  583.750    0.206    0.418  105.178  177.739    2.327
  584.000    0.189    0.433  107.150  168.694    2.321
  584.250    0.180    0.447  110.923  163.379    2.377
  584.500    0.164    0.464  108.603  161.783    2.476
  584.750    0.114    0.419  105.974  161.858    2.694
  585.000    0.105    0.391  106.140  162.450    3.078
  585.250    0.110    0.378  105.873  163.249    3.476
  585.500    0.101    0.362  103.244  164.044    4.148
  585.750    0.070    0.350   98.314  164.742    4.783
  586.000    0.042    0.344   93.633  165.739    5.485
  586.250    0.065    0.347   94.733  166.745    5.822
  586.500    0.097    0.345  100.121  167.855    5.540
  586.750    0.112    0.348  104.951  169.585    5.382
  587.000    0.125    0.342  109.718  170.694    5.617
  587.250    0.126    0.332  106.964  170.663    6.418
  587.500    0.115    0.302  103.899  170.003    7.127
  587.750    0.056    0.280   98.471  168.524    7.975
  588.000    0.028    0.261   89.066  167.044    8.743
  588.250   -0.004    0.245   81.962  167.943    8.936
  588.500   -0.005    0.288   80.574  169.880    8.425
  588.750    0.079    0.359   87.580  172.957    7.852
  589.000    0.128    0.377  101.857  176.346    6.942
  589.250    0.139    0.391  105.381  174.651    6.209
  589.500    0.121    0.373  100.389  171.102    6.181
  589.750    0.100    0.343   92.724  167.027    6.698
  590.000    0.078    0.323   86.241  165.129    7.219
  590.250    0.045    0.305   79.259  164.790    7.648
  590.500    0.050    0.300   82.533  165.068    7.819
  590.750    0.102    0.330   87.672  165.037    7.696
  591.000    0.126    0.349   93.872  164.892    6.806
  591.250    0.121    0.355   98.390  164.866    6.525
  591.500    0.112    0.355   96.878  164.729    6.557
  591.750    0.090    0.347   96.550  164.387    6.857
  592.000    0.069    0.311   96.282  164.359    7.210
  592.250    0.043    0.300   93.591  164.225    7.059
  592.500    0.087    0.321   96.617  165.227    6.975
  592.750    0.108    0.337  101.323  167.267    7.049
  593.000    0.107    0.321  105.593  170.758    7.302
  593.250    0.101    0.263   87.732  173.006    7.870
  593.500    0.183    0.250   62.227  169.866    8.543
  593.750    0.272    0.253   54.873  164.650    9.542
  594.000    0.292    0.287   43.604  161.824   10.380
  594.250    0.285    0.298   34.694  160.651    8.939
  594.500    0.275    0.301   31.941  160.104    5.880
  594.750    0.268    0.298   32.166  159.966    4.840
  595.000    0.270    0.295   33.021  159.728    4.006
  595.250    0.270    0.293   32.568  159.388    3.212
  595.500    0.266    0.296   32.238  159.141    2.840
  595.750    0.262    0.297   32.592  158.801    2.627
  596.000    0.255    0.298   34.498  158.771    2.572
  596.250    0.258    0.306   34.542  159.052    2.561
  596.500    0.263    0.312   32.657  159.322    2.574
  596.750    0.262    0.308   32.453  159.402    2.577
  597.000    0.259    0.304   33.986  159.368    2.600
  597.250    0.252    0.299   35.582  159.747    2.608
  597.500    0.238    0.298   35.254  159.923    2.607
  597.750    0.247    0.302   34.551  160.206    2.600
  598.000    0.257    0.306   34.779  160.385    2.593
  598.250    0.262    0.306   35.506  160.352    2.582
  598.500    0.258    0.301   36.294  160.729    2.552
  598.750    0.256    0.297   37.085  160.906    2.530
  599.000    0.253    0.291   37.562  161.292    2.529
  599.250    0.255    0.296   37.607  161.468    2.537
  599.500    0.258    0.303   37.215  161.228    2.545
  599.750    0.262    0.312   37.196  160.781    2.553
  600.000    0.267    0.316   38.974  162.617    2.551
  600.250    0.271    0.312   38.872  162.445    2.631
  600.500    0.270    0.309   37.835  162.470    2.653
  600.750    0.265    0.302   38.231  162.515    2.706
  601.000    0.260    0.299   42.043  162.549    2.745
  601.250    0.260    0.300   40.139  162.484    2.768
  601.500    0.261    0.302   37.178  162.309    2.776
  601.750    0.261    0.303   37.321  162.135    2.778
  602.000    0.259    0.300   40.825  162.375    2.760
  602.250    0.257    0.299   43.952  163.239    2.772
  602.500    0.256    0.300   41.986  164.106    2.806
  602.750    0.252    0.298   40.701  164.662    2.874
  603.000    0.239    0.291   40.599  165.107    2.958
  603.250    0.225    0.289   40.743  161.516    3.040
  603.500    0.199    0.310   40.954  155.547    3.089
  603.750    0.210    0.326   40.289  154.234    3.091
  604.000    0.229    0.331   40.436  158.101    3.059
  604.250    0.240    0.325   42.385  160.626    3.039
  604.500    0.246    0.313   44.458  160.561    3.002
  604.750    0.243    0.305   45.036  159.871    2.977
  605.000    0.239    0.300   45.307  159.174    2.974
  605.250    0.234    0.299   46.198  159.420    2.988
  605.500    0.236    0.297   47.775  159.871    2.997
  605.750    0.241    0.294   48.851  160.430    3.038
  606.000    0.238    0.288   49.868  160.772    3.087
  606.250    0.230    0.292   50.634  161.120    3.142
  606.500    0.224    0.302   51.404  161.466    3.181
  606.750    0.220    0.306   51.360  161.395    3.307
  607.000    0.215    0.308   56.106  161.220    3.482
  607.250    0.211    0.304   57.682  160.849    3.686
  607.500    0.207    0.298   56.089  160.574    3.942
  607.750    0.205    0.308   55.113  160.188    4.112
  608.000    0.204    0.316   57.249  159.706    4.233
  608.250    0.205    0.318   57.395  159.431    4.318
  608.500    0.206    0.316   56.607  159.469    4.378
  608.750    0.205    0.305   56.815  159.926    4.458
  609.000    0.202    0.295   57.275  160.366    4.537
  609.250    0.195    0.290   58.289  160.822    4.671
  609.500    0.188    0.291   59.925  160.747    4.764
  609.750    0.209    0.302   62.433  158.304    4.680
  610.000    0.219    0.309   62.331  155.225    4.579
  610.250    0.221    0.307   62.849  151.845    4.635
  610.500    0.215    0.296   66.290  151.362    4.818
  610.750    0.205    0.303   67.552  153.260    5.075
  611.000    0.192    0.303   67.823  155.994    5.395
  611.250    0.181    0.291   63.309  157.682    5.692
  611.500    0.163    0.279   57.610  158.545    6.028
  611.750    0.144    0.281   55.207  159.203    6.381
  612.000    0.159    0.285   59.456  159.344    6.846
  612.250    0.171    0.287   64.387  159.690    6.464
  612.500    0.182    0.295   68.822  160.350    6.104
  612.750    0.189    0.302   69.279  160.695    5.928
  613.000    0.191    0.304   68.615  161.459    5.933
  613.250    0.190    0.298   69.571  162.112    6.099
  613.500    0.185    0.296   69.903  162.873    6.304
  613.750    0.177    0.299   70.236  163.638    6.490
  614.000    0.172    0.295   71.439  163.668    6.592
  614.250    0.166    0.285   73.073  163.393    6.787
  614.500    0.158    0.296   73.840  163.326    7.081
  614.750    0.147    0.304   73.240  164.398    7.426
  615.000    0.128    0.298   73.265  165.260    7.705
  615.250    0.138    0.293   74.778  165.714    7.964
  615.500    0.146    0.289   76.103  165.435    8.199
  615.750    0.153    0.285   77.867  164.538    8.391
  616.000    0.155    0.284   80.185  163.850    8.432
  616.250    0.155    0.296   80.207  163.478    8.454
  616.500    0.154    0.290   77.493  163.303    8.510
  616.750    0.153    0.284   75.152  163.335    8.601
  617.000    0.151    0.283   78.840  162.851    8.655
  617.250    0.148    0.289   79.980  162.679    8.777
  617.500    0.145    0.293   77.640  162.300    8.800
  617.750    0.144    0.294   75.547  162.025    8.730
  618.000    0.148    0.294   77.061  161.859    8.837
  618.250    0.150    0.296   81.436  161.790    8.857
  618.500    0.147    0.299   85.743  162.448    8.933
  618.750    0.148    0.301   85.207  163.205    9.059
