~VERSION INFORMATION
 VERS.                 2.0:   CWLS LOG ASCII STANDARD -VERSION 2.0
 WRAP.                  NO:   ONE LINE PER DEPTH STEP
~WELL INFORMATION BLOCK
#MNEM.UNIT           DATA                    DESCRIPTION OF MNEMONIC
#---------    -------------------            -------------------------------
# Generated from Intellog Unique Number	CS_67_68/WELL/849
WELL.         PENNANT-PUMA OILS LTD          : Well_name    - WELL
LOC .         00/11-31-068-15W4/0            : Location     - LOCATION
UWI .         00/11-31-068-15W4/0            : Uwi          - UNIQUE WELL ID
ENTR.         SP                             : Entered      - ENTERED BY
SRVC.         SCHLUMBERGER                   : Scn          - SERVICE COMPANY
STRT.M        268.224                        : top_depth    - START DEPTH
STOP.M        441.724                        : bot_depth    - STOP DEPTH
STEP.M        0.25                           : increment    - STEP LENGTH
 NULL. -999.2500:NULL Value
~CURVE INFORMATION BLOCK
#MNEM UNIT       ERCB CURVE CODE    CURVE DESCRIPTION
#-----------   ------------------   ----------------------------------
DEPT.M        00 001 00 00         : DEPTH        - DEPTH
GR  .API      00 310 00 00         : GR           - GAMMA RAY
DPHI.V/V      00 890 00 00         : PHID         - DENSITY POROSITY (SANDSTONE)
NPHI.V/V      00 330 00 00         : PHIN         - NEUTRON POROSITY (SANDSTONE)
ILD .OHMM     00 120 00 00         : RESD         - DEEP RESISTIVITY (DIL)
~PARAMETER INFORMATION
#MNEM.UNIT           DATA             DESCRIPTION OF MNEMONIC
#---------         -----------     ------------------------------
GL  .M        546.506              : gl           - GROUND LEVEL ELEVATION
EREF.M        549.554              : kb           - ELEVATION OF DEPTH REFERENCE
DATM.M        546.506              : datum        - DATUM ELEVATION
TDD .M        441.35               : tdd          - TOTAL DEPTH DRILLER
RUN .         ONE                  : Run          - RUN NUMBER
ENG .         BILL                 : Engineer     - RECORDING ENGINEER
WIT .         JIM                  : Witness      - WITNESSED BY
MUD .         GEL                  : Mud_type     - MUD TYPE
MATR.         SANDSTONE            : Logunit      - NEUTRON MATRIX
TMAX.C        20.5556              : BHT          - MAXIMUM RECORDED TEMPERATURE
BHTD.M        441.35               : BHTDEP       - MAXIMUM RECORDED TEMPERATURE
MATR.         1                    : LOGUNIT      - NEUTRON MATRIX
RMT .C        25                   : MDTP         - TEMPERATURE OF MUD
NEUT.         1                    : NEUTRON      - NEUTRON TYPE
RESI.         0                    : RESIST       - RESISTIVITY TYPE
RMC .OHMM     0.25                 : RMC          - RESISTIVITY OF MUD CAKE
RMF .OHMM     0.25                 : RMF          - RESISTIVITY OF MUD FILTRATE
SUFT.C        15                   : SUFT         - SURFACE TEMPERATURE
~A  DEPTH       GR     PHID     PHIN     RESD
# ...
  311.724  100.159    0.293    0.476    2.683
  311.974  101.835    0.289    0.479    2.692
  312.224  105.108    0.272    0.494    2.722
  312.474  108.064    0.267    0.497    2.886
  312.724  109.430    0.277    0.478    3.117
  312.974  109.292    0.243    0.466    3.307
  313.224  107.287    0.205    0.470    3.424
  313.474  108.145    0.217    0.463    3.305
  313.724  111.254    0.203    0.461    3.442
  313.974  114.822    0.246    0.461    3.548
  314.224  113.495    0.262    0.475    3.590
  314.474  111.515    0.271    0.491    3.612
  314.724  109.429    0.269    0.505    3.635
  314.974  106.546    0.255    0.509    3.617
  315.224  102.604    0.248    0.505    3.567
  315.474  105.418    0.266    0.487    3.505
  315.724  109.173    0.267    0.487    3.382
  315.974  112.299    0.257    0.503    3.222
  316.224  115.441    0.251    0.515    3.033
  316.474  116.387    0.246    0.517    2.937
  316.724  115.875    0.255    0.525    2.939
  316.974  118.273    0.265    0.547    3.059
  317.224  121.250    0.274    0.572    3.196
  317.474  123.095    0.222    0.541    3.385
  317.724  124.366    0.219    0.511    3.582
  317.974  121.470    0.223    0.501    3.805
  318.224  118.879    0.234    0.476    4.074
  318.474  116.682    0.219    0.449    4.366
  318.724  116.591    0.200    0.449    4.551
  318.974  116.790    0.203    0.456    4.669
  319.224  116.006    0.224    0.444    4.712
  319.474  115.270    0.236    0.424    4.725
  319.724  113.920    0.233    0.405    4.726
  319.974  113.310    0.219    0.411    4.715
  320.224  113.241    0.221    0.431    4.670
  320.474  113.467    0.229    0.450    4.615
  320.724  113.791    0.235    0.466    4.576
  320.974  114.603    0.240    0.466    4.535
  321.224  116.615    0.229    0.463    4.430
  321.474  118.679    0.219    0.453    4.332
  321.724  119.753    0.226    0.453    4.311
  321.974  111.260    0.239    0.447    4.408
  322.224   98.333    0.251    0.421    4.647
  322.474   90.261    0.268    0.398    5.029
  322.724   87.161    0.286    0.379    5.551
  322.974   85.846    0.304    0.358    6.203
  323.224   85.550    0.363    0.270    6.519
  323.474   84.472    0.407    0.243    5.650
  323.724   82.107    0.451    0.233    3.717
  323.974   81.051    0.443    0.244    2.995
  324.224   81.177    0.429    0.290    2.546
  324.474   81.630    0.418    0.359    2.338
  324.724   79.324    0.381    0.426    2.260
  324.974   78.637    0.339    0.457    2.214
  325.224   82.669    0.330    0.472    2.299
  325.474   87.588    0.306    0.465    2.593
  325.724   92.346    0.288    0.444    2.845
  325.974   94.290    0.275    0.434    3.020
  326.224   95.618    0.262    0.425    2.705
  326.474   94.591    0.254    0.461    2.400
  326.724   90.744    0.280    0.474    2.193
  326.974   82.977    0.306    0.482    2.070
  327.224   76.434    0.340    0.470    2.028
  327.474   72.416    0.346    0.478    1.993
  327.724   73.718    0.351    0.466    2.068
  327.974   78.136    0.335    0.458    2.200
  328.224   80.087    0.320    0.441    2.333
  328.474   80.646    0.309    0.430    2.464
  328.724   80.947    0.303    0.437    2.589
  328.974   83.895    0.307    0.452    2.751
  329.224   88.277    0.304    0.454    2.939
  329.474   93.640    0.280    0.441    3.153
  329.724   99.063    0.259    0.422    3.332
  329.974  103.306    0.239    0.414    3.518
  330.224  107.704    0.233    0.417    3.721
  330.474  110.847    0.240    0.432    3.929
  330.724  112.624    0.230    0.444    4.083
  330.974  114.439    0.227    0.430    4.217
  331.224  115.871    0.226    0.424    4.249
  331.474  115.603    0.223    0.435    4.260
  331.724  116.237    0.222    0.439    4.219
  331.974  118.382    0.230    0.445    4.146
  332.224  119.355    0.224    0.462    4.078
  332.474  119.341    0.224    0.483    3.982
  332.724  118.449    0.241    0.491    3.916
  332.974  116.016    0.234    0.489    3.921
  333.224  115.737    0.224    0.465    4.002
  333.474  116.619    0.215    0.445    4.095
  333.724  117.942    0.214    0.435    4.164
  333.974  118.836    0.220    0.436    4.047
  334.224  116.552    0.211    0.452    3.726
  334.474  112.931    0.215    0.469    3.523
  334.724  108.145    0.225    0.479    3.395
  334.974  105.270    0.253    0.472    3.329
  335.224  106.318    0.255    0.461    3.282
  335.474  107.851    0.231    0.467    3.290
  335.724  108.498    0.234    0.483    3.306
  335.974  103.987    0.229    0.480    3.329
  336.224  107.466    0.222    0.491    3.313
  336.474  105.746    0.216    0.505    3.229
  336.724  103.365    0.227    0.518    3.022
  336.974   99.519    0.246    0.512    2.821
  337.224   97.751    0.258    0.495    2.727
  337.474   95.935    0.287    0.475    2.610
  337.724   94.486    0.312    0.464    2.572
  337.974   92.432    0.298    0.466    2.533
  338.224   90.716    0.295    0.470    2.505
  338.474   90.010    0.289    0.478    2.497
  338.724   89.022    0.283    0.469    2.531
  338.974   88.808    0.285    0.457    2.601
  339.224   89.736    0.277    0.452    2.652
  339.474   91.075    0.267    0.451    2.673
  339.724   92.624    0.255    0.453    2.593
  339.974   93.121    0.251    0.458    2.461
  340.224   91.238    0.276    0.470    2.374
  340.474   85.945    0.292    0.475    2.301
  340.724   82.599    0.304    0.476    2.289
  340.974   81.129    0.319    0.470    2.311
  341.224   82.385    0.323    0.478    2.342
  341.474   85.945    0.306    0.475    2.410
  341.724   91.967    0.298    0.461    2.496
  341.974  100.723    0.288    0.450    2.603
  342.224  107.051    0.270    0.471    2.692
  342.474  110.223    0.222    0.495    2.814
  342.724  111.844    0.206    0.508    2.900
  342.974  110.482    0.225    0.518    2.977
  343.224  107.842    0.231    0.526    3.035
  343.474  100.177    0.252    0.552    3.016
  343.724   92.670    0.273    0.565    2.886
  343.974   88.212    0.289    0.543    2.748
  344.224   85.283    0.312    0.499    2.567
  344.474   81.452    0.307    0.477    2.455
  344.724   78.610    0.301    0.475    2.328
  344.974   84.016    0.307    0.492    2.208
  345.224   87.347    0.320    0.489    2.092
  345.474   86.779    0.320    0.478    1.994
  345.724   82.437    0.317    0.475    1.984
  345.974   79.834    0.321    0.488    2.063
  346.224   82.153    0.323    0.496    2.162
  346.474   84.494    0.313    0.483    2.370
  346.724   82.416    0.304    0.438    2.907
  346.974   77.198    0.292    0.383    3.650
  347.224   72.332    0.258    0.325    4.686
  347.474   68.650    0.208    0.294    5.722
  347.724   65.893    0.161    0.273    6.810
  347.974   64.033    0.081    0.244    6.708
  348.224   62.793    0.184    0.271    5.271
  348.474   66.413    0.290    0.330    4.306
  348.724   71.272    0.326    0.426    3.553
  348.974   74.981    0.344    0.494    3.027
  349.224   78.955    0.332    0.487    2.675
  349.474   81.505    0.321    0.492    2.470
  349.724   83.372    0.308    0.479    2.502
  349.974   86.059    0.295    0.465    2.744
  350.224   88.795    0.283    0.467    2.822
  350.474   90.125    0.281    0.480    2.891
  350.724   90.628    0.287    0.473    2.937
  350.974   90.168    0.264    0.469    2.978
  351.224   89.975    0.246    0.470    3.020
  351.474   91.417    0.259    0.489    3.082
  351.724   93.621    0.266    0.485    3.166
  351.974   95.403    0.262    0.486    3.290
  352.224   96.052    0.262    0.489    3.393
  352.474   95.337    0.266    0.482    3.483
  352.724   93.873    0.266    0.483    3.539
  352.974   93.737    0.271    0.478    3.611
  353.224   95.408    0.277    0.465    3.667
  353.474   98.014    0.267    0.456    3.719
  353.724  100.305    0.260    0.467    3.731
  353.974  101.263    0.255    0.481    3.742
  354.224  100.409    0.257    0.487    3.716
  354.474   97.675    0.257    0.485    3.683
  354.724   94.430    0.248    0.478    3.626
  354.974   92.307    0.242    0.488    3.560
