~VERSION INFORMATION
 VERS.                 2.0:   CWLS LOG ASCII STANDARD -VERSION 2.0
 WRAP.                  NO:   ONE LINE PER DEPTH STEP
~WELL INFORMATION BLOCK
#MNEM.UNIT           DATA                    DESCRIPTION OF MNEMONIC
#---------    -------------------            -------------------------------
# Generated from Intellog Unique Number	CW_73_75/WELL/994
LOC .         00/10-27-075-01W5/0            : Location     - LOCATION
UWI .         00/10-27-075-01W5/0            : Uwi          - UNIQUE WELL ID
ENTR.         JAYE                           : Entered      - ENTERED BY
SRVC.         SCHLUMBERGER                   : Scn          - SERVICE COMPANY
DATE.         5 JAN 76                       : Date         - LOG DATE
STRT.M        548.64                         : top_depth    - START DEPTH
STOP.M        749.89                         : bot_depth    - STOP DEPTH
STEP.M        0.25                           : increment    - STEP LENGTH
 NULL. -999.2500:NULL Value
~CURVE INFORMATION BLOCK
#MNEM UNIT       ERCB CURVE CODE    CURVE DESCRIPTION
#-----------   ------------------   ----------------------------------
DEPT.M        00 001 00 00         : DEPTH        - DEPTH
ILD .OHMM     00 120 00 00         : RESD         - DEEP RESISTIVITY (DIL)
NPHI.V/V      00 330 00 00         : PHIN         - NEUTRON POROSITY (SANDSTONE)
DPHI.V/V      00 890 00 00         : PHID         - DENSITY POROSITY (SANDSTONE)
GR  .API      00 310 00 00         : GR           - GAMMA RAY
CALI.MM       00 280 01 00         : CAL          - CALIPER
~PARAMETER INFORMATION
#MNEM.UNIT           DATA             DESCRIPTION OF MNEMONIC
#---------         -----------     ------------------------------
GL  .M        826.465              : gl           - GROUND LEVEL ELEVATION
EREF.M        830.58               : kb           - ELEVATION OF DEPTH REFERENCE
DATM.M        826.465              : datum        - DATUM ELEVATION
TDD .M        0                    : tdd          - TOTAL DEPTH DRILLER
RUN .         ONE                  : Run          - RUN NUMBER
MATR.         SANDSTONE            : Logunit      - NEUTRON MATRIX
TMAX.C        -17.7778             : BHT          - MAXIMUM RECORDED TEMPERATURE
BHTD.M        0                    : BHTDEP       - MAXIMUM RECORDED TEMPERATURE
RMT .C        -17.7778             : MDTP         - TEMPERATURE OF MUD
MUDD.KG/M     0                    : MWT          - MUD DENSITY
NEUT.         1                    : NEUTRON      - NEUTRON TYPE
RESI.         0                    : RESIST       - RESISTIVITY TYPE
RM  .OHMM     0                    : RM           - RESISTIVITY OF MUD
RMC .OHMM     0                    : RMC          - RESISTIVITY OF MUD CAKE
RMF .OHMM     0                    : RMF          - RESISTIVITY OF MUD FILTRATE
SUFT.C        -17.7778             : SUFT         - SURFACE TEMPERATURE
~A  DEPTH     RESD     PHIN     PHID       GR      CAL
# ...
  658.140    6.140    0.411    0.137   74.700  227.221
  658.390    6.543    0.440    0.147   74.363  227.474
  658.640    7.492    0.434    0.166   72.690  233.294
  658.890    9.316    0.410    0.211   71.015  239.325
  659.140   11.290    0.384    0.211   67.878  235.760
  659.390   15.162    0.348    0.195   61.581  226.333
  659.640   18.511    0.327    0.159   53.883  226.177
  659.890   18.236    0.317    0.145   56.103  226.431
  660.140   16.296    0.354    0.139   61.974  226.380
  660.390   13.964    0.362    0.167   65.532  225.706
  660.640   12.547    0.349    0.163   67.506  224.828
  660.890   11.400    0.338    0.161   62.485  225.094
  661.140   10.397    0.328    0.165   57.709  225.137
  661.390    9.675    0.366    0.147   58.529  225.490
  661.640    9.153    0.384    0.143   59.779  225.440
  661.890    9.475    0.391    0.176   61.082  225.392
  662.140   10.435    0.391    0.192   62.999  224.922
  662.390   14.276    0.403    0.204   64.668  222.289
  662.640   18.415    0.398    0.181   62.629  220.894
  662.890   25.326    0.354    0.159   58.340  220.635
  663.140   32.971    0.326    0.145   55.937  219.347
  663.390   38.307    0.290    0.142   53.288  219.192
  663.640   35.388    0.283    0.107   50.395  219.757
  663.890   28.275    0.285    0.068   47.263  220.015
  664.140   21.623    0.277    0.058   48.689  219.336
  664.390   18.973    0.259    0.032   52.247  219.081
  664.640   16.348    0.278    0.038   56.233  220.265
  664.890   14.852    0.343    0.060   57.842  222.474
  665.140   13.796    0.375    0.069   58.601  224.172
  665.390   13.316    0.368    0.153   58.815  224.838
  665.640   13.263    0.360    0.159   59.390  224.989
  665.890   13.380    0.362    0.162   60.209  224.736
  666.140   13.673    0.366    0.170   61.516  223.858
  666.390   13.947    0.370    0.183   63.128  221.429
  666.640   14.067    0.357    0.162   64.798  219.108
  666.890   14.111    0.361    0.185   66.956  217.716
  667.140   14.104    0.369    0.156   68.629  217.148
  667.390   14.230    0.382    0.149   70.362  217.406
  667.640   14.223    0.389    0.169   73.127  218.487
  667.890   13.779    0.386    0.182   71.940  220.083
  668.140   12.989    0.378    0.157   67.713  221.987
  668.390   11.760    0.349    0.144   62.630  224.617
  668.640   10.781    0.308    0.102   64.121  225.787
  668.890    9.689    0.321    0.082   65.672  226.147
  669.140    8.756    0.346    0.081   66.671  224.243
  669.390    8.283    0.362    0.091   69.074  220.686
  669.640    8.115    0.366    0.081   72.752  220.118
  669.890    8.127    0.339    0.123   69.132  221.611
  670.140    8.473    0.335    0.110   68.492  222.173
  670.390    9.298    0.347    0.097   69.676  222.221
  670.640   10.764    0.347    0.125   69.465  221.960
  670.890   12.691    0.349    0.110   69.613  221.496
  671.140   15.694    0.345    0.115   70.250  220.623
  671.390   19.766    0.300    0.067   65.412  220.047
  671.640   24.532    0.280    0.046   56.498  219.793
  671.890   27.830    0.311    0.097   58.171  219.222
  672.140   24.875    0.349    0.130   57.958  218.450
  672.390   20.468    0.395    0.173   58.899  217.877
  672.640   15.423    0.368    0.162   61.422  217.830
  672.890   11.947    0.329    0.099   65.831  218.904
  673.140   10.105    0.310    0.044   77.418  221.010
  673.390    9.685    0.364    0.066   80.733  224.361
  673.640    9.699    0.370    0.115   77.356  227.913
  673.890    9.676    0.344    0.082   72.822  228.680
  674.140    9.255    0.324    0.057   71.026  227.088
  674.390    8.723    0.354    0.040   72.454  226.517
  674.640    8.314    0.357    0.056   73.214  226.971
  674.890    8.101    0.362    0.064   76.346  227.441
  675.140    8.007    0.381    0.095   79.539  227.490
  675.390    7.916    0.393    0.134   80.238  227.541
  675.640    7.855    0.423    0.112   80.267  227.790
  675.890    7.722    0.423    0.125   79.626  227.735
  676.140    7.621    0.410    0.146   79.290  227.793
  676.390    7.548    0.399    0.137   78.650  228.043
  676.640    7.516    0.389    0.150   75.457  228.195
  676.890    7.542    0.397    0.140   74.510  228.556
  677.140    7.693    0.390    0.120   75.212  228.712
  677.390    7.758    0.415    0.103   77.367  228.961
  677.640    7.771    0.403    0.132   75.206  228.806
  677.890    7.825    0.382    0.127   73.167  228.339
  678.140    7.906    0.371    0.105   74.716  226.224
  678.390    8.065    0.393    0.099   77.484  226.581
  678.640    8.333    0.397    0.135   80.252  227.045
  678.890    8.800    0.399    0.119   81.435  227.502
  679.140    9.517    0.406    0.119   79.032  227.757
  679.390   10.200    0.380    0.123   75.288  227.918
  679.640   10.655    0.352    0.112   73.131  227.239
  679.890   10.826    0.338    0.111   76.441  224.406
  680.140    9.964    0.345    0.098   80.607  221.881
  680.390    8.808    0.368    0.106   83.376  220.072
  680.640    7.786    0.368    0.134   80.181  221.257
  680.890    7.061    0.339    0.112   75.888  225.939
  681.140    6.631    0.331    0.044   80.177  231.657
  681.390    6.378    0.365    0.056   83.551  233.662
  681.640    6.180    0.397    0.136   84.495  233.100
  681.890    6.087    0.412    0.134   85.740  233.043
  682.140    6.185    0.410    0.114   87.231  232.162
  682.390    6.486    0.367    0.108   88.596  231.295
  682.640    6.699    0.367    0.128   85.827  230.826
  682.890    7.088    0.382    0.148   83.059  230.254
  683.140    7.555    0.370    0.125   82.418  229.891
  683.390    8.156    0.372    0.096   82.083  229.839
  683.640    9.185    0.381    0.092   80.529  229.163
  683.890    9.899    0.387    0.074   74.657  226.223
  684.140   10.360    0.380    0.052   65.682  221.640
  684.390   10.683    0.394    0.160   61.211  218.186
  684.640   10.979    0.407    0.234   59.110  216.793
  684.890   11.195    0.412    0.226   57.439  216.839
  685.140   11.460    0.407    0.227   56.005  218.754
  685.390   11.928    0.410    0.225   54.330  219.720
  685.640   12.413    0.410    0.224   54.299  220.184
  685.890   13.041    0.396    0.237   54.024  219.717
  686.140   13.546    0.379    0.224   53.748  218.528
  686.390   13.991    0.385    0.209   53.716  217.857
  686.640   14.588    0.393    0.192   51.924  217.393
  686.890   15.210    0.395    0.192   50.246  217.447
  687.140   15.859    0.385    0.201   48.331  217.492
  687.390   16.690    0.373    0.187   47.749  217.541
  687.640   17.460    0.359    0.169   47.719  217.796
  687.890   18.748    0.349    0.154   47.932  218.059
  688.140   20.504    0.346    0.170   48.812  218.207
  688.390   21.772    0.355    0.171   49.023  218.466
  688.640   22.666    0.344    0.129   46.861  218.718
  688.890   22.649    0.339    0.112   46.527  219.077
  689.140   20.845    0.332    0.093   47.897  219.230
  689.390   19.150    0.319    0.079   49.384  218.864
  689.640   17.625    0.310    0.087   50.813  218.299
  689.890   16.462    0.323    0.115   51.995  217.519
  690.140   15.629    0.349    0.153   54.032  217.059
  690.390   14.787    0.360    0.178   55.461  216.597
  690.640   13.989    0.369    0.170   55.611  216.223
  690.890   12.921    0.402    0.180   55.702  215.765
  691.140   13.674    0.424    0.226   55.792  215.204
  691.390   15.064    0.401    0.218   56.190  214.830
  691.640   17.087    0.376    0.213   56.948  214.362
  691.890   19.602    0.373    0.209   56.488  214.309
  692.140   21.236    0.361    0.207   52.197  216.417
  692.390   23.224    0.349    0.166   50.587  220.175
  692.640   24.981    0.344    0.152   50.494  223.525
  692.890   25.999    0.338    0.149   49.790  224.087
  693.140   24.506    0.346    0.135   49.273  223.209
  693.390   20.652    0.368    0.124   49.241  222.022
  693.640   17.665    0.385    0.123   49.757  221.452
  693.890   15.931    0.375    0.151   50.698  220.574
  694.140   14.717    0.355    0.161   52.372  216.507
  694.390   13.922    0.353    0.164   53.493  214.500
