~VERSION INFORMATION
 VERS.                 2.0:   CWLS LOG ASCII STANDARD -VERSION 2.0
 WRAP.                  NO:   ONE LINE PER DEPTH STEP
~WELL INFORMATION BLOCK
#MNEM.UNIT           DATA                    DESCRIPTION OF MNEMONIC
#---------    -------------------            -------------------------------
# Generated from Intellog Unique Number	CS_69_70/WELL/873
WELL.         ET AL HEART LAKE               : Well_name    - WELL
LOC .         00/10-29-069-10W4/0            : Location     - LOCATION
UWI .         00/10-29-069-10W4/0            : Uwi          - UNIQUE WELL ID
ENTR.         SP                             : Entered      - ENTERED BY
SRVC.         SCHLUMBERGER                   : Scn          - SERVICE COMPANY
STRT.M        250                            : top_depth    - START DEPTH
STOP.M        460                            : bot_depth    - STOP DEPTH
STEP.M        0.25                           : increment    - STEP LENGTH
 NULL. -999.2500:NULL Value
~CURVE INFORMATION BLOCK
#MNEM UNIT       ERCB CURVE CODE    CURVE DESCRIPTION
#-----------   ------------------   ----------------------------------
DEPT.M        00 001 00 00         : DEPTH        - DEPTH
ILD .OHMM     00 120 00 00         : RESD         - DEEP RESISTIVITY (DIL)
DPHI.V/V      00 890 00 00         : PHID         - DENSITY POROSITY (LIMESTONE)
NPHI.V/V      00 330 00 00         : PHIN         - NEUTRON POROSITY (LIMESTONE)
GR  .API      00 310 00 00         : GR           - GAMMA RAY
~PARAMETER INFORMATION
#MNEM.UNIT           DATA             DESCRIPTION OF MNEMONIC
#---------         -----------     ------------------------------
GL  .M        598                  : gl           - GROUND LEVEL ELEVATION
EREF.M        601.5                : kb           - ELEVATION OF DEPTH REFERENCE
DATM.M        598                  : datum        - DATUM ELEVATION
TDD .M        500                  : tdd          - TOTAL DEPTH DRILLER
RUN .         ONE                  : Run          - RUN NUMBER
ENG .         BILL                 : Engineer     - RECORDING ENGINEER
WIT .         JIM                  : Witness      - WITNESSED BY
MUD .         GEL                  : Mud_type     - MUD TYPE
MATR.         LIMESTONE            : Logunit      - NEUTRON MATRIX
TMAX.C        22                   : BHT          - MAXIMUM RECORDED TEMPERATURE
BHTD.M        500                  : BHTDEP       - MAXIMUM RECORDED TEMPERATURE
MATR.         1                    : LOGUNIT      - NEUTRON MATRIX
RMT .C        25                   : MDTP         - TEMPERATURE OF MUD
NEUT.         1                    : NEUTRON      - NEUTRON TYPE
RESI.         0                    : RESIST       - RESISTIVITY TYPE
RMC .OHMM     0.25                 : RMC          - RESISTIVITY OF MUD CAKE
RMF .OHMM     0.25                 : RMF          - RESISTIVITY OF MUD FILTRATE
SUFT.C        15                   : SUFT         - SURFACE TEMPERATURE
~A  DEPTH     RESD     PHID     PHIN       GR
# ...
  293.500    6.775    0.280    0.385   54.752
  293.750    6.984    0.292    0.375   48.632
  294.000    7.254    0.290    0.367   45.357
  294.250    7.421    0.303    0.380   40.812
  294.500    7.622    0.314    0.367   35.902
  294.750    7.842    0.317    0.353   30.931
  295.000    8.008    0.318    0.346   28.868
  295.250    7.688    0.309    0.344   46.529
  295.500    7.217    0.273    0.381   62.798
  295.750    6.674    0.245    0.417   71.564
  296.000    6.172    0.236    0.448   81.963
  296.250    5.697    0.233    0.436   79.412
  296.500    5.398    0.234    0.430   74.445
  296.750    5.648    0.269    0.429   67.902
  297.000    6.033    0.297    0.408   59.242
  297.250    6.445    0.325    0.388   46.709
  297.500    6.846    0.329    0.385   38.533
  297.750    7.163    0.327    0.381   31.143
  298.000    7.481    0.328    0.372   27.142
  298.250    7.814    0.320    0.365   27.316
  298.500    7.935    0.293    0.360   36.203
  298.750    7.777    0.261    0.368   54.166
  299.000    7.328    0.244    0.393   64.385
  299.250    6.995    0.250    0.400   68.915
  299.500    6.703    0.266    0.405   69.754
  299.750    6.557    0.285    0.417   63.393
  300.000    6.560    0.306    0.431   51.405
  300.250    6.916    0.325    0.418   34.697
  300.500    7.401    0.341    0.387   30.634
  300.750    7.861    0.314    0.387   28.993
  301.000    8.211    0.298    0.376   28.018
  301.250    8.512    0.313    0.365   27.405
  301.500    8.693    0.318    0.359   26.550
  301.750    8.728    0.319    0.355   26.179
  302.000    8.571    0.322    0.352   27.139
  302.250    8.431    0.299    0.350   29.250
  302.500    8.216    0.280    0.349   32.691
  302.750    7.991    0.292    0.352   34.196
  303.000    7.832    0.309    0.368   33.704
  303.250    7.791    0.321    0.389   31.579
  303.500    7.838    0.330    0.373   29.695
  303.750    7.990    0.336    0.358   28.236
  304.000    8.237    0.333    0.350   27.018
  304.250    8.506    0.329    0.350   25.678
  304.500    8.769    0.325    0.350   23.915
  304.750    8.922    0.323    0.353   22.578
  305.000    9.077    0.326    0.361   22.026
  305.250    9.183    0.328    0.367   23.530
  305.500    9.309    0.330    0.364   26.124
  305.750    9.364    0.331    0.356   27.870
  306.000    9.368    0.331    0.359   27.864
  306.250    9.355    0.329    0.360   26.646
  306.500    9.306    0.327    0.348   26.335
  306.750    9.259    0.328    0.344   26.147
  307.000    9.210    0.329    0.350   25.413
  307.250    9.128    0.332    0.353   24.860
  307.500    9.064    0.335    0.356   25.881
  307.750    8.983    0.336    0.359   26.478
  308.000    8.920    0.334    0.358   27.318
  308.250    8.873    0.328    0.355   27.613
  308.500    8.860    0.326    0.351   27.364
  308.750    8.847    0.325    0.356   26.266
  309.000    8.851    0.329    0.372   24.928
  309.250    8.872    0.329    0.372   23.951
  309.500    8.859    0.332    0.358   23.641
  309.750    8.846    0.335    0.347   22.907
  310.000    8.833    0.337    0.344   22.235
  310.250    8.820    0.337    0.364   21.439
  310.500    8.791    0.339    0.355   21.190
  310.750    8.811    0.341    0.346   23.178
  311.000    8.765    0.342    0.354   26.136
  311.250    8.736    0.343    0.367   25.524
  311.500    8.740    0.341    0.374   23.459
  311.750    8.743    0.338    0.379   22.483
  312.000    8.731    0.335    0.368   25.077
  312.250    8.734    0.332    0.361   26.521
  312.500    8.738    0.328    0.364   26.030
  312.750    8.741    0.326    0.369   24.267
  313.000    8.728    0.329    0.367   22.807
  313.250    8.732    0.335    0.360   23.526
  313.500    8.703    0.341    0.355   23.942
  313.750    8.691    0.335    0.363   22.785
  314.000    8.629    0.321    0.355   26.891
  314.250    8.410    0.297    0.336   43.160
  314.500    8.195    0.282    0.397   63.544
  314.750    7.810    0.287    0.454   76.788
  315.000    7.554    0.299    0.464   82.831
  315.250    7.265    0.293    0.444   82.218
  315.500    6.949    0.253    0.427   88.503
  315.750    6.696    0.240    0.446   94.605
  316.000    6.514    0.248    0.475   92.541
  316.250    6.419    0.259    0.455   85.878
  316.500    6.338    0.264    0.444   86.112
  316.750    6.449    0.260    0.451   87.859
  317.000    6.647    0.264    0.467   88.880
  317.250    6.751    0.258    0.462   86.270
  317.500    6.754    0.248    0.445   85.234
  317.750    6.668    0.239    0.443   89.704
  318.000    6.572    0.230    0.454   92.237
  318.250    6.538    0.248    0.457   92.654
  318.500    6.602    0.288    0.458   90.468
  318.750    6.883    0.316    0.461   83.744
  319.000    7.270    0.338    0.463   74.297
  319.250    7.564    0.310    0.447   68.420
  319.500    7.827    0.278    0.429   68.957
  319.750    8.054    0.286    0.431   69.917
  320.000    8.178    0.310    0.430   66.097
  320.250    8.121    0.289    0.421   64.153
  320.500    7.899    0.294    0.426   63.964
  320.750    7.756    0.319    0.431   66.316
  321.000    7.802    0.322    0.433   69.576
  321.250    7.969    0.311    0.443   71.868
  321.500    8.138    0.320    0.442   70.164
  321.750    8.311    0.333    0.428   69.371
  322.000    8.423    0.325    0.417   71.662
  322.250    8.523    0.319    0.415   74.679
  322.500    8.542    0.314    0.424   76.549
  322.750    8.578    0.305    0.420   79.446
  323.000    8.645    0.291    0.415   83.733
  323.250    8.747    0.274    0.409   87.175
  323.500    8.866    0.260    0.404   90.374
  323.750    9.004    0.252    0.406   92.424
  324.000    9.092    0.270    0.407   89.936
  324.250    9.199    0.289    0.399   86.236
  324.500    9.237    0.282    0.411   88.710
  324.750    9.258    0.271    0.437   92.029
  325.000    9.227    0.270    0.453   92.143
  325.250    9.146    0.279    0.438   87.477
  325.500    9.063    0.288    0.420   84.504
  325.750    8.866    0.291    0.420   83.226
  326.000    8.608    0.265    0.426   85.698
  326.250    8.110    0.247    0.429   88.838
  326.500    7.361    0.236    0.422   92.340
  326.750    6.884    0.225    0.423   99.350
  327.000    6.634    0.213    0.454  103.700
  327.250    6.550    0.205    0.472  105.447
  327.500    6.689    0.234    0.473   91.219
  327.750    7.040    0.300    0.480   75.116
  328.000    7.393    0.325    0.449   63.673
  328.250    7.722    0.345    0.434   58.038
  328.500    8.050    0.351    0.422   56.760
  328.750    8.330    0.356    0.409   62.076
  329.000    8.522    0.330    0.394   64.973
  329.250    8.638    0.307    0.400   68.778
  329.500    8.594    0.297    0.417   69.314
  329.750    8.501    0.316    0.420   67.612
  330.000    8.411    0.335    0.423   65.124
  330.250    8.382    0.351    0.439   62.030
  330.500    8.369    0.344    0.446   63.172
  330.750    8.326    0.326    0.454   67.521
  331.000    8.206    0.307    0.436   73.020
  331.250    8.102    0.290    0.408   81.059
  331.500    8.106    0.263    0.394   85.953
  331.750    8.124    0.248    0.399   84.917
  332.000    8.219    0.253    0.407   77.104
  332.250    8.347    0.288    0.404   69.230
  332.500    8.445    0.314    0.419   62.506
  332.750    8.543    0.328    0.426   56.387
  333.000    8.693    0.337    0.385   62.368
  333.250    8.762    0.336    0.367   67.021
  333.500    8.782    0.342    0.367   73.668
  333.750    8.770    0.351    0.400   77.292
  334.000    8.740    0.358    0.422   76.497
  334.250    8.710    0.364    0.425   70.135
  334.500    8.649    0.366    0.413   66.316
  334.750    8.588    0.352    0.406   65.279
  335.000    8.512    0.330    0.402   68.842
  335.250    8.468    0.313    0.402   69.318
  335.500    8.392    0.318    0.406   69.977
  335.750    8.163    0.304    0.406   78.258
  336.000    8.000    0.265    0.407   86.117
  336.250    7.870    0.234    0.418   92.523
  336.500    7.800    0.240    0.426   93.907
  336.750    7.774    0.263    0.412   85.912
