~VERSION INFORMATION
 VERS.                 2.0:   CWLS LOG ASCII STANDARD -VERSION 2.0
 WRAP.                  NO:   ONE LINE PER DEPTH STEP
~WELL INFORMATION BLOCK
#MNEM.UNIT           DATA                    DESCRIPTION OF MNEMONIC
#---------    -------------------            -------------------------------
# Generated from Intellog Unique Number	CC_80_83/WELL/2330
NULL.         -999.25                        : NULL_VALUE
WELL.         KANDEX ET AL PORTAGE           : Well_name    - WELL              
LOC .         10-03-080-14W4                 : Location     - LOCATION          
UWI .         00/10-03-080-14W4/0            : Uwi          - UNIQUE WELL ID    
ENTR.         DW                             : Entered      - ENTERED BY        
SRVC.         SCHLUMBERGER                   : Scn          - SERVICE COMPANY   
DATE.         14 AUG 77                      : Date         - LOG DATE
STRT.M        274.32                         : top_depth    - START DEPTH       
STOP.M        524.42                         : bot_depth    - STOP DEPTH        
STEP.M        0.3048                         : increment    - STEP LENGTH       
~CURVE INFORMATION BLOCK
#MNEM UNIT       ERCB CURVE CODE    CURVE DESCRIPTION
#-----------   ------------------   ----------------------------------
DEPT.M        00 001 00 00         : DEPTH        - DEPTH                       
DPHI.V/V      00 890 00 00         : PHID         - DENSITY POROSITY (LIMESTONE)
NPHI.V/V      00 330 00 00         : PHIN         - NEUTRON POROSITY (LIMESTONE)
GR  .API      00 310 00 00         : GR           - GAMMA RAY                   
ILD .OHMM     00 120 00 00         : RESD         - DEEP RESISTIVITY (DIL)      
~PARAMETER INFORMATION       
#MNEM.UNIT           DATA             DESCRIPTION OF MNEMONIC
#---------         -----------     ------------------------------
GL  .M        696.773              : gl           - GROUND LEVEL ELEVATION      
EREF.M        701.65               : kb           - ELEVATION OF DEPTH REFERENCE
DATM.M        701.65               : datum        - DATUM ELEVATION             
TDD .M        531.876              : tdd          - TOTAL DEPTH DRILLER         
RUN .         ONE                  : Run          - RUN NUMBER                  
ENG .         BILL                 : Engineer     - RECORDING ENGINEER          
WIT .         JIM                  : Witness      - WITNESSED BY                
MUD .         GEL                  : Mud_type     - MUD TYPE                    
MATR.         LIMESTONE            : Logunit      - NEUTRON MATRIX              
TMAX.C        23.8889              : BHT          - MAXIMUM RECORDED TEMPERATURE
BHTD.M        533.4                : BHTDEP       - MAXIMUM RECORDED TEMPERATURE
MATR.         1                    : LOGUNIT      - NEUTRON MATRIX              
RMT .C        25                   : MDTP         - TEMPERATURE OF MUD          
NEUT.         1                    : NEUTRON      - NEUTRON TYPE                
RESI.         0                    : RESIST       - RESISTIVITY TYPE            
RMC .OHMM     0.25                 : RMC          - RESISTIVITY OF MUD CAKE     
RMF .OHMM     0.25                 : RMF          - RESISTIVITY OF MUD FILTRATE 
SUFT.C        4                    : SUFT         - SURFACE TEMPERATURE         
~A  DEPTH     PHID     PHIN       GR     RESD
# ...
  327.390    0.340    0.452   75.500   14.379
  327.695    0.310    0.437   82.885   13.306
  328.000    0.279    0.432   87.807   11.858
  328.305    0.276    0.443   85.958   10.977
  328.610    0.275    0.484   89.033    9.970
  328.915    0.264    0.458   95.187    9.401
  329.220    0.240    0.427  107.496    9.202
  329.525    0.252    0.445  106.262    9.192
  329.830    0.270    0.458  101.951    9.711
  330.135    0.280    0.486   97.639   11.488
  330.440    0.279    0.505   84.093   13.592
  330.745    0.260    0.480   88.400   14.639
  331.050    0.252    0.456   79.163   13.799
  331.355    0.260    0.438   82.239   12.530
  331.660    0.266    0.457   99.473   12.050
  331.965    0.255    0.496   93.314   11.797
  332.270    0.254    0.510   85.925   12.004
  332.575    0.291    0.477   85.922   12.677
  332.880    0.275    0.461   91.460   12.646
  333.185    0.243    0.467   97.613   12.398
  333.490    0.240    0.474   95.764   11.470
  333.795    0.237    0.441   96.377   10.815
  334.100    0.247    0.464   99.452   10.400
  334.405    0.243    0.483  100.065    9.810
  334.710    0.232    0.489  102.525    8.909
  335.015    0.234    0.489  103.139    8.399
  335.320    0.231    0.486  105.598    8.222
  335.625    0.243    0.481  106.827    8.368
  335.930    0.263    0.469  102.515    9.182
  336.235    0.269    0.468   96.356   10.076
  336.540    0.288    0.461   89.582   11.052
  336.845    0.272    0.442   84.039   11.674
  337.150    0.274    0.434   81.575   12.101
  337.455    0.255    0.451   87.112   12.539
  337.760    0.252    0.459   83.416   12.523
  338.065    0.280    0.437   85.260   12.269
  338.370    0.296    0.437   92.029   10.330
  338.675    0.228    0.463  100.030    7.198
  338.980    0.257    0.517  101.874    6.663
  339.285    0.243    0.531  100.640    6.402
  339.590    0.226    0.507   96.944    6.891
  339.895    0.250    0.493   86.476    7.419
  340.200    0.285    0.491   76.008    8.455
  340.505    0.301    0.463   68.618   10.589
  340.810    0.344    0.491   59.997   13.009
  341.115    0.340    0.484   56.917   14.826
  341.420    0.324    0.437   54.452   16.260
  341.725    0.317    0.447   56.911   17.179
  342.030    0.319    0.453   58.756   17.483
  342.335    0.330    0.439   59.368   17.434
  342.640    0.337    0.439   58.135   17.077
  342.945    0.327    0.419   56.285   16.732
  343.250    0.321    0.418   55.667   16.711
  343.555    0.330    0.416   55.665   16.660
  343.860    0.345    0.445   54.431   16.631
  344.165    0.328    0.458   53.813   16.611
  344.470    0.350    0.418   55.042   16.904
  344.775    0.335    0.429   57.502   17.185
  345.080    0.313    0.442   59.345   17.159
  345.385    0.312    0.444   58.727   16.802
  345.690    0.338    0.446   56.878   16.141
  345.995    0.334    0.445   55.644   16.123
  346.300    0.328    0.446   54.410   16.401
  346.605    0.337    0.429   54.408   16.052
  346.910    0.344    0.424   56.868   16.031
  347.215    0.344    0.426   58.096   16.007
  347.520    0.339    0.451   56.863   16.282
  347.825    0.334    0.461   55.629   16.242
  348.130    0.324    0.471   58.704   16.224
  348.435    0.323    0.473   63.011   15.886
  348.740    0.337    0.445   64.856   15.554
  349.045    0.349    0.445   58.081   15.528
  349.350    0.339    0.447   57.463   15.501
  349.655    0.344    0.448   56.230   15.471
  349.960    0.346    0.462   52.532   16.031
  350.265    0.330    0.474   54.993   16.009
  350.570    0.323    0.483   56.837   16.280
  350.875    0.332    0.482   54.373   16.263
  351.180    0.349    0.455   57.447   15.927
  351.485    0.338    0.479   58.061   15.592
  351.790    0.340    0.451   54.364   14.978
  352.095    0.350    0.453   51.899   14.955
  352.400    0.353    0.469   51.897   14.653
  352.705    0.358    0.487   55.588   14.614
  353.010    0.361    0.485   56.817   14.598
  353.315    0.355    0.480   58.045   14.297
  353.620    0.346    0.458   56.812   14.270
  353.925    0.346    0.440   51.884   14.238
  354.230    0.343    0.460   51.881   14.496
  354.535    0.343    0.455   53.109   14.740
  354.840    0.340    0.441   54.338   14.714
  355.145    0.345    0.469   54.337   14.961
  355.450    0.332    0.487   55.565   14.944
  355.755    0.347    0.465   57.410   15.187
  356.060    0.353    0.477   58.638   15.168
  356.365    0.337    0.456   56.789   15.147
  356.670    0.345    0.449   51.860   15.121
  356.975    0.345    0.451   51.242   15.080
  357.280    0.345    0.447   51.856   15.057
  357.585    0.351    0.466   53.700   15.036
  357.890    0.358    0.498   53.698   14.995
  358.195    0.356    0.477   54.310   14.977
  358.500    0.326    0.478   55.539   14.942
  358.805    0.319    0.474   56.767   14.926
  359.110    0.323    0.467   57.997   14.894
  359.415    0.328    0.455   58.610   15.151
  359.720    0.331    0.452   59.839   15.708
  360.025    0.328    0.461   60.452   15.967
  360.330    0.313    0.462   61.064   15.941
  360.635    0.305    0.450   61.062   15.319
  360.940    0.300    0.441   61.060   14.999
  361.245    0.317    0.472   57.979   14.983
  361.550    0.336    0.470   57.360   14.950
  361.855    0.338    0.478   57.358   14.932
  362.160    0.333    0.478   59.818   14.903
  362.465    0.324    0.458   64.740   15.151
  362.770    0.318    0.458   61.660   15.133
  363.075    0.315    0.489   57.347   15.090
  363.380    0.324    0.484   56.730   15.074
  363.685    0.336    0.471   57.958   15.041
  363.990    0.344    0.471   58.572   15.296
  364.295    0.338    0.472   63.493   15.276
  364.600    0.324    0.494   65.954   15.527
  364.905    0.320    0.504   64.720   15.797
  365.210    0.317    0.487   64.102   15.773
  365.515    0.313    0.444   62.867   16.052
  365.820    0.313    0.479   62.865   16.010
  366.125    0.321    0.505   64.094   16.299
  366.430    0.323    0.468   65.938   15.964
  366.735    0.321    0.470   67.783   15.634
  367.040    0.312    0.460   69.011   15.904
  367.345    0.274    0.449   66.546   16.800
  367.650    0.170    0.430   64.081   18.087
  367.955    0.159    0.391   67.157   19.474
  368.260    0.211    0.407   68.385   18.363
  368.565    0.295    0.431   65.305   17.987
  368.870    0.279    0.446   66.533   18.299
  369.175    0.245    0.428   59.144   19.703
  369.480    0.029    0.202   54.216   22.025
  369.785    0.069    0.221   57.291   22.401
  370.090    0.191    0.297   65.908   20.341
  370.395    0.256    0.466   70.214   18.831
  370.700    0.289    0.476   71.443   16.775
  371.005    0.288    0.459   70.825   16.125
  371.310    0.280    0.449   67.744   16.084
  371.615    0.293    0.444   71.435   15.762
  371.920    0.290    0.444   74.511   15.147
  372.225    0.272    0.454   75.124   14.291
  372.530    0.266    0.471   78.815   12.732
  372.835    0.273    0.459   78.813   11.567
  373.140    0.273    0.498   72.654   10.909
  373.445    0.267    0.488   71.420   10.886
  373.750    0.259    0.464   72.649   11.501
  374.055    0.258    0.466   75.109   12.375
  374.360    0.253    0.462   76.338   12.828
  374.665    0.253    0.477   80.028   12.812
  374.970    0.259    0.468   84.951   11.630
  375.275    0.274    0.452   91.104   10.768
  375.580    0.267    0.468   87.408    9.776
  375.885    0.237    0.481   83.096    9.052
  376.190    0.257    0.487   76.938    8.064
  376.495    0.289    0.510   69.548    8.049
  376.800    0.293    0.467   64.620    8.998
  377.105    0.291    0.440   59.693   10.650
  377.410    0.289    0.444   57.843   13.090
  377.715    0.294    0.432   57.840   14.906
  378.020    0.303    0.418   58.454   15.736
  378.325    0.295    0.413   60.913   16.016
  378.630    0.300    0.424   60.910   15.697
  378.935    0.304    0.453   61.524   15.081
  379.240    0.293    0.456   63.368   14.215
  379.545    0.287    0.445   63.366   14.200
  379.850    0.268    0.440   59.669   14.718
  380.155    0.110    0.407   60.283   15.254
