~VERSION INFORMATION
 VERS.                 2.0:   CWLS LOG ASCII STANDARD -VERSION 2.0
 WRAP.                  NO:   ONE LINE PER DEPTH STEP
~WELL INFORMATION BLOCK
#MNEM.UNIT           DATA                    DESCRIPTION OF MNEMONIC
#---------    -------------------            -------------------------------
# Generated from Intellog Unique Number	CW_70_72/WELL/3027
NULL.         -999.25                        : NULL_VALUE
WELL.         MANNVILLE ET AL DECBENE        : Well_name    - WELL              
LOC .         11-07-070-01W5                 : Location     - LOCATION          
UWI .         00/11-07-070-01W5/0            : Uwi          - UNIQUE WELL ID    
ENTR.         JAYE                           : Entered      - ENTERED BY        
SRVC.         SCHLUMBERGER                   : Scn          - SERVICE COMPANY   
DATE.         11 JAN 85                      : Date         - LOG DATE          
STRT.M        425                            : top_depth    - START DEPTH       
STOP.M        630                            : bot_depth    - STOP DEPTH        
STEP.M        0.25                           : increment    - STEP LENGTH       
~CURVE INFORMATION BLOCK
#MNEM UNIT       ERCB CURVE CODE    CURVE DESCRIPTION
#-----------   ------------------   ----------------------------------
DEPT.M        00 001 00 00         : DEPTH        - DEPTH                       
ILD .OHMM     00 120 00 00         : RESD         - DEEP RESISTIVITY (DIL)      
CALI.MM       00 280 01 00         : CAL          - CALIPER                     
GR  .API      00 310 00 00         : GR           - GAMMA RAY                   
NPHI.V/V      00 330 00 00         : PHIN         - NEUTRON POROSITY (SANDSTONE)
DPHI.V/V      00 890 00 00         : PHID         - DENSITY POROSITY (SANDSTONE)
~PARAMETER INFORMATION       
#MNEM.UNIT           DATA             DESCRIPTION OF MNEMONIC
#---------         -----------     ------------------------------
GL  .M        583                  : gl           - GROUND LEVEL ELEVATION      
EREF.M        586                  : kb           - ELEVATION OF DEPTH REFERENCE
DATM.M        583                  : datum        - DATUM ELEVATION             
TDD .M        642                  : tdd          - TOTAL DEPTH DRILLER         
RUN .         ONE                  : Run          - RUN NUMBER                  
ENG .         HOWARD               : Engineer     - RECORDING ENGINEER          
WIT .         KRYWICKI             : Witness      - WITNESSED BY                
BASE.         EDM                  : Branch       - HOME BASE OF LOGGING UNIT   
MUD .         GEL CHEM             : Mud_type     - MUD TYPE                    
MATR.         SANDSTONE            : Logunit      - NEUTRON MATRIX              
TMAX.C        30                   : BHT          - MAXIMUM RECORDED TEMPERATURE
BHTD.M        642                  : BHTDEP       - MAXIMUM RECORDED TEMPERATURE
RMT .C        17                   : MDTP         - TEMPERATURE OF MUD          
MUDD.KG/M     1160                 : MWT          - MUD DENSITY                 
NEUT.         1                    : NEUTRON      - NEUTRON TYPE                
RESI.         0                    : RESIST       - RESISTIVITY TYPE            
RM  .OHMM     4.92                 : RM           - RESISTIVITY OF MUD          
RMC .OHMM     0.25                 : RMC          - RESISTIVITY OF MUD CAKE     
RMF .OHMM     5.72                 : RMF          - RESISTIVITY OF MUD FILTRATE 
SUFT.C        10                   : SUFT         - SURFACE TEMPERATURE         
~A  DEPTH     RESD      CAL       GR     PHIN     PHID
# ...
  607.500    6.880  165.758   97.619    0.306    0.063
  607.750    6.943  166.368   98.918    0.297    0.025
  608.000    7.061  167.081  106.736    0.288    0.034
  608.250    7.153  167.586  114.679    0.296    0.083
  608.500    7.112  167.888  118.897    0.308    0.106
  608.750    6.799  168.082  121.809    0.323    0.087
  609.000    6.403  168.795  121.491    0.334    0.073
  609.250    6.167  169.302  118.628    0.311    0.078
  609.500    5.985  170.016  115.205    0.315    0.087
  609.750    5.917  171.039  113.894    0.319    0.082
  610.000    5.796  171.650  119.726    0.309    0.080
  610.250    5.593  172.364  120.403    0.302    0.095
  610.500    5.307  172.457  119.277    0.306    0.104
  610.750    5.121  172.134  121.320    0.316    0.112
  611.000    4.877  170.986  124.482    0.344    0.117
  611.250    4.724  169.008  114.910    0.352    0.105
  611.500    4.627  167.236  106.394    0.340    0.076
  611.750    4.635  165.880  105.208    0.334    0.050
  612.000    4.687  164.938  120.108    0.330    0.083
  612.250    4.748  163.577  115.381    0.337    0.117
  612.500    4.774  162.637  101.213    0.345    0.134
  612.750    4.810  161.693   85.058    0.322    0.156
  613.000    5.011  160.959   84.181    0.311    0.184
  613.250    5.543  160.120   84.920    0.305    0.136
  613.500    6.223  159.174   79.510    0.308    0.101
  613.750    6.744  158.648   72.734    0.294    0.164
  614.000    7.831  158.327   67.200    0.280    0.190
  614.250    8.598  158.521   66.384    0.276    0.173
  614.500    9.144  159.030   68.365    0.287    0.122
  614.750    9.617  159.432   73.389    0.281    0.107
  615.000    9.634  159.729   76.117    0.289    0.145
  615.250    8.938  159.720   74.495    0.298    0.167
  615.500    8.262  159.813   69.022    0.301    0.132
  615.750    8.292  160.111   65.290    0.293    0.105
  616.000    9.086  160.514   71.370    0.273    0.053
  616.250    9.883  161.229   85.150    0.239    0.030
  616.500   10.278  162.769   94.150    0.220    0.049
  616.750   10.549  163.898   99.237    0.239    0.068
  617.000   10.469  165.232   98.670    0.264    0.094
  617.250    9.878  166.153   98.477    0.272    0.104
  617.500    9.063  166.453   98.782    0.277    0.106
  617.750    8.084  166.649  101.073    0.278    0.106
  618.000    7.757  166.635  103.302    0.278    0.108
  618.250    7.514  166.627   96.650    0.277    0.111
  618.500    7.401  166.305   88.445    0.270    0.119
  618.750    7.290  166.293   82.538    0.264    0.133
  619.000    7.128  165.970   80.233    0.260    0.141
  619.250    6.878  165.856   80.475    0.260    0.143
  619.500    6.737  166.052   82.207    0.266    0.143
  619.750    6.562  166.249   83.319    0.273    0.139
  620.000    6.368  165.927   85.423    0.282    0.135
  620.250    6.202  166.226   86.845    0.290    0.128
  620.500    6.202  166.009   90.379    0.281    0.118
  620.750    6.342  166.514   95.651    0.270    0.119
  621.000    6.424  166.814  101.111    0.263    0.115
  621.250    6.496  166.802  109.240    0.262    0.099
  621.500    6.668  166.273  117.432    0.289    0.086
  621.750    6.818  165.746   99.662    0.326    0.068
  622.000    6.881  165.010   81.457    0.355    0.057
  622.250    7.103  164.171   67.663    0.315    0.078
  622.500    7.827  162.916   79.457    0.245    0.115
  622.750    9.543  161.767   91.996    0.255    0.141
  623.000   10.457  160.930   95.529    0.268    0.164
  623.250   10.854  159.364   86.765    0.291    0.171
  623.500   10.553  158.526   84.647    0.281    0.185
  623.750    9.574  157.790   86.379    0.271    0.203
  624.000    9.808  157.573   89.789    0.266    0.224
  624.250   10.451  157.766   95.000    0.274    0.205
  624.500   10.950  158.067  101.514    0.286    0.196
  624.750   11.113  158.781  107.346    0.293    0.184
  625.000   10.704  159.702  107.775    0.300    0.174
  625.250   10.233  160.829  100.128    0.307    0.158
  625.500    9.709  161.751   97.140    0.296    0.160
  625.750    9.334  162.359   97.381    0.284    0.177
  626.000    9.041  162.657   99.300    0.297    0.185
  626.250    8.856  162.854  102.710    0.307    0.117
  626.500    8.626  162.949  102.020    0.312    0.083
  626.750    8.481  163.144   95.989    0.311    0.045
  627.000    8.385  163.443   99.647    0.298    0.063
  627.250    8.337  163.328  130.570    0.304    0.099
  627.500    8.336  163.317  132.924    0.321    0.119
  627.750    8.413  163.203  124.843    0.340    0.083
  628.000    8.571  162.778   91.546    0.313    0.057
  628.250    8.830  161.833   55.330    0.296   -0.005
  628.500    9.339  161.305   39.919    0.239   -0.007
  628.750   10.082  161.088   32.647    0.104   -0.007
  629.000   11.363  160.663   29.472    0.071   -0.008
  629.250   12.663  160.134   26.857    0.060   -0.010
  629.500   13.518  160.122   27.534    0.059   -0.013
  629.750   14.137  160.214   31.502    0.067   -0.016
  630.000   14.135  160.309   33.296    0.076   -0.015
