~VERSION INFORMATION
 VERS.                 2.0:   CWLS LOG ASCII STANDARD -VERSION 2.0
 WRAP.                  NO:   ONE LINE PER DEPTH STEP
~WELL INFORMATION BLOCK
#MNEM.UNIT           DATA                    DESCRIPTION OF MNEMONIC
#---------    -------------------            -------------------------------
# Generated from Intellog Unique Number	CW_70_72/WELL/3035
NULL.         -999.25                        : NULL_VALUE
WELL.         PALOMA MITSUE 11-33            : Well_name    - WELL              
LOC .         11-33-070-03W5                 : Location     - LOCATION          
UWI .         00/11-33-070-03W5/0            : Uwi          - UNIQUE WELL ID    
ENTR.         JAYE                           : Entered      - ENTERED BY        
SRVC.         SCHLUMBERGER                   : Scn          - SERVICE COMPANY   
DATE.         7 AUG 84                       : Date         - LOG DATE          
STRT.M        495                            : top_depth    - START DEPTH       
STOP.M        700                            : bot_depth    - STOP DEPTH        
STEP.M        0.25                           : increment    - STEP LENGTH       
~CURVE INFORMATION BLOCK
#MNEM UNIT       ERCB CURVE CODE    CURVE DESCRIPTION
#-----------   ------------------   ----------------------------------
DEPT.M        00 001 00 00         : DEPTH        - DEPTH                       
ILD .OHMM     00 120 00 00         : RESD         - DEEP RESISTIVITY (DIL)      
CALI.MM       00 280 01 00         : CAL          - CALIPER                     
GR  .API      00 310 00 00         : GR           - GAMMA RAY                   
NPHI.V/V      00 330 00 00         : PHIN         - NEUTRON POROSITY (SANDSTONE)
DPHI.V/V      00 890 00 00         : PHID         - DENSITY POROSITY (SANDSTONE)
~PARAMETER INFORMATION       
#MNEM.UNIT           DATA             DESCRIPTION OF MNEMONIC
#---------         -----------     ------------------------------
GL  .M        654.6                : gl           - GROUND LEVEL ELEVATION      
EREF.M        660.3                : kb           - ELEVATION OF DEPTH REFERENCE
DATM.M        654.6                : datum        - DATUM ELEVATION             
TDD .M        1723                 : tdd          - TOTAL DEPTH DRILLER         
RUN .         ONE                  : Run          - RUN NUMBER                  
ENG .         CSIKOS/CORNISH       : Engineer     - RECORDING ENGINEER          
WIT .         KELLY                : Witness      - WITNESSED BY                
BASE.         EDM                  : Branch       - HOME BASE OF LOGGING UNIT   
MUD .         GEL                  : Mud_type     - MUD TYPE                    
MATR.         SANDSTONE            : Logunit      - NEUTRON MATRIX              
TMAX.C        50                   : BHT          - MAXIMUM RECORDED TEMPERATURE
BHTD.M        1725.7               : BHTDEP       - MAXIMUM RECORDED TEMPERATURE
RMT .C        22.7                 : MDTP         - TEMPERATURE OF MUD          
MUDD.KG/M     1100                 : MWT          - MUD DENSITY                 
NEUT.         1                    : NEUTRON      - NEUTRON TYPE                
RESI.         0                    : RESIST       - RESISTIVITY TYPE            
RM  .OHMM     1.17                 : RM           - RESISTIVITY OF MUD          
RMC .OHMM     0.25                 : RMC          - RESISTIVITY OF MUD CAKE     
RMF .OHMM     0.89                 : RMF          - RESISTIVITY OF MUD FILTRATE 
SUFT.C        0                    : SUFT         - SURFACE TEMPERATURE         
~A  DEPTH     RESD      CAL       GR     PHIN     PHID
# ...
  568.000    4.079  215.669   78.667    0.427    0.226
  568.250    4.029  215.918   78.125    0.428    0.210
  568.500    3.913  217.192   76.341    0.412    0.167
  568.750    3.752  218.878   73.686    0.394    0.195
  569.000    3.486  221.513   71.093    0.380    0.217
  569.250    3.132  223.300   71.053    0.361    0.232
  569.500    2.778  221.466   72.814    0.377    0.232
  569.750    2.552  213.309   69.535    0.397    0.246
  570.000    2.388  206.808   67.129    0.405    0.280
  570.250    2.320  202.385   66.529    0.398    0.297
  570.500    2.274  199.411   66.920    0.393    0.273
  570.750    2.280  198.409   69.679    0.397    0.254
  571.000    2.324  199.171   70.944    0.391    0.197
  571.250    2.361  200.761   69.904    0.366    0.128
  571.500    2.419  202.251   68.929    0.353    0.163
  571.750    2.503  203.520   75.048    0.378    0.205
  572.000    2.576  206.252   79.552    0.397    0.278
  572.250    2.572  209.289   80.002    0.397    0.271
  572.500    2.555  213.573   79.402    0.394    0.245
  572.750    2.400  216.820   80.916    0.422    0.274
  573.000    2.243  217.580   81.124    0.480    0.300
  573.250    2.142  221.867   79.463    0.540    0.354
  573.500    2.073  240.149   76.868    0.600    0.397
  573.750    2.055  292.034   73.093    0.590    0.439
  574.000    2.052  314.471   72.678    0.575    0.484
  574.250    2.031  306.825   75.623    0.560    0.523
  574.500    2.121  291.203   75.952    0.543    0.407
  574.750    2.223  277.753   73.857    0.515    0.377
  575.000    2.348  263.268   76.182    0.488    0.336
  575.250    2.429  250.131   78.315    0.475    0.305
  575.500    2.508  229.426   80.391    0.465    0.276
  575.750    2.562  218.991   79.289    0.461    0.236
  576.000    2.616  219.123   75.826    0.475    0.222
  576.250    2.560  222.891   73.794    0.488    0.259
  576.500    2.524  220.954   77.296    0.432    0.243
  576.750    2.526  217.361   77.878    0.400    0.223
  577.000    2.513  221.644   71.861    0.396    0.230
  577.250    2.496  214.417   69.206    0.407    0.245
  577.500    2.483  202.630   76.442    0.383    0.255
  577.750    2.426  203.809   82.623    0.406    0.259
  578.000    2.414  207.678   80.218    0.440    0.257
  578.250    2.406  209.883   76.007    0.444    0.248
  578.500    2.386  212.406   72.480    0.420    0.227
  578.750    2.322  214.721   71.069    0.385    0.222
  579.000    2.189  219.221   74.512    0.427    0.263
  579.250    2.079  229.617   78.076    0.483    0.317
  579.500    2.024  233.179   80.772    0.528    0.317
  579.750    2.059  221.600   79.485    0.482    0.288
  580.000    2.064  219.658   77.888    0.469    0.281
  580.250    2.042  221.145   77.474    0.462    0.294
  580.500    2.063  228.035   76.745    0.464    0.289
  580.750    2.099  230.854   75.086    0.468    0.292
  581.000    2.143  232.343   77.037    0.450    0.280
  581.250    2.259  225.737   77.988    0.431    0.247
  581.500    2.412  219.968   77.641    0.448    0.220
  581.750    2.610  219.692   77.096    0.433    0.203
  582.000    2.746  219.510   76.122    0.414    0.173
  582.250    2.851  216.227   75.144    0.403    0.160
  582.500    2.853  215.543   73.797    0.395    0.150
  582.750    2.670  217.019   73.756    0.405    0.159
  583.000    2.523  228.571   75.895    0.397    0.183
  583.250    2.446  240.525   78.149    0.409    0.245
  583.500    2.354  231.744   79.724    0.437    0.273
  583.750    2.236  234.058   79.806    0.431    0.275
  584.000    2.120  227.352   79.768    0.437    0.237
  584.250    1.999  229.873   80.220    0.450    0.235
  584.500    1.906  245.669   81.986    0.462    0.265
  584.750    1.821  254.727   83.808    0.474    0.299
  585.000    1.915  256.520   87.995    0.492    0.298
  585.250    2.183  258.007   92.248    0.487    0.286
  585.500    2.455  225.476   87.539    0.469    0.260
  585.750    2.631  210.061   76.297    0.457    0.241
  586.000    2.565  201.796   63.189    0.434    0.284
  586.250    2.455  199.450   59.102    0.401    0.312
  586.500    2.302  198.340   60.925    0.405    0.328
  586.750    2.130  198.068   59.888    0.415    0.334
  587.000    1.976  198.829   56.923    0.412    0.336
  587.250    1.788  199.274   58.810    0.409    0.317
  587.500    1.721  200.028   66.110    0.403    0.304
  587.750    1.690  198.817   70.919    0.417    0.312
  588.000    1.720  199.575   71.626    0.432    0.322
  588.250    1.773  200.756   66.294    0.414    0.302
  588.500    1.838  201.205   69.675    0.388    0.276
  588.750    1.992  201.542   71.559    0.404    0.259
  589.000    2.211  201.579   67.539    0.425    0.246
  589.250    2.275  201.720   62.641    0.438    0.243
  589.500    2.198  201.655   59.612    0.433    0.274
  589.750    2.084  201.690   62.495    0.412    0.312
  590.000    2.024  201.917   66.498    0.397    0.319
  590.250    1.974  201.953   70.127    0.400    0.315
  590.500    1.960  201.793   72.572    0.410    0.307
  590.750    1.947  201.813   73.153    0.429    0.299
  591.000    1.948  201.855   65.830    0.444    0.296
  591.250    1.967  201.778   61.934    0.456    0.298
  591.500    1.979  201.930   65.123    0.450    0.305
  591.750    2.011  201.746   69.001    0.438    0.310
  592.000    2.038  201.892   66.971    0.423    0.310
  592.250    2.089  201.702   63.630    0.431    0.304
  592.500    2.126  201.646   61.595    0.430    0.303
  592.750    2.175  201.564   64.356    0.415    0.313
  593.000    2.267  201.293   71.280    0.412    0.304
  593.250    2.372  200.918   79.576    0.420    0.291
  593.500    2.486  200.834   82.084    0.430    0.277
  593.750    2.591  200.662   70.843    0.427    0.266
  594.000    2.731  200.494   63.209    0.406    0.265
  594.250    2.889  200.320   62.797    0.396    0.269
  594.500    3.045  199.746   65.054    0.396    0.271
  594.750    3.110  200.686   61.651    0.400    0.268
  595.000    3.083  203.105   57.316    0.373    0.213
  595.250    2.973  202.414   55.719    0.313    0.179
  595.500    2.808  201.513   58.665    0.276    0.163
  595.750    2.547  198.333   58.934    0.324    0.176
  596.000    2.331  193.802   57.396    0.358    0.226
  596.250    2.170  191.356   59.597    0.387    0.281
  596.500    2.069  191.182   62.914    0.404    0.307
  596.750    2.058  191.534   61.190    0.423    0.307
  597.000    2.098  192.069   59.531    0.435    0.284
  597.250    2.187  192.727   63.098    0.394    0.270
  597.500    2.301  193.810   64.984    0.333    0.235
  597.750    2.421  194.047   65.814    0.314    0.173
  598.000    2.528  193.968   65.211    0.296    0.169
  598.250    2.616  193.594   65.853    0.334    0.200
  598.500    2.607  193.319   62.016    0.325    0.199
  598.750    2.561  192.933   62.035    0.353    0.199
  599.000    2.492  192.547   64.547    0.400    0.254
  599.250    2.398  191.957   65.439    0.423    0.284
  599.500    2.321  192.001   65.455    0.408    0.275
  599.750    2.263  192.025   60.873    0.407    0.242
  600.000    2.203  192.163   59.711    0.415    0.261
  600.250    2.191  191.678   62.591    0.416    0.294
  600.500    2.217  192.858   67.899    0.411    0.277
  600.750    2.239  193.199   64.373    0.410    0.231
  601.000    2.274  193.133   59.355    0.362    0.212
  601.250    2.332  193.488   60.373    0.322    0.221
  601.500    2.315  193.299   64.439    0.345    0.293
  601.750    2.200  193.232   66.135    0.373    0.303
  602.000    2.113  192.751   64.103    0.399    0.302
  602.250    2.056  192.482   65.243    0.411    0.293
  602.500    2.050  192.085   69.118    0.429    0.291
  602.750    2.055  191.611   73.997    0.439    0.311
  603.000    2.083  191.540   75.070    0.440    0.324
  603.250    2.139  191.668   75.091    0.402    0.315
  603.500    2.189  191.912   74.799    0.413    0.306
  603.750    2.282  192.255   73.017    0.422    0.304
  604.000    2.391  192.386   71.044    0.425    0.302
  604.250    2.544  192.217   68.079    0.415    0.298
