~VERSION INFORMATION
 VERS.                 2.0:   CWLS LOG ASCII STANDARD -VERSION 2.0
 WRAP.                  NO:   ONE LINE PER DEPTH STEP
~WELL INFORMATION BLOCK
#MNEM.UNIT           DATA                    DESCRIPTION OF MNEMONIC
#---------    -------------------            -------------------------------
# Generated from Intellog Unique Number	CS_73_76/WELL/804
WELL.         PACIFIC PHILLIPS AEC WIAU      : Well_name    - WELL
LOC .         00/10-01-073-09W4/0            : Location     - LOCATION
UWI .         00/10-01-073-09W4/0            : Uwi          - UNIQUE WELL ID
ENTR.         SP                             : Entered      - ENTERED BY
SRVC.         SCHLUMBERGER                   : Scn          - SERVICE COMPANY
STRT.M        320                            : top_depth    - START DEPTH
STOP.M        530                            : bot_depth    - STOP DEPTH
STEP.M        0.25                           : increment    - STEP LENGTH
 NULL. -999.2500:NULL Value
~CURVE INFORMATION BLOCK
#MNEM UNIT       ERCB CURVE CODE    CURVE DESCRIPTION
#-----------   ------------------   ----------------------------------
DEPT.M        00 001 00 00         : DEPTH        - DEPTH
ILD .OHMM     00 120 00 00         : RESD         - DEEP RESISTIVITY (DIL)
DPHI.V/V      00 890 00 00         : PHID         - DENSITY POROSITY (LIMESTONE)
NPHI.V/V      00 330 00 00         : PHIN         - NEUTRON POROSITY (LIMESTONE)
GR  .API      00 310 00 00         : GR           - GAMMA RAY
~PARAMETER INFORMATION
#MNEM.UNIT           DATA             DESCRIPTION OF MNEMONIC
#---------         -----------     ------------------------------
GL  .M        682.9                : gl           - GROUND LEVEL ELEVATION
EREF.M        685.9                : kb           - ELEVATION OF DEPTH REFERENCE
DATM.M        682.9                : datum        - DATUM ELEVATION
TDD .M        544                  : tdd          - TOTAL DEPTH DRILLER
RUN .         ONE                  : Run          - RUN NUMBER
ENG .         BILL                 : Engineer     - RECORDING ENGINEER
WIT .         JIM                  : Witness      - WITNESSED BY
MUD .         GEL                  : Mud_type     - MUD TYPE
MATR.         LIMESTONE            : Logunit      - NEUTRON MATRIX
TMAX.C        16                   : BHT          - MAXIMUM RECORDED TEMPERATURE
BHTD.M        544                  : BHTDEP       - MAXIMUM RECORDED TEMPERATURE
MATR.         1                    : LOGUNIT      - NEUTRON MATRIX
RMT .C        25                   : MDTP         - TEMPERATURE OF MUD
NEUT.         1                    : NEUTRON      - NEUTRON TYPE
RESI.         0                    : RESIST       - RESISTIVITY TYPE
RMC .OHMM     0.25                 : RMC          - RESISTIVITY OF MUD CAKE
RMF .OHMM     0.25                 : RMF          - RESISTIVITY OF MUD FILTRATE
SUFT.C        15                   : SUFT         - SURFACE TEMPERATURE
~A  DEPTH     RESD     PHID     PHIN       GR
# ...
  494.000   13.599    0.278    0.373   62.694
  494.250   13.363    0.271    0.369   71.769
  494.500    9.955    0.266    0.393   75.399
  494.750   12.421    0.271    0.416   78.424
  495.000   11.334    0.254    0.433   76.007
  495.250   10.732    0.254    0.423   79.637
  495.500   10.737    0.240    0.356   79.034
  495.750   11.564    0.206    0.362   69.963
  496.000   11.571    0.232    0.376   66.335
  496.250   10.367    0.257    0.379   58.474
  496.500    8.953    0.263    0.383   54.846
  496.750    8.320    0.254    0.371   59.081
  497.000    7.591    0.262    0.354   61.502
  497.250    6.555    0.272    0.373   56.060
  497.500    5.660    0.297    0.387   48.199
  497.750    4.977    0.312    0.392   44.571
  498.000    4.142    0.307    0.394   42.153
  498.250    3.711    0.299    0.381   42.759
  498.500    3.513    0.291    0.374   48.205
  498.750    3.715    0.283    0.375   50.625
  499.000    3.856    0.274    0.369   54.255
  499.250    4.078    0.272    0.359   56.071
  499.500    3.861    0.265    0.362   51.839
  499.750    3.589    0.271    0.381   48.211
  500.000    3.397    0.283    0.376   41.559
  500.250    3.276    0.307    0.368   43.981
  500.500    3.219    0.315    0.376   46.401
  500.750    3.280    0.320    0.386   50.636
  501.000    3.469    0.314    0.393   53.057
  501.250    3.535    0.300    0.395   54.269
  501.500    3.669    0.294    0.403   54.874
  501.750    3.739    0.303    0.399   58.505
  502.000    3.883    0.296    0.389   62.741
  502.250    3.956    0.283    0.381   65.766
  502.500    4.107    0.273    0.377   66.372
  502.750    4.264    0.277    0.376   67.583
  503.000    4.345    0.268    0.375   70.609
  503.250    4.511    0.258    0.374   74.240
  503.500    4.597    0.255    0.374   75.451
  503.750    4.773    0.243    0.378   77.871
  504.000    4.863    0.231    0.387   81.502
  504.250    5.143    0.249    0.381   84.528
  504.500    5.439    0.227    0.372   88.158
  504.750    5.646    0.226    0.382   91.789
  505.000    5.753    0.212    0.391   97.234
  505.250    6.085    0.205    0.388  101.469
  505.500    6.200    0.203    0.381  103.890
  505.750    6.318    0.205    0.386  108.126
  506.000    6.322    0.203    0.391  109.336
  506.250    6.098    0.189    0.395  110.547
  506.500    6.100    0.172    0.398  108.129
  506.750    6.333    0.178    0.405  104.502
  507.000    6.454    0.172    0.389  102.689
  507.250    6.458    0.151    0.364  103.295
  507.500    6.461    0.128    0.378  107.530
  507.750    6.464    0.145    0.399  105.717
  508.000    6.350    0.168    0.427   94.227
  508.250    6.472    0.175    0.437   85.156
  508.500    6.595    0.195    0.427   79.108
  508.750    6.848    0.222    0.384   74.271
  509.000    7.110    0.239    0.372   70.643
  509.250    7.113    0.255    0.370   68.830
  509.500    7.248    0.210    0.359   76.090
  509.750    7.388    0.186    0.340   79.720
  510.000    7.392    0.184    0.329   78.512
  510.250    7.532    0.195    0.317   77.304
  510.500    7.677    0.168    0.304   86.378
  510.750    7.825    0.155    0.325   89.404
  511.000    7.827    0.158    0.351   90.615
  511.250    7.549    0.165    0.361   95.455
  511.500    7.415    0.152    0.382   96.062
  511.750    7.151    0.141    0.398   96.063
  512.000    6.897    0.154    0.401   96.669
  512.250    6.900    0.155    0.421   96.671
  512.500    6.902    0.180    0.423   94.252
  512.750    6.416    0.198    0.391   87.601
  513.000    6.074    0.201    0.370   78.530
  513.250    5.968    0.207    0.353   74.297
  513.500    5.970    0.221    0.355   73.694
  513.750    6.198    0.216    0.364   77.929
  514.000    6.434    0.177    0.357   83.374
  514.250    6.558    0.167    0.350   87.005
  514.500    6.560    0.174    0.366   87.611
  514.750    6.327    0.178    0.376   87.007
  515.000    5.881    0.192    0.380   81.565
  515.250    5.466    0.240    0.383   76.728
  515.500    5.174    0.260    0.386   76.730
  515.750    4.899    0.266    0.392   81.570
  516.000    4.725    0.229    0.380   83.991
  516.250    4.727    0.207    0.372   83.992
  516.500    4.907    0.212    0.370   85.203
  516.750    5.286    0.211    0.361   87.019
  517.000    5.386    0.204    0.343   88.835
  517.250    5.291    0.192    0.329   85.207
  517.500    5.103    0.205    0.344   80.975
  517.750    5.105    0.234    0.365   84.001
  518.000    5.108    0.246    0.367   87.026
  518.250    5.402    0.211    0.370   91.867
  518.500    5.607    0.187    0.375   93.682
  518.750    5.930    0.170    0.390   96.103
  519.000    6.155    0.163    0.407   95.499
  519.250    6.389    0.178    0.418   94.291
  519.500    6.633    0.190    0.401   91.269
  519.750    6.760    0.199    0.392   87.641
  520.000    6.764    0.193    0.387   85.223
  520.250    6.767    0.194    0.378   84.015
  520.500    6.526    0.200    0.384   87.041
  520.750    6.294    0.211    0.388   93.091
  521.000    5.850    0.199    0.382   96.116
  521.250    5.538    0.165    0.392   91.884
  521.500    5.341    0.186    0.396   88.861
  521.750    5.151    0.201    0.389   91.886
  522.000    5.153    0.204    0.381   95.517
  522.250    5.157    0.196    0.381   93.704
  522.500    5.159    0.203    0.386   91.286
  522.750    4.884    0.213    0.388   87.659
  523.000    4.625    0.215    0.389   85.845
  523.250    4.298    0.219    0.407   80.403
  523.500    3.851    0.219    0.401   77.380
  523.750    3.579    0.257    0.396   71.333
  524.000    3.326    0.281    0.405   63.472
  524.250    3.150    0.297    0.404   62.868
  524.500    3.151    0.309    0.390   65.289
  524.750    3.153    0.290    0.383   67.710
  525.000    3.213    0.276    0.395   65.897
  525.250    3.216    0.269    0.399   64.084
  525.500    3.277    0.280    0.388   61.061
  525.750    3.218    0.291    0.382   54.410
  526.000    3.161    0.291    0.377   51.991
  526.250    2.993    0.281    0.392   44.735
  526.500    2.995    0.293    0.404   42.316
  526.750    3.108    0.312    0.389   42.923
  527.000    3.474    0.291    0.366   52.602
  527.250    4.027    0.009    0.330   59.861
  527.500    6.156    0.044    0.318   67.726
  527.750    7.543    0.024    0.313   72.566
  528.000    8.275    0.019    0.308   75.592
  528.250    9.080    0.036    0.305   74.988
  528.500    9.602    0.059    0.303   74.990
  528.750    9.783    0.053    0.302   76.201
  529.000   10.157    0.053    0.308   76.203
  529.250   10.351    0.040    0.313   76.809
  529.500   10.746    0.033    0.319   77.415
  529.750   10.952    0.030    0.292   76.207
  530.000   11.162    0.052    0.280   73.184
