~VERSION INFORMATION
 VERS.                 2.0:   CWLS LOG ASCII STANDARD -VERSION 2.0
 WRAP.                  NO:   ONE LINE PER DEPTH STEP
~WELL INFORMATION BLOCK
#MNEM.UNIT           DATA                    DESCRIPTION OF MNEMONIC
#---------    -------------------            -------------------------------
# Generated from Intellog Unique Number	CS_77_79/WELL/979
WELL.         MESA HB THORNBURY              : Well_name    - WELL
LOC .         00/10-32-078-12W4/0            : Location     - LOCATION
UWI .         00/10-32-078-12W4/0            : Uwi          - UNIQUE WELL ID
ENTR.         JHS                            : Entered      - ENTERED BY
SRVC.         SCHLUMBERGER                   : Scn          - SERVICE COMPANY
STRT.M        240                            : top_depth    - START DEPTH
STOP.M        455                            : bot_depth    - STOP DEPTH
STEP.M        0.25                           : increment    - STEP LENGTH
 NULL. -999.2500:NULL Value
~CURVE INFORMATION BLOCK
#MNEM UNIT       ERCB CURVE CODE    CURVE DESCRIPTION
#-----------   ------------------   ----------------------------------
DEPT.M        00 001 00 00         : DEPTH        - DEPTH
DPHI.V/V      00 890 00 00         : PHID         - DENSITY POROSITY (LIMESTONE)
NPHI.V/V      00 330 00 00         : PHIN         - NEUTRON POROSITY (LIMESTONE)
GR  .API      00 310 00 00         : GR           - GAMMA RAY
ILD .OHMM     00 120 00 00         : RESD         - DEEP RESISTIVITY (DIL)
RHOB.KG/M3    00 350 00 00         : DENS         - BULK DENSITY
~PARAMETER INFORMATION
#MNEM.UNIT           DATA             DESCRIPTION OF MNEMONIC
#---------         -----------     ------------------------------
GL  .M        675.6                : gl           - GROUND LEVEL ELEVATION
EREF.M        679.7                : kb           - ELEVATION OF DEPTH REFERENCE
DATM.M        679.7                : datum        - DATUM ELEVATION
TDD .M        470                  : tdd          - TOTAL DEPTH DRILLER
RUN .         ONE                  : Run          - RUN NUMBER
ENG .         BILL                 : Engineer     - RECORDING ENGINEER
WIT .         JIM                  : Witness      - WITNESSED BY
MUD .         GEL                  : Mud_type     - MUD TYPE
MATR.         LIMESTONE            : Logunit      - NEUTRON MATRIX
TMAX.C        26.2                 : BHT          - MAXIMUM RECORDED TEMPERATURE
BHTD.M        470                  : BHTDEP       - MAXIMUM RECORDED TEMPERATURE
MATR.         1                    : LOGUNIT      - NEUTRON MATRIX
RMT .C        25                   : MDTP         - TEMPERATURE OF MUD
NEUT.         1                    : NEUTRON      - NEUTRON TYPE
RESI.         0                    : RESIST       - RESISTIVITY TYPE
RMC .OHMM     0.25                 : RMC          - RESISTIVITY OF MUD CAKE
RMF .OHMM     0.25                 : RMF          - RESISTIVITY OF MUD FILTRATE
SUFT.C        15                   : SUFT         - SURFACE TEMPERATURE
~A  DEPTH     PHID     PHIN       GR     RESD     DENS
# ...
  313.000    0.376    0.501   47.846   17.023    0.000
  313.250    0.381    0.501   46.648   16.716    0.000
  313.500    0.368    0.500   46.658   16.416    0.000
  313.750    0.360    0.492   49.713   16.736    0.000
  314.000    0.376    0.496   50.330   16.746    0.000
  314.250    0.384    0.489   49.739   17.069    0.000
  314.500    0.374    0.483   49.752   17.402    0.000
  314.750    0.368    0.478   50.375   17.411    0.000
  315.000    0.371    0.474   49.782   17.098    0.000
  315.250    0.371    0.477   49.188   16.793    0.000
  315.500    0.371    0.496   48.594   16.187    0.000
  315.750    0.362    0.521   47.394   15.896    0.000
  316.000    0.358    0.508   49.231   16.509    0.000
  316.250    0.355    0.491   48.029   16.831    0.000
  316.500    0.354    0.478   43.792   16.842    0.000
  316.750    0.350    0.467   44.413   16.541    0.000
  317.000    0.357    0.457   45.037   16.239    0.000
  317.250    0.363    0.460   43.837   16.248    0.000
  317.500    0.368    0.470   42.024   15.961    0.000
  317.750    0.366    0.480   41.435   15.970    0.000
  318.000    0.357    0.488   41.445   15.975    0.000
  318.250    0.357    0.484   43.893   15.688    0.000
  318.500    0.362    0.485   45.119   15.698    0.000
  318.750    0.364    0.490   45.135   15.417    0.000
  319.000    0.365    0.491   44.544   15.140    0.000
  319.250    0.365    0.482   43.945   14.594    0.000
  319.500    0.365    0.470   42.748   14.067    0.000
  319.750    0.365    0.464   42.157   13.817    0.000
  320.000    0.369    0.468   42.166   13.821    0.000
  320.250    0.358    0.473   44.007   13.832    0.000
  320.500    0.357    0.464   45.233   13.841    0.000
  320.750    0.369    0.457   44.638   13.845    0.000
  321.000    0.362    0.462   43.439   13.854    0.000
  321.250    0.353    0.469   42.237   14.124    0.000
  321.500    0.353    0.474   42.856   13.867    0.000
  321.750    0.372    0.461   42.873   14.138    0.000
  322.000    0.375    0.458   42.885   14.150    0.000
  322.250    0.371    0.459   41.688   14.155    0.000
  322.500    0.372    0.469   42.917   14.160    0.000
  322.750    0.363    0.471   42.324   13.909    0.000
  323.000    0.356    0.459   41.120   13.915    0.000
  323.250    0.355    0.450   39.317   13.669    0.000
  323.500    0.369    0.464   39.938   13.420    0.000
  323.750    0.372    0.475   40.559   13.428    0.000
  324.000    0.364    0.470   40.572   13.435    0.000
  324.250    0.354    0.473   39.977   13.444    0.000
  324.500    0.350    0.476   39.383   13.453    0.000
  324.750    0.367    0.477   41.221   13.458    0.000
  325.000    0.366    0.473   43.664   13.467    0.000
  325.250    0.361    0.474   44.893   13.476    0.000
  325.500    0.366    0.481   43.694   13.481    0.000
  325.750    0.365    0.470   43.705   13.491    0.000
  326.000    0.356    0.466   43.117   13.496    0.000
  326.250    0.359    0.465   43.128   13.760    0.000
  326.500    0.361    0.457   43.752   13.511    0.000
  326.750    0.356    0.462   44.982   13.521    0.000
  327.000    0.356    0.472   45.597   13.527    0.000
  327.250    0.361    0.478   48.044   13.537    0.000
  327.500    0.360    0.462   47.448   13.542    0.000
  327.750    0.356    0.452   45.644   13.300    0.000
  328.000    0.353    0.463   45.653   13.309    0.000
  328.250    0.362    0.461   45.671   13.314    0.000
  328.500    0.363    0.462   44.469   13.323    0.000
  328.750    0.357    0.484   42.661   13.331    0.000
  329.000    0.363    0.505   42.065   13.589    0.000
  329.250    0.367    0.508   42.687   13.598    0.000
  329.500    0.358    0.496   43.311   13.603    0.000
  329.750    0.361    0.492   42.716   13.612    0.000
  330.000    0.362    0.504   42.125   13.617    0.000
  330.250    0.352    0.508   43.354   13.625    0.000
  330.500    0.351    0.486   43.974   13.892    0.000
  330.750    0.358    0.470   43.381   13.900    0.000
  331.000    0.351    0.473   43.398   13.906    0.000
  331.250    0.353    0.475   43.406   13.657    0.000
  331.500    0.359    0.464   45.855   13.668    0.000
  331.750    0.360    0.462   47.689   13.420    0.000
  332.000    0.359    0.476   48.914   13.428    0.000
  332.250    0.359    0.482   50.145   13.433    0.000
  332.500    0.359    0.474   50.769   13.196    0.000
  332.750    0.352    0.468   50.780   12.957    0.000
  333.000    0.353    0.468   51.402   12.965    0.000
  333.250    0.364    0.464   53.847   12.730    0.000
  333.500    0.365    0.471   53.256   12.740    0.000
  333.750    0.360    0.478   52.659   12.745    0.000
  334.000    0.356    0.482   53.284   12.754    0.000
  334.250    0.352    0.492   53.902   12.761    0.000
  334.500    0.342    0.495   52.700   12.766    0.000
  334.750    0.315    0.498   51.499   13.014    0.000
  335.000    0.266    0.473   50.911   13.520    0.000
  335.250    0.243    0.442   51.529   13.529    0.000
  335.500    0.296    0.442   52.758   13.534    0.000
  335.750    0.353    0.481   53.987   13.292    0.000
  336.000    0.362    0.482   55.215   13.052    0.000
  336.250    0.368    0.476   55.838   12.819    0.000
  336.500    0.365    0.470   54.637   12.588    0.000
  336.750    0.359    0.480   52.828   12.363    0.000
  337.000    0.354    0.487   52.234   11.917    0.000
  337.250    0.355    0.491   53.466   11.925    0.000
  337.500    0.367    0.489   54.693   11.928    0.000
  337.750    0.369    0.495   55.920   11.936    0.000
  338.000    0.369    0.484   57.154   11.944    0.000
  338.250    0.364    0.473   55.952   11.951    0.000
  338.500    0.355    0.477   55.356   12.182    0.000
  338.750    0.356    0.481   56.585   12.191    0.000
  339.000    0.355    0.488   56.599   12.196    0.000
  339.250    0.362    0.509   56.611   12.201    0.000
  339.500    0.375    0.508   56.626   12.209    0.000
  339.750    0.373    0.490   58.467   12.215    0.000
  340.000    0.367    0.472   59.083   12.222    0.000
  340.250    0.359    0.487   59.705   12.003    0.000
  340.500    0.345    0.496   61.543   11.790    0.000
  340.750    0.334    0.500   63.984   11.575    0.000
  341.000    0.329    0.491   69.468   10.953    0.000
  341.250    0.339    0.495   72.516   10.556    0.000
  341.500    0.320    0.501   74.963    9.622    0.000
  341.750    0.302    0.501   74.973    9.103    0.000
  342.000    0.279    0.497   74.380    9.109    0.000
  342.250    0.282    0.501   73.786    9.112    0.000
  342.500    0.305    0.510   73.800    9.643    0.000
  342.750    0.320    0.515   75.031   10.014    0.000
  343.000    0.337    0.507   76.261    9.836    0.000
  343.250    0.332    0.503   77.487    9.305    0.000
  343.500    0.315    0.503   81.754    8.968    0.000
  343.750    0.299    0.518   83.590    8.175    0.000
  344.000    0.288    0.515   86.032    7.878    0.000
  344.250    0.282    0.504   87.869    7.316    0.000
  344.500    0.297    0.502   87.886    5.742    0.000
  344.750    0.291    0.497   90.934    4.592    0.000
  345.000    0.275    0.498   97.022    3.672    0.000
  345.250    0.251    0.510   98.858    3.106    0.000
  345.500    0.249    0.548  102.516    2.579    0.000
  345.750    0.260    0.588  103.745    2.264    0.000
  346.000    0.270    0.598  101.331    2.182    0.000
  346.250    0.265    0.588   98.309    2.184    0.000
  346.500    0.253    0.585   95.894    2.268    0.000
  346.750    0.248    0.583   95.297    2.355    0.000
  347.000    0.263    0.587   96.530    2.540    0.000
  347.250    0.271    0.596   95.937    2.842    0.000
  347.500    0.255    0.605   95.949    3.241    0.000
  347.750    0.246    0.590   94.139    3.982    0.000
  348.000    0.237    0.569   90.514    4.892    0.000
  348.250    0.234    0.518   92.347    5.684    0.000
  348.500    0.250    0.494   96.005    6.361    0.000
  348.750    0.244    0.499   96.627    6.607    0.000
  349.000    0.238    0.493   96.639    6.611    0.000
  349.250    0.244    0.489   97.868    6.139    0.000
