~VERSION INFORMATION
 VERS.                 2.0:   CWLS LOG ASCII STANDARD -VERSION 2.0
 WRAP.                  NO:   ONE LINE PER DEPTH STEP
~WELL INFORMATION BLOCK
#MNEM.UNIT           DATA                    DESCRIPTION OF MNEMONIC
#---------    -------------------            -------------------------------
# Generated from Intellog Unique Number	CS_73_76/WELL/2185
WELL.         AMOCO KIRBEY                   : Well_name    - WELL
LOC .         00/10-08-074-04W4/0            : Location     - LOCATION
UWI .         00/10-08-074-04W4/0            : Uwi          - UNIQUE WELL ID
ENTR.         SP                             : Entered      - ENTERED BY
SRVC.         SCHLUMBERGER                   : Scn          - SERVICE COMPANY
STRT.M        207.264                        : top_depth    - START DEPTH
STOP.M        405.014                        : bot_depth    - STOP DEPTH
STEP.M        0.25                           : increment    - STEP LENGTH
 NULL. -999.2500:NULL Value
~CURVE INFORMATION BLOCK
#MNEM UNIT       ERCB CURVE CODE    CURVE DESCRIPTION
#-----------   ------------------   ----------------------------------
DEPT.M        00 001 00 00         : DEPTH        - DEPTH
GR  .API      00 310 00 00         : GR           - GAMMA RAY
DPHI.V/V      00 890 00 00         : PHID         - DENSITY POROSITY (SANDSTONE)
NPHI.V/V      00 330 00 00         : PHIN         - NEUTRON POROSITY (SANDSTONE)
ILD .OHMM     00 120 00 00         : RESD         - DEEP RESISTIVITY (DIL)
~PARAMETER INFORMATION
#MNEM.UNIT           DATA             DESCRIPTION OF MNEMONIC
#---------         -----------     ------------------------------
GL  .M        613.867              : gl           - GROUND LEVEL ELEVATION
EREF.M        616.915              : kb           - ELEVATION OF DEPTH REFERENCE
DATM.M        613.867              : datum        - DATUM ELEVATION
TDD .M        417.576              : tdd          - TOTAL DEPTH DRILLER
RUN .         ONE                  : Run          - RUN NUMBER
ENG .         BILL                 : Engineer     - RECORDING ENGINEER
WIT .         JIM                  : Witness      - WITNESSED BY
MUD .         GEL                  : Mud_type     - MUD TYPE
MATR.         SANDSTONE            : Logunit      - NEUTRON MATRIX
TMAX.C        23.3333              : BHT          - MAXIMUM RECORDED TEMPERATURE
BHTD.M        417.576              : BHTDEP       - MAXIMUM RECORDED TEMPERATURE
MATR.         1                    : LOGUNIT      - NEUTRON MATRIX
RMT .C        25                   : MDTP         - TEMPERATURE OF MUD
NEUT.         1                    : NEUTRON      - NEUTRON TYPE
RESI.         0                    : RESIST       - RESISTIVITY TYPE
RMC .OHMM     0.25                 : RMC          - RESISTIVITY OF MUD CAKE
RMF .OHMM     0.25                 : RMF          - RESISTIVITY OF MUD FILTRATE
SUFT.C        15                   : SUFT         - SURFACE TEMPERATURE
~A  DEPTH       GR     PHID     PHIN     RESD
# ...
  294.264   70.475    0.194    0.386    1.770
  294.514   66.917    0.202    0.385    1.647
  294.764   65.737    0.211    0.381    1.565
  295.014   65.658    0.217    0.373    1.434
  295.264   66.703    0.220    0.372    1.473
  295.514   67.720    0.208    0.379    1.552
  295.764   68.674    0.201    0.388    1.618
  296.014   70.542    0.189    0.393    1.714
  296.264   72.566    0.182    0.388    1.802
  296.514   74.001    0.184    0.387    1.877
  296.764   74.394    0.187    0.392    1.995
  297.014   74.464    0.182    0.391    2.021
  297.264   73.498    0.177    0.395    2.018
  297.514   72.516    0.173    0.400    2.064
  297.764   71.526    0.178    0.408    2.062
  298.014   70.599    0.177    0.401    2.060
  298.264   68.937    0.175    0.386    2.106
  298.514   68.885    0.175    0.385    2.132
  298.764   70.375    0.171    0.389    2.187
  299.014   73.294    0.163    0.402    2.230
  299.264   74.961    0.162    0.408    2.259
  299.514   77.852    0.153    0.416    2.271
  299.764   78.174    0.150    0.407    2.318
  300.014   78.208    0.150    0.403    2.346
  300.264   77.285    0.151    0.413    2.363
  300.514   76.408    0.155    0.418    2.408
  300.764   74.749    0.159    0.424    2.413
  301.014   73.784    0.166    0.429    2.416
  301.264   72.230    0.167    0.437    2.417
  301.514   71.332    0.171    0.442    2.414
  301.764   69.678    0.177    0.436    2.467
  302.014   70.567    0.171    0.430    2.502
  302.264   73.764    0.162    0.427    2.529
  302.514   74.579    0.155    0.432    2.565
  302.764   74.174    0.150    0.440    2.542
  303.014   73.873    0.156    0.451    2.471
  303.264   73.361    0.153    0.444    2.476
  303.514   74.698    0.146    0.439    2.472
  303.764   76.034    0.138    0.433    2.530
  304.014   77.582    0.132    0.426    2.527
  304.264   78.304    0.141    0.433    2.524
  304.514   78.982    0.151    0.439    2.581
  304.764   80.038    0.145    0.446    2.579
  305.014   80.287    0.140    0.445    2.582
  305.264   82.025    0.137    0.442    2.583
  305.514   84.731    0.137    0.431    2.590
  305.764   85.909    0.141    0.439    2.534
  306.014   85.164    0.147    0.447    2.541
  306.264   79.511    0.152    0.445    2.515
  306.514   74.324    0.159    0.445    2.500
  306.764   72.383    0.164    0.455    2.460
  307.014   72.594    0.169    0.453    2.387
  307.264   73.711    0.172    0.444    2.318
  307.514   76.322    0.163    0.444    2.174
  307.764   78.096    0.156    0.453    2.116
  308.014   79.041    0.153    0.461    2.004
  308.264   80.587    0.157    0.466    1.979
  308.514   81.132    0.163    0.459    1.983
  308.764   83.288    0.169    0.453    2.008
  309.014   84.647    0.175    0.448    2.076
  309.264   85.538    0.179    0.448    2.095
  309.514   83.456    0.177    0.455    2.128
  309.764   80.830    0.180    0.462    2.128
  310.014   78.190    0.188    0.467    2.124
  310.264   75.716    0.195    0.459    2.094
  310.514   73.845    0.201    0.447    2.048
  310.764   73.640    0.204    0.432    2.099
  311.014   74.737    0.198    0.421    2.195
  311.264   75.000    0.189    0.410    2.340
  311.514   76.068    0.179    0.401    2.439
  311.764   75.678    0.174    0.395    2.514
  312.014   74.653    0.177    0.391    2.570
  312.264   73.678    0.180    0.386    2.537
  312.514   71.639    0.185    0.384    2.412
  312.764   70.481    0.192    0.401    2.343
  313.014   69.412    0.189    0.424    2.313
  313.264   70.598    0.192    0.429    2.312
  313.514   72.570    0.195    0.418    2.369
  313.764   74.017    0.206    0.401    2.438
  314.014   76.079    0.224    0.392    2.569
  314.264   77.369    0.239    0.381    2.704
  314.514   74.661    0.246    0.374    2.875
  314.764   69.511    0.253    0.372    3.059
  315.014   65.788    0.262    0.375    3.255
  315.264   63.754    0.266    0.375    3.326
  315.514   62.646    0.258    0.375    3.239
  315.764   63.904    0.246    0.380    3.200
  316.014   65.567    0.241    0.384    3.201
  316.264   67.903    0.245    0.372    3.297
  316.514   69.399    0.247    0.359    3.574
  316.764   70.155    0.256    0.346    3.721
  317.014   70.108    0.264    0.335    3.871
  317.264   70.486    0.263    0.334    3.939
  317.514   72.022    0.250    0.338    3.871
  317.764   72.600    0.244    0.342    3.803
  318.014   71.743    0.240    0.349    3.747
  318.264   70.557    0.241    0.351    3.558
  318.514   70.137    0.241    0.352    3.351
  318.764   70.787    0.230    0.359    3.120
  319.014   70.555    0.222    0.364    2.921
  319.264   68.987    0.222    0.369    2.652
  319.514   69.260    0.221    0.373    2.394
  319.764   70.369    0.203    0.385    2.161
  320.014   71.894    0.189    0.401    1.962
  320.264   73.921    0.178    0.416    1.958
  320.514   74.501    0.168    0.409    1.958
  320.764   75.183    0.164    0.416    1.961
  321.014   74.271    0.163    0.410    1.974
  321.264   73.276    0.159    0.406    1.999
  321.514   72.868    0.157    0.408    2.041
  321.764   72.544    0.156    0.418    2.037
  322.014   72.069    0.151    0.424    2.077
  322.264   72.084    0.154    0.418    2.102
  322.514   72.094    0.166    0.411    2.121
  322.764   72.087    0.177    0.410    2.090
  323.014   73.694    0.187    0.421    2.028
  323.264   78.486    0.193    0.433    1.968
  323.514   79.884    0.201    0.449    1.885
  323.764   80.476    0.215    0.452    1.797
  324.014   80.067    0.226    0.444    1.766
  324.264   80.074    0.232    0.435    1.768
  324.514   80.163    0.231    0.443    1.769
  324.764   78.884    0.223    0.448    1.770
  325.014   76.730    0.216    0.449    1.771
  325.264   75.032    0.215    0.445    1.773
  325.514   75.670    0.215    0.446    1.774
  325.764   77.462    0.220    0.445    1.772
  326.014   77.611    0.225    0.445    1.816
  326.264   76.489    0.244    0.442    1.872
  326.514   77.237    0.259    0.430    2.007
  326.764   75.703    0.272    0.372    2.377
  327.014   72.691    0.287    0.338    3.062
  327.264   69.671    0.307    0.300    4.008
  327.514   67.329    0.320    0.278    4.807
  327.764   65.375    0.331    0.277    5.401
  328.014   63.729    0.338    0.276    5.838
  328.264   64.925    0.345    0.275    6.012
  328.514   65.314    0.340    0.272    5.894
  328.764   65.660    0.332    0.280    5.910
  329.014   66.162    0.326    0.281    5.905
  329.264   67.142    0.307    0.288    6.031
  329.514   67.319    0.291    0.321    6.334
  329.764   64.367    0.266    0.317    7.787
  330.014   59.513    0.212    0.306    9.552
  330.264   53.153    0.142    0.290   11.241
  330.514   47.981    0.048    0.228   12.380
  330.764   44.011    0.044    0.212   12.746
  331.014   41.800    0.166    0.234    9.690
  331.264   46.884    0.209    0.275    7.816
  331.514   53.507    0.253    0.301    6.475
  331.764   58.447    0.290    0.319    5.868
  332.014   64.898    0.307    0.329    5.409
  332.264   70.603    0.295    0.336    5.109
  332.514   73.967    0.284    0.330    4.995
  332.764   76.315    0.275    0.344    4.401
  333.014   74.724    0.264    0.352    4.158
  333.264   73.771    0.250    0.354    3.621
  333.514   72.732    0.230    0.361    3.077
  333.764   72.406    0.197    0.380    2.628
  334.014   72.406    0.160    0.396    2.339
  334.264   72.375    0.158    0.411    2.164
  334.514   73.016    0.169    0.422    2.072
  334.764   73.334    0.176    0.418    2.030
  335.014   74.331    0.177    0.419    2.034
  335.264   73.764    0.183    0.412    2.036
  335.514   73.042    0.189    0.405    2.038
  335.764   73.179    0.197    0.406    2.042
  336.014   75.284    0.197    0.408    2.105
  336.264   77.526    0.200    0.399    2.219
  336.514   79.883    0.205    0.400    2.335
  336.764   79.173    0.212    0.405    2.449
  337.014   76.872    0.219    0.392    2.600
  337.264   73.123    0.223    0.381    2.657
  337.514   72.166    0.229    0.380    2.632
