~VERSION INFORMATION
 VERS.                 2.0:   CWLS LOG ASCII STANDARD -VERSION 2.0
 WRAP.                  NO:   ONE LINE PER DEPTH STEP
~WELL INFORMATION BLOCK
#MNEM.UNIT           DATA                    DESCRIPTION OF MNEMONIC
#---------    -------------------            -------------------------------
# Generated from Intellog Unique Number	CS_73_76/WELL/2197
WELL.         BOW VALLEY INDUSTRIES LTD.     : Well_name    - WELL
LOC .         00/11-06-074-13W4/0            : Location     - LOCATION
UWI .         00/11-06-074-13W4/0            : Uwi          - UNIQUE WELL ID
ENTR.         SP                             : Entered      - ENTERED BY
SRVC.         SCHLUMBERGER                   : Scn          - SERVICE COMPANY
STRT.M        340                            : top_depth    - START DEPTH
STOP.M        565                            : bot_depth    - STOP DEPTH
STEP.M        0.25                           : increment    - STEP LENGTH
 NULL. -999.2500:NULL Value
~CURVE INFORMATION BLOCK
#MNEM UNIT       ERCB CURVE CODE    CURVE DESCRIPTION
#-----------   ------------------   ----------------------------------
DEPT.M        00 001 00 00         : DEPTH        - DEPTH
GR  .API      00 310 00 00         : GR           - GAMMA RAY
DPHI.V/V      00 890 00 00         : PHID         - DENSITY POROSITY (LIMESTONE)
NPHI.V/V      00 330 00 00         : PHIN         - NEUTRON POROSITY (LIMESTONE)
ILD .OHMM     00 120 00 00         : RESD         - DEEP RESISTIVITY (DIL)
~PARAMETER INFORMATION
#MNEM.UNIT           DATA             DESCRIPTION OF MNEMONIC
#---------         -----------     ------------------------------
GL  .M        694.49               : gl           - GROUND LEVEL ELEVATION
EREF.M        697.84               : kb           - ELEVATION OF DEPTH REFERENCE
DATM.M        694.49               : datum        - DATUM ELEVATION
TDD .M        571                  : tdd          - TOTAL DEPTH DRILLER
RUN .         ONE                  : Run          - RUN NUMBER
ENG .         BILL                 : Engineer     - RECORDING ENGINEER
WIT .         JIM                  : Witness      - WITNESSED BY
MUD .         GEL                  : Mud_type     - MUD TYPE
MATR.         LIMESTONE            : Logunit      - NEUTRON MATRIX
TMAX.C        24                   : BHT          - MAXIMUM RECORDED TEMPERATURE
BHTD.M        571                  : BHTDEP       - MAXIMUM RECORDED TEMPERATURE
MATR.         1                    : LOGUNIT      - NEUTRON MATRIX
RMT .C        25                   : MDTP         - TEMPERATURE OF MUD
NEUT.         1                    : NEUTRON      - NEUTRON TYPE
RESI.         0                    : RESIST       - RESISTIVITY TYPE
RMC .OHMM     0.25                 : RMC          - RESISTIVITY OF MUD CAKE
RMF .OHMM     0.25                 : RMF          - RESISTIVITY OF MUD FILTRATE
SUFT.C        15                   : SUFT         - SURFACE TEMPERATURE
~A  DEPTH       GR     PHID     PHIN     RESD
  340.000  110.087    0.270    0.521    2.405
  340.250  108.279    0.271    0.519    2.404
  340.500  104.658    0.265    0.514    2.542
  340.750  102.247    0.245    0.511    2.639
  341.000  105.885    0.253    0.523    2.589
  341.250  109.521    0.260    0.548    2.541
  341.500  113.159    0.242    0.545    2.494
  341.750  114.983    0.220    0.538    2.540
  342.000  114.989    0.211    0.520    2.588
  342.250  112.577    0.187    0.512    2.736
  342.500  110.167    0.248    0.510    2.840
  342.750  113.198    0.261    0.509    2.893
  343.000  112.001    0.285    0.522    2.947
  343.250  112.614    0.273    0.532    3.059
  343.500  112.620    0.274    0.539    3.174
  343.750  110.812    0.262    0.522    3.174
  344.000  108.399    0.248    0.498    3.233
  344.250  106.593    0.241    0.503    3.294
  344.500  110.230    0.256    0.517    3.293
  344.750  111.450    0.254    0.526    3.232
  345.000  110.851    0.260    0.527    3.171
  345.250  113.280    0.271    0.521    3.054
  345.500  115.102    0.240    0.518    2.942
  345.750  115.717    0.244    0.523    2.887
  346.000  113.305    0.255    0.538    2.833
  346.250  110.288    0.264    0.547    2.886
  346.500  107.271    0.257    0.540    2.996
  346.750  103.652    0.255    0.513    3.168
  347.000  100.634    0.215    0.506    3.350
  347.250   96.407    0.174    0.484    3.542
  347.500   97.021    0.238    0.453    3.476
  347.750  103.078    0.251    0.483    3.225
  348.000  100.061    0.248    0.504    2.937
  348.250   91.600    0.262    0.496    2.829
  348.500   83.140    0.282    0.472    2.936
  348.750   67.425    0.315    0.355    3.813
  349.000   62.593    0.342    0.316    4.951
  349.250   57.157    0.377    0.292    6.550
  349.500   54.746    0.360    0.314   10.251
  349.750   52.334    0.230    0.352   13.562
  350.000   54.762    0.270    0.375   13.308
  350.250   57.187    0.319    0.389   11.247
  350.500   62.037    0.341    0.398   10.634
  350.750   63.857    0.348    0.427    8.821
  351.000   65.075    0.342    0.434    8.185
  351.250   66.292    0.342    0.433    7.454
  351.500   66.300    0.343    0.422    7.453
  351.750   73.570    0.339    0.416    7.314
  352.000   77.812    0.333    0.410    7.313
  352.250   80.238    0.326    0.427    7.450
  352.500   80.245    0.326    0.444    7.310
  352.750   81.464    0.326    0.458    7.174
  353.000   83.285    0.308    0.455    7.040
  353.250   86.317    0.268    0.432    6.781
  353.500   91.164    0.225    0.415    6.292
  353.750  101.457    0.254    0.434    6.174
  354.000  106.907    0.244    0.445    6.174
  354.250  111.754    0.198    0.429    5.946
  354.500  115.998    0.221    0.428    5.727
  354.750  117.818    0.237    0.435    5.517
  355.000  114.200    0.204    0.446    5.314
  355.250  114.207    0.223    0.451    5.313
  355.500  114.213    0.253    0.456    5.312
  355.750   97.892    0.270    0.448    5.723
  356.000   88.223    0.306    0.416    6.281
  356.250   82.785    0.356    0.386    6.895
  356.500   77.349    0.356    0.401    7.291
  356.750   83.408    0.329    0.420    7.567
  357.000   89.468    0.324    0.433    7.426
  357.250   92.498    0.322    0.428    7.425
  357.500   94.925    0.320    0.439    7.286
  357.750   96.745    0.310    0.453    7.285
  358.000   99.173    0.306    0.456    7.421
  358.250  102.206    0.296    0.446    7.702
  358.500  107.053    0.275    0.434    7.994
  358.750  110.690    0.259    0.406    8.143
  359.000  100.416    0.253    0.384    8.142
  359.250   86.512    0.244    0.364    7.842
  359.500   81.075    0.241    0.378    6.753
  359.750   82.293    0.261    0.406    5.925
  360.000   74.441    0.273    0.421    5.601
  360.250   71.421    0.264    0.402    6.502
  360.500   79.901    0.242    0.390    6.263
  360.750   83.535    0.237    0.403    6.146
  361.000   87.776    0.234    0.402    5.920
  361.250   83.554    0.244    0.398    5.919
  361.500   82.349    0.256    0.407    6.143
  361.750   78.729    0.267    0.400    6.496
  362.000   71.478    0.278    0.398    6.742
  362.250   68.463    0.287    0.414    7.129
  362.500   65.445    0.287    0.415    7.538
  362.750   61.220    0.278    0.408    7.679
  363.000   59.412    0.273    0.403    7.970
  363.250   59.421    0.272    0.396    8.119
  363.500   61.245    0.285    0.387    8.117
  363.750   63.676    0.278    0.399    7.966
  364.000   65.498    0.272    0.419    7.817
  364.250   67.320    0.292    0.415    7.816
  364.500   69.142    0.299    0.408    7.528
  364.750   70.963    0.292    0.404    7.527
  365.000   72.180    0.286    0.401    7.387
  365.250   69.162    0.281    0.405    7.386
  365.500   64.332    0.301    0.408    7.384
  365.750   64.945    0.308    0.417    7.383
  366.000   67.978    0.300    0.428    7.245
  366.250   72.828    0.283    0.415    7.244
  366.500   77.673    0.263    0.400    6.977
  366.750   81.913    0.256    0.397    6.847
  367.000   87.366    0.236    0.411    6.595
  367.250   84.955    0.229    0.420    6.594
  367.500   80.728    0.252    0.426    6.593
  367.750   77.715    0.259    0.426    6.592
  368.000   77.719    0.264    0.426    6.591
  368.250   77.123    0.259    0.415    6.589
  368.500   77.736    0.246    0.417    6.467
  368.750   80.768    0.258    0.414    6.346
  369.000   87.433    0.239    0.409    6.345
  369.250   91.674    0.233    0.408    6.227
  369.500   94.099    0.228    0.411    6.110
  369.750   91.691    0.218    0.418    6.109
  370.000   91.091    0.228    0.422    6.108
  370.250   90.498    0.237    0.421    6.222
  370.500   89.898    0.244    0.410    6.339
  370.750   88.091    0.245    0.412    6.457
  371.000   85.077    0.251    0.417    6.578
  371.250   82.060    0.231    0.414    6.827
  371.500   79.042    0.243    0.417    6.954
  371.750   76.631    0.254    0.423    7.084
  372.000   73.011    0.267    0.424    7.217
  372.250   69.993    0.287    0.415    7.351
  372.500   68.186    0.286    0.404    7.489
  372.750   70.010    0.275    0.405    7.628
  373.000   68.808    0.264    0.412    7.770
  373.250   70.025    0.254    0.396    7.769
  373.500   72.453    0.265    0.387    7.769
  373.750   73.067    0.269    0.385    7.767
  374.000   73.682    0.269    0.387    7.766
  374.250   74.292    0.264    0.395    7.621
  374.500   73.697    0.263    0.407    7.620
  374.750   72.493    0.274    0.400    7.618
  375.000   74.925    0.255    0.399    7.476
  375.250   76.745    0.246    0.396    7.475
  375.500   78.566    0.242    0.397    7.473
  375.750   76.154    0.242    0.405    7.334
  376.000   74.348    0.241    0.404    7.333
  376.250   77.384    0.233    0.395    7.332
  376.500   77.993    0.212    0.391    7.330
  376.750   78.606    0.240    0.394    7.194
  377.000   84.663    0.256    0.399    7.192
  377.250   91.326    0.252    0.419    7.192
  377.500   97.382    0.247    0.428    7.057
  377.750  101.624    0.273    0.427    7.056
  378.000   98.005    0.258    0.417    6.925
  378.250   96.800    0.248    0.426    6.795
  378.500  106.489    0.265    0.445    6.545
  378.750  114.360    0.260    0.447    6.304
  379.000  119.811    0.248    0.441    6.543
  379.250  125.261    0.241    0.432    6.919
  379.500  127.084    0.241    0.442    6.790
  379.750  124.070    0.254    0.462    6.418
  380.000  119.842    0.261    0.476    6.662
  380.250  111.382    0.275    0.473    6.914
  380.500   89.615    0.298    0.460    7.311
  380.750   78.735    0.317    0.430    7.588
  381.000   79.352    0.312    0.418    7.730
  381.250   82.382    0.301    0.411    7.728
  381.500   87.835    0.287    0.403    7.873
  381.750   90.259    0.271    0.418    7.871
  382.000   94.502    0.257    0.424    7.725
  382.250   98.138    0.238    0.413    7.723
  382.500  101.777    0.227    0.417    7.579
  382.750  104.808    0.218    0.420    7.300
  383.000  107.237    0.209    0.407    7.299
  383.250  107.849    0.211    0.401    7.163
