~VERSION INFORMATION
 VERS.                 2.0:   CWLS LOG ASCII STANDARD -VERSION 2.0
 WRAP.                  NO:   ONE LINE PER DEPTH STEP
~WELL INFORMATION BLOCK
#MNEM.UNIT           DATA                    DESCRIPTION OF MNEMONIC
#---------    -------------------            -------------------------------
# Generated from Intellog Unique Number	CW_79_81/WELL/2483
WELL.         TEXEX WABASCA                  : Well_name    - WELL
LOC .         00/11-10-081-25W4/0            : Location     - LOCATION
UWI .         00/11-10-081-25W4/0            : Uwi          - UNIQUE WELL ID
ENTR.         MAX                            : Entered      - ENTERED BY
SRVC.         WESTERN ATLAS                  : Scn          - SERVICE COMPANY
STRT.M        213.36                         : top_depth    - START DEPTH
STOP.M        469.11                         : bot_depth    - STOP DEPTH
STEP.M        0.25                           : increment    - STEP LENGTH
 NULL. -999.2500:NULL Value
~CURVE INFORMATION BLOCK
#MNEM UNIT       ERCB CURVE CODE    CURVE DESCRIPTION
#-----------   ------------------   ----------------------------------
DEPT.M        00 001 00 00         : DEPTH        - DEPTH
ILD .OHMM     00 120 00 00         : RESD         - DEEP RESISTIVITY (DIL)
NPHI.V/V      00 330 00 00         : PHIN         - NEUTRON POROSITY (SANDSTONE)
DPHI.V/V      00 890 00 00         : PHID         - DENSITY POROSITY (SANDSTONE)
GR  .API      00 310 00 00         : GR           - GAMMA RAY
CALI.MM       00 280 01 00         : CAL          - CALIPER
~PARAMETER INFORMATION
#MNEM.UNIT           DATA             DESCRIPTION OF MNEMONIC
#---------         -----------     ------------------------------
GL  .M        595.884              : gl           - GROUND LEVEL ELEVATION
EREF.M        599.542              : kb           - ELEVATION OF DEPTH REFERENCE
DATM.M        595.884              : datum        - DATUM ELEVATION
TDD .M        466.039              : tdd          - TOTAL DEPTH DRILLER
RUN .         ONE                  : Run          - RUN NUMBER
ENG .         BILL                 : Engineer     - RECORDING ENGINEER
WIT .         JIM                  : Witness      - WITNESSED BY
MUD .         GEL                  : Mud_type     - MUD TYPE
MATR.         SANDSTONE            : Logunit      - NEUTRON MATRIX
TMAX.C        27.2222              : BHT          - MAXIMUM RECORDED TEMPERATURE
BHTD.M        466.039              : BHTDEP       - MAXIMUM RECORDED TEMPERATURE
MATR.         1                    : LOGUNIT      - NEUTRON MATRIX
RMT .C        12.2222              : MDTP         - TEMPERATURE OF MUD
NEUT.         1                    : NEUTRON      - NEUTRON TYPE
RESI.         0                    : RESIST       - RESISTIVITY TYPE
RMC .OHMM     10                   : RMC          - RESISTIVITY OF MUD CAKE
RMF .OHMM     10                   : RMF          - RESISTIVITY OF MUD FILTRATE
SUFT.C        -20.5556             : SUFT         - SURFACE TEMPERATURE
~A  DEPTH     RESD     PHIN     PHID       GR      CAL
# ...
  322.860    6.258    0.414    0.230   57.450  199.337
  323.110    5.990    0.417    0.236   60.027  200.107
  323.360    5.671    0.416    0.244   61.368  200.584
  323.610    5.391    0.410    0.251   60.293  200.761
  323.860    5.162    0.401    0.254   56.920  200.934
  324.110    4.928    0.386    0.256   52.858  201.781
  324.360    4.853    0.372    0.256   53.824  202.176
  324.610    4.920    0.360    0.258   56.637  200.954
  324.860    5.070    0.356    0.272   54.500  200.330
  325.110    5.326    0.354    0.287   50.715  200.104
  325.360    5.672    0.352    0.300   47.224  200.178
  325.610    6.112    0.356    0.317   44.564  200.552
  325.860    6.689    0.358    0.318   44.304  200.525
  326.110    7.333    0.355    0.317   44.054  199.303
  326.360    8.044    0.351    0.316   43.627  198.977
  326.610    8.680    0.340    0.315   43.258  198.752
  326.860    9.145    0.324    0.315   43.066  198.429
  327.110    9.532    0.305    0.318   43.095  198.316
  327.360    9.819    0.288    0.321   43.328  197.874
  327.610    9.674    0.269    0.323   44.020  198.248
  327.860    9.583    0.255    0.326   44.710  199.518
  328.110    9.579    0.240    0.326   45.755  203.481
  328.360    9.678    0.222    0.321   46.507  206.949
  328.610    9.929    0.190    0.290   44.965  201.729
  328.860   10.151    0.156    0.197   43.233  201.708
  329.110   10.516    0.131    0.177   42.040  201.283
  329.360   10.895    0.124    0.143   40.671  201.456
  329.610   11.408    0.125    0.089   39.596  201.629
  329.860   12.181    0.127    0.036   39.226  201.903
  330.110   13.742    0.132    0.031   40.061  202.987
  330.360   15.868    0.138    0.028   40.785  202.545
  330.610   18.392    0.156    0.023   39.825  200.921
  330.860   18.430    0.202    0.019   38.868  200.500
  331.110   16.127    0.260    0.025   38.736  199.876
  331.360   13.065    0.313    0.052   39.665  198.751
  331.610   10.199    0.343    0.155   41.343  197.927
  331.860    9.395    0.351    0.306   41.576  197.898
  332.110    8.927    0.352    0.316   41.797  197.873
  332.360    8.672    0.351    0.320   42.195  199.047
  332.610    8.545    0.349    0.319   42.769  200.418
  332.860    8.495    0.348    0.316   43.343  201.389
  333.110    8.491    0.348    0.309   43.608  201.758
  333.360    8.487    0.345    0.301   43.836  201.732
  333.610    8.363    0.333    0.284   43.825  200.903
  333.860    8.239    0.324    0.245   43.279  199.781
  334.110    8.148    0.337    0.206   42.791  198.961
  334.360    8.057    0.367    0.203   42.658  198.638
  334.610    7.796    0.383    0.290   42.974  198.442
  334.860    7.397    0.390    0.308   43.453  197.587
  335.110    6.826    0.394    0.310   45.323  197.160
  335.360    6.443    0.395    0.312   46.661  196.737
  335.610    6.351    0.396    0.314   47.117  196.313
  335.860    6.521    0.396    0.316   46.986  195.886
  336.110    6.867    0.396    0.317   47.401  195.455
  336.360    7.180    0.400    0.317   48.366  195.431
  336.610    7.439    0.402    0.315   49.058  195.406
  336.860    7.585    0.403    0.312   49.398  195.383
  337.110    7.499    0.405    0.309   48.911  195.557
  337.360    7.244    0.408    0.307   48.011  195.830
  337.610    6.983    0.406    0.310   48.192  195.885
  337.860    6.725    0.396    0.312   49.157  196.272
  338.110    6.483    0.390    0.313   50.556  196.247
  338.360    6.319    0.389    0.306   51.071  196.221
  338.610    6.226    0.389    0.297   51.292  196.196
  338.860    6.156    0.387    0.290   51.220  196.172
  339.110    6.005    0.384    0.289   50.110  196.227
  339.360    5.913    0.380    0.288   49.361  196.617
  339.610    5.701    0.377    0.287   50.051  197.390
  339.860    5.527    0.376    0.282   50.566  197.863
  340.110    5.388    0.377    0.274   51.495  198.235
  340.360    5.290    0.381    0.266   52.895  198.606
  340.610    5.249    0.379    0.263   54.095  199.063
  340.860    5.246    0.376    0.258   53.096  199.452
  341.110    5.169    0.374    0.254   53.552  199.821
  341.360    5.148    0.375    0.253   55.422  199.897
  341.610    5.183    0.376    0.252   56.821  199.874
  341.860    5.265    0.375    0.250   57.218  199.949
  342.110    5.425    0.372    0.245   57.535  200.397
  342.360    5.673    0.368    0.244   58.007  200.792
  342.610    5.794    0.369    0.241   58.468  200.767
  342.860    5.823    0.372    0.237   58.570  200.740
  343.110    5.842    0.376    0.233   58.672  200.714
  343.360    5.881    0.377    0.229   58.776  200.790
  343.610    5.921    0.375    0.224   58.376  201.240
  343.860    5.918    0.369    0.225   57.625  201.632
  344.110    5.831    0.366    0.225   57.846  201.605
  344.360    5.807    0.365    0.222   60.186  201.579
  344.610    5.867    0.364    0.218   61.114  201.554
  344.860    6.014    0.363    0.215   59.862  201.628
  345.110    6.250    0.365    0.211   58.282  202.081
  345.360    6.342    0.368    0.206   57.533  202.473
  345.610    6.339    0.373    0.208   54.219  202.844
  345.860    6.336    0.377    0.216   50.198  202.918
  346.110    6.334    0.381    0.217   46.530  203.293
  346.360    6.343    0.387    0.209   44.688  203.968
  346.610    6.414    0.392    0.206   47.095  204.337
  346.860    6.556    0.395    0.215   49.780  204.311
  347.110    6.744    0.399    0.270   50.941  203.887
  347.360    6.975    0.404    0.292   50.515  202.561
  347.610    7.277    0.412    0.259   49.088  201.738
  347.860    7.677    0.419    0.195   47.306  201.915
  348.110    8.275    0.417    0.181   46.217  203.013
  348.360    8.718    0.413    0.211   47.920  204.649
  348.610    8.840    0.393    0.255   49.554  204.624
  348.860    8.678    0.382    0.249   49.068  204.300
  349.110    8.273    0.386    0.234   50.231  204.075
  349.360    7.783    0.401    0.227   52.633  203.950
  349.610    7.377    0.412    0.222   51.280  203.435
  349.860    7.264    0.416    0.212   49.300  202.996
  350.110    7.157    0.403    0.209   54.469  202.574
  350.360    7.167    0.384    0.207   56.636  202.149
  350.610    7.053    0.373    0.207   57.681  200.319
  350.860    6.832    0.370    0.208   58.726  197.889
  351.110    6.734    0.359    0.211   60.475  197.703
  351.360    6.734    0.352    0.218   62.186  196.856
  351.610    6.781    0.353    0.223   61.706  197.243
  351.860    6.829    0.356    0.223   60.519  198.226
  352.110    6.854    0.357    0.220   58.506  199.010
  352.360    6.853    0.358    0.216   56.255  199.195
  352.610    6.842    0.360    0.216   55.313  198.780
  352.860    6.791    0.361    0.224   56.532  198.765
  353.110    6.790    0.362    0.232   57.232  199.946
  353.360    6.826    0.365    0.232   58.638  200.531
  353.610    6.874    0.368    0.228   58.983  200.718
  353.860    6.936    0.375    0.225   57.677  200.804
  354.110    7.046    0.386    0.231   55.503  201.102
  354.360    7.098    0.390    0.237   56.477  200.672
  354.610    7.047    0.386    0.236   58.593  200.255
  354.860    6.920    0.386    0.235   59.468  199.843
  355.110    6.797    0.387    0.233   59.459  199.430
  355.360    6.724    0.386    0.230   58.685  199.215
  355.610    6.773    0.381    0.223   56.287  199.848
  355.860    7.031    0.379    0.223   52.593  201.081
  356.110    7.708    0.380    0.244   54.941  201.862
  356.360    8.803    0.386    0.271   55.170  201.449
  356.610   10.233    0.391    0.296   52.449  200.237
  356.860   11.928    0.392    0.307   47.841  198.325
  357.110   14.266    0.391    0.280   43.998  195.181
  357.360   15.732    0.397    0.244   42.514  193.501
  357.610   16.186    0.392    0.267   42.271  193.087
  357.860   16.216    0.389    0.255   42.558  193.273
  358.110   15.749    0.387    0.243   43.729  194.457
  358.360   14.691    0.386    0.251   45.665  196.239
  358.610   12.661    0.389    0.291   48.270  197.503
  358.860   11.089    0.394    0.295   50.716  197.906
  359.110   10.543    0.401    0.304   50.944  198.291
