~VERSION INFORMATION
 VERS.                 2.0:   CWLS LOG ASCII STANDARD -VERSION 2.0
 WRAP.                  NO:   ONE LINE PER DEPTH STEP
~WELL INFORMATION BLOCK
#MNEM.UNIT           DATA                    DESCRIPTION OF MNEMONIC
#---------    -------------------            -------------------------------
# Generated from Intellog Unique Number	CW_79_81/WELL/694
WELL.         10-04-079-25W4                 : Well_name    - WELL
LOC .         00/10-04-079-25W4/0            : Location     - LOCATION
UWI .         00/10-04-079-25W4/0            : Uwi          - UNIQUE WELL ID
ENTR.         MAX                            : Entered      - ENTERED BY
SRVC.         SCHLUMBERGER                   : Scn          - SERVICE COMPANY
STRT.M        274.32                         : top_depth    - START DEPTH
STOP.M        502.82                         : bot_depth    - STOP DEPTH
STEP.M        0.25                           : increment    - STEP LENGTH
 NULL. -999.2500:NULL Value
~CURVE INFORMATION BLOCK
#MNEM UNIT       ERCB CURVE CODE    CURVE DESCRIPTION
#-----------   ------------------   ----------------------------------
DEPT.M        00 001 00 00         : DEPTH        - DEPTH
ILD .OHMM     00 120 00 00         : RESD         - DEEP RESISTIVITY (DIL)
NPHI.V/V      00 330 00 00         : PHIN         - NEUTRON POROSITY (SANDSTONE)
DPHI.V/V      00 890 00 00         : PHID         - DENSITY POROSITY (SANDSTONE)
CALI.MM       00 280 01 00         : CAL          - CALIPER
GR  .API      00 310 00 00         : GR           - GAMMA RAY
~PARAMETER INFORMATION
#MNEM.UNIT           DATA             DESCRIPTION OF MNEMONIC
#---------         -----------     ------------------------------
GL  .M        587.35               : gl           - GROUND LEVEL ELEVATION
EREF.M        590.855              : kb           - ELEVATION OF DEPTH REFERENCE
DATM.M        587.35               : datum        - DATUM ELEVATION
TDD .M        502.006              : tdd          - TOTAL DEPTH DRILLER
RUN .         ONE                  : Run          - RUN NUMBER
ENG .         BILL                 : Engineer     - RECORDING ENGINEER
WIT .         JIM                  : Witness      - WITNESSED BY
MUD .         GEL                  : Mud_type     - MUD TYPE
MATR.         SANDSTONE            : Logunit      - NEUTRON MATRIX
TMAX.C        21.6667              : BHT          - MAXIMUM RECORDED TEMPERATURE
BHTD.M        502.006              : BHTDEP       - MAXIMUM RECORDED TEMPERATURE
RMT .C        17.7778              : MDTP         - TEMPERATURE OF MUD
MUDD.KG/M     9800                 : MWT          - MUD DENSITY
NEUT.         1                    : NEUTRON      - NEUTRON TYPE
RESI.         0                    : RESIST       - RESISTIVITY TYPE
RM  .OHMM     4.66                 : RM           - RESISTIVITY OF MUD
RMC .OHMM     0                    : RMC          - RESISTIVITY OF MUD CAKE
RMF .OHMM     4.56                 : RMF          - RESISTIVITY OF MUD FILTRATE
SUFT.C        -20.5556             : SUFT         - SURFACE TEMPERATURE
~A  DEPTH     RESD     PHIN     PHID      CAL       GR
# ...
  347.320    8.411    0.455    0.253  237.853   85.935
  347.570    8.187    0.479    0.255  238.854   85.933
  347.820    8.187    0.504    0.252  239.353   86.523
  348.070    8.025    0.530    0.257  239.348   85.335
  348.320    7.881    0.533    0.259  238.842   84.145
  348.570    7.873    0.510    0.250  238.838   83.847
  348.820    7.865    0.493    0.253  238.834   83.844
  349.070    7.857    0.489    0.260  238.830   87.699
  349.320    7.857    0.510    0.262  238.826   88.586
  349.570    7.840    0.510    0.248  238.822   89.177
  349.820    7.834    0.503    0.255  239.321   86.802
  350.070    7.823    0.504    0.251  241.325   89.469
  350.320    7.817    0.502    0.245  243.331   92.137
  350.570    7.808    0.499    0.235  244.835   91.837
  350.820    7.800    0.480    0.234  246.840   93.022
  351.070    7.793    0.482    0.234  247.338   94.799
  351.320    7.783    0.487    0.241  247.333   94.204
  351.570    7.777    0.494    0.257  247.330   92.718
  351.820    7.838    0.498    0.255  247.828   94.199
  352.070    7.896    0.503    0.259  247.321   91.823
  352.320    7.958    0.494    0.261  246.314   91.228
  352.570    8.014    0.495    0.263  243.798   92.709
  352.820    8.082    0.516    0.270  240.277   92.113
  353.070    8.215    0.517    0.260  237.761   87.364
  353.320    8.498    0.499    0.254  236.250   81.132
  353.570    8.789    0.480    0.259  235.744   78.755
  353.820    9.091    0.484    0.271  235.739   77.863
  354.070    9.569    0.497    0.270  235.739   75.487
  354.320    9.986    0.506    0.270  236.233   74.595
  354.570   10.602    0.504    0.269  236.229   74.593
  354.820   11.063    0.513    0.277  235.221   73.700
  355.070   11.544    0.511    0.304  234.212   73.401
  355.320   12.041    0.492    0.320  234.208   70.728
  355.570   12.041    0.503    0.318  234.706   72.507
  355.820   12.021    0.508    0.317  234.702   75.768
  356.070   12.004    0.506    0.315  234.195   77.249
  356.320   11.686    0.495    0.308  234.192   79.620
  356.570   11.686    0.500    0.278  234.188   80.804
  356.820   11.460    0.504    0.250  234.184   76.945
  357.070   10.586    0.501    0.225  233.677   72.492
  357.320   10.122    0.499    0.196  233.673   72.193
  357.570    9.851    0.498    0.149  234.674   75.751
  357.820    9.758    0.503    0.174  235.675   81.386
  358.070    9.661    0.459    0.238  236.676   86.426
  358.320    9.570    0.509    0.254  236.671   86.721
  358.570    9.477    0.504    0.257  238.175   88.202
  358.820    9.384    0.491    0.248  240.683   92.056
  359.070    9.214    0.474    0.238  242.186   90.570
  359.320    9.124    0.482    0.248  241.177   86.118
  359.570    8.956    0.487    0.249  241.675   84.336
  359.820    8.869    0.475    0.238  242.676   85.816
  360.070    8.708    0.469    0.237  244.179   89.078
  360.320    8.624    0.475    0.243  245.682   90.558
  360.570    8.467    0.492    0.242  246.683   90.853
  360.820    8.168    0.504    0.224  248.186   91.740
  361.070    8.159    0.478    0.220  249.689   90.254
  361.320    8.081    0.481    0.228  249.183   92.032
  361.570    8.071    0.466    0.221  249.179   94.996
  361.820    8.063    0.469    0.218  250.180   94.697
  362.070    8.063    0.492    0.234  249.673   89.949
  362.320    8.046    0.458    0.246  243.138   86.682
  362.570    8.110    0.454    0.239  239.617   88.460
  362.820    8.388    0.461    0.232  239.111   90.238
  363.070    8.674    0.465    0.232  240.615   91.422
  363.320    8.898    0.464    0.240  241.615   92.310
  363.570    9.202    0.470    0.221  241.108   88.748
  363.820    9.520    0.469    0.217  238.593   85.779
  364.070    9.763    0.469    0.230  238.588   86.073
  364.320    9.830    0.481    0.240  240.595   84.587
  364.570   10.088    0.478    0.232  240.087   82.805
  364.820   10.617    0.495    0.242  237.572   81.912
  365.070   10.981    0.493    0.291  234.554   80.130
  365.320   11.259    0.469    0.287  234.550   76.271
  365.570   11.349    0.445    0.261  236.053   77.752
  365.820   11.240    0.446    0.227  237.556   82.199
  366.070   10.746    0.456    0.246  239.562   86.054
  366.320   10.280    0.467    0.257  240.563   83.975
  366.570    9.917    0.451    0.255  242.065   81.599
  366.820    9.653    0.452    0.239  243.567   83.080
  367.070    9.395    0.469    0.231  243.565   86.341
  367.320    9.395    0.490    0.227  242.555   88.415
  367.570    9.293    0.488    0.231  242.552   93.456
  367.820    9.042    0.484    0.248  243.552   92.564
  368.070    8.955    0.502    0.239  244.553   91.078
  368.320    8.947    0.510    0.238  246.057   91.373
  368.570    9.094    0.508    0.239  247.559   88.700
  368.820    9.327    0.509    0.253  246.550   83.951
  369.070    9.817    0.492    0.273  242.025   80.982
  369.320   10.424    0.481    0.280  239.509   77.419
  369.570   10.876    0.458    0.283  239.003   74.154
  369.820   11.249    0.442    0.291  239.502   69.998
  370.070   11.840    0.459    0.276  240.502   68.216
  370.320   12.790    0.459    0.259  241.000   72.070
  370.570   13.580    0.460    0.285  242.503   73.254
  370.820   13.580    0.478    0.285  244.007   73.845
  371.070   14.156    0.495    0.276  245.509   73.546
  371.320   15.700    0.490    0.270  246.510   72.950
  371.570   16.384    0.495    0.259  247.510   72.058
  371.820   16.654    0.493    0.260  249.014   72.056
  372.070   16.064    0.467    0.271  250.014   71.757
  372.320   15.103    0.443    0.288  250.513   72.644
  372.570   13.827    0.435    0.286  251.011   73.235
  372.820   13.226    0.429    0.291  251.510   75.013
  373.070   12.216    0.442    0.296  252.008   75.604
  373.320   11.784    0.468    0.277  252.507   79.458
  373.570   11.773    0.494    0.245  251.498   83.313
  373.820   12.070    0.486    0.243  248.981   89.244
  374.070   12.598    0.489    0.238  247.471   91.021
  374.320   13.376    0.505    0.233  244.955   88.052
  374.570   14.706    0.505    0.217  243.444   83.599
  374.820   16.452    0.479    0.208  242.435   84.190
  375.070   18.242    0.446    0.225  240.924   83.001
  375.320   19.201    0.309    0.148  238.408   73.506
  375.570   18.849    0.277    0.079  238.404   72.019
  375.820   17.874    0.280    0.115  240.409   74.094
  376.070   15.534    0.304    0.179  243.921   78.246
  376.320   12.591    0.396    0.216  248.439   82.990
  376.570   10.028    0.460    0.239  249.942   88.031
  376.820    9.759    0.456    0.232  251.947   89.808
  377.070    9.658    0.453    0.227  253.451   89.806
  377.320    9.571    0.449    0.215  253.949   85.353
  377.570    9.398    0.439    0.202  253.945   82.385
  377.820    9.398    0.438    0.203  254.946   80.898
  378.070    9.297    0.454    0.209  254.942   82.083
  378.320    9.127    0.449    0.214  255.440   83.861
  378.570    8.959    0.444    0.209  256.441   84.748
  378.820    8.866    0.432    0.206  257.441   85.339
  379.070    8.787    0.433    0.203  256.432   85.930
  379.320    8.627    0.460    0.195  253.414   88.894
  379.570    8.542    0.480    0.210  251.903   88.299
  379.820    8.454    0.483    0.224  251.397   89.483
  380.070    8.450    0.481    0.215  250.891   88.888
  380.320    8.444    0.446    0.215  249.882   88.589
  380.570    8.433    0.445    0.212  248.371   87.399
  380.820    8.500    0.482    0.203  245.352   87.397
  381.070    8.566    0.483    0.229  244.847   84.428
  381.320    8.706    0.467    0.240  244.842   85.909
  381.570    8.697    0.461    0.238  244.838   86.500
  381.820    8.690    0.463    0.215  243.829   85.311
  382.070    7.485    0.457    0.206  243.323   83.529
  382.320    7.096    0.454    0.197  243.821   85.010
  382.570    7.088    0.461    0.185  243.817   83.820
  382.820    7.208    0.450    0.156  243.814   75.511
  383.070    7.521    0.397    0.130  242.805   69.872
  383.320    8.053    0.310    0.082  239.786   68.683
  383.570    8.626    0.250    0.052  237.271   71.350
