~VERSION INFORMATION
 VERS.                 2.0:   CWLS LOG ASCII STANDARD -VERSION 2.0
 WRAP.                  NO:   ONE LINE PER DEPTH STEP
~WELL INFORMATION BLOCK
#MNEM.UNIT           DATA                    DESCRIPTION OF MNEMONIC
#---------    -------------------            -------------------------------
# Generated from Intellog Unique Number	CS_77_79/WELL/979
WELL.         MESA HB THORNBURY              : Well_name    - WELL
LOC .         00/10-32-078-12W4/0            : Location     - LOCATION
UWI .         00/10-32-078-12W4/0            : Uwi          - UNIQUE WELL ID
ENTR.         JHS                            : Entered      - ENTERED BY
SRVC.         SCHLUMBERGER                   : Scn          - SERVICE COMPANY
STRT.M        240                            : top_depth    - START DEPTH
STOP.M        455                            : bot_depth    - STOP DEPTH
STEP.M        0.25                           : increment    - STEP LENGTH
 NULL. -999.2500:NULL Value
~CURVE INFORMATION BLOCK
#MNEM UNIT       ERCB CURVE CODE    CURVE DESCRIPTION
#-----------   ------------------   ----------------------------------
DEPT.M        00 001 00 00         : DEPTH        - DEPTH
DPHI.V/V      00 890 00 00         : PHID         - DENSITY POROSITY (LIMESTONE)
NPHI.V/V      00 330 00 00         : PHIN         - NEUTRON POROSITY (LIMESTONE)
GR  .API      00 310 00 00         : GR           - GAMMA RAY
ILD .OHMM     00 120 00 00         : RESD         - DEEP RESISTIVITY (DIL)
RHOB.KG/M3    00 350 00 00         : DENS         - BULK DENSITY
~PARAMETER INFORMATION
#MNEM.UNIT           DATA             DESCRIPTION OF MNEMONIC
#---------         -----------     ------------------------------
GL  .M        675.6                : gl           - GROUND LEVEL ELEVATION
EREF.M        679.7                : kb           - ELEVATION OF DEPTH REFERENCE
DATM.M        679.7                : datum        - DATUM ELEVATION
TDD .M        470                  : tdd          - TOTAL DEPTH DRILLER
RUN .         ONE                  : Run          - RUN NUMBER
ENG .         BILL                 : Engineer     - RECORDING ENGINEER
WIT .         JIM                  : Witness      - WITNESSED BY
MUD .         GEL                  : Mud_type     - MUD TYPE
MATR.         LIMESTONE            : Logunit      - NEUTRON MATRIX
TMAX.C        26.2                 : BHT          - MAXIMUM RECORDED TEMPERATURE
BHTD.M        470                  : BHTDEP       - MAXIMUM RECORDED TEMPERATURE
MATR.         1                    : LOGUNIT      - NEUTRON MATRIX
RMT .C        25                   : MDTP         - TEMPERATURE OF MUD
NEUT.         1                    : NEUTRON      - NEUTRON TYPE
RESI.         0                    : RESIST       - RESISTIVITY TYPE
RMC .OHMM     0.25                 : RMC          - RESISTIVITY OF MUD CAKE
RMF .OHMM     0.25                 : RMF          - RESISTIVITY OF MUD FILTRATE
SUFT.C        15                   : SUFT         - SURFACE TEMPERATURE
~A  DEPTH     PHID     PHIN       GR     RESD     DENS
# ...
  276.500    0.262    0.439   69.475   12.531    0.000
  276.750    0.225    0.426   71.311   12.308    0.000
  277.000    0.212    0.420   77.398   12.313    0.000
  277.250    0.234    0.424   84.095   11.868    0.000
  277.500    0.246    0.436   90.185   10.038    0.000
  277.750    0.203    0.460   95.663    8.334    0.000
  278.000    0.171    0.485  101.142    7.454    0.000
  278.250    0.190    0.499  106.624    6.921    0.000
  278.500    0.181    0.511  108.460    6.427    0.000
  278.750    0.168    0.518  111.508    6.081    0.000
  279.000    0.214    0.510  117.595    5.753    0.000
  279.250    0.204    0.519  120.040    5.545    0.000
  279.500    0.186    0.526  120.054    5.344    0.000
  279.750    0.170    0.545  119.460    5.347    0.000
  280.000    0.187    0.550  120.082    5.253    0.000
  280.250    0.166    0.543  118.881    5.157    0.000
  280.500    0.167    0.520  123.754    4.971    0.000
  280.750    0.221    0.510  127.412    4.792    0.000
  281.000    0.228    0.525  128.034    4.618    0.000
  281.250    0.229    0.532  126.834    4.289    0.000
  281.500    0.217    0.543  125.028    3.909    0.000
  281.750    0.209    0.583  125.041    3.629    0.000
  282.000    0.211    0.577  125.664    3.564    0.000
  282.250    0.239    0.594  125.679    3.436    0.000
  282.500    0.252    0.610  125.082    3.374    0.000
  282.750    0.259    0.595  126.312    3.570    0.000
  283.000    0.272    0.560  122.681    4.727    0.000
  283.250    0.280    0.517  117.231    6.029    0.000
  283.500    0.273    0.471  111.777    8.286    0.000
  283.750    0.279    0.457  107.539    9.992    0.000
  284.000    0.284    0.463  106.947   10.773    0.000
  284.250    0.268    0.475  108.783   10.982    0.000
  284.500    0.260    0.473  109.402   10.988    0.000
  284.750    0.278    0.468  105.773   10.995    0.000
  285.000    0.291    0.469  100.322   10.402    0.000
  285.250    0.308    0.474   97.300    9.304    0.000
  285.500    0.273    0.469  107.029    7.870    0.000
  285.750    0.235    0.480  119.191    6.656    0.000
  286.000    0.213    0.502  125.279    5.630    0.000
  286.250    0.211    0.540  124.685    5.326    0.000
  286.500    0.207    0.519  119.236    5.329    0.000
  286.750    0.236    0.498  118.037    5.854    0.000
  287.000    0.239    0.487  116.836    7.059    0.000
  287.250    0.254    0.485  114.417    8.674    0.000
  287.500    0.257    0.484  110.182    9.890    0.000
  287.750    0.264    0.502  108.371   10.664    0.000
  288.000    0.282    0.510  105.956   11.286    0.000
  288.250    0.284    0.495  101.722   11.291    0.000
  288.500    0.294    0.485   98.088   10.884    0.000
  288.750    0.299    0.487   93.850   10.491    0.000
  289.000    0.282    0.480   94.475   10.112    0.000
  289.250    0.268    0.468   98.738    9.931    0.000
  289.500    0.250    0.465  103.613    9.937    0.000
  289.750    0.263    0.459  104.844   10.129    0.000
  290.000    0.270    0.447  101.819   10.324    0.000
  290.250    0.287    0.435   98.795   11.342    0.000
  290.500    0.298    0.430   93.951   12.694    0.000
  290.750    0.305    0.459   86.676   13.432    0.000
  291.000    0.331    0.448   78.186   13.693    0.000
  291.250    0.334    0.428   72.127   13.448    0.000
  291.500    0.306    0.420   77.000   12.488    0.000
  291.750    0.286    0.432   84.911   11.813    0.000
  292.000    0.255    0.444   92.819   10.373    0.000
  292.250    0.247    0.472   98.907    9.278    0.000
  292.500    0.268    0.473   98.315    7.995    0.000
  292.750    0.249    0.448  101.975    7.152    0.000
  293.000    0.216    0.456  103.202    7.024    0.000
  293.250    0.221    0.492   95.927    7.715    0.000
  293.500    0.233    0.493   88.047    9.305    0.000
  293.750    0.213    0.471   81.381   11.866    0.000
  294.000    0.134    0.457   78.358   17.904    0.000
  294.250    0.104    0.308   71.689   23.705    0.000
  294.500    0.135    0.299   69.886   27.029    0.000
  294.750    0.210    0.336   70.505   25.099    0.000
  295.000    0.245    0.391   73.555   22.035    0.000
  295.250    0.284    0.463   77.818   17.296    0.000
  295.500    0.280    0.492   83.299   14.358    0.000
  295.750    0.295    0.500   86.959   12.374    0.000
  296.000    0.283    0.500   88.794   11.489    0.000
  296.250    0.284    0.509   88.200   11.285    0.000
  296.500    0.286    0.505   86.392   11.290    0.000
  296.750    0.276    0.490   87.017   11.088    0.000
  297.000    0.263    0.505   88.244   10.887    0.000
  297.250    0.264    0.519   90.690   10.300    0.000
  297.500    0.253    0.509   91.311    9.747    0.000
  297.750    0.246    0.490   87.678    9.937    0.000
  298.000    0.258    0.495   85.263   10.127    0.000
  298.250    0.271    0.510   85.886   10.520    0.000
  298.500    0.276    0.508   88.330   10.140    0.000
  298.750    0.280    0.496   91.380    9.773    0.000
  299.000    0.273    0.493   94.429    9.075    0.000
  299.250    0.254    0.503   95.658    8.585    0.000
  299.500    0.253    0.514   98.713    7.971    0.000
  299.750    0.260    0.518  100.544    7.684    0.000
  300.000    0.268    0.505  100.559    7.545    0.000
  300.250    0.282    0.479   97.537    7.986    0.000
  300.500    0.282    0.458   93.909    8.450    0.000
  300.750    0.297    0.448   90.884    9.110    0.000
  301.000    0.300    0.447   88.468    9.640    0.000
  301.250    0.287    0.439   84.232    9.828    0.000
  301.500    0.283    0.436   81.207    9.833    0.000
  301.750    0.292    0.438   76.365   11.214    0.000
  302.000    0.299    0.409   70.305   12.550    0.000
  302.250    0.323    0.375   68.497   14.855    0.000
  302.500    0.353    0.347   50.289   17.256    0.000
  302.750    0.364    0.361   39.979   20.810    0.000
  303.000    0.361    0.347   35.743   22.860    0.000
  303.250    0.384    0.373   35.755   21.626    0.000
  303.500    0.426    0.404   36.379   19.709    0.000
  303.750    0.568    0.439   38.215   17.963    0.000
  304.000    0.604    0.448   41.264   16.996    0.000
  304.250    0.509    0.448   46.745   17.004    0.000
  304.500    0.284    0.454   49.794   17.997    0.000
  304.750    0.299    0.460   50.415   19.041    0.000
  305.000    0.318    0.458   47.396   20.529    0.000
  305.250    0.327    0.462   47.413   22.553    0.000
  305.500    0.332    0.454   48.035   24.319    0.000
  305.750    0.328    0.446   48.651   25.253    0.000
  306.000    0.323    0.441   48.672   26.228    0.000
  306.250    0.328    0.432   48.071   26.736    0.000
  306.500    0.338    0.438   48.694   27.257    0.000
  306.750    0.329    0.451   49.315   27.274    0.000
  307.000    0.323    0.440   49.936   26.784    0.000
  307.250    0.335    0.441   48.736   27.823    0.000
  307.500    0.326    0.455   46.927   28.356    0.000
  307.750    0.324    0.468   46.338   30.573    0.000
  308.000    0.329    0.452   46.956   31.756    0.000
  308.250    0.337    0.445   46.364   30.043    0.000
  308.500    0.351    0.442   45.161   28.420    0.000
  308.750    0.364    0.447   45.787   27.910    0.000
  309.000    0.367    0.454   47.011   29.534    0.000
  309.250    0.375    0.490   47.633   27.942    0.000
  309.500    0.358    0.513   46.432   29.022    0.000
  309.750    0.351    0.498   48.269   32.479    0.000
  310.000    0.362    0.512   49.498   35.677    0.000
  310.250    0.359    0.527   47.690   36.371    0.000
  310.500    0.354    0.507   45.884   35.717    0.000
  310.750    0.364    0.503   45.291   36.413    0.000
  311.000    0.369    0.500   46.522   37.818    0.000
  311.250    0.359    0.485   48.356   39.284    0.000
  311.500    0.354    0.465   51.408   38.579    0.000
  311.750    0.350    0.449   53.241   34.510    0.000
  312.000    0.353    0.448   50.221   30.866    0.000
  312.250    0.347    0.458   49.017   24.687    0.000
  312.500    0.342    0.472   50.249   20.114    0.000
  312.750    0.360    0.491   49.653   17.660    0.000
