~VERSION INFORMATION
 VERS.                 2.0:   CWLS LOG ASCII STANDARD -VERSION 2.0
 WRAP.                  NO:   ONE LINE PER DEPTH STEP
~WELL INFORMATION BLOCK
#MNEM.UNIT           DATA                    DESCRIPTION OF MNEMONIC
#---------    -------------------            -------------------------------
# Generated from Intellog Unique Number	CC_80_83/WELL/2330
NULL.         -999.25                        : NULL_VALUE
WELL.         KANDEX ET AL PORTAGE           : Well_name    - WELL              
LOC .         10-03-080-14W4                 : Location     - LOCATION          
UWI .         00/10-03-080-14W4/0            : Uwi          - UNIQUE WELL ID    
ENTR.         DW                             : Entered      - ENTERED BY        
SRVC.         SCHLUMBERGER                   : Scn          - SERVICE COMPANY   
DATE.         14 AUG 77                      : Date         - LOG DATE
STRT.M        274.32                         : top_depth    - START DEPTH       
STOP.M        524.42                         : bot_depth    - STOP DEPTH        
STEP.M        0.3048                         : increment    - STEP LENGTH       
~CURVE INFORMATION BLOCK
#MNEM UNIT       ERCB CURVE CODE    CURVE DESCRIPTION
#-----------   ------------------   ----------------------------------
DEPT.M        00 001 00 00         : DEPTH        - DEPTH                       
DPHI.V/V      00 890 00 00         : PHID         - DENSITY POROSITY (LIMESTONE)
NPHI.V/V      00 330 00 00         : PHIN         - NEUTRON POROSITY (LIMESTONE)
GR  .API      00 310 00 00         : GR           - GAMMA RAY                   
ILD .OHMM     00 120 00 00         : RESD         - DEEP RESISTIVITY (DIL)      
~PARAMETER INFORMATION       
#MNEM.UNIT           DATA             DESCRIPTION OF MNEMONIC
#---------         -----------     ------------------------------
GL  .M        696.773              : gl           - GROUND LEVEL ELEVATION      
EREF.M        701.65               : kb           - ELEVATION OF DEPTH REFERENCE
DATM.M        701.65               : datum        - DATUM ELEVATION             
TDD .M        531.876              : tdd          - TOTAL DEPTH DRILLER         
RUN .         ONE                  : Run          - RUN NUMBER                  
ENG .         BILL                 : Engineer     - RECORDING ENGINEER          
WIT .         JIM                  : Witness      - WITNESSED BY                
MUD .         GEL                  : Mud_type     - MUD TYPE                    
MATR.         LIMESTONE            : Logunit      - NEUTRON MATRIX              
TMAX.C        23.8889              : BHT          - MAXIMUM RECORDED TEMPERATURE
BHTD.M        533.4                : BHTDEP       - MAXIMUM RECORDED TEMPERATURE
MATR.         1                    : LOGUNIT      - NEUTRON MATRIX              
RMT .C        25                   : MDTP         - TEMPERATURE OF MUD          
NEUT.         1                    : NEUTRON      - NEUTRON TYPE                
RESI.         0                    : RESIST       - RESISTIVITY TYPE            
RMC .OHMM     0.25                 : RMC          - RESISTIVITY OF MUD CAKE     
RMF .OHMM     0.25                 : RMF          - RESISTIVITY OF MUD FILTRATE 
SUFT.C        4                    : SUFT         - SURFACE TEMPERATURE         
~A  DEPTH     PHID     PHIN       GR     RESD
  274.320    0.241    0.555  107.341    3.290
  274.625    0.252    0.569  111.032    3.347
  274.930    0.234    0.594  110.414    3.404
  275.235    0.247    0.558  107.334    3.397
  275.540    0.239    0.543  105.484    3.327
  275.845    0.248    0.520  104.250    3.385
  276.150    0.259    0.543  105.479    3.442
  276.455    0.278    0.584  106.092    3.637
  276.760    0.266    0.551  102.396    3.841
  277.065    0.246    0.536   95.622    3.984
  277.370    0.242    0.529   91.925    4.050
  277.675    0.255    0.514   95.617    4.045
  277.980    0.251    0.505  103.617    3.961
  278.285    0.256    0.514  106.693    3.807
  278.590    0.242    0.519  104.228    3.730
  278.895    0.240    0.537  101.762    3.449
  279.200    0.255    0.561  101.760    3.378
  279.505    0.267    0.585   96.832    3.375
  279.810    0.251    0.534   97.445    3.366
  280.115    0.255    0.523   99.905    3.424
  280.420    0.262    0.540  101.134    3.354
  280.725    0.269    0.556   99.900    3.285
  281.030    0.258    0.558  101.744    3.159
  281.335    0.263    0.573  100.511    3.036
  281.640    0.300    0.587  106.049    3.030
  281.945    0.277    0.589   99.890    3.081
  282.250    0.272    0.577   99.887    3.136
  282.555    0.257    0.568  101.116    3.374
  282.860    0.260    0.564  104.807    3.633
  283.165    0.241    0.544   98.033    3.838
  283.470    0.232    0.525   96.184    3.978
  283.775    0.251    0.509  104.184    3.970
  284.080    0.237    0.517  104.797    3.964
  284.385    0.218    0.550   99.254    3.882
  284.690    0.220    0.530   96.789    3.731
  284.995    0.225    0.537   96.171    3.585
  285.300    0.219    0.550  103.555    3.514
  285.605    0.220    0.535  109.709    3.441
  285.910    0.231    0.525  110.938    3.499
  286.215    0.239    0.526  108.473    3.696
  286.520    0.240    0.521  106.008    3.905
  286.825    0.235    0.494  104.774    3.897
  287.130    0.224    0.502  104.771    3.892
  287.435    0.221    0.521  106.000    3.738
  287.740    0.226    0.542  105.998    3.734
  288.045    0.219    0.546   97.376    3.587
  288.350    0.210    0.529  102.299    3.583
  288.655    0.210    0.503  104.759    3.509
  288.960    0.228    0.507  102.294    3.502
  289.265    0.241    0.514  105.369    3.560
  289.570    0.239    0.518   99.210    3.693
  289.875    0.233    0.529   96.130    3.900
  290.180    0.239    0.544   96.127    4.045
  290.485    0.229    0.480   99.203    4.274
  290.790    0.206    0.483  100.431    4.960
  291.095    0.163    0.510   96.120    6.454
  291.400    0.160    0.486   62.874    9.226
  291.705    0.283    0.362   63.487   11.774
  292.010    0.300    0.395   68.409   12.907
  292.315    0.313    0.416   69.023   12.893
  292.620    0.317    0.408   73.945   12.149
  292.925    0.292    0.417   70.249   11.911
  293.230    0.293    0.444   67.168   11.441
  293.535    0.300    0.451   73.321   11.418
  293.840    0.305    0.455   75.166   11.623
  294.145    0.306    0.437   69.623   12.269
  294.450    0.300    0.423   70.851   12.720
  294.755    0.301    0.432   70.233   12.948
  295.060    0.304    0.458   65.921   13.165
  295.365    0.310    0.469   68.381   12.648
  295.670    0.311    0.439   75.150   12.155
  295.975    0.299    0.442   78.226   11.914
  296.280    0.279    0.452   80.686   12.111
  296.585    0.282    0.460   78.836   12.558
  296.890    0.290    0.443   66.522   13.025
  297.195    0.300    0.437   67.135   13.747
  297.500    0.314    0.448   72.673   13.987
  297.805    0.314    0.453   72.055   13.971
  298.110    0.295    0.422   67.743   13.683
  298.415    0.300    0.431   65.894    9.719
  298.720    0.287    0.436   70.200    5.297
  299.025    0.256    0.454  104.672    4.900
  299.330    0.245    0.523  110.210    4.984
  299.635    0.249    0.540  104.667    5.369
  299.940    0.282    0.502   85.580    6.719
  300.245    0.278    0.476   78.806    7.805
  300.550    0.278    0.470   77.572    9.412
  300.855    0.286    0.466   78.185   10.526
  301.160    0.288    0.465   77.566   12.450
  301.465    0.268    0.427   78.180   13.663
  301.770    0.256    0.409   84.334   13.636
  302.075    0.261    0.423   86.793   12.623
  302.380    0.243    0.441   84.328   10.428
  302.685    0.218    0.415   89.867    8.945
  302.990    0.196    0.404  102.792    8.276
  303.295    0.211    0.434  105.867    8.112
  303.600    0.225    0.463  102.786    7.939
  303.905    0.254    0.471  101.552    7.930
  304.210    0.239    0.466  103.397    8.218
  304.515    0.236    0.457  104.626    8.685
  304.820    0.259    0.447  102.776   10.081
  305.125    0.267    0.423   93.539   10.852
  305.430    0.277    0.415   81.841   11.252
  305.735    0.286    0.409   80.607   11.443
  306.040    0.257    0.410   85.529   11.206
  306.345    0.243    0.432   90.451   10.768
  306.650    0.243    0.439   94.142   10.355
  306.955    0.225    0.430   89.215    9.762
  307.260    0.257    0.423   87.366    9.748
  307.565    0.245    0.415   91.056    9.723
  307.870    0.241    0.433   92.901    9.898
  308.175    0.256    0.453   98.439   10.260
  308.480    0.252    0.434  103.360   11.043
  308.785    0.245    0.417  102.743   11.668
  309.090    0.252    0.420   94.738   12.803
  309.395    0.278    0.437   91.657   14.590
  309.700    0.289    0.441   92.270   17.924
  310.005    0.292    0.446   89.189   21.619
  310.310    0.319    0.409   70.103   27.061
  310.615    0.357    0.239   52.863   28.605
  310.920    0.412    0.155   36.239   28.013
  311.225    0.391    0.244   41.161   24.962
  311.530    0.343    0.323   41.774   21.019
  311.835    0.313    0.396   38.078   18.034
  312.140    0.313    0.382   33.151   17.325
  312.445    0.307    0.377   30.686   16.978
  312.750    0.302    0.398   30.068   16.949
  313.055    0.298    0.380   30.065   17.894
  313.360    0.293    0.367   30.678   18.556
  313.665    0.296    0.363   33.753   18.868
  313.970    0.313    0.371   39.292   18.485
  314.275    0.319    0.389   46.676   16.478
  314.580    0.289    0.368   57.755   12.383
  314.885    0.218    0.379   86.686    8.798
  315.190    0.169    0.470  116.233    7.134
  315.495    0.185    0.514  115.614    6.005
  315.800    0.196    0.496  112.533    5.454
  316.105    0.194    0.489  114.994    4.949
  316.410    0.213    0.500  123.609    4.851
  316.715    0.222    0.522  127.301    4.933
  317.020    0.221    0.534  126.067    5.210
  317.325    0.206    0.495  120.524    5.716
  317.630    0.169    0.484  114.365    5.926
  317.935    0.171    0.495  117.441    5.915
  318.240    0.205    0.494  124.826    5.582
  318.545    0.212    0.529  126.054    4.612
  318.850    0.226    0.570  129.130    3.737
  319.155    0.239    0.567  127.896    3.732
  319.460    0.237    0.544  122.968    4.172
  319.765    0.254    0.496  116.194    5.529
  320.070    0.269    0.431  108.804    8.690
  320.375    0.266    0.403  110.648   11.509
  320.680    0.216    0.394  111.261   11.930
  320.985    0.211    0.398  110.028   11.692
  321.290    0.226    0.426  107.563   11.027
  321.595    0.239    0.456  104.482    9.640
  321.900    0.202    0.441  100.786    8.434
  322.205    0.154    0.437  109.402    7.514
  322.510    0.195    0.446  125.406    7.498
  322.815    0.215    0.465  123.556    7.923
  323.120    0.239    0.457  115.551    9.374
  323.425    0.243    0.443  110.007   10.684
  323.730    0.253    0.440  113.083   11.711
  324.035    0.261    0.438  110.002   11.921
  324.340    0.261    0.453  106.306   11.677
  324.645    0.266    0.457  105.072   11.435
  324.950    0.269    0.441  107.532   11.198
  325.255    0.259    0.406  111.224   11.396
  325.560    0.229    0.401  111.836   11.590
  325.865    0.240    0.403  110.603   12.243
  326.170    0.267    0.416  102.597   13.677
  326.475    0.299    0.447   89.667   14.186
  326.780    0.329    0.443   69.349   15.267
  327.085    0.341    0.446   71.193   15.247
