~VERSION INFORMATION
 VERS.                 2.0:   CWLS LOG ASCII STANDARD -VERSION 2.0
 WRAP.                  NO:   ONE LINE PER DEPTH STEP
~WELL INFORMATION BLOCK
#MNEM.UNIT           DATA                    DESCRIPTION OF MNEMONIC
#---------    -------------------            -------------------------------
# Generated from Intellog Unique Number	CS_73_76/WELL/3248
WELL.         BOW VALLEY INDUSTRIES LTD.     : Well_name    - WELL
LOC .         00/10-30-075-12W4/0            : Location     - LOCATION
UWI .         00/10-30-075-12W4/0            : Uwi          - UNIQUE WELL ID
ENTR.         SP                             : Entered      - ENTERED BY
SRVC.         SCHLUMBERGER                   : Scn          - SERVICE COMPANY
STRT.M        320                            : top_depth    - START DEPTH
STOP.M        531                            : bot_depth    - STOP DEPTH
STEP.M        0.25                           : increment    - STEP LENGTH
 NULL. -999.2500:NULL Value
~CURVE INFORMATION BLOCK
#MNEM UNIT       ERCB CURVE CODE    CURVE DESCRIPTION
#-----------   ------------------   ----------------------------------
DEPT.M        00 001 00 00         : DEPTH        - DEPTH
ILD .OHMM     00 120 00 00         : RESD         - DEEP RESISTIVITY (DIL)
DPHI.V/V      00 890 00 00         : PHID         - DENSITY POROSITY (LIMESTONE)
NPHI.V/V      00 330 00 00         : PHIN         - NEUTRON POROSITY (LIMESTONE)
GR  .API      00 310 00 00         : GR           - GAMMA RAY
~PARAMETER INFORMATION
#MNEM.UNIT           DATA             DESCRIPTION OF MNEMONIC
#---------         -----------     ------------------------------
GL  .M        694.33               : gl           - GROUND LEVEL ELEVATION
EREF.M        697.68               : kb           - ELEVATION OF DEPTH REFERENCE
DATM.M        694.33               : datum        - DATUM ELEVATION
TDD .M        537                  : tdd          - TOTAL DEPTH DRILLER
RUN .         ONE                  : Run          - RUN NUMBER
ENG .         BILL                 : Engineer     - RECORDING ENGINEER
WIT .         JIM                  : Witness      - WITNESSED BY
MUD .         GEL                  : Mud_type     - MUD TYPE
MATR.         LIMESTONE            : Logunit      - NEUTRON MATRIX
TMAX.C        23.9                 : BHT          - MAXIMUM RECORDED TEMPERATURE
BHTD.M        537                  : BHTDEP       - MAXIMUM RECORDED TEMPERATURE
MATR.         1                    : LOGUNIT      - NEUTRON MATRIX
RMT .C        25                   : MDTP         - TEMPERATURE OF MUD
NEUT.         1                    : NEUTRON      - NEUTRON TYPE
RESI.         0                    : RESIST       - RESISTIVITY TYPE
RMC .OHMM     0.25                 : RMC          - RESISTIVITY OF MUD CAKE
RMF .OHMM     0.25                 : RMF          - RESISTIVITY OF MUD FILTRATE
SUFT.C        15                   : SUFT         - SURFACE TEMPERATURE
~A  DEPTH     RESD     PHID     PHIN       GR
# ...
  494.000    5.383    0.181    0.426   90.987
  494.250    5.691    0.172    0.438   88.543
  494.500    5.907    0.154    0.448   87.929
  494.750    6.246    0.130    0.452   83.662
  495.000    6.363    0.123    0.451   82.441
  495.250    6.363    0.119    0.444   91.536
  495.500    6.364    0.155    0.454   92.731
  495.750    6.132    0.178    0.461   92.114
  496.000    6.019    0.183    0.472   91.499
  496.250    5.909    0.184    0.456   91.489
  496.500    5.909    0.178    0.467   92.083
  496.750    5.909    0.189    0.459   92.075
  497.000    6.020    0.191    0.442   89.632
  497.250    6.133    0.163    0.426   85.370
  497.500    6.366    0.096    0.438   86.571
  497.750    6.366    0.117    0.445   87.171
  498.000    6.366    0.158    0.455   88.373
  498.250    6.367    0.175    0.448   88.970
  498.500    6.367    0.164    0.443   88.352
  498.750    6.250    0.150    0.455   87.732
  499.000    6.250    0.139    0.453   85.898
  499.250    6.251    0.130    0.438   87.102
  499.500    6.251    0.123    0.431   87.700
  499.750    6.251    0.159    0.430   84.043
  500.000    6.251    0.139    0.426   80.386
  500.250    6.488    0.047    0.402   80.981
  500.500    6.734    0.081    0.389   80.972
  500.750    7.254    0.146    0.402   76.104
  501.000    7.390    0.139    0.418   83.985
  501.250    7.670    0.140    0.428   85.795
  501.500    7.814    0.140    0.429   85.179
  501.750    7.961    0.111    0.431   87.594
  502.000    7.961    0.150    0.441   82.120
  502.250    7.961    0.189    0.442   68.139
  502.500    8.111    0.209    0.426   62.058
  502.750    8.576    0.230    0.353   58.404
  503.000   10.136    0.284    0.371   55.963
  503.250   13.393    0.273    0.382   56.557
  503.500   18.027    0.260    0.371   57.760
  503.750   33.896    0.253    0.376   55.322
  504.000   34.533    0.243    0.379   54.701
  504.250   33.275    0.269    0.382   57.727
  504.500   29.768    0.252    0.393   64.391
  504.750   27.638    0.237    0.379   68.026
  505.000   25.661    0.226    0.365   69.230
  505.250   23.825    0.219    0.375   64.966
  505.500   22.535    0.243    0.390   62.525
  505.750   22.121    0.281    0.398   66.766
  506.000   20.924    0.220    0.394   75.253
  506.250   19.791    0.195    0.392   78.887
  506.500   18.037    0.206    0.392   82.519
  506.750   17.060    0.199    0.375   83.114
  507.000   15.549    0.194    0.355   78.247
  507.250   14.707    0.205    0.365   67.305
  507.500   14.171    0.236    0.372   61.220
  507.750   13.404    0.230    0.377   53.316
  508.000   13.158    0.227    0.381   46.625
  508.250   12.679    0.253    0.370   52.686
  508.500   12.446    0.250    0.346   58.745
  508.750   12.217    0.236    0.337   61.770
  509.000   11.993    0.225    0.348   67.830
  509.250   11.773    0.203    0.358   73.890
  509.500   11.557    0.187    0.351   77.524
  509.750   11.557    0.103    0.359   81.155
  510.000   10.730    0.126    0.379   81.752
  510.250    9.600    0.151    0.397   81.133
  510.500   10.150    0.166    0.409   75.652
  510.750   11.559    0.155    0.396   74.427
  511.000   12.685    0.152    0.373   74.420
  511.250   13.663    0.169    0.370   71.975
  511.500   14.447    0.191    0.392   70.146
  511.750   13.665    0.222    0.396   70.133
  512.000   13.167    0.225    0.379   73.764
  512.250   12.454    0.177    0.373   78.006
  512.500   12.688    0.180    0.389   70.099
  512.750   15.278    0.200    0.407   62.798
  513.000   17.079    0.228    0.407   57.930
  513.250   18.741    0.260    0.395   54.278
  513.500   21.744    0.268    0.390   58.517
  513.750   23.422    0.243    0.384   62.147
  514.000   23.862    0.221    0.377   62.135
  514.250   24.766    0.215    0.383   61.519
  514.500   25.704    0.234    0.401   63.326
  514.750   26.187    0.257    0.396   65.137
  515.000   27.688    0.264    0.403   64.520
  515.250   30.953    0.244    0.415   56.008
  515.500   35.251    0.239    0.408   46.888
  515.750   43.242    0.256    0.391   51.734
  516.000   49.246    0.267    0.378   56.580
  516.250   51.112    0.268    0.382   54.746
  516.500   47.455    0.268    0.371   60.807
  516.750   43.249    0.256    0.353   69.903
  517.000   37.281    0.247    0.367   81.430
  517.250   33.351    0.262    0.377   97.207
  517.500   29.836    0.243    0.396   98.410
  517.750   26.201    0.249    0.417   91.718
  518.000   25.720    0.255    0.427   77.133
  518.250   26.694    0.252    0.400   63.764
  518.500   28.753    0.270    0.365   56.465
  518.750   30.972    0.258    0.389   57.060
  519.000   33.987    0.248    0.409   58.871
  519.250   35.274    0.266    0.394   69.787
  519.500   36.611    0.265    0.396   74.029
  519.750   35.938    0.245    0.409   69.767
  520.000   33.993    0.257    0.407   67.327
  520.250   30.410    0.263    0.394   70.352
  520.500   25.258    0.266    0.387   78.231
  520.750   22.596    0.263    0.376   82.473
  521.000   20.979    0.227    0.400   87.319
  521.250   20.215    0.212    0.412   83.663
  521.500   19.844    0.204    0.411   78.187
  521.750   19.845    0.225    0.416   71.494
  522.000   19.481    0.245    0.420   67.235
  522.250   18.771    0.263    0.412   60.541
  522.500   17.755    0.233    0.396   62.354
  522.750   16.485    0.211    0.387   69.023
  523.000   16.182    0.195    0.388   75.688
  523.250   15.593    0.192    0.393   75.072
  523.500   15.593    0.205    0.392   68.988
  523.750   15.594    0.222    0.390   59.868
  524.000   16.185    0.194    0.381   51.962
  524.250   16.798    0.210    0.378   50.737
  524.500   18.094    0.233    0.376   59.223
  524.750   20.992    0.206    0.407   64.072
  525.000   29.326    0.223    0.432   68.312
  525.250   33.398    0.240    0.431   64.046
  525.500   35.313    0.264    0.409   61.002
  525.750   34.027    0.267    0.392   55.524
  526.000   32.184    0.257    0.391   51.264
  526.250   35.318    0.255    0.395   48.216
  526.500   38.755    0.257    0.402   51.847
  526.750   44.137    0.278    0.413   64.588
  527.000   44.139    0.295    0.397   70.042
  527.250   40.227    0.286    0.392   64.560
  527.500   29.889    0.266    0.391   62.125
  527.750   27.240    0.249    0.388   57.255
  528.000   25.291    0.251    0.401   58.453
  528.250   21.800    0.267    0.412   62.085
  528.500   17.773    0.307    0.395   63.291
  528.750   13.206    0.216    0.383   61.458
  529.000   10.766    0.173    0.386   57.194
  529.250    8.942    0.191    0.396   53.540
  529.500    7.566    0.213    0.433   51.103
  529.750    7.025    0.258    0.447   49.874
  530.000    6.522    0.289    0.410   50.472
  530.250    6.056    0.285    0.395   50.461
  530.500    6.285    0.099    0.411   42.554
  530.750    8.944    0.075    0.280   38.900
  531.000   12.039    0.058    0.223   36.461
