~VERSION INFORMATION
 VERS.                 2.0:   CWLS LOG ASCII STANDARD -VERSION 2.0
 WRAP.                  NO:   ONE LINE PER DEPTH STEP
~WELL INFORMATION BLOCK
#MNEM.UNIT           DATA                    DESCRIPTION OF MNEMONIC
#---------    -------------------            -------------------------------
# Generated from Intellog Unique Number	CS_73_76/WELL/2192
WELL.         BOW VALLEY INDUSTRIES LTD      : Well_name    - WELL
LOC .         00/10-17-074-13W4/0            : Location     - LOCATION
UWI .         00/10-17-074-13W4/0            : Uwi          - UNIQUE WELL ID
ENTR.         SP                             : Entered      - ENTERED BY
SRVC.         SCHLUMBERGER                   : Scn          - SERVICE COMPANY
STRT.M        365                            : top_depth    - START DEPTH
STOP.M        602                            : bot_depth    - STOP DEPTH
STEP.M        0.25                           : increment    - STEP LENGTH
 NULL. -999.2500:NULL Value
~CURVE INFORMATION BLOCK
#MNEM UNIT       ERCB CURVE CODE    CURVE DESCRIPTION
#-----------   ------------------   ----------------------------------
DEPT.M        00 001 00 00         : DEPTH        - DEPTH
ILD .OHMM     00 120 00 00         : RESD         - DEEP RESISTIVITY (DIL)
DPHI.V/V      00 890 00 00         : PHID         - DENSITY POROSITY (LIMESTONE)
NPHI.V/V      00 330 00 00         : PHIN         - NEUTRON POROSITY (LIMESTONE)
GR  .API      00 310 00 00         : GR           - GAMMA RAY
~PARAMETER INFORMATION
#MNEM.UNIT           DATA             DESCRIPTION OF MNEMONIC
#---------         -----------     ------------------------------
GL  .M        724.21               : gl           - GROUND LEVEL ELEVATION
EREF.M        727.56               : kb           - ELEVATION OF DEPTH REFERENCE
DATM.M        724.21               : datum        - DATUM ELEVATION
TDD .M        609                  : tdd          - TOTAL DEPTH DRILLER
RUN .         ONE                  : Run          - RUN NUMBER
ENG .         BILL                 : Engineer     - RECORDING ENGINEER
WIT .         JIM                  : Witness      - WITNESSED BY
MUD .         GEL                  : Mud_type     - MUD TYPE
MATR.         LIMESTONE            : Logunit      - NEUTRON MATRIX
TMAX.C        18                   : BHT          - MAXIMUM RECORDED TEMPERATURE
BHTD.M        609                  : BHTDEP       - MAXIMUM RECORDED TEMPERATURE
MATR.         1                    : LOGUNIT      - NEUTRON MATRIX
RMT .C        25                   : MDTP         - TEMPERATURE OF MUD
NEUT.         1                    : NEUTRON      - NEUTRON TYPE
RESI.         0                    : RESIST       - RESISTIVITY TYPE
RMC .OHMM     0.25                 : RMC          - RESISTIVITY OF MUD CAKE
RMF .OHMM     0.25                 : RMF          - RESISTIVITY OF MUD FILTRATE
SUFT.C        15                   : SUFT         - SURFACE TEMPERATURE
~A  DEPTH     RESD     PHID     PHIN       GR
  365.000    2.719    0.244    0.492  106.456
  365.250    2.876    0.251    0.493  105.250
  365.500    2.985    0.242    0.498  104.046
  365.750    3.100    0.218    0.497  104.655
  366.000    3.159    0.228    0.505  101.638
  366.250    3.161    0.219    0.515  101.037
  366.500    3.104    0.224    0.508  100.437
  366.750    3.049    0.213    0.482  102.861
  367.000    2.994    0.197    0.482  103.472
  367.250    3.226    0.173    0.487  102.266
  367.500    3.476    0.156    0.490   98.037
  367.750    3.886    0.151    0.453   95.623
  368.000    4.035    0.206    0.452   96.837
  368.250    3.818    0.228    0.468   99.262
  368.500    3.615    0.244    0.479   99.873
  368.750    3.485    0.245    0.490   99.275
  369.000    3.360    0.257    0.509   99.882
  369.250    3.299    0.265    0.521  104.729
  369.500    3.181    0.270    0.511  106.547
  369.750    3.124    0.263    0.504  107.760
  370.000    3.068    0.247    0.505  109.581
  370.250    3.186    0.229    0.514  110.190
  370.500    3.187    0.225    0.520  110.800
  370.750    3.189    0.228    0.527  108.387
  371.000    3.131    0.222    0.531  107.182
  371.250    3.133    0.211    0.510  106.583
  371.500    3.077    0.217    0.488  105.984
  371.750    3.078    0.225    0.479  105.381
  372.000    3.196    0.211    0.476  104.177
  372.250    3.257    0.200    0.481  101.766
  372.500    3.259    0.191    0.487  101.165
  372.750    3.142    0.217    0.488  100.563
  373.000    3.030    0.226    0.485   94.519
  373.250    2.920    0.214    0.488   87.267
  373.500    2.868    0.217    0.489   82.432
  373.750    3.033    0.212    0.491   76.993
  374.000    3.268    0.205    0.509   68.531
  374.250    3.792    0.226    0.515   61.885
  374.500    4.319    0.254    0.518   59.468
  374.750    5.600    0.295    0.510   58.263
  375.000    6.378    0.340    0.516   59.478
  375.250    6.873    0.341    0.420   60.089
  375.500    7.004    0.328    0.412   61.909
  375.750    7.008    0.321    0.404   63.122
  376.000    7.012    0.314    0.415   63.735
  376.250    7.016    0.309    0.427   64.947
  376.500    7.019    0.320    0.443   66.767
  376.750    7.022    0.311    0.448   68.586
  377.000    7.292    0.295    0.418   71.011
  377.250    7.431    0.288    0.417   72.226
  377.500    7.433    0.297    0.423   72.837
  377.750    7.301    0.286    0.406   72.234
  378.000    7.171    0.289    0.402   80.709
  378.250    7.173    0.290    0.407   87.972
  378.500    6.915    0.282    0.403   95.235
  378.750    6.667    0.276    0.390  100.078
  379.000    6.548    0.236    0.379  106.132
  379.250    6.313    0.209    0.401  109.161
  379.500    6.200    0.215    0.419  110.981
  379.750    5.762    0.189    0.424  111.591
  380.000    5.658    0.190    0.427  113.410
  380.250    5.557    0.206    0.418  114.020
  380.500    5.357    0.219    0.406  110.396
  380.750    5.460    0.202    0.414  104.958
  381.000    5.884    0.210    0.424   98.915
  381.250    6.223    0.227    0.439   94.081
  381.500    6.580    0.261    0.444   86.829
  381.750    6.831    0.289    0.443   84.413
  382.000    7.228    0.310    0.432   82.001
  382.250    7.230    0.316    0.420   82.004
  382.500    7.232    0.300    0.415   88.057
  382.750    7.236    0.312    0.422   94.110
  383.000    7.377    0.311    0.430   97.140
  383.250    7.379    0.311    0.430   99.567
  383.500    7.662    0.283    0.409  100.779
  383.750    7.808    0.261    0.394  101.993
  384.000    7.957    0.266    0.397  100.788
  384.250    8.110    0.255    0.404   90.514
  384.500    8.114    0.253    0.388   85.679
  384.750    8.117    0.247    0.373   80.238
  385.000    7.829    0.255    0.365   71.776
  385.250    7.688    0.262    0.373   63.919
  385.500    7.550    0.272    0.388   59.689
  385.750    7.414    0.282    0.397   54.251
  386.000    7.281    0.296    0.396   48.813
  386.250    7.285    0.310    0.404   45.793
  386.500    7.291    0.299    0.407   43.983
  386.750    7.294    0.308    0.383   42.176
  387.000    7.163    0.317    0.358   42.178
  387.250    7.166    0.310    0.368   43.393
  387.500    6.783    0.300    0.375   44.003
  387.750    6.660    0.294    0.380   48.242
  388.000    6.421    0.286    0.368   57.925
  388.250    6.077    0.242    0.375   67.003
  388.500    5.646    0.213    0.364   77.289
  388.750    5.344    0.206    0.382   96.650
  389.000    5.152    0.187    0.408  109.962
  389.250    4.876    0.164    0.423  115.411
  389.500    4.789    0.129    0.438  118.441
  389.750    4.791    0.115    0.443  122.074
  390.000    4.793    0.106    0.455  125.709
  390.250    4.621    0.132    0.465  125.714
  390.500    4.455    0.166    0.461  125.115
  390.750    4.139    0.148    0.450  126.328
  391.000    3.845    0.169    0.477  134.197
  391.250    3.639    0.157    0.496  134.807
  391.500    3.381    0.146    0.489  132.999
  391.750    3.141    0.140    0.486  132.397
  392.000    2.973    0.153    0.495  129.984
  392.250    2.920    0.147    0.514  127.568
  392.500    3.031    0.119    0.518  122.130
  392.750    3.517    0.100    0.504  119.110
  393.000    4.157    0.163    0.473  116.696
  393.250    4.823    0.201    0.480  123.959
  393.500    6.139    0.246    0.449  125.779
  393.750    7.123    0.245    0.428  117.317
  394.000    7.818    0.257    0.416  110.063
  394.250    8.268    0.257    0.424  107.649
  394.500    8.427    0.246    0.417  104.027
  394.750    8.590    0.256    0.424  101.006
  395.000    8.755    0.268    0.433   95.568
  395.250    8.133    0.278    0.416   90.128
  395.500    7.149    0.274    0.394   84.689
  395.750    6.519    0.270    0.405   79.250
  396.000    6.056    0.241    0.422   89.537
  396.250    5.322    0.210    0.435  103.455
  396.500    4.764    0.181    0.447  110.717
  396.750    4.345    0.173    0.458  122.215
  397.000    4.347    0.160    0.470  128.268
  397.250    4.684    0.132    0.476  124.645
  397.500    5.336    0.106    0.486  121.626
  397.750    5.748    0.190    0.449  119.816
  398.000    6.670    0.207    0.434  127.684
  398.250    7.320    0.200    0.426  119.828
  398.500    7.741    0.213    0.417  116.203
  398.750    8.188    0.225    0.406  114.394
  399.000    8.662    0.236    0.389  113.792
  399.250    8.828    0.219    0.393  111.379
  399.500    8.830    0.223    0.400  109.570
  399.750    8.358    0.241    0.402  111.994
  400.000    7.909    0.255    0.396  111.393
  400.250    7.349    0.250    0.405  108.375
  400.500    6.956    0.242    0.410  106.566
  400.750    6.705    0.221    0.406  106.569
  401.000    6.464    0.224    0.415  113.832
  401.250    6.468    0.228    0.422  120.493
  401.500    6.592    0.224    0.430  122.916
  401.750    6.596    0.223    0.421  125.945
  402.000    6.721    0.222    0.433  124.741
  402.250    7.109    0.224    0.446  113.861
  402.500    7.660    0.240    0.451  108.421
  402.750    7.951    0.247    0.461  103.585
  403.000    8.410    0.268    0.469   95.727
  403.250    8.731    0.284    0.416   87.869
  403.500    9.065    0.285    0.407   81.220
  403.750    9.242    0.294    0.400   87.276
  404.000    9.245    0.274    0.414   89.094
  404.250    9.078    0.267    0.419   95.754
  404.500    8.916    0.247    0.403   98.176
  404.750    8.598    0.233    0.391  104.232
  405.000    8.443    0.220    0.379  106.655
  405.250    7.991    0.203    0.367  109.685
  405.500    7.424    0.211    0.357  110.294
  405.750    7.157    0.188    0.379  113.323
  406.000    6.527    0.182    0.409  119.981
  406.250    5.843    0.193    0.416  125.431
  406.500    5.231    0.186    0.436  128.459
  406.750    4.598    0.174    0.465  129.070
  407.000    4.351    0.201    0.489  125.446
  407.250    4.353    0.219    0.499  120.612
  407.500    4.691    0.225    0.472  115.779
  407.750    5.054    0.229    0.482  113.970
  408.000    5.345    0.242    0.488  114.579
  408.250    5.653    0.251    0.495  115.796
