~VERSION INFORMATION
 VERS.                 2.0:   CWLS LOG ASCII STANDARD -VERSION 2.0
 WRAP.                  NO:   ONE LINE PER DEPTH STEP
~WELL INFORMATION BLOCK
#MNEM.UNIT           DATA                    DESCRIPTION OF MNEMONIC
#---------    -------------------            -------------------------------
# Generated from Intellog Unique Number	CW_82_90/WELL/879
WELL.         10-20-083-20W4                 : Well_name    - WELL
LOC .         00/10-20-083-20W4/0            : Location     - LOCATION
UWI .         00/10-20-083-20W4/0            : Uwi          - UNIQUE WELL ID
ENTR.         JAYE                           : Entered      - ENTERED BY
SRVC.         SCHLUMBERGER                   : Scn          - SERVICE COMPANY
DATE.         16 MAR 74                      : Date         - LOG DATE
STRT.M        222.504                        : top_depth    - START DEPTH
STOP.M        436.504                        : bot_depth    - STOP DEPTH
STEP.M        0.25                           : increment    - STEP LENGTH
 NULL. -999.2500:NULL Value
~CURVE INFORMATION BLOCK
#MNEM UNIT       ERCB CURVE CODE    CURVE DESCRIPTION
#-----------   ------------------   ----------------------------------
DEPT.M        00 001 00 00         : DEPTH        - DEPTH
ILD .OHMM     00 120 00 00         : RESD         - DEEP RESISTIVITY (DIL)
CALI.MM       00 280 01 00         : CAL          - CALIPER
GR  .API      00 310 00 00         : GR           - GAMMA RAY
NPHI.V/V      00 330 00 00         : PHIN         - NEUTRON POROSITY (SANDSTONE)
DPHI.V/V      00 890 00 00         : PHID         - DENSITY POROSITY (SANDSTONE)
~PARAMETER INFORMATION
#MNEM.UNIT           DATA             DESCRIPTION OF MNEMONIC
#---------         -----------     ------------------------------
GL  .M        632.765              : gl           - GROUND LEVEL ELEVATION
EREF.M        637.032              : kb           - ELEVATION OF DEPTH REFERENCE
DATM.M        632.765              : datum        - DATUM ELEVATION
TDD .M        444.094              : tdd          - TOTAL DEPTH DRILLER
RUN .         ONE                  : Run          - RUN NUMBER
ENG .         AUGUSTIN             : Engineer     - RECORDING ENGINEER
WIT .         FYFFE                : Witness      - WITNESSED BY
BASE.         EDMONTON             : Branch       - HOME BASE OF LOGGING UNIT
MUD .         GEL CHEM             : Mud_type     - MUD TYPE
MATR.         SANDSTONE            : Logunit      - NEUTRON MATRIX
TMAX.C        22.2222              : BHT          - MAXIMUM RECORDED TEMPERATURE
BHTD.M        444.094              : BHTDEP       - MAXIMUM RECORDED TEMPERATURE
RMT .C        15.5556              : MDTP         - TEMPERATURE OF MUD
MUDD.KG/M     8500                 : MWT          - MUD DENSITY
NEUT.         1                    : NEUTRON      - NEUTRON TYPE
RESI.         0                    : RESIST       - RESISTIVITY TYPE
RM  .OHMM     4.85                 : RM           - RESISTIVITY OF MUD
RMC .OHMM     0                    : RMC          - RESISTIVITY OF MUD CAKE
RMF .OHMM     0                    : RMF          - RESISTIVITY OF MUD FILTRATE
SUFT.C        -17.7778             : SUFT         - SURFACE TEMPERATURE
~A  DEPTH     RESD      CAL       GR     PHIN     PHID
# ...
  368.504    9.860  215.790   90.396    0.533    0.247
  368.754    9.795  216.775   88.669    0.545    0.257
  369.004    9.767  217.861   88.395    0.567    0.236
  369.254    9.775  218.935   90.253    0.553    0.237
  369.504    9.783  219.622   92.106    0.543    0.242
  369.754    9.825  220.190   93.174    0.522    0.235
  370.004    9.922  220.544   93.871    0.525    0.224
  370.254    9.948  220.913   93.849    0.515    0.214
  370.504   10.013  221.072   93.457    0.488    0.232
  370.754   10.280  221.123   91.781    0.470    0.238
  371.004   10.497  220.774   89.749    0.448    0.250
  371.254   10.639  220.001   88.990    0.472    0.248
  371.504   10.667  220.161   90.971    0.509    0.245
  371.754   10.598  221.860   91.734    0.515    0.248
  372.004   10.376  222.728   93.711    0.521    0.236
  372.254   10.139  222.797   94.348    0.560    0.228
  372.504    9.926  222.845   93.528    0.559    0.223
  372.754    9.719  222.807   93.626    0.545    0.211
  373.004    9.621  222.553   93.110    0.528    0.234
  373.254    9.471  222.710   91.742    0.515    0.224
  373.504    9.410  222.867   92.382    0.495    0.245
  373.754    9.348  223.125   93.088    0.509    0.239
  374.004    9.270  222.561   94.817    0.528    0.235
  374.254    9.277  221.284   96.617    0.527    0.229
  374.504    9.148  221.123   98.774    0.509    0.234
  374.754    8.908  221.494  100.263    0.503    0.225
  375.004    8.753  221.759  101.094    0.492    0.220
  375.254    8.555  221.808   99.603    0.483    0.216
  375.504    8.750  220.626   96.838    0.472    0.210
  375.754    9.285  216.257   93.589    0.444    0.202
  376.004    9.816  211.680   87.177    0.423    0.197
  376.254   10.511  210.394   87.453    0.447    0.215
  376.504   10.992  212.605   90.403    0.457    0.220
  376.754   11.242  214.316   93.841    0.491    0.218
  377.004   10.828  218.284   94.238    0.485    0.226
  377.254   10.486  216.690   92.630    0.460    0.227
  377.504   10.154  207.687   89.920    0.413    0.224
  377.754    9.940  201.152   88.074    0.408    0.231
  378.004   10.626  199.250   86.276    0.397    0.227
  378.254   11.376  199.507   85.765    0.317    0.209
  378.504   12.941  199.538   83.246    0.278    0.107
  378.754   14.960  199.511   72.639    0.246    0.069
  379.004   17.423  200.379   64.886    0.223    0.049
  379.254   20.519  200.653   59.630    0.192    0.045
  379.504   25.198  201.328   56.988    0.176    0.028
  379.754   33.411  201.176   53.855    0.176    0.017
  380.004   37.314  200.205   52.245    0.184    0.016
  380.254   39.158  199.737   53.922    0.203    0.026
  380.504   38.689  199.737   57.663    0.227    0.051
  380.754   36.725  199.737   61.528    0.247    0.075
  381.004   33.723  201.203   64.718    0.292    0.089
  381.254   29.534  201.585   67.001    0.331    0.103
  381.504   25.633  201.556   68.617    0.351    0.136
  381.754   22.364  202.232   70.468    0.358    0.150
  382.004   19.408  202.596   71.842    0.352    0.170
  382.254   17.501  202.239   72.362    0.351    0.182
  382.504   15.583  202.291   72.150    0.377    0.183
  382.754   14.312  203.177   71.450    0.397    0.229
  383.004   13.582  204.775   71.792    0.406    0.242
  383.254   12.728  205.964   71.460    0.405    0.246
  383.504   12.415  207.245   69.546    0.395    0.240
  383.754   12.864  207.810   67.571    0.386    0.229
  384.004   13.650  208.761   66.934    0.382    0.219
  384.254   14.669  209.349   67.085    0.377    0.208
  384.504   16.085  209.627   67.546    0.385    0.192
  384.754   17.285  209.992   68.128    0.408    0.194
  385.004   17.586  210.566   69.801    0.434    0.200
  385.254   16.540  210.819   71.228    0.461    0.210
  385.504   13.318  210.671   72.904    0.504    0.225
  385.754   11.944  210.730   74.943    0.477    0.231
  386.004   11.150  210.891   77.288    0.445    0.235
  386.254   10.185  210.430   77.380    0.423    0.243
  386.504    9.809  209.666   76.862    0.421    0.248
  386.754    9.727  208.786   78.114    0.432    0.251
  387.004    9.647  208.324   79.668    0.433    0.254
  387.254    9.618  209.076   78.909    0.449    0.252
  387.504    9.573  208.751   76.508    0.455    0.245
  387.754    9.528  206.542   76.786    0.444    0.240
  388.004    9.553  200.934   76.445    0.435    0.234
  388.254    9.559  207.271   76.048    0.435    0.230
  388.504    9.534  211.438   75.848    0.443    0.223
  388.754    9.472  211.804   75.758    0.442    0.217
  389.004    9.426  211.958   75.732    0.455    0.214
  389.254    9.433  211.909   76.311    0.477    0.215
  389.504    9.372  211.972   77.013    0.463    0.215
  389.754    9.310  212.331   78.444    0.446    0.212
  390.004    9.318  212.494   79.145    0.426    0.201
  390.254    9.308  211.929   77.472    0.416    0.182
  390.504    9.314  210.029   81.338    0.444    0.199
  390.754    9.356  214.506   88.303    0.452    0.220
  391.004    9.364  218.061   89.792    0.448    0.220
  391.254    9.371  221.408   90.189    0.462    0.225
  391.504    9.242  224.250   90.224    0.492    0.239
  391.754    9.080  227.170   89.766    0.486    0.237
  392.004    8.682  227.032   89.315    0.478    0.233
  392.254    8.392  221.020   89.409    0.465    0.228
  392.504    8.201  223.227   90.536    0.452    0.229
  392.754    8.088  225.657   91.236    0.438    0.234
  393.004    8.021  225.399   90.109    0.457    0.236
  393.254    7.896  221.544   89.168    0.474    0.240
  393.504    7.802  217.480   89.146    0.473    0.236
  393.754    7.681  215.994   88.995    0.467    0.230
  394.004    7.575  215.634   89.634    0.465    0.235
  394.254    7.417  216.612   92.465    0.474    0.241
  394.504    7.208  216.878   95.232    0.493    0.240
  394.754    6.879  217.543   96.422    0.500    0.232
  395.004    6.661  217.607   97.246    0.495    0.228
  395.254    6.451  217.242   97.278    0.479    0.224
  395.504    6.551  216.583   97.675    0.463    0.218
  395.754    6.714  214.989   99.165    0.452    0.223
  396.004    6.943  215.153  100.719    0.459    0.214
  396.254    7.517  215.716  100.023    0.483    0.203
  396.504    8.168  215.361   94.218    0.459    0.190
  396.754    8.972  214.689   77.833    0.419    0.164
  397.004   10.857  213.720   78.590    0.349    0.086
  397.254   16.362  213.468   81.909    0.346    0.103
  397.504   20.352  212.901   86.929    0.375    0.124
  397.754   22.075  212.650   90.912    0.380    0.175
  398.004   22.212  213.220   92.892    0.360    0.162
  398.254   20.515  213.993   91.280    0.356    0.146
  398.504   18.701  214.767   88.945    0.390    0.206
  398.754   17.237  215.444   82.349    0.405    0.214
  399.004   17.031  216.219   70.159    0.425    0.219
  399.254   18.338  216.275   57.424    0.446    0.256
  399.504   20.478  216.642   47.058    0.433    0.284
  399.754   23.809  217.004   44.655    0.427    0.296
  400.004   25.965  217.571   45.664    0.427    0.302
  400.254   27.598  217.934   48.978    0.427    0.313
  400.504   28.647  217.779   54.484    0.422    0.306
  400.754   28.667  217.225   64.549    0.429    0.295
  401.004   27.060  217.063   72.973    0.422    0.256
  401.254   18.721  217.433   86.443    0.411    0.223
  401.504   13.934  217.180   88.359    0.407    0.200
  401.754   10.372  216.307   89.301    0.418    0.202
  402.004    8.903  215.544   90.486    0.443    0.205
  402.254    6.911  215.898   90.034    0.470    0.215
  402.504    5.688  216.468   91.835    0.520    0.229
  402.754    4.172  216.525   97.521    0.597    0.237
  403.004    3.459  214.423  102.417    0.576    0.250
  403.254    3.247  209.950  105.004    0.548    0.254
  403.504    3.446  211.836  102.544    0.527    0.253
  403.754    3.806  213.046   97.895    0.500    0.238
  404.004    4.531  214.736   90.994    0.454    0.203
  404.254    6.052  215.311   86.894    0.414    0.176
  404.504    7.075  215.777   89.236    0.399    0.166
  404.754    7.397  216.149   98.390    0.488    0.183
