~VERSION INFORMATION
 VERS.                 2.0:   CWLS LOG ASCII STANDARD -VERSION 2.0
 WRAP.                  NO:   ONE LINE PER DEPTH STEP
~WELL INFORMATION BLOCK
#MNEM.UNIT           DATA                    DESCRIPTION OF MNEMONIC
#---------    -------------------            -------------------------------
# Generated from Intellog Unique Number	CW_70_72/WELL/3024
NULL.         -999.25                        : NULL_VALUE
WELL.         CHIEFCO ET AL RANCH 10-32      : Well_name    - WELL              
LOC .         10-32-070-26W4                 : Location     - LOCATION          
UWI .         00/10-32-070-26W4/0            : Uwi          - UNIQUE WELL ID    
ENTR.         J                              : Entered      - ENTERED BY        
SRVC.         SCHLUMBERGER                   : Scn          - SERVICE COMPANY   
DATE.         31 DEC 75                      : Date         - LOG DATE          
STRT.M        435.864                        : top_depth    - START DEPTH       
STOP.M        701.114                        : bot_depth    - STOP DEPTH        
STEP.M        0.25                           : increment    - STEP LENGTH       
~CURVE INFORMATION BLOCK
#MNEM UNIT       ERCB CURVE CODE    CURVE DESCRIPTION
#-----------   ------------------   ----------------------------------
DEPT.M        00 001 00 00         : DEPTH        - DEPTH                       
ILD .OHMM     00 120 00 00         : RESD         - DEEP RESISTIVITY (DIL)      
CALI.MM       00 280 01 00         : CAL          - CALIPER                     
GR  .API      00 310 00 00         : GR           - GAMMA RAY                   
NPHI.V/V      00 330 00 00         : PHIN         - NEUTRON POROSITY (SANDSTONE)
DPHI.V/V      00 890 00 00         : PHID         - DENSITY POROSITY (SANDSTONE)
~PARAMETER INFORMATION       
#MNEM.UNIT           DATA             DESCRIPTION OF MNEMONIC
#---------         -----------     ------------------------------
GL  .M        612.953              : gl           - GROUND LEVEL ELEVATION      
EREF.M        615.696              : kb           - ELEVATION OF DEPTH REFERENCE
DATM.M        612.953              : datum        - DATUM ELEVATION             
TDD .M        715.975              : tdd          - TOTAL DEPTH DRILLER         
RUN .         ONE                  : Run          - RUN NUMBER                  
ENG .         WILTSHIRE            : Engineer     - RECORDING ENGINEER          
BASE.         EDM                  : Branch       - HOME BASE OF LOGGING UNIT   
MUD .         GEL CHEM             : Mud_type     - MUD TYPE                    
MATR.         SANDSTONE            : Logunit      - NEUTRON MATRIX              
TMAX.C        -17.7778             : BHT          - MAXIMUM RECORDED TEMPERATURE
BHTD.M        717.194              : BHTDEP       - MAXIMUM RECORDED TEMPERATURE
RMT .C        21.1111              : MDTP         - TEMPERATURE OF MUD          
MUDD.KG/M     1128                 : MWT          - MUD DENSITY                 
NEUT.         1                    : NEUTRON      - NEUTRON TYPE                
RESI.         0                    : RESIST       - RESISTIVITY TYPE            
RM  .OHMM     3.87                 : RM           - RESISTIVITY OF MUD          
RMC .OHMM     0.25                 : RMC          - RESISTIVITY OF MUD CAKE     
RMF .OHMM     4.74                 : RMF          - RESISTIVITY OF MUD FILTRATE 
SUFT.C        -17.7778             : SUFT         - SURFACE TEMPERATURE         
~A  DEPTH     RESD      CAL       GR     PHIN     PHID
# ...
  508.864    2.247  177.885   66.184    0.391    0.248
  509.114    2.256  177.537   66.895    0.395    0.266
  509.364    2.273  177.707   69.303    0.395    0.238
  509.614    2.311  177.677   69.706    0.386    0.225
  509.864    2.420  177.437   67.559    0.390    0.230
  510.114    2.510  176.886   65.718    0.381    0.207
  510.364    2.695  175.812   64.537    0.383    0.226
  510.614    2.862  175.372   66.585    0.382    0.241
  510.864    3.111  175.028   68.507    0.367    0.208
  511.114    3.529  174.992   68.729    0.349    0.192
  511.364    4.008  174.648   70.286    0.336    0.182
  511.614    4.849  174.820   72.330    0.342    0.198
  511.864    5.183  177.245   74.011    0.326    0.178
  512.114    4.737  180.911   75.993    0.305    0.162
  512.364    4.308  183.556   79.617    0.295    0.125
  512.614    3.692  186.294   84.390    0.321    0.116
  512.864    3.282  187.701   89.351    0.386    0.141
  513.114    3.070  189.409   93.763    0.412    0.184
  513.364    3.104  186.700   88.883    0.445    0.212
  513.614    3.309  181.114   79.752    0.401    0.234
  513.864    3.611  177.786   73.596    0.360    0.170
  514.114    3.970  180.115   76.795    0.298    0.145
  514.364    4.045  179.255   82.118    0.283    0.137
  514.614    3.576  177.262   82.521    0.318    0.193
  514.864    3.144  177.122   83.166    0.388    0.226
  515.114    3.021  177.909   85.699    0.411    0.235
  515.364    3.119  179.932   91.749    0.415    0.239
  515.614    3.233  182.470   98.834    0.401    0.230
  515.864    3.498  186.542  105.553    0.389    0.188
  516.114    3.750  188.972  109.116    0.385    0.169
  516.364    3.882  190.069  106.847    0.385    0.159
  516.614    3.962  191.475  104.759    0.393    0.148
  516.864    3.947  192.163  105.042    0.407    0.151
  517.114    3.870  192.745  106.358    0.383    0.152
  517.364    3.741  192.809  106.520    0.372    0.142
  517.614    3.661  191.845  104.555    0.378    0.152
  517.864    3.609  190.163  103.256    0.392    0.157
  518.114    3.592  190.545  104.754    0.398    0.175
  518.364    3.644  190.817  106.983    0.405    0.187
  518.614    3.740  191.594  107.383    0.416    0.171
  518.864    3.831  192.382  107.303    0.419    0.181
  519.114    3.931  192.867  107.405    0.410    0.169
  519.364    3.998  193.241  106.772    0.406    0.155
  519.614    4.036  193.609  106.937    0.411    0.163
  519.864    4.050  193.886  107.276    0.409    0.156
  520.114    4.075  194.261  106.284    0.408    0.149
  520.364    4.112  194.638  105.232    0.419    0.151
  520.614    4.272  194.911  104.237    0.412    0.139
  520.864    4.564  194.978  104.218    0.404    0.122
  521.114    4.630  194.733  105.349    0.399    0.114
  521.364    4.540  194.696  106.968    0.398    0.138
  521.614    4.342  194.664  107.674    0.406    0.131
  521.864    3.870  194.423  107.292    0.422    0.133
  522.114    3.749  193.979  104.232    0.407    0.140
  522.364    3.431  192.812  100.324    0.400    0.152
  522.614    3.142  190.614   96.354    0.395    0.153
  522.864    3.044  187.389   91.899    0.407    0.181
  523.114    2.838  184.682   88.419    0.422    0.181
  523.364    2.560  181.354   82.627    0.432    0.211
  523.614    2.380  178.023   78.235    0.415    0.251
  523.864    2.195  176.553   76.270    0.412    0.267
  524.114    2.056  175.282   77.099    0.416    0.276
  524.364    1.912  174.524   83.757    0.408    0.276
  524.614    1.912  174.794   89.446    0.398    0.275
  524.864    1.612  176.098  103.393    0.392    0.278
  525.114    1.587  178.221  119.891    0.448    0.283
  525.364    1.567  182.711  130.194    0.502    0.276
  525.614    1.565  194.811  123.857    0.538    0.254
  525.864    1.589  205.060  103.672    0.468    0.323
  526.114    1.705  184.350   84.218    0.442    0.309
  526.364    1.773  178.147   72.230    0.423    0.295
  526.614    1.914  177.490   68.021    0.410    0.304
  526.864    2.074  177.763   66.419    0.394    0.284
  527.114    2.167  178.344   62.571    0.382    0.277
  527.364    2.256  179.340   59.272    0.385    0.274
  527.614    2.311  181.460   60.038    0.386    0.261
  527.864    2.329  184.409   61.597    0.379    0.249
  528.114    2.313  185.294   61.939    0.380    0.234
  528.364    2.300  184.231   61.916    0.381    0.235
  528.614    2.313  182.343   63.294    0.381    0.240
  528.864    2.386  180.769   66.067    0.380    0.251
  529.114    2.550  179.396   68.352    0.373    0.258
  529.364    2.811  179.360   65.170    0.352    0.228
  529.614    2.859  180.456   63.150    0.320    0.167
  529.864    3.098  183.086   60.145    0.266    0.110
  530.114    3.395  185.217   58.670    0.256    0.120
  530.364    3.646  187.847   57.317    0.247    0.112
  530.614    3.880  189.456   57.051    0.236    0.108
  530.864    3.880  190.348   56.908    0.224    0.103
  531.114    3.880  188.155   57.192    0.257    0.158
  531.364    4.079  184.214   58.021    0.288    0.213
  531.614    4.048  179.345   60.182    0.332    0.263
  531.864    4.022  173.446   61.074    0.372    0.284
  532.114    3.980  173.718   61.357    0.359    0.280
  532.364    3.928  174.709   61.941    0.362    0.275
  532.614    3.775  176.625   60.342    0.365    0.285
  532.864    3.276  180.087   60.620    0.356    0.285
  533.114    3.099  182.827   61.508    0.339    0.280
  533.364    2.643  182.482   62.523    0.351    0.270
  533.614    2.379  179.051   64.079    0.370    0.247
  533.864    2.237  176.348   64.791    0.392    0.263
  534.114    2.190  174.973   64.465    0.403    0.260
  534.364    2.179  175.039   64.022    0.407    0.252
  534.614    2.182  175.726   63.149    0.400    0.253
  534.864    2.208  177.127   60.638    0.388    0.264
  535.114    2.226  178.327   61.164    0.385    0.258
  535.364    2.226  179.424   63.267    0.396    0.244
  535.614    2.243  179.794   66.040    0.411    0.231
  535.864    2.256  179.041   67.170    0.403    0.239
  536.114    2.274  176.533   65.999    0.387    0.227
  536.364    2.281  174.342   63.728    0.392    0.237
  536.614    2.291  174.916   62.797    0.394    0.269
  536.864    2.287  176.531   63.260    0.381    0.289
  537.114    2.292  178.238   64.759    0.375    0.269
  537.364    2.297  178.512   66.679    0.375    0.268
  537.614    2.305  178.481   64.959    0.382    0.258
  537.864    2.310  178.136   65.113    0.377    0.265
  538.114    2.311  178.200   65.524    0.375    0.260
  538.364    2.316  178.063   67.811    0.383    0.253
  538.614    2.338  178.019   66.935    0.380    0.248
  538.864    2.333  177.779   64.669    0.374    0.246
  539.114    2.309  177.546   62.764    0.372    0.251
  539.364    2.268  176.893   62.138    0.380    0.256
  539.614    2.259  176.240   63.210    0.383    0.262
  539.864    2.261  177.336   65.314    0.375    0.265
  540.114    2.275  179.663   66.691    0.377    0.262
  540.364    2.466  181.065   67.884    0.383    0.245
  540.614    2.675  179.898   65.794    0.378    0.234
  540.864    3.000  177.594   64.378    0.370    0.230
  541.114    3.340  176.328   62.716    0.357    0.228
  541.364    3.755  176.499   60.386    0.343    0.213
  541.614    4.059  177.903   58.364    0.311    0.178
  541.864    3.309  181.573   59.496    0.289    0.149
  542.114    2.867  183.590   66.032    0.280    0.124
  542.364    2.604  181.599   69.291    0.284    0.147
  542.614    2.241  178.893   68.595    0.306    0.172
  542.864    2.062  175.141   67.723    0.327    0.229
  543.114    1.996  174.092   66.915    0.358    0.246
  543.364    1.978  172.510   66.169    0.381    0.250
  543.614    2.041  172.164   65.352    0.397    0.258
  543.864    2.216  172.339   64.792    0.410    0.265
  544.114    2.444  172.302   63.556    0.374    0.257
  544.364    2.731  173.393   61.892    0.336    0.240
  544.614    3.070  175.212   60.721    0.299    0.214
  544.864    3.320  182.680   60.450    0.256    0.171
  545.114    3.558  189.528   61.041    0.228    0.139
