~VERSION INFORMATION
 VERS.                 2.0:   CWLS LOG ASCII STANDARD -VERSION 2.0
 WRAP.                  NO:   ONE LINE PER DEPTH STEP
~WELL INFORMATION BLOCK
#MNEM.UNIT           DATA                    DESCRIPTION OF MNEMONIC
#---------    -------------------            -------------------------------
# Generated from Intellog Unique Number	CW_73_75/WELL/2742
WELL.         SUNCOR MITSUE 10-20            : Well_name    - WELL
LOC .         00/10-20-073-04W5/0            : Location     - LOCATION
UWI .         00/10-20-073-04W5/0            : Uwi          - UNIQUE WELL ID
ENTR.         JAYE                           : Entered      - ENTERED BY
SRVC.         SCHLUMBERGER                   : Scn          - SERVICE COMPANY
DATE.         28 JAN 81                      : Date         - LOG DATE
STRT.M        350                            : top_depth    - START DEPTH
STOP.M        565                            : bot_depth    - STOP DEPTH
STEP.M        0.25                           : increment    - STEP LENGTH
 NULL. -999.2500:NULL Value
~CURVE INFORMATION BLOCK
#MNEM UNIT       ERCB CURVE CODE    CURVE DESCRIPTION
#-----------   ------------------   ----------------------------------
DEPT.M        00 001 00 00         : DEPTH        - DEPTH
DPHI.V/V      00 890 00 00         : PHID         - DENSITY POROSITY (SANDSTONE)
NPHI.V/V      00 330 00 00         : PHIN         - NEUTRON POROSITY (SANDSTONE)
GR  .API      00 310 00 00         : GR           - GAMMA RAY
CALI.MM       00 280 01 00         : CAL          - CALIPER
ILD .OHMM     00 120 00 00         : RESD         - DEEP RESISTIVITY (DIL)
~PARAMETER INFORMATION
#MNEM.UNIT           DATA             DESCRIPTION OF MNEMONIC
#---------         -----------     ------------------------------
GL  .M        582.23               : gl           - GROUND LEVEL ELEVATION
EREF.M        586.56               : kb           - ELEVATION OF DEPTH REFERENCE
DATM.M        582.23               : datum        - DATUM ELEVATION
TDD .M        1628                 : tdd          - TOTAL DEPTH DRILLER
RUN .         ONE                  : Run          - RUN NUMBER
MUD .         GEL CHEM             : Mud_type     - MUD TYPE
MATR.         SANDSTONE            : Logunit      - NEUTRON MATRIX
TMAX.C        46.4                 : BHT          - MAXIMUM RECORDED TEMPERATURE
BHTD.M        1626.5               : BHTDEP       - MAXIMUM RECORDED TEMPERATURE
RMT .C        15                   : MDTP         - TEMPERATURE OF MUD
MUDD.KG/M     0                    : MWT          - MUD DENSITY
NEUT.         1                    : NEUTRON      - NEUTRON TYPE
RESI.         0                    : RESIST       - RESISTIVITY TYPE
RM  .OHMM     1.7                  : RM           - RESISTIVITY OF MUD
RMC .OHMM     0                    : RMC          - RESISTIVITY OF MUD CAKE
RMF .OHMM     1.28                 : RMF          - RESISTIVITY OF MUD FILTRATE
SUFT.C        0                    : SUFT         - SURFACE TEMPERATURE
~A  DEPTH     PHID     PHIN       GR      CAL     RESD
# ...
  496.000    0.207    0.383   82.612  272.037    5.484
  496.250    0.203    0.378   82.752  271.959    5.627
  496.500    0.193    0.375   80.532  272.099    5.696
  496.750    0.189    0.384   78.183  272.345    5.713
  497.000    0.198    0.385   75.898  272.584    5.676
  497.250    0.211    0.382   73.425  272.721    5.702
  497.500    0.208    0.395   71.825  272.759    5.796
  497.750    0.201    0.425   74.526  272.894    5.979
  498.000    0.208    0.431   76.293  272.929    6.146
  498.250    0.220    0.420   77.190  272.962    6.176
  498.500    0.219    0.406   77.957  272.585    6.078
  498.750    0.224    0.411   79.408  272.307    5.803
  499.000    0.231    0.427   76.563  272.027    5.518
  499.250    0.238    0.417   76.396  271.859    5.258
  499.500    0.250    0.425   77.478  271.786    5.029
  499.750    0.266    0.437   78.746  271.717    4.765
  500.000    0.252    0.428   81.135  271.339    4.558
  500.250    0.237    0.409   83.897  271.271    4.385
  500.500    0.226    0.414   84.977  271.613    4.405
  500.750    0.214    0.418   86.745  272.168    4.811
  501.000    0.206    0.429   89.007  272.517    5.117
  501.250    0.231    0.447   87.784  272.551    5.132
  501.500    0.239    0.431   85.497  272.384    5.108
  501.750    0.236    0.398   80.469  272.306    5.008
  502.000    0.236    0.411   82.172  272.351    4.854
  502.250    0.233    0.431   84.998  272.587    4.731
  502.500    0.228    0.430   86.578  272.932    4.629
  502.750    0.226    0.418   84.105  273.487    4.582
  503.000    0.225    0.399   82.755  273.418    4.612
  503.250    0.220    0.384   83.090  273.034    4.652
  503.500    0.213    0.390   82.986  272.343    4.683
  503.750    0.207    0.400   82.880  271.761    4.750
  504.000    0.217    0.399   83.089  271.377    4.901
  504.250    0.222    0.400   83.233  271.102    5.038
  504.500    0.219    0.416   83.941  270.719    5.267
  504.750    0.210    0.424   84.210  270.336    5.678
  505.000    0.215    0.431   80.740  269.750    5.958
  505.250    0.238    0.445   76.460  269.056    6.137
  505.500    0.248    0.489   73.865  268.673    6.061
  505.750    0.255    0.478   75.257  268.084    5.721
  506.000    0.227    0.424   77.896  267.393    5.390
  506.250    0.213    0.397   81.843  266.083    4.698
  506.500    0.200    0.385   85.354  264.868    4.409
  506.750    0.180    0.400   88.616  262.930    4.323
  507.000    0.178    0.420   91.503  261.508    4.279
  507.250    0.180    0.437   93.520  260.087    4.323
  507.500    0.175    0.440   93.787  258.047    4.435
  507.750    0.178    0.426   92.873  256.419    4.918
  508.000    0.196    0.435   91.524  254.376    5.707
  508.250    0.210    0.458   87.306  251.397    7.157
  508.500    0.171    0.445   77.792  244.474    9.591
  508.750    0.119    0.224   62.420  234.744   13.124
  509.000    0.095    0.243   56.022  238.936   16.618
  509.250    0.160    0.280   57.289  242.604   14.457
  509.500    0.157    0.312   59.116  245.964   11.793
  509.750    0.138    0.302   63.439  249.636    9.441
  510.000    0.158    0.280   75.736  251.641    7.923
  510.250    0.182    0.336   86.164  251.884    6.829
  510.500    0.224    0.409   87.619  253.477    5.986
  510.750    0.252    0.420   84.025  255.175    5.228
  511.000    0.212    0.408   83.363  258.532    4.715
  511.250    0.195    0.423   83.195  259.815    4.269
  511.500    0.184    0.457   83.651  267.743    4.006
  511.750    0.184    0.448   85.293  271.622    3.891
  512.000    0.183    0.415   87.682  273.526    3.880
  512.250    0.176    0.377   89.945  274.494    3.884
  512.500    0.164    0.412   88.598  275.366    3.925
  512.750    0.160    0.487   86.437  277.062    3.966
  513.000    0.198    0.490   82.032  280.520    4.031
  513.250    0.203    0.447   78.624  281.074    4.081
  513.500    0.192    0.418   81.762  277.681    4.101
  513.750    0.194    0.439   86.331  276.157    4.066
  514.000    0.204    0.448   91.898  276.715    4.031
  514.250    0.221    0.429   85.440  278.620    3.982
  514.500    0.234    0.403   80.224  281.040    3.926
  514.750    0.256    0.471   80.434  286.371    3.938
  515.000    0.276    0.506   82.884  295.443    3.971
  515.250    0.320    0.464   85.272  302.540    4.013
  515.500    0.259    0.432   87.039  302.056    4.032
  515.750    0.196    0.425   89.054  287.964    3.990
  516.000    0.191    0.414   92.005  285.091    3.883
  516.250    0.207    0.394   92.275  287.312    3.749
  516.500    0.212    0.431   88.306  287.761    3.572
  516.750    0.221    0.459   82.967  289.665    3.240
  517.000    0.231    0.472   81.554  298.214    2.956
  517.250    0.251    0.476   85.003  291.185    2.691
  517.500    0.279    0.507   82.532  290.493    2.879
  517.750    0.271    0.476   76.320  300.603    3.284
  518.000    0.231    0.461   82.324  293.889    3.580
  518.250    0.217    0.448   85.834  282.079    3.917
  518.500    0.210    0.427   88.036  276.612    4.134
  518.750    0.207    0.405   87.372  277.892    4.291
  519.000    0.205    0.424   86.085  281.357    4.369
  519.250    0.202    0.439   86.294  285.959    4.457
  519.500    0.200    0.424   87.871  290.984    4.633
  519.750    0.200    0.413   90.758  293.612    4.927
  520.000    0.202    0.402   92.524  295.309    5.402
  520.250    0.210    0.393   93.168  294.721    5.856
  520.500    0.226    0.396   87.643  293.094    6.203
  520.750    0.227    0.401   78.626  291.671    6.059
  521.000    0.188    0.354   72.789  289.942    5.433
  521.250    0.162    0.335   77.797  289.873    4.910
  521.500    0.178    0.368   82.681  291.986    4.487
  521.750    0.196    0.409   85.194  294.409    3.972
  522.000    0.208    0.402   86.710  298.082    3.616
  522.250    0.204    0.404   87.852  299.983    3.545
  522.500    0.207    0.415   89.305  302.515    3.644
  522.750    0.213    0.423   90.761  303.895    3.818
  523.000    0.207    0.427   90.094  305.490    4.099
  523.250    0.199    0.436   87.563  308.225    4.605
  523.500    0.191    0.445   88.143  308.885    5.030
  523.750    0.194    0.453   87.353  305.800    5.209
  524.000    0.197    0.418   75.283  305.108    5.334
  524.250    0.196    0.390   71.876  305.456    5.370
  524.500    0.200    0.397   73.270  307.362    5.294
  524.750    0.210    0.404   73.352  309.472    5.190
  525.000    0.220    0.416   74.992  311.898    5.127
  525.250    0.221    0.430   82.369  314.734    5.083
  525.500    0.213    0.423   83.263  317.159    5.041
  525.750    0.180    0.382   82.409  315.739    5.008
  526.000    0.191    0.354   83.179  315.776    4.956
  526.250    0.200    0.363   84.446  317.261    4.886
  526.500    0.191    0.377   86.523  318.649    4.791
  526.750    0.178    0.403   88.040  318.369    4.696
  527.000    0.173    0.413   85.817  315.810    4.570
  527.250    0.191    0.418   84.156  316.777    4.488
  527.500    0.218    0.421   84.053  324.086    4.399
  527.750    0.247    0.431   82.577  330.664    4.289
  528.000    0.292    0.449   80.604  339.941    4.164
  528.250    0.312    0.460   79.315  351.819    4.014
  528.500    0.304    0.471   79.460  364.939    3.942
  528.750    0.314    0.500   81.849  379.414    3.999
  529.000    0.365    0.565   86.483  386.198    4.342
  529.250    0.327    0.534   85.568  384.470    5.001
  529.500    0.230    0.394   76.926  372.245    5.630
  529.750    0.192    0.381   81.001  330.733    6.242
  530.000    0.201    0.379   82.452  321.938    6.715
  530.250    0.217    0.397   77.239  315.327    7.502
  530.500    0.222    0.404   72.772  310.791    8.478
  530.750    0.232    0.400   70.362  308.124    9.085
  531.000    0.230    0.392   71.444  306.290    9.645
  531.250    0.226    0.380   71.900  304.983   10.008
  531.500    0.221    0.370   68.368  304.284   10.209
  531.750    0.214    0.391   66.396  304.003   10.259
  532.000    0.202    0.404   63.300  304.045   10.209
  532.250    0.195    0.387   63.883  304.489    9.971
