~VERSION INFORMATION
 VERS.                 2.0:   CWLS LOG ASCII STANDARD -VERSION 2.0
 WRAP.                  NO:   ONE LINE PER DEPTH STEP
~WELL INFORMATION BLOCK
#MNEM.UNIT           DATA                    DESCRIPTION OF MNEMONIC
#---------    -------------------            -------------------------------
# Generated from Intellog Unique Number	CW_73_75/WELL/1044
WELL.         PARAMOUNT ER AL RO 11-20       : Well_name    - WELL
LOC .         00/11-20-075-22W4/0            : Location     - LOCATION
UWI .         00/11-20-075-22W4/0            : Uwi          - UNIQUE WELL ID
ENTR.         JAYE                           : Entered      - ENTERED BY
SRVC.         WESTERN ATLAS                  : Scn          - SERVICE COMPANY
DATE.         22 FEB 77                      : Date         - LOG DATE
STRT.M        359.664                        : top_depth    - START DEPTH
STOP.M        612.664                        : bot_depth    - STOP DEPTH
STEP.M        0.25                           : increment    - STEP LENGTH
 NULL. -999.2500:NULL Value
~CURVE INFORMATION BLOCK
#MNEM UNIT       ERCB CURVE CODE    CURVE DESCRIPTION
#-----------   ------------------   ----------------------------------
DEPT.M        00 001 00 00         : DEPTH        - DEPTH
ILD .OHMM     00 120 00 00         : RESD         - DEEP RESISTIVITY (DIL)
NPHI.V/V      00 330 00 00         : PHIN         - NEUTRON POROSITY (SANDSTONE)
DPHI.V/V      00 890 00 00         : PHID         - DENSITY POROSITY (SANDSTONE)
GR  .API      00 310 00 00         : GR           - GAMMA RAY
CALI.MM       00 280 01 00         : CAL          - CALIPER
~PARAMETER INFORMATION
#MNEM.UNIT           DATA             DESCRIPTION OF MNEMONIC
#---------         -----------     ------------------------------
GL  .M        651.51               : gl           - GROUND LEVEL ELEVATION
EREF.M        654.558              : kb           - ELEVATION OF DEPTH REFERENCE
DATM.M        651.51               : datum        - DATUM ELEVATION
TDD .M        624.23               : tdd          - TOTAL DEPTH DRILLER
RUN .         ONE                  : Run          - RUN NUMBER
ENG .         KING                 : Engineer     - RECORDING ENGINEER
WIT .         COMMELLY             : Witness      - WITNESSED BY
BASE.         MEDICINE HAT         : Branch       - HOME BASE OF LOGGING UNIT
MUD .         GEL CHEM             : Mud_type     - MUD TYPE
MATR.         SANDSTONE            : Logunit      - NEUTRON MATRIX
TMAX.C        20.5556              : BHT          - MAXIMUM RECORDED TEMPERATURE
BHTD.M        624.84               : BHTDEP       - MAXIMUM RECORDED TEMPERATURE
RMT .C        15                   : MDTP         - TEMPERATURE OF MUD
MUDD.KG/M     1176                 : MWT          - MUD DENSITY
NEUT.         1                    : NEUTRON      - NEUTRON TYPE
RESI.         0                    : RESIST       - RESISTIVITY TYPE
RM  .OHMM     3.4                  : RM           - RESISTIVITY OF MUD
RMC .OHMM     0                    : RMC          - RESISTIVITY OF MUD CAKE
RMF .OHMM     2.4                  : RMF          - RESISTIVITY OF MUD FILTRATE
SUFT.C        -17.7778             : SUFT         - SURFACE TEMPERATURE
~A  DEPTH     RESD     PHIN     PHID       GR      CAL
# ...
  578.664    3.781    0.290    0.264   56.426  165.574
  578.914    4.158    0.318    0.261   67.636  165.773
  579.164    4.570    0.367    0.257   92.989  164.930
  579.414    5.004    0.410    0.240  116.539  163.253
  579.664    5.463    0.436    0.234  131.666  162.620
  579.914    5.947    0.465    0.279  147.093  162.610
  580.164    6.674    0.509    0.290  157.702  162.914
  580.414    7.328    0.531    0.288  163.203  163.113
  580.664    7.536    0.538    0.307  154.861  164.665
  580.914    7.571    0.513    0.314  144.416  166.220
  581.164    7.568    0.479    0.273  136.986  166.627
  581.414    7.558    0.449    0.286  130.748  166.513
  581.664    7.385    0.413    0.309  115.185  166.088
  581.914    6.781    0.383    0.288   97.819  165.245
  582.164    6.321    0.363    0.266   90.089  163.671
  582.414    6.100    0.351    0.275   90.772  162.830
  582.664    6.064    0.356    0.284   99.278  161.881
  582.914    6.069    0.408    0.287  117.709  162.186
  583.164    6.155    0.476    0.287  138.255  163.634
  583.414    6.467    0.555    0.321  163.017  164.772
  583.664    6.878    0.596    0.349  165.192  166.638
  583.914    7.070    0.565    0.333  164.673  167.253
  584.164    7.164    0.570    0.238  164.755  167.244
  584.414    6.853    0.575    0.256  170.857  166.818
  584.664    6.370    0.335    0.254  157.708  166.496
  584.914    5.450    0.296    0.204  137.337  165.965
  585.164    4.855    0.274    0.227   81.459  164.498
  585.414    4.259    0.246    0.264   35.817  162.194
  585.664    3.825    0.190    0.259   30.190  161.353
  585.914    3.514    0.174    0.255   38.395  161.448
  586.164    3.324    0.189    0.253   47.202  162.167
  586.414    3.272    0.221    0.249   60.525  163.305
  586.664    3.309    0.322    0.244   71.435  164.441
  586.914    3.500    0.328    0.231   79.640  165.266
  587.164    3.910    0.327    0.217   93.264  165.673
  587.414    4.402    0.337    0.191  110.494  165.872
  587.664    4.821    0.363    0.189  136.147  165.965
  587.914    5.263    0.417    0.196  148.570  165.957
  588.164    5.520    0.493    0.208  118.273  165.844
  588.414    5.371    0.301    0.216   75.936  165.313
  588.664    5.165    0.287    0.238   59.472  164.365
  588.914    4.910    0.287    0.241   60.155  163.732
  589.164    4.679    0.305    0.228   71.665  163.722
  589.414    4.789    0.320    0.210   87.693  164.546
  589.664    5.054    0.307    0.203   96.810  165.788
  589.914    6.000    0.283    0.209  108.030  167.652
  590.164    6.768    0.302    0.221  118.629  168.478
  590.414    7.461    0.329    0.265  131.652  168.781
  590.664    8.108    0.419    0.385  139.557  168.668
  590.914    8.932    0.599    0.489  132.418  168.760
  591.164    9.439    0.593    0.415  145.451  168.960
  591.414    9.509    0.583    0.372  144.321  169.263
  591.664    9.295    0.565    0.360  139.285  169.670
  591.914    8.829    0.548    0.336  111.402  169.870
  592.164    8.063    0.407    0.290   92.824  170.174
  592.414    7.329    0.239    0.225   78.172  169.956
  592.664    6.887    0.243    0.229   80.078  169.113
  592.914    6.812    0.275    0.310   84.657  167.541
  593.164    7.214    0.501    0.354   94.364  167.115
  593.414    7.771    0.597    0.413  117.013  167.730
  593.664    8.261    0.600    0.448  136.046  168.555
  593.914    8.558    0.554    0.358  143.349  170.108
  594.164    8.856    0.514    0.285  152.757  171.349
  594.414    8.642    0.412    0.132  154.952  172.278
  594.664    8.297    0.353    0.118  142.394  170.497
  594.914    7.790    0.341    0.120  142.497  168.507
  595.164    7.300    0.344    0.107  150.091  169.957
  595.414    6.859    0.374    0.118  154.379  171.302
  595.664    6.490    0.435    0.121  159.580  172.335
  595.914    6.218    0.480    0.117  164.780  172.013
  596.164    6.022    0.462    0.122  161.547  171.794
  596.414    5.726    0.433    0.119  158.324  171.578
  596.664    5.471    0.457    0.131  153.298  171.253
  596.914    5.240    0.471    0.143  148.562  171.246
  597.164    5.140    0.468    0.141  141.433  171.028
  597.414    4.908    0.414    0.139  135.796  170.497
  597.664    4.790    0.398    0.136  131.671  170.280
  597.914    4.716    0.388    0.129  128.147  169.646
  598.164    4.630    0.362    0.123  127.639  168.698
  598.414    4.587    0.363    0.134  124.095  167.647
  598.664    4.528    0.381    0.145  117.266  166.910
  598.914    4.419    0.387    0.152  113.131  166.795
  599.164    4.318    0.333    0.160  102.696  166.890
  599.414    4.185    0.341    0.174   98.872  166.777
  599.664    3.952    0.364    0.182   95.338  166.455
  599.914    3.845    0.386    0.179   87.608  166.133
  600.164    3.678    0.360    0.195   85.887  165.810
  600.414    3.545    0.305    0.194   79.639  165.488
  600.664    3.412    0.278    0.186   81.544  165.481
  600.914    3.305    0.257    0.201   77.710  165.469
  601.164    3.179    0.276    0.236   71.171  165.461
  601.414    3.069    0.292    0.246   58.333  165.867
  601.664    2.986    0.319    0.226   56.302  165.755
  601.914    2.892    0.271    0.236   52.167  165.225
  602.164    2.833    0.278    0.257   53.150  165.111
  602.414    2.756    0.329    0.262   64.671  164.997
  602.664    2.712    0.387    0.235   71.073  165.093
  602.914    2.758    0.431    0.214   81.983  166.333
  603.164    2.885    0.436    0.194   97.410  167.991
  603.414    3.108    0.422    0.172  111.635  169.127
  603.664    3.347    0.356    0.149  117.737  169.847
  603.914    3.483    0.335    0.181  103.376  168.380
  604.164    3.245    0.324    0.200   99.552  166.285
  604.414    2.998    0.340    0.219   86.693  164.714
  604.664    2.864    0.397    0.251   83.770  163.455
  604.914    2.820    0.384    0.224   98.596  162.820
  605.164    2.865    0.314    0.194  116.727  162.812
  605.414    2.985    0.308    0.180  130.351  164.781
  605.664    3.290    0.333    0.110  156.906  166.647
  605.914    3.725    0.368    0.094  174.447  168.616
  606.164    4.313    0.387    0.096  172.125  169.961
  606.414    4.781    0.423    0.089  175.212  170.683
  606.664    5.182    0.392    0.095  184.619  170.256
  606.914    5.228    0.384    0.101  190.731  169.935
  607.164    5.176    0.407    0.100  188.690  169.611
  607.414    5.041    0.417    0.109  183.664  169.499
  607.664    4.967    0.380    0.121  179.239  169.281
  607.914    4.849    0.364    0.115  170.296  169.270
  608.164    4.732    0.406    0.090  169.777  169.263
  608.414    4.623    0.418    0.078  166.564  169.461
  608.664    4.498    0.375    0.103  163.922  169.660
  608.914    4.346    0.365    0.141  163.413  169.860
  609.164    4.265    0.404    0.153  157.776  169.851
  609.414    4.114    0.428    0.157  135.903  167.340
  609.664    3.990    0.417    0.171  117.936  164.831
  609.914    3.833    0.365    0.190  124.639  163.987
  610.164    3.675    0.402    0.230  129.228  163.979
  610.414    3.558    0.418    0.220  110.960  164.490
  610.664    3.448    0.317    0.196  101.116  164.689
  610.914    3.414    0.333    0.171   95.189  164.680
  611.164    3.450    0.386    0.170  105.508  164.877
  611.414    3.602    0.367    0.157   97.767  164.973
  611.664    4.021    0.246    0.136   88.224  165.171
  611.914    4.504    0.205    0.131   83.789  165.060
  612.164    4.972    0.113    0.099   59.201  165.049
  612.414    5.292    0.082    0.073   42.145  165.769
  612.664    5.394    0.063    0.064   42.528  164.925
