~VERSION INFORMATION
 VERS.                 2.0:   CWLS LOG ASCII STANDARD -VERSION 2.0
 WRAP.                  NO:   ONE LINE PER DEPTH STEP
~WELL INFORMATION BLOCK
#MNEM.UNIT           DATA                    DESCRIPTION OF MNEMONIC
#---------    -------------------            -------------------------------
# Generated from Intellog Unique Number	CS_67_68/WELL/2205
WELL.         GOEG et al HYLO                : Well_name    - WELL
LOC .         00/11-10-067-14W4/0            : Location     - LOCATION
UWI .         00/11-10-067-14W4/0            : Uwi          - UNIQUE WELL ID
ENTR.         SP                             : Entered      - ENTERED BY
SRVC.         SCHLUMBERGER                   : Scn          - SERVICE COMPANY
STRT.M        310                            : top_depth    - START DEPTH
STOP.M        505                            : bot_depth    - STOP DEPTH
STEP.M        0.25                           : increment    - STEP LENGTH
 NULL. -999.2500:NULL Value
~CURVE INFORMATION BLOCK
#MNEM UNIT       ERCB CURVE CODE    CURVE DESCRIPTION
#-----------   ------------------   ----------------------------------
DEPT.M        00 001 00 00         : DEPTH        - DEPTH
ILD .OHMM     00 120 00 00         : RESD         - DEEP RESISTIVITY (DIL)
DPHI.V/V      00 890 00 00         : PHID         - DENSITY POROSITY (LIMESTONE)
NPHI.V/V      00 330 00 00         : PHIN         - NEUTRON POROSITY (LIMESTONE)
GR  .API      00 310 00 00         : GR           - GAMMA RAY
CALI.MM       00 280 01 00         : CAL          - CALIPER
~PARAMETER INFORMATION
#MNEM.UNIT           DATA             DESCRIPTION OF MNEMONIC
#---------         -----------     ------------------------------
GL  .M        575.5                : gl           - GROUND LEVEL ELEVATION
EREF.M        578.5                : kb           - ELEVATION OF DEPTH REFERENCE
DATM.M        578.5                : datum        - DATUM ELEVATION
TDD .M        506                  : tdd          - TOTAL DEPTH DRILLER
RUN .         ONE                  : Run          - RUN NUMBER
ENG .         BILL                 : Engineer     - RECORDING ENGINEER
WIT .         JIM                  : Witness      - WITNESSED BY
MUD .         GEL                  : Mud_type     - MUD TYPE
MATR.         LIMESTONE            : Logunit      - NEUTRON MATRIX
TMAX.C        22                   : BHT          - MAXIMUM RECORDED TEMPERATURE
BHTD.M        506                  : BHTDEP       - MAXIMUM RECORDED TEMPERATURE
MATR.         1                    : LOGUNIT      - NEUTRON MATRIX
RMT .C        25                   : MDTP         - TEMPERATURE OF MUD
NEUT.         1                    : NEUTRON      - NEUTRON TYPE
RESI.         0                    : RESIST       - RESISTIVITY TYPE
RMC .OHMM     0.25                 : RMC          - RESISTIVITY OF MUD CAKE
RMF .OHMM     0.25                 : RMF          - RESISTIVITY OF MUD FILTRATE
SUFT.C        15                   : SUFT         - SURFACE TEMPERATURE
~A  DEPTH     RESD     PHID     PHIN       GR      CAL
  310.000    2.614    0.215    0.468  121.751  183.643
  310.250    2.794    0.198    0.479  123.328  182.822
  310.500    3.076    0.185    0.487  119.608  180.072
  310.750    3.252    0.069    0.469  115.524  175.698
  311.000    3.319    0.017    0.480  109.857  173.559
  311.250    3.157    0.000    0.394  100.658  172.433
  311.500    2.911    0.000    0.379   90.791  167.553
  311.750    2.684    0.179    0.411  110.508  159.426
  312.000    2.479    0.217    0.444  117.381  159.010
  312.250    2.398    0.211    0.464  121.454  168.638
  312.500    2.420    0.199    0.482  123.882  174.006
  312.750    2.582    0.212    0.487  124.669  174.910
  313.000    2.660    0.217    0.496  123.323  174.189
  313.250    2.611    0.213    0.487  122.221  172.759
  313.500    2.516    0.202    0.472  129.703  171.226
  313.750    2.484    0.189    0.462  129.879  172.232
  314.000    2.489    0.183    0.445  125.004  175.570
  314.250    2.583    0.206    0.454  122.258  177.690
  314.500    2.569    0.201    0.480  126.452  179.507
  314.750    2.476    0.206    0.469  128.577  179.496
  315.000    2.360    0.215    0.447  128.632  177.153
  315.250    2.368    0.203    0.460  129.661  175.215
  315.500    2.431    0.192    0.473  125.211  174.292
  315.750    2.462    0.191    0.449  122.405  173.064
  316.000    2.360    0.208    0.451  121.302  172.243
  316.250    2.152    0.198    0.459  120.931  172.029
  316.500    2.032    0.190    0.466  120.743  172.627
  316.750    1.958    0.215    0.477  120.129  175.054
  317.000    2.010    0.214    0.489  120.062  176.870
  317.250    2.132    0.244    0.497  112.811  175.947
  317.500    2.305    0.300    0.409   93.447  174.313
  317.750    2.537    0.360    0.394   69.821  168.317
  318.000    2.942    0.458    0.417   59.527  160.191
  318.250    3.645    0.556    0.492   52.459  162.514
  318.500    4.149    0.602    0.538   50.444  163.925
  318.750    4.635    0.634    0.575   56.100  164.321
  319.000    4.274    0.650    0.609   60.903  164.918
  319.250    3.468    0.568    0.647   67.837  164.908
  319.500    2.678    0.410    0.602   73.492  164.189
  319.750    2.336    0.348    0.539   79.331  162.961
  320.000    2.138    0.323    0.473   78.898  161.226
  320.250    1.956    0.306    0.435   69.518  158.985
  320.500    1.844    0.293    0.408   61.902  156.337
  320.750    1.754    0.306    0.395   54.774  154.501
  321.000    1.861    0.303    0.384   49.471  156.418
  321.250    2.064    0.309    0.377   49.404  157.016
  321.500    2.281    0.315    0.370   53.477  157.210
  321.750    2.587    0.299    0.367   61.019  156.386
  322.000    2.874    0.255    0.359   70.023  155.667
  322.250    3.241    0.224    0.369   81.706  155.149
  322.500    3.588    0.237    0.378   89.614  154.634
  322.750    3.878    0.245    0.371   96.486  153.608
  323.000    4.039    0.219    0.379  100.803  152.584
  323.250    3.556    0.203    0.389  108.345  152.472
  323.500    2.880    0.204    0.398  114.061  154.492
  323.750    2.342    0.200    0.414  119.351  158.338
  324.000    2.046    0.209    0.443  122.815  161.270
  324.250    1.842    0.186    0.520  127.497  164.101
  324.500    1.743    0.196    0.561  133.091  166.221
  324.750    1.788    0.225    0.533  133.573  168.139
  325.000    1.929    0.242    0.503  131.254  169.752
  325.250    2.101    0.270    0.509  126.925  169.742
  325.500    2.208    0.279    0.503  121.684  165.470
  325.750    2.304    0.288    0.455  112.607  159.474
  326.000    2.300    0.297    0.445   98.539  155.305
  326.250    2.254    0.286    0.433   94.515  151.643
  326.500    2.180    0.291    0.422   91.040  150.110
  326.750    2.140    0.269    0.424   87.868  149.796
  327.000    2.185    0.265    0.434   94.071  151.713
  327.250    2.271    0.281    0.438  100.214  155.254
  327.500    2.459    0.274    0.438  105.808  156.462
  327.750    2.633    0.259    0.424   99.714  156.959
  328.000    2.737    0.239    0.412   85.707  156.544
  328.250    2.738    0.156    0.376   76.509  156.534
  328.500    2.698    0.114    0.339   68.650  156.321
  328.750    2.605    0.168    0.354   74.183  156.007
  329.000    2.428    0.248    0.385   81.178  155.997
  329.250    2.344    0.270    0.413   83.059  157.306
  329.500    2.297    0.289    0.429   88.289  158.715
  329.750    2.336    0.310    0.427   94.310  158.909
  330.000    2.465    0.282    0.425   98.808  157.479
  330.250    2.649    0.284    0.424  102.090  156.859
  330.500    2.916    0.291    0.432  106.101  156.850
  330.750    3.158    0.283    0.441  108.896  157.042
  331.000    3.332    0.268    0.446  112.603  156.930
  331.250    3.382    0.255    0.428  112.536  157.023
  331.500    3.265    0.242    0.422  115.270  157.114
  331.750    3.055    0.224    0.437  124.091  159.540
  332.000    2.890    0.198    0.450  131.572  164.196
  332.250    2.843    0.196    0.443  136.863  167.534
  332.500    2.989    0.170    0.438  142.153  170.061
  332.750    3.136    0.200    0.434  147.199  170.863
  333.000    3.302    0.230    0.424  149.446  168.925
  333.250    3.290    0.215    0.414  138.300  165.972
  333.500    3.062    0.228    0.406  124.292  163.121
  333.750    2.781    0.242    0.404  108.580  160.677
  334.000    2.588    0.256    0.405  100.295  158.128
  334.250    2.462    0.272    0.406   96.758  157.408
  334.500    2.431    0.278    0.413   95.778  156.892
  334.750    2.481    0.285    0.421   97.050  156.680
  335.000    2.527    0.286    0.426   99.236  156.670
  335.250    2.560    0.274    0.428  104.343  156.355
  335.500    2.594    0.272    0.422  108.112  155.533
  335.750    2.594    0.277    0.414  106.280  154.204
  336.000    2.570    0.278    0.419  104.204  152.976
  336.250    2.551    0.274    0.428  108.885  152.562
  336.500    2.331    0.273    0.425  113.810  153.870
  336.750    1.930    0.269    0.440  118.492  157.818
  337.000    1.507    0.267    0.441  107.650  159.024
  337.250    1.119    0.263    0.475   67.162  158.101
  337.500    0.918    0.218    0.538   47.371  156.874
  337.750    0.827    0.176    0.559   35.555  156.559
  338.000    0.946    0.268    0.579   75.910  156.446
  338.250    1.105    0.304    0.605   85.583  156.235
  338.500    1.337    0.330    0.481   87.829  156.022
  338.750    1.553    0.346    0.458   88.492  156.114
  339.000    1.841    0.334    0.446   90.861  156.206
  339.250    2.004    0.344    0.455   94.690  155.280
  339.500    2.068    0.357    0.466   96.815  154.561
  339.750    2.087    0.369    0.472   97.113  153.740
  340.000    1.993    0.384    0.469   94.062  152.817
  340.250    1.882    0.372    0.470   91.440  152.097
  340.500    1.794    0.354    0.469   86.563  151.578
  340.750    1.855    0.337    0.457   86.193  151.264
  341.000    1.994    0.328    0.463   88.195  150.645
  341.250    2.092    0.321    0.450   86.180  149.823
  341.500    2.355    0.336    0.440   84.652  149.509
  341.750    2.587    0.321    0.449   86.595  149.701
  342.000    2.822    0.302    0.437   87.562  150.097
  342.250    2.849    0.296    0.448   86.887  150.393
  342.500    2.593    0.297    0.442   85.115  150.586
  342.750    2.499    0.303    0.432   83.283  150.576
  343.000    2.617    0.320    0.438   84.860  149.044
  343.250    2.681    0.323    0.450   84.550  147.208
  343.500    2.741    0.303    0.442   84.421  146.184
  343.750    2.797    0.285    0.438   85.269  145.464
  344.000    2.839    0.271    0.446   87.147  147.583
  344.250    2.871    0.276    0.442   87.752  149.400
  344.500    2.898    0.303    0.445   88.294  151.217
  344.750    2.898    0.319    0.457   86.340  153.033
  345.000    2.824    0.322    0.444   83.534  152.718
  345.250    2.732    0.311    0.428   84.806  151.390
  345.500    2.638    0.324    0.414   86.688  150.464
  345.750    2.500    0.325    0.438   85.220  151.166
  346.000    2.322    0.323    0.443   81.318  152.780
  346.250    2.173    0.329    0.448   78.208  153.987
