~VERSION INFORMATION
 VERS.                 2.0:   CWLS LOG ASCII STANDARD -VERSION 2.0
 WRAP.                  NO:   ONE LINE PER DEPTH STEP
~WELL INFORMATION BLOCK
#MNEM.UNIT           DATA                    DESCRIPTION OF MNEMONIC
#---------    -------------------            -------------------------------
# Generated from Intellog Unique Number	CW_73_75/WELL/1044
WELL.         PARAMOUNT ER AL RO 11-20       : Well_name    - WELL
LOC .         00/11-20-075-22W4/0            : Location     - LOCATION
UWI .         00/11-20-075-22W4/0            : Uwi          - UNIQUE WELL ID
ENTR.         JAYE                           : Entered      - ENTERED BY
SRVC.         WESTERN ATLAS                  : Scn          - SERVICE COMPANY
DATE.         22 FEB 77                      : Date         - LOG DATE
STRT.M        359.664                        : top_depth    - START DEPTH
STOP.M        612.664                        : bot_depth    - STOP DEPTH
STEP.M        0.25                           : increment    - STEP LENGTH
 NULL. -999.2500:NULL Value
~CURVE INFORMATION BLOCK
#MNEM UNIT       ERCB CURVE CODE    CURVE DESCRIPTION
#-----------   ------------------   ----------------------------------
DEPT.M        00 001 00 00         : DEPTH        - DEPTH
ILD .OHMM     00 120 00 00         : RESD         - DEEP RESISTIVITY (DIL)
NPHI.V/V      00 330 00 00         : PHIN         - NEUTRON POROSITY (SANDSTONE)
DPHI.V/V      00 890 00 00         : PHID         - DENSITY POROSITY (SANDSTONE)
GR  .API      00 310 00 00         : GR           - GAMMA RAY
CALI.MM       00 280 01 00         : CAL          - CALIPER
~PARAMETER INFORMATION
#MNEM.UNIT           DATA             DESCRIPTION OF MNEMONIC
#---------         -----------     ------------------------------
GL  .M        651.51               : gl           - GROUND LEVEL ELEVATION
EREF.M        654.558              : kb           - ELEVATION OF DEPTH REFERENCE
DATM.M        651.51               : datum        - DATUM ELEVATION
TDD .M        624.23               : tdd          - TOTAL DEPTH DRILLER
RUN .         ONE                  : Run          - RUN NUMBER
ENG .         KING                 : Engineer     - RECORDING ENGINEER
WIT .         COMMELLY             : Witness      - WITNESSED BY
BASE.         MEDICINE HAT         : Branch       - HOME BASE OF LOGGING UNIT
MUD .         GEL CHEM             : Mud_type     - MUD TYPE
MATR.         SANDSTONE            : Logunit      - NEUTRON MATRIX
TMAX.C        20.5556              : BHT          - MAXIMUM RECORDED TEMPERATURE
BHTD.M        624.84               : BHTDEP       - MAXIMUM RECORDED TEMPERATURE
RMT .C        15                   : MDTP         - TEMPERATURE OF MUD
MUDD.KG/M     1176                 : MWT          - MUD DENSITY
NEUT.         1                    : NEUTRON      - NEUTRON TYPE
RESI.         0                    : RESIST       - RESISTIVITY TYPE
RM  .OHMM     3.4                  : RM           - RESISTIVITY OF MUD
RMC .OHMM     0                    : RMC          - RESISTIVITY OF MUD CAKE
RMF .OHMM     2.4                  : RMF          - RESISTIVITY OF MUD FILTRATE
SUFT.C        -17.7778             : SUFT         - SURFACE TEMPERATURE
~A  DEPTH     RESD     PHIN     PHID       GR      CAL
# ...
  505.664    5.742    0.514    0.183  128.293  158.529
  505.914    5.701    0.501    0.177  131.079  158.302
  506.164    5.686    0.479    0.169  133.265  158.490
  506.414    5.677    0.473    0.171  134.860  158.580
  506.664    5.678    0.459    0.170  132.828  159.196
  506.914    5.685    0.432    0.161  130.506  159.709
  507.164    5.684    0.464    0.174  131.490  160.431
  507.414    5.718    0.482    0.189  130.671  160.836
  507.664    5.756    0.477    0.192  134.359  162.085
  507.914    5.894    0.462    0.180  136.554  164.071
  508.164    6.082    0.462    0.177  133.632  165.425
  508.414    6.170    0.466    0.164  119.871  166.143
  508.664    6.195    0.459    0.151  121.155  166.339
  508.914    6.170    0.461    0.167  127.558  166.428
  509.164    6.154    0.468    0.180  129.163  166.411
  509.414    6.137    0.484    0.176  127.152  166.291
  509.664    6.137    0.511    0.171  127.213  166.273
  509.914    6.120    0.506    0.176  128.808  166.254
  510.164    6.129    0.487    0.167  128.590  166.238
  510.414    6.119    0.486    0.173  132.878  166.223
  510.664    6.112    0.470    0.179  135.064  166.416
  510.914    6.119    0.475    0.174  126.722  166.294
  511.164    6.127    0.497    0.167  116.879  167.015
  511.414    6.127    0.481    0.159  118.473  167.737
  511.664    6.142    0.447    0.156  127.580  167.720
  511.914    6.135    0.473    0.159  130.066  167.280
  512.164    6.126    0.506    0.179  129.267  166.843
  512.414    6.102    0.477    0.176  127.847  166.087
  512.664    6.085    0.446    0.171  127.007  165.330
  512.914    6.061    0.462    0.170  133.409  164.896
  513.164    6.052    0.460    0.168  136.507  164.562
  513.414    6.060    0.423    0.177  125.761  164.543
  513.664    6.084    0.481    0.178  126.444  164.528
  513.914    6.101    0.486    0.174  128.630  164.510
  514.164    6.107    0.503    0.176  133.229  164.703
  514.414    6.116    0.486    0.178  135.114  164.690
  514.664    6.147    0.474    0.175  135.196  165.197
  514.914    6.172    0.495    0.170  133.486  165.499
  515.164    6.197    0.489    0.165  130.853  166.219
  515.414    6.212    0.467    0.158  127.941  166.624
  515.664    6.228    0.457    0.152  128.023  167.136
  515.914    6.211    0.484    0.164  132.913  167.013
  516.164    6.171    0.473    0.163  129.389  166.680
  516.414    6.138    0.502    0.154  126.757  166.556
  516.664    6.073    0.483    0.165  134.361  166.223
  516.914    6.000    0.476    0.167  136.868  165.786
  517.164    5.958    0.479    0.163  136.048  166.295
  517.414    5.942    0.467    0.160  137.022  168.178
  517.664    5.901    0.454    0.158  133.799  169.426
  517.914    5.885    0.429    0.159  128.762  169.515
  518.164    5.906    0.489    0.151  124.347  167.109
  518.414    5.844    0.475    0.162  121.124  165.953
  518.664    5.786    0.463    0.175  120.595  165.525
  518.914    5.724    0.470    0.180  122.791  165.414
  519.164    5.706    0.459    0.181  116.553  164.780
  519.414    5.727    0.474    0.178  119.039  162.893
  519.664    5.765    0.479    0.173  126.944  161.635
  519.914    5.785    0.436    0.159  132.745  160.167
  520.164    5.789    0.432    0.135  131.926  159.325
  520.414    5.786    0.472    0.158  127.501  158.794
  520.664    5.790    0.480    0.165  128.494  158.890
  520.914    5.797    0.512    0.164  128.887  160.859
  521.164    5.954    0.474    0.156  125.644  162.515
  521.414    6.088    0.466    0.145  119.706  163.237
  521.664    6.200    0.434    0.146  124.906  163.540
  521.914    6.351    0.421    0.163  126.802  162.594
  522.164    6.500    0.415    0.178  126.283  160.292
  522.414    6.596    0.376    0.186  124.262  158.407
  522.664    6.705    0.419    0.186  120.438  157.148
  522.914    6.784    0.445    0.159  116.303  157.449
  523.164    7.023    0.358    0.140  113.069  158.380
  523.414    7.508    0.353    0.121  108.043  160.558
  523.664    8.332    0.294    0.100  104.229  162.424
  523.914    9.140    0.275    0.097  105.804  163.560
  524.164    9.128    0.255    0.090  103.192  163.966
  524.414    8.426    0.195    0.052  106.268  164.062
  524.664    7.968    0.347    0.127  113.272  164.158
  524.914    7.462    0.434    0.143  127.797  164.252
  525.164    7.022    0.432    0.151  126.387  164.033
  525.414    6.531    0.449    0.149  129.464  164.128
  525.664    6.089    0.457    0.146  140.384  164.952
  525.914    5.940    0.456    0.142  152.495  165.777
  526.164    6.057    0.467    0.139  148.972  166.393
  526.414    6.340    0.484    0.137  141.531  166.488
  526.664    6.791    0.434    0.129  131.988  165.749
  526.914    7.038    0.401    0.114  119.740  164.072
  527.164    7.099    0.392    0.115  118.020  162.604
  527.414    7.088    0.385    0.135  119.925  161.552
  527.664    7.077    0.375    0.162  120.598  160.919
  527.914    7.088    0.360    0.161  122.483  160.389
  528.164    7.054    0.344    0.156  119.861  160.067
  528.414    7.024    0.394    0.149  123.549  159.432
  528.664    7.063    0.399    0.151  122.128  158.486
  528.914    7.304    0.385    0.150  128.531  157.746
  529.164    7.536    0.352    0.145  127.411  157.633
  529.414    7.815    0.379    0.114  122.385  158.874
  529.664    8.088    0.381    0.084  114.665  160.636
  529.914    8.419    0.323    0.076  113.535  162.919
  530.164    9.129    0.282    0.088  108.499  164.056
  530.414   10.432    0.255    0.096   98.054  162.484
  530.664   11.605    0.239    0.082   92.717  161.432
  530.914   11.342    0.215    0.075   93.100  160.902
  531.164   10.658    0.191    0.082   97.399  162.351
  531.414    9.947    0.193    0.075  113.427  164.528
  531.664    9.360    0.393    0.116  124.046  165.562
  531.914    8.505    0.462    0.144  121.714  165.969
  532.164    7.626    0.456    0.150  127.215  165.648
  532.414    7.030    0.432    0.143  128.198  165.430
  532.664    6.822    0.446    0.137  126.188  165.421
  532.914    6.747    0.469    0.123  128.363  165.516
  533.164    6.686    0.471    0.119  131.760  165.817
  533.414    6.643    0.436    0.124  127.636  165.910
  533.664    6.599    0.372    0.134  126.526  166.113
  533.914    6.580    0.391    0.141  125.707  166.624
  534.164    6.568    0.427    0.139  120.360  167.030
  534.414    6.562    0.469    0.134  115.935  167.335
  534.664    6.554    0.436    0.127  119.923  167.534
  534.914    6.507    0.409    0.118  126.626  167.626
  535.164    6.481    0.398    0.132  124.905  167.931
  535.414    6.461    0.459    0.141  126.200  168.652
  535.664    6.462    0.472    0.144  129.887  169.371
  535.914    6.470    0.454    0.145  128.187  169.779
  536.164    6.452    0.439    0.143  125.254  169.457
  536.414    6.465    0.460    0.142  124.135  168.406
  536.664    6.493    0.455    0.134  124.807  167.249
  536.914    6.572    0.444    0.115  127.304  166.199
  537.164    6.641    0.456    0.089  130.691  166.086
  537.414    6.337    0.469    0.080  138.295  167.639
  537.664    6.011    0.441    0.108  151.619  169.400
  537.914    5.691    0.417    0.143  150.199  169.600
  538.164    5.523    0.427    0.154  140.355  168.966
  538.414    5.456    0.438    0.151  134.417  167.914
  538.664    5.461    0.434    0.146  132.696  166.655
  538.914    5.401    0.408    0.140  124.665  166.020
  539.164    5.024    0.427    0.127  125.949  166.010
  539.414    4.364    0.412    0.133  132.041  166.314
  539.664    3.605    0.435    0.183  143.272  165.991
  539.914    2.969    0.487    0.191  144.266  164.731
  540.164    2.301    0.554    0.210  139.519  163.265
  540.414    1.818    0.625    0.259  137.799  162.109
  540.664    1.684    0.613    0.257  134.565  161.891
  540.914    1.658    0.594    0.241  129.239  162.091
  541.164    1.759    0.578    0.231  127.528  162.707
  541.414    1.927    0.568    0.219  129.704  163.218
  541.664    2.337    0.500    0.205  129.185  163.624
  541.914    2.805    0.458    0.150  128.676  163.721
