~VERSION INFORMATION
 VERS.                 2.0:   CWLS LOG ASCII STANDARD -VERSION 2.0
 WRAP.                  NO:   ONE LINE PER DEPTH STEP
~WELL INFORMATION BLOCK
#MNEM.UNIT           DATA                    DESCRIPTION OF MNEMONIC
#---------    -------------------            -------------------------------
# Generated from Intellog Unique Number	CS_73_76/WELL/3254
WELL.         10-34-075-09W4                 : Well_name    - WELL
LOC .         00/10-34-075-09W4/0            : Location     - LOCATION
UWI .         00/10-34-075-09W4/0            : Uwi          - UNIQUE WELL ID
ENTR.         SP                             : Entered      - ENTERED BY
SRVC.         SCHLUMBERGER                   : Scn          - SERVICE COMPANY
STRT.M        270                            : top_depth    - START DEPTH
STOP.M        500                            : bot_depth    - STOP DEPTH
STEP.M        0.25                           : increment    - STEP LENGTH
 NULL. -999.2500:NULL Value
~CURVE INFORMATION BLOCK
#MNEM UNIT       ERCB CURVE CODE    CURVE DESCRIPTION
#-----------   ------------------   ----------------------------------
DEPT.M        00 001 00 00         : DEPTH        - DEPTH
ILD .OHMM     00 120 00 00         : RESD         - DEEP RESISTIVITY (DIL)
DPHI.V/V      00 890 00 00         : PHID         - DENSITY POROSITY (LIMESTONE)
NPHI.V/V      00 330 00 00         : PHIN         - NEUTRON POROSITY (LIMESTONE)
GR  .API      00 310 00 00         : GR           - GAMMA RAY
~PARAMETER INFORMATION
#MNEM.UNIT           DATA             DESCRIPTION OF MNEMONIC
#---------         -----------     ------------------------------
GL  .M        673.46               : gl           - GROUND LEVEL ELEVATION
EREF.M        676.81               : kb           - ELEVATION OF DEPTH REFERENCE
DATM.M        673.46               : datum        - DATUM ELEVATION
TDD .M        515                  : tdd          - TOTAL DEPTH DRILLER
RUN .         ONE                  : Run          - RUN NUMBER
ENG .         BILL                 : Engineer     - RECORDING ENGINEER
WIT .         JIM                  : Witness      - WITNESSED BY
MUD .         GEL                  : Mud_type     - MUD TYPE
MATR.         LIMESTONE            : Logunit      - NEUTRON MATRIX
TMAX.C        17.4                 : BHT          - MAXIMUM RECORDED TEMPERATURE
BHTD.M        515                  : BHTDEP       - MAXIMUM RECORDED TEMPERATURE
MATR.         1                    : LOGUNIT      - NEUTRON MATRIX
RMT .C        25                   : MDTP         - TEMPERATURE OF MUD
NEUT.         1                    : NEUTRON      - NEUTRON TYPE
RESI.         0                    : RESIST       - RESISTIVITY TYPE
RMC .OHMM     0.25                 : RMC          - RESISTIVITY OF MUD CAKE
RMF .OHMM     0.25                 : RMF          - RESISTIVITY OF MUD FILTRATE
SUFT.C        15                   : SUFT         - SURFACE TEMPERATURE
~A  DEPTH     RESD     PHID     PHIN       GR
# ...
  444.000    1.892    0.221    0.493   95.376
  444.250    1.823    0.231    0.479   94.146
  444.500    1.823    0.254    0.475   92.307
  444.750    1.822    0.252    0.484   92.297
  445.000    1.822    0.240    0.491   94.721
  445.250    1.822    0.236    0.504   95.325
  445.500    1.788    0.237    0.492   97.144
  445.750    1.691    0.241    0.486   96.523
  446.000    1.598    0.241    0.479   96.515
  446.250    1.350    0.236    0.487   98.334
  446.500    1.207    0.224    0.498   99.544
  446.750    1.253    0.233    0.517  100.138
  447.000    1.428    0.244    0.519   99.521
  447.250    1.598    0.238    0.505   98.288
  447.500    1.891    0.233    0.488   97.673
  447.750    2.196    0.210    0.466   93.394
  448.000    2.000    0.222    0.484   90.946
  448.250    1.963    0.227    0.494   89.714
  448.500    1.891    0.246    0.500   90.314
  448.750    1.926    0.239    0.505   92.132
  449.000    2.000    0.232    0.489   93.953
  449.250    2.155    0.240    0.493   95.164
  449.500    2.279    0.250    0.515   94.540
  449.750    2.411    0.240    0.521   93.921
  450.000    2.697    0.232    0.490   91.093
  450.250    2.852    0.233    0.490   92.308
  450.500    2.905    0.240    0.491   94.737
  450.750    2.905    0.225    0.498   95.951
  451.000    2.904    0.216    0.516   94.737
  451.250    2.850    0.225    0.512   94.737
  451.500    2.797    0.213    0.501   95.951
  451.750    2.796    0.211    0.496   97.773
  452.000    2.796    0.215    0.496   98.381
  452.250    2.957    0.222    0.505   95.951
  452.500    3.069    0.220    0.496   92.915
  452.750    3.185    0.225    0.486   92.308
  453.000    3.245    0.211    0.486   93.522
  453.250    3.244    0.203    0.478   95.344
  453.500    3.244    0.220    0.492   97.166
  453.750    3.367    0.235    0.501   99.595
  454.000    3.910    0.240    0.496   98.381
  454.250    4.213    0.227    0.491   95.951
  454.500    4.540    0.227    0.496   93.522
  454.750    5.577    0.229    0.506   90.486
  455.000    6.599    0.238    0.516   83.806
  455.250    9.961    0.249    0.472   74.696
  455.500   19.176    0.264    0.398   69.838
  455.750   21.053    0.266    0.381   64.373
  456.000   19.899    0.275    0.388   60.729
  456.250   18.119    0.282    0.376   60.729
  456.500   15.596    0.286    0.368   70.445
  456.750   13.424    0.277    0.366   74.089
  457.000   11.554    0.238    0.360   80.769
  457.250   11.993    0.203    0.345   83.806
  457.500   15.295    0.208    0.339   79.555
  457.750   19.505    0.220    0.352   71.660
  458.000   23.080    0.258    0.370   64.373
  458.250   25.820    0.301    0.379   56.478
  458.500   26.798    0.316    0.386   53.441
  458.750   24.860    0.319    0.379   52.227
  459.000   23.498    0.312    0.374   54.049
  459.250   23.059    0.298    0.379   57.085
  459.500   25.317    0.287    0.386   60.729
  459.750   40.420    0.281    0.393   59.514
  460.000   66.992    0.274    0.393   54.656
  460.250  103.022    0.273    0.393   48.583
  460.500  136.392    0.290    0.381   42.510
  460.750  152.572    0.305    0.370   40.688
  461.000  155.437    0.299    0.374   42.510
  461.250  158.343    0.288    0.382   43.117
  461.500  152.494    0.291    0.390   44.939
  461.750  144.138    0.309    0.376   46.154
  462.000  131.238    0.318    0.365   47.976
  462.250  115.097    0.319    0.359   49.798
  462.500  102.846    0.305    0.368   52.834
  462.750   97.216    0.314    0.387   53.441
  463.000   90.179    0.318    0.395   52.834
  463.250   85.243    0.316    0.401   54.049
  463.500   74.757    0.312    0.404   57.085
  463.750   65.565    0.314    0.404   61.943
  464.000   56.436    0.323    0.397   64.373
  464.250   49.494    0.316    0.391   69.838
  464.500   44.226    0.325    0.404   74.089
  464.750   41.029    0.330    0.413   67.409
  465.000   34.661    0.336    0.419   59.514
  465.250   29.835    0.338    0.424   58.300
  465.500   25.203    0.331    0.404   58.300
  465.750   22.948    0.331    0.395   63.765
  466.000   20.506    0.320    0.389   70.445
  466.250   18.669    0.309    0.380   77.733
  466.500   17.647    0.302    0.391   83.198
  466.750   16.068    0.288    0.397   86.842
  467.000   14.358    0.296    0.402   83.198
  467.250   13.072    0.301    0.402   78.947
  467.500   12.127    0.287    0.389   78.947
  467.750   10.836    0.277    0.382   80.769
  468.000   10.437    0.275    0.378   83.806
  468.250    9.326    0.273    0.371   85.020
  468.500    8.651    0.264    0.368   89.271
  468.750    7.731    0.270    0.370   89.879
  469.000    7.307    0.262    0.379   90.486
  469.250    6.779    0.248    0.374   94.130
  469.500    6.652    0.235    0.386   97.166
  469.750    6.527    0.218    0.400   98.381
  470.000    6.650    0.216    0.405  101.417
  470.250    6.774    0.207    0.396  103.846
  470.500    6.901    0.203    0.392  106.275
  470.750    7.030    0.210    0.386  106.275
  471.000    7.161    0.222    0.361  101.417
  471.250    7.295    0.218    0.336   95.951
  471.500    7.432    0.198    0.310   92.308
  471.750    7.570    0.174    0.313   96.559
  472.000    7.712    0.175    0.321   98.381
  472.250    7.711    0.163    0.332  100.202
  472.500    7.709    0.163    0.337   99.595
  472.750    7.708    0.166    0.350   97.166
  473.000    7.851    0.180    0.358   94.130
  473.250    7.851    0.182    0.373   91.093
  473.500    7.849    0.187    0.378   89.271
  473.750    7.847    0.193    0.372   88.057
  474.000    7.994    0.187    0.367   86.235
  474.250    7.993    0.199    0.362   85.627
  474.500    7.991    0.208    0.354   83.806
  474.750    8.141    0.200    0.363   82.591
  475.000    8.139    0.204    0.370   80.769
  475.250    8.137    0.240    0.372   80.162
  475.500    8.136    0.247    0.363   78.340
  475.750    8.135    0.224    0.358   76.518
  476.000    8.134    0.207    0.350   76.518
  476.250    8.132    0.198    0.346   77.126
  476.500    8.130    0.194    0.340   77.733
  476.750    8.128    0.202    0.337   77.733
  477.000    8.280    0.213    0.332   77.733
  477.250    8.279    0.208    0.329   76.518
  477.500    8.278    0.213    0.331   75.911
  477.750    8.276    0.205    0.335   75.911
  478.000    8.275    0.215    0.340   75.911
  478.250    8.429    0.218    0.334   75.304
  478.500    8.428    0.214    0.324   74.696
  478.750    8.426    0.205    0.323   73.482
  479.000    8.425    0.209    0.328   72.267
  479.250    8.423    0.214    0.330   71.660
  479.500    8.580    0.224    0.325   72.874
  479.750    8.579    0.211    0.323   75.911
  480.000    8.577    0.215    0.320   78.340
  480.250    8.576    0.218    0.320   79.555
  480.500    8.736    0.207    0.323   82.591
  480.750    8.734    0.205    0.329   83.806
  481.000    8.733    0.211    0.336   83.806
  481.250    8.897    0.215    0.336   83.198
  481.500    9.063    0.213    0.331   83.198
  481.750    9.406    0.221    0.331   86.235
  482.000    9.583    0.225    0.335   89.879
  482.250   10.521    0.241    0.335   91.700
  482.500   11.127    0.241    0.344   91.700
  482.750   11.990    0.252    0.353   86.842
  483.000   14.187    0.258    0.352   82.591
  483.250   15.577    0.264    0.355   81.376
  483.500   20.240    0.274    0.356   84.413
  483.750   23.507    0.271    0.364   78.947
  484.000   29.420    0.282    0.368   76.518
  484.250   33.535    0.292    0.373   78.340
  484.500   38.945    0.301    0.384   80.769
  484.750   45.229    0.304    0.389   74.696
  485.000   52.526    0.299    0.387   69.231
  485.250   62.154    0.302    0.382   65.587
  485.500   72.179    0.308    0.377   63.765
  485.750   76.337    0.319    0.372   69.838
  486.000   77.765    0.312    0.378   62.551
  486.250   65.695    0.302    0.379   59.514
  486.500   52.466    0.312    0.373   54.656
  486.750   46.883    0.321    0.368   50.405
  487.000   43.493    0.324    0.358   52.227
  487.250   38.864    0.315    0.356   57.085
