~VERSION INFORMATION
 VERS.                 2.0:   CWLS LOG ASCII STANDARD -VERSION 2.0
 WRAP.                  NO:   ONE LINE PER DEPTH STEP
~WELL INFORMATION BLOCK
#MNEM.UNIT           DATA                    DESCRIPTION OF MNEMONIC
#---------    -------------------            -------------------------------
# Generated from Intellog Unique Number	CS_77_79/WELL/1003
WELL.         HOME LEISTER                   : Well_name    - WELL
LOC .         00/11-30-078-06W4/0            : Location     - LOCATION
UWI .         00/11-30-078-06W4/0            : Uwi          - UNIQUE WELL ID
ENTR.         JHS                            : Entered      - ENTERED BY
SRVC.         SCHLUMBERGER                   : Scn          - SERVICE COMPANY
STRT.M        137                            : top_depth    - START DEPTH
STOP.M        384.25                         : bot_depth    - STOP DEPTH
STEP.M        0.25                           : increment    - STEP LENGTH
 NULL. -999.2500:NULL Value
~CURVE INFORMATION BLOCK
#MNEM UNIT       ERCB CURVE CODE    CURVE DESCRIPTION
#-----------   ------------------   ----------------------------------
DEPT.M        00 001 00 00         : DEPTH        - DEPTH
DPHI.V/V      00 890 00 00         : PHID         - DENSITY POROSITY (LIMESTONE)
NPHI.V/V      00 330 00 00         : PHIN         - NEUTRON POROSITY (LIMESTONE)
GR  .API      00 310 00 00         : GR           - GAMMA RAY
ILD .OHMM     00 120 00 00         : RESD         - DEEP RESISTIVITY (DIL)
~PARAMETER INFORMATION
#MNEM.UNIT           DATA             DESCRIPTION OF MNEMONIC
#---------         -----------     ------------------------------
GL  .M        561.09               : gl           - GROUND LEVEL ELEVATION
EREF.M        564.09               : kb           - ELEVATION OF DEPTH REFERENCE
DATM.M        564.09               : datum        - DATUM ELEVATION
TDD .M        386                  : tdd          - TOTAL DEPTH DRILLER
RUN .         ONE                  : Run          - RUN NUMBER
ENG .         BILL                 : Engineer     - RECORDING ENGINEER
WIT .         JIM                  : Witness      - WITNESSED BY
MUD .         GEL                  : Mud_type     - MUD TYPE
MATR.         LIMESTONE            : Logunit      - NEUTRON MATRIX
TMAX.C        27                   : BHT          - MAXIMUM RECORDED TEMPERATURE
BHTD.M        386                  : BHTDEP       - MAXIMUM RECORDED TEMPERATURE
MATR.         1                    : LOGUNIT      - NEUTRON MATRIX
RMT .C        25                   : MDTP         - TEMPERATURE OF MUD
NEUT.         1                    : NEUTRON      - NEUTRON TYPE
RESI.         0                    : RESIST       - RESISTIVITY TYPE
RMC .OHMM     0.25                 : RMC          - RESISTIVITY OF MUD CAKE
RMF .OHMM     0.25                 : RMF          - RESISTIVITY OF MUD FILTRATE
SUFT.C        15                   : SUFT         - SURFACE TEMPERATURE
~A  DEPTH     PHID     PHIN       GR     RESD
# ...
  311.000    0.218    0.404   94.540    5.104
  311.250    0.209    0.433   96.959    5.399
  311.500    0.214    0.456   93.779    6.040
  311.750    0.196    0.495   85.007    6.509
  312.000    0.060    0.428   77.484    7.015
  312.250    0.133    0.300   78.038    7.560
  312.500    0.193    0.322   83.562    7.849
  312.750    0.221    0.388   82.257    7.563
  313.000    0.226    0.420   75.329    7.020
  313.250    0.238    0.444   74.656    6.639
  313.500    0.257    0.425   68.365    6.517
  313.750    0.256    0.451   69.541    6.766
  314.000    0.247    0.422   73.198    7.025
  314.250    0.251    0.389   73.748    7.026
  314.500    0.244    0.359   78.665    7.027
  314.750    0.238    0.330   87.919    7.716
  315.000    0.267    0.371   93.441    8.795
  315.250    0.314    0.409   84.053   10.024
  315.500    0.249    0.550   70.932   12.543
  315.750    0.235    0.580   58.427   16.600
  316.000    0.284    0.373   42.196   21.562
  316.250    0.288    0.372   49.584   28.536
  316.500    0.279    0.403   53.867   34.399
  316.750    0.277    0.448   40.749   38.483
  317.000    0.299    0.475   33.846   47.268
  317.250    0.299    0.398   39.981   50.939
  317.500    0.301    0.385   43.016   52.887
  317.750    0.308    0.418   37.969   54.906
  318.000    0.319    0.436   34.193   55.951
  318.250    0.311    0.455   30.377   50.032
  318.500    0.301    0.468   25.344   46.438
  318.750    0.318    0.410   27.763   39.263
  319.000    0.327    0.378   63.134   33.194
  319.250    0.309    0.414   84.820   23.724
  319.500    0.283    0.438   59.265   20.821
  319.750    0.298    0.373   59.185   18.274
  320.000    0.289    0.367   60.985   16.340
  320.250    0.279    0.400   64.031   14.075
  320.500    0.269    0.424   74.522   12.353
  320.750    0.291    0.417   76.314    9.875
  321.000    0.318    0.418   74.388    7.894
  321.250    0.304    0.392   78.043    6.194
  321.500    0.293    0.393   79.231    5.539
  321.750    0.277    0.414   75.434    5.337
  322.000    0.298    0.396   71.010    5.438
  322.250    0.292    0.378   86.476    5.646
  322.500    0.273    0.379   98.838    6.085
  322.750    0.262    0.411  105.610    6.436
  323.000    0.238    0.421  119.843    6.809
  323.250    0.232    0.400  126.601    6.810
  323.500    0.250    0.406  127.786    6.685
  323.750    0.243    0.425  126.479    6.322
  324.000    0.216    0.426  125.769    6.091
  324.250    0.183    0.431  126.325    5.869
  324.500    0.174    0.450  116.944    5.655
  324.750    0.174    0.472  115.012    5.656
  325.000    0.178    0.483  122.389    5.657
  325.250    0.179    0.449  125.445    5.657
  325.500    0.177    0.439  114.803    5.984
  325.750    0.179    0.458  109.756    6.330
  326.000    0.182    0.442  100.991    6.572
  326.250    0.170    0.468  106.519    6.697
  326.500    0.170    0.431  115.156    6.825
  326.750    0.198    0.360  110.735    6.826
  327.000    0.180    0.353  111.903    6.700
  327.250    0.173    0.378  113.690    6.578
  327.500    0.188    0.400  106.172    6.829
  327.750    0.208    0.383   99.862    6.959
  328.000    0.207    0.390   99.816    6.960
  328.250    0.193    0.377  105.338    7.092
  328.500    0.184    0.377  110.872    7.227
  328.750    0.174    0.416   92.780    8.085
  329.000    0.203    0.450   88.356   10.308
  329.250    0.265    0.448  123.726   12.426
  329.500    0.257    0.386  103.142   16.141
  329.750    0.239    0.384   90.637   18.744
  330.000    0.241    0.401   84.350   22.178
  330.250    0.279    0.425   83.656   24.811
  330.500    0.260    0.394   74.886   29.355
  330.750    0.250    0.402   74.195   32.841
  331.000    0.270    0.426   77.243   33.465
  331.250    0.277    0.454   78.416   33.472
  331.500    0.284    0.403   69.644   32.249
  331.750    0.289    0.363   69.577   29.934
  332.000    0.266    0.344   69.511   28.308
  332.250    0.246    0.387   71.928   27.789
  332.500    0.256    0.400   64.402   29.949
  332.750    0.279    0.414   63.076   35.434
  333.000    0.273    0.414   72.341   45.177
  333.250    0.264    0.381   70.394   48.687
  333.500    0.273    0.398   67.223   50.550
  333.750    0.287    0.390   72.754   53.469
  334.000    0.274    0.368   73.932   57.625
  334.250    0.263    0.373   66.403   54.497
  334.500    0.290    0.390   63.848   51.536
  334.750    0.287    0.393   58.170   51.547
  335.000    0.273    0.373   58.733   54.525
  335.250    0.277    0.392   64.877   57.674
  335.500    0.286    0.397   60.460   57.683
  335.750    0.283    0.354   53.550   56.626
  336.000    0.279    0.381   54.115   56.636
  336.250    0.281    0.419   65.858   51.597
  336.500    0.288    0.452   60.806   43.624
  336.750    0.293    0.432   56.370   34.228
  337.000    0.285    0.394   55.686   28.939
  337.250    0.257    0.378   59.984   26.365
  337.500    0.270    0.376   60.533   26.866
  337.750    0.288    0.418   58.603   27.892
  338.000    0.292    0.443   55.432   30.628
  338.250    0.284    0.476   53.490   31.799
  338.500    0.291    0.510   48.444   30.637
  338.750    0.297    0.474   50.206   27.395
  339.000    0.279    0.424   55.155   25.907
  339.250    0.262    0.407   65.651   27.405
  339.500    0.262    0.437   63.097   30.091
  339.750    0.280    0.428   68.000   33.041
  340.000    0.287    0.390   62.947   34.950
  340.250    0.285    0.408   56.051   32.440
  340.500    0.284    0.424   47.276   29.554
  340.750    0.294    0.407   43.462   29.013
  341.000    0.295    0.384   51.487   30.690
  341.250    0.278    0.385   49.548   32.463
  341.500    0.279    0.409   44.522   33.080
  341.750    0.310    0.427   38.853   27.450
  342.000    0.326    0.430   41.894   17.540
  342.250    0.337    0.453   59.860   11.418
  342.500    0.330    0.440   98.942    7.862
  342.750    0.301    0.334  119.385    6.168
  343.000    0.162    0.333  123.667    5.726
  343.250    0.167    0.381  124.843    5.621
  343.500    0.169    0.445  114.832    5.727
  343.750    0.184    0.466  124.714    6.059
  344.000    0.184    0.500  126.489    6.290
  344.250    0.176    0.546  125.819    6.654
  344.500    0.176    0.516  123.875    6.908
  344.750    0.176    0.454  118.848    6.781
  345.000    0.157    0.443  120.010    6.657
  345.250    0.165    0.442  121.171    6.658
  345.500    0.180    0.424  119.259    6.659
  345.750    0.190    0.423  114.825    6.786
  346.000    0.158    0.456  126.579    6.787
  346.250    0.159    0.418  117.182    6.788
  346.500    0.170    0.454  122.086    6.664
  346.750    0.175    0.464  128.862    6.542
  347.000    0.182    0.432  125.068    6.422
  347.250    0.179    0.429  124.999    6.304
  347.500    0.154    0.453  121.813    6.188
  347.750    0.159    0.460  124.229    6.075
  348.000    0.169    0.418  127.878    5.963
  348.250    0.179    0.431  127.822    5.640
  348.500    0.170    0.489  119.054    5.235
  348.750    0.173    0.524  111.526    4.859
  349.000    0.188    0.546  118.294    4.770
  349.250    0.188    0.526  122.580    4.682
  349.500    0.199    0.476  120.646    4.683
  349.750    0.182    0.394  118.098    4.954
  350.000    0.181    0.439  115.537    5.240
  350.250    0.181    0.474  127.900    5.647
  350.500    0.177    0.516  122.225    5.974
  350.750    0.172    0.559  117.190    6.438
  351.000    0.170    0.527  114.644    6.560
  351.250    0.173    0.441  121.403    6.440
  351.500    0.188    0.421  123.829    6.322
  351.750    0.181    0.430  120.027    6.207
  352.000    0.166    0.404  118.718    6.207
  352.250    0.164    0.380  121.128    6.209
  352.500    0.185    0.391  119.820    6.326
  352.750    0.191    0.422  125.965    6.447
  353.000    0.174    0.418  125.285    6.570
  353.250    0.178    0.386  119.616    6.694
  353.500    0.166    0.394  120.175    6.695
  353.750    0.161    0.413  119.485    6.823
  354.000    0.159    0.426  116.926    6.953
  354.250    0.181    0.398  116.852    6.954
