~VERSION INFORMATION
 VERS.                 2.0:   CWLS LOG ASCII STANDARD -VERSION 2.0
 WRAP.                  NO:   ONE LINE PER DEPTH STEP
~WELL INFORMATION BLOCK
#MNEM.UNIT           DATA                    DESCRIPTION OF MNEMONIC
#---------    -------------------            -------------------------------
# Generated from Intellog Unique Number	CS_71_72/WELL/858
WELL.         ALLIED ET AL WANDER            : Well_name    - WELL
LOC .         00/10-17-072-13W4/0            : Location     - LOCATION
UWI .         00/10-17-072-13W4/0            : Uwi          - UNIQUE WELL ID
ENTR.         SP                             : Entered      - ENTERED BY
SRVC.         SCHLUMBERGER                   : Scn          - SERVICE COMPANY
STRT.M        313.944                        : top_depth    - START DEPTH
STOP.M        536.194                        : bot_depth    - STOP DEPTH
STEP.M        0.25                           : increment    - STEP LENGTH
 NULL. -999.2500:NULL Value
~CURVE INFORMATION BLOCK
#MNEM UNIT       ERCB CURVE CODE    CURVE DESCRIPTION
#-----------   ------------------   ----------------------------------
DEPT.M        00 001 00 00         : DEPTH        - DEPTH
GR  .API      00 310 00 00         : GR           - GAMMA RAY
DPHI.V/V      00 890 00 00         : PHID         - DENSITY POROSITY (SANDSTONE)
NPHI.V/V      00 330 00 00         : PHIN         - NEUTRON POROSITY (SANDSTONE)
ILD .OHMM     00 120 00 00         : RESD         - DEEP RESISTIVITY (DIL)
~PARAMETER INFORMATION
#MNEM.UNIT           DATA             DESCRIPTION OF MNEMONIC
#---------         -----------     ------------------------------
GL  .M        642.671              : gl           - GROUND LEVEL ELEVATION
EREF.M        645.871              : kb           - ELEVATION OF DEPTH REFERENCE
DATM.M        642.671              : datum        - DATUM ELEVATION
TDD .M        548.64               : tdd          - TOTAL DEPTH DRILLER
RUN .         ONE                  : Run          - RUN NUMBER
ENG .         BILL                 : Engineer     - RECORDING ENGINEER
WIT .         JIM                  : Witness      - WITNESSED BY
MUD .         GEL                  : Mud_type     - MUD TYPE
MATR.         SANDSTONE            : Logunit      - NEUTRON MATRIX
TMAX.C        14.4444              : BHT          - MAXIMUM RECORDED TEMPERATURE
BHTD.M        548.64               : BHTDEP       - MAXIMUM RECORDED TEMPERATURE
MATR.         1                    : LOGUNIT      - NEUTRON MATRIX
RMT .C        25                   : MDTP         - TEMPERATURE OF MUD
NEUT.         1                    : NEUTRON      - NEUTRON TYPE
RESI.         0                    : RESIST       - RESISTIVITY TYPE
RMC .OHMM     0.25                 : RMC          - RESISTIVITY OF MUD CAKE
RMF .OHMM     0.25                 : RMF          - RESISTIVITY OF MUD FILTRATE
SUFT.C        15                   : SUFT         - SURFACE TEMPERATURE
~A  DEPTH       GR     PHID     PHIN     RESD
# ...
  357.444   91.859    0.292    0.518    6.164
  357.694   84.874    0.319    0.520    6.382
  357.944   82.494    0.311    0.555    6.700
  358.194   85.082    0.310    0.523    6.979
  358.444   86.356    0.304    0.504    7.242
  358.694   85.359    0.299    0.490    7.560
  358.944   82.245    0.295    0.486    7.894
  359.194   78.800    0.303    0.511    8.350
  359.444   77.518    0.306    0.528    8.557
  359.694   76.416    0.284    0.492    8.216
  359.944   77.449    0.262    0.495    7.771
  360.194   81.134    0.258    0.446    7.208
  360.444   88.916    0.272    0.439    6.639
  360.694   94.867    0.273    0.446    6.228
  360.944   99.772    0.254    0.478    5.969
  361.194  100.860    0.236    0.515    5.794
  361.444   96.550    0.217    0.534    5.741
  361.694   96.823    0.205    0.511    5.739
  361.944   99.233    0.209    0.491    5.787
  362.194   98.237    0.223    0.518    5.988
  362.444   99.363    0.248    0.544    6.299
  362.694  100.395    0.240    0.576    6.412
  362.944  100.020    0.247    0.594    6.535
  363.194   97.354    0.259    0.544    6.757
  363.444   94.065    0.264    0.494    6.886
  363.694   90.612    0.273    0.503    6.895
  363.944   90.482    0.283    0.508    6.896
  364.194   91.536    0.280    0.530    6.849
  364.444   92.781    0.279    0.549    6.608
  364.694   96.470    0.276    0.540    6.175
  364.944   99.071    0.267    0.537    5.862
  365.194  101.043    0.256    0.569    5.726
  365.444  102.029    0.259    0.559    5.987
  365.694   99.234    0.273    0.535    6.545
  365.944   95.281    0.261    0.516    7.001
  366.194   92.504    0.261    0.500    7.399
  366.444   91.781    0.244    0.489    7.596
  366.694   92.593    0.233    0.485    7.681
  366.944   93.081    0.240    0.484    7.760
  367.194   93.627    0.255    0.483    7.762
  367.444   92.556    0.258    0.493    7.672
  367.694   91.487    0.256    0.507    7.874
  367.944   92.173    0.244    0.514    7.946
  368.194   90.908    0.252    0.492    8.146
  368.444   90.329    0.254    0.462    8.184
  368.694   90.772    0.241    0.425    8.307
  368.944   96.079    0.231    0.414    8.306
  369.194   97.532    0.215    0.422    8.186
  369.444   98.128    0.211    0.440    7.963
  369.694   97.280    0.227    0.453    7.771
  369.944   94.616    0.249    0.479    7.664
  370.194   91.979    0.258    0.515    7.579
  370.444   86.831    0.272    0.527    7.656
  370.694   83.668    0.291    0.498    7.765
  370.944   80.996    0.292    0.464    7.893
  371.194   81.496    0.284    0.447    8.074
  371.444   83.746    0.277    0.437    8.215
  371.694   85.734    0.274    0.439    8.137
  371.944   87.013    0.267    0.440    7.922
  372.194   86.330    0.257    0.464    7.697
  372.444   78.038    0.251    0.502    7.347
  372.694   72.284    0.253    0.552    7.251
  372.944   67.293    0.278    0.541    7.159
  373.194   67.104    0.301    0.512    7.080
  373.444   69.716    0.327    0.496    7.096
  373.694   70.616    0.325    0.484    6.919
  373.944   75.103    0.315    0.479    7.058
  374.194   78.282    0.313    0.489    7.184
  374.444   81.297    0.315    0.496    7.313
  374.694   82.165    0.312    0.495    7.208
  374.944   79.993    0.317    0.506    7.126
  375.194   77.526    0.302    0.499    6.919
  375.444   74.879    0.288    0.510    6.783
  375.694   72.243    0.313    0.543    6.755
  375.944   71.323    0.340    0.539    6.676
  376.194   71.360    0.341    0.532    6.785
  376.444   71.366    0.339    0.542    6.907
  376.694   70.846    0.343    0.539    6.960
  376.944   69.972    0.335    0.530    7.120
  377.194   69.690    0.322    0.524    7.301
  377.444   69.070    0.315    0.516    7.384
  377.694   69.138    0.307    0.505    7.383
  377.944   69.170    0.300    0.491    7.299
  378.194   69.443    0.310    0.492    7.251
  378.444   71.298    0.302    0.506    7.085
  378.694   72.687    0.295    0.518    6.842
  378.944   75.996    0.314    0.520    6.306
  379.194   81.749    0.334    0.471    6.064
  379.444   85.998    0.330    0.451    5.670
  379.694   91.505    0.305    0.477    5.307
  379.944   94.527    0.270    0.521    5.055
  380.194   97.230    0.248    0.549    5.326
  380.444   97.852    0.238    0.545    5.750
  380.694   97.396    0.230    0.538    6.161
  380.944   97.089    0.239    0.514    6.601
  381.194   96.088    0.247    0.540    6.736
  381.444   95.224    0.256    0.566    6.943
  381.694   91.497    0.239    0.522    7.012
  381.944   86.084    0.240    0.490    6.778
  382.194   82.195    0.239    0.466    6.586
  382.444   81.671    0.239    0.461    6.319
  382.694   82.749    0.246    0.467    6.052
  382.944   81.877    0.259    0.493    5.767
  383.194   79.701    0.282    0.525    5.642
  383.444   78.030    0.287    0.545    5.511
  383.694   78.672    0.290    0.557    5.380
  383.944   79.773    0.292    0.532    5.260
  384.194   77.762    0.291    0.518    5.345
  384.444   70.480    0.293    0.517    5.532
  384.694   66.377    0.303    0.534    5.610
  384.944   64.080    0.312    0.515    5.811
  385.194   61.718    0.317    0.491    6.070
  385.444   60.867    0.307    0.478    6.229
  385.694   59.913    0.302    0.477    6.360
  385.944   58.943    0.300    0.485    6.496
  386.194   57.981    0.308    0.474    6.536
  386.444   56.169    0.312    0.493    6.669
  386.694   52.964    0.322    0.486    6.798
  386.944   52.175    0.328    0.449    6.926
  387.194   51.481    0.333    0.450    7.002
  387.444   50.293    0.338    0.462    7.088
  387.694   49.317    0.334    0.478    7.157
  387.944   48.332    0.324    0.437    7.159
  388.194   48.218    0.317    0.431    7.160
  388.444   48.808    0.318    0.434    7.158
  388.694   48.206    0.325    0.440    7.163
  388.944   46.879    0.329    0.454    7.064
  389.194   46.380    0.330    0.429    6.998
  389.444   47.459    0.324    0.416    6.882
  389.694   49.474    0.324    0.427    6.752
  389.944   51.196    0.330    0.437    6.694
  390.194   54.253    0.334    0.448    6.817
  390.444   56.612    0.330    0.454    7.216
  390.694   58.328    0.317    0.472    7.832
  390.944   58.525    0.309    0.466    8.417
  391.194   60.704    0.272    0.456    8.803
  391.444   63.103    0.221    0.492    8.930
  391.694   59.178    0.187    0.377    9.043
  391.944   54.799    0.158    0.350    8.367
  392.194   53.927    0.175    0.374    7.718
  392.444   56.324    0.248    0.508    7.198
  392.694   56.711    0.305    0.527    6.932
  392.944   57.052    0.347    0.534    6.920
  393.194   58.118    0.348    0.531    7.052
  393.444   60.598    0.337    0.524    7.129
  393.694   62.310    0.333    0.501    7.234
  393.944   64.703    0.330    0.507    7.359
  394.194   65.077    0.329    0.512    7.442
  394.444   64.852    0.331    0.521    7.530
  394.694   66.434    0.323    0.523    7.524
  394.944   67.720    0.314    0.509    7.356
  395.194   69.774    0.304    0.506    7.171
  395.444   71.212    0.293    0.485    6.814
  395.694   73.980    0.295    0.499    6.579
  395.944   76.892    0.293    0.509    6.233
  396.194   80.319    0.284    0.517    5.966
  396.444   82.534    0.280    0.554    5.811
  396.694   84.127    0.279    0.571    5.758
  396.944   77.398    0.294    0.573    5.755
  397.194   77.980    0.301    0.554    5.741
  397.444   82.661    0.296    0.579    5.609
  397.694   83.012    0.304    0.558    5.407
  397.944   81.957    0.321    0.531    4.993
  398.194   84.945    0.304    0.534    4.751
  398.444   89.408    0.279    0.563    4.332
  398.694   90.859    0.261    0.585    3.897
  398.944   92.412    0.257    0.579    3.781
  399.194   91.241    0.262    0.588    4.261
  399.444   83.075    0.314    0.599    4.868
  399.694   76.423    0.328    0.596    5.289
  399.944   73.949    0.327    0.561    5.663
  400.194   73.103    0.321    0.543    6.044
  400.444   73.261    0.313    0.535    6.309
  400.694   75.691    0.323    0.561    6.397
