~VERSION INFORMATION
 VERS.                 2.0:   CWLS LOG ASCII STANDARD -VERSION 2.0
 WRAP.                  NO:   ONE LINE PER DEPTH STEP
~WELL INFORMATION BLOCK
#MNEM.UNIT           DATA                    DESCRIPTION OF MNEMONIC
#---------    -------------------            -------------------------------
# Generated from Intellog Unique Number	CS_73_76/WELL/3273
WELL.         STAR OIL & GAS LTD             : Well_name    - WELL
LOC .         00/12-19-075-09W4/0            : Location     - LOCATION
UWI .         00/12-19-075-09W4/0            : Uwi          - UNIQUE WELL ID
ENTR.         SP                             : Entered      - ENTERED BY
SRVC.         SCHLUMBERGER                   : Scn          - SERVICE COMPANY
STRT.M        285                            : top_depth    - START DEPTH
STOP.M        490                            : bot_depth    - STOP DEPTH
STEP.M        0.25                           : increment    - STEP LENGTH
 NULL. -999.2500:NULL Value
~CURVE INFORMATION BLOCK
#MNEM UNIT       ERCB CURVE CODE    CURVE DESCRIPTION
#-----------   ------------------   ----------------------------------
DEPT.M        00 001 00 00         : DEPTH        - DEPTH
ILD .OHMM     00 120 00 00         : RESD         - DEEP RESISTIVITY (DIL)
DPHI.V/V      00 890 00 00         : PHID         - DENSITY POROSITY (LIMESTONE)
NPHI.V/V      00 330 00 00         : PHIN         - NEUTRON POROSITY (LIMESTONE)
GR  .API      00 310 00 00         : GR           - GAMMA RAY
~PARAMETER INFORMATION
#MNEM.UNIT           DATA             DESCRIPTION OF MNEMONIC
#---------         -----------     ------------------------------
GL  .M        678.87               : gl           - GROUND LEVEL ELEVATION
EREF.M        682                  : kb           - ELEVATION OF DEPTH REFERENCE
DATM.M        678.87               : datum        - DATUM ELEVATION
TDD .M        530                  : tdd          - TOTAL DEPTH DRILLER
RUN .         ONE                  : Run          - RUN NUMBER
ENG .         BILL                 : Engineer     - RECORDING ENGINEER
WIT .         JIM                  : Witness      - WITNESSED BY
MUD .         GEL                  : Mud_type     - MUD TYPE
MATR.         LIMESTONE            : Logunit      - NEUTRON MATRIX
TMAX.C        26                   : BHT          - MAXIMUM RECORDED TEMPERATURE
BHTD.M        530                  : BHTDEP       - MAXIMUM RECORDED TEMPERATURE
MATR.         1                    : LOGUNIT      - NEUTRON MATRIX
RMT .C        25                   : MDTP         - TEMPERATURE OF MUD
NEUT.         1                    : NEUTRON      - NEUTRON TYPE
RESI.         0                    : RESIST       - RESISTIVITY TYPE
RMC .OHMM     0.25                 : RMC          - RESISTIVITY OF MUD CAKE
RMF .OHMM     0.25                 : RMF          - RESISTIVITY OF MUD FILTRATE
SUFT.C        15                   : SUFT         - SURFACE TEMPERATURE
~A  DEPTH     RESD     PHID     PHIN       GR
# ...
  459.000    2.968    0.223    0.523   96.971
  459.250    2.805    0.224    0.515   96.989
  459.500    2.805    0.224    0.501   97.013
  459.750    2.753    0.216    0.493   98.884
  460.000    2.806    0.211    0.483  101.977
  460.250    3.268    0.214    0.481  104.458
  460.500    3.804    0.222    0.477  104.472
  460.750    4.264    0.230    0.484  103.884
  461.000    5.356    0.231    0.498  103.288
  461.250    7.539    0.229    0.513  102.082
  461.500    9.117    0.220    0.443   92.880
  461.750   10.218    0.199    0.411   86.132
  462.000   11.238    0.127    0.398   78.777
  462.250   12.361    0.100    0.398   72.036
  462.500   13.855    0.142    0.399   92.346
  462.750   15.239    0.201    0.395  110.197
  463.000   16.134    0.248    0.405  100.380
  463.250   17.411    0.265    0.411   83.801
  463.500   18.437    0.281    0.418   70.911
  463.750   18.440    0.301    0.407   62.940
  464.000   18.445    0.289    0.391   71.571
  464.250   17.763    0.266    0.382   74.662
  464.500   17.433    0.269    0.371   74.684
  464.750   17.439    0.276    0.371   74.705
  465.000   17.443    0.257    0.355   79.645
  465.250   17.446    0.240    0.353   78.434
  465.500   17.454    0.250    0.365   68.011
  465.750   17.458    0.265    0.367   64.335
  466.000   17.796    0.270    0.354   70.513
  466.250   17.801    0.256    0.338   74.835
  466.500   18.145    0.236    0.331   71.782
  466.750   18.853    0.237    0.345   74.263
  467.000   19.218    0.261    0.352   76.743
  467.250   19.591    0.284    0.366   75.528
  467.500   19.972    0.298    0.374   79.245
  467.750   19.975    0.308    0.386   82.342
  468.000   19.605    0.303    0.371   84.200
  468.250   18.525    0.278    0.381   73.768
  468.500   16.852    0.263    0.389   62.111
  468.750   15.625    0.274    0.388   65.823
  469.000   15.628    0.269    0.384   71.374
  469.250   15.340    0.258    0.384   77.541
  469.500   15.342    0.252    0.385   82.479
  469.750   14.774    0.257    0.396   80.042
  470.000   13.441    0.281    0.402   73.301
  470.250   12.227    0.287    0.386   77.015
  470.500   10.914    0.270    0.369   81.335
  470.750   10.118    0.259    0.363   83.200
  471.000    9.205    0.252    0.378   85.064
  471.250    8.698    0.234    0.389   93.695
  471.500    9.038    0.209    0.395   99.248
  471.750    9.390    0.191    0.389   98.037
  472.000    9.943    0.176    0.381   99.911
  472.250   10.729    0.170    0.379  101.152
  472.500   11.798    0.177    0.379   98.103
  472.750   14.268    0.213    0.378   89.518
  473.000   17.584    0.249    0.380   80.313
  473.250   21.264    0.263    0.380   71.728
  473.500   24.291    0.287    0.397   64.990
  473.750   25.722    0.312    0.405   60.702
  474.000   26.723    0.326    0.402   64.412
  474.250   27.242    0.303    0.386   74.887
  474.500   27.771    0.281    0.379   81.054
  474.750   28.313    0.259    0.371   74.314
  475.000   28.317    0.236    0.372   70.645
  475.250   28.869    0.245    0.372   78.045
  475.500   28.877    0.282    0.369   86.674
  475.750   29.435    0.274    0.366   93.454
  476.000   29.445    0.274    0.359   92.246
  476.250   29.450    0.290    0.373   89.808
  476.500   27.827    0.316    0.378   83.681
  476.750   23.023    0.330    0.383   70.791
  477.000   17.994    0.313    0.378   79.421
  477.250   14.608    0.264    0.355   89.895
  477.500   12.318    0.245    0.354   94.218
  477.750   11.205    0.242    0.374   94.243
  478.000   10.194    0.232    0.380   94.257
  478.250    9.632    0.221    0.389   96.737
  478.500    9.101    0.214    0.396  102.293
  478.750    8.764    0.208    0.396  106.004
  479.000    8.440    0.199    0.398  107.867
  479.250    8.605    0.196    0.401  112.199
  479.500    8.772    0.190    0.396  115.289
  479.750    9.113    0.183    0.382  109.160
  480.000    9.468    0.182    0.376   93.810
  480.250    9.836    0.199    0.365   83.388
  480.500   10.220    0.221    0.352   80.328
  480.750   10.619    0.239    0.346   76.046
  481.000   10.824    0.220    0.335   76.068
  481.250   11.461    0.209    0.324   77.317
  481.500   12.135    0.203    0.318   77.954
  481.750   13.097    0.197    0.310   74.901
  482.000   13.867    0.153    0.300   61.396
  482.250   14.406    0.089    0.289   52.808
  482.500   15.546    0.057    0.282   46.070
  482.750   16.777    0.063    0.291   41.784
  483.000   19.908    0.072    0.298   51.646
  483.250   24.536    0.080    0.286   54.122
  483.500   29.669    0.076    0.253   34.471
  483.750   35.202    0.027    0.231   30.800
  484.000   40.213    0.043    0.194   25.908
  484.250   41.781    0.066    0.168   22.855
  484.500   39.479    0.070    0.169   22.872
  484.750   36.605    0.076    0.190   24.124
  485.000   35.922    0.081    0.197   25.375
  485.250   35.261    0.098    0.208   26.008
  485.500   34.605    0.092    0.198   22.343
  485.750   34.611    0.086    0.187   18.676
  486.000   34.620    0.090    0.183   16.234
  486.250   34.630    0.097    0.181   13.184
  486.500   35.304    0.101    0.182   11.978
  486.750   35.312    0.099    0.182   11.392
  487.000   35.320    0.097    0.183   10.790
  487.250   35.329    0.098    0.183   10.821
  487.500   35.338    0.097    0.182   10.836
  487.750   36.024    0.097    0.181   10.848
  488.000   36.033    0.095    0.179   11.493
  488.250   35.365    0.095    0.182   11.506
  488.500   35.373    0.095    0.189   12.764
  488.750   35.388    0.098    0.195   13.392
  489.000   35.394    0.106    0.204   14.040
  489.250   35.400    0.111    0.206   14.056
  489.500   34.743    0.106    0.203   14.693
  489.750   34.753    0.100    0.191   14.708
  490.000   34.761    0.095    0.188   14.729
