~VERSION INFORMATION
 VERS.                 2.0:   CWLS LOG ASCII STANDARD -VERSION 2.0
 WRAP.                  NO:   ONE LINE PER DEPTH STEP
~WELL INFORMATION BLOCK
#MNEM.UNIT           DATA                    DESCRIPTION OF MNEMONIC
#---------    -------------------            -------------------------------
# Generated from Intellog Unique Number	CN_91_93/WELL/2811
WELL.         11-14-093-21W4                 : Well_name    - WELL
LOC .         00/11-14-093-21W4/0            : Location     - LOCATION
UWI .         00/11-14-093-21W4/0            : Uwi          - UNIQUE WELL ID
ENTR.         JOETTE                         : Entered      - ENTERED BY
SRVC.         SCHLUMBERGER                   : Scn          - SERVICE COMPANY
DATE.         03/24/92                       : Date         - LOG DATE
STRT.F        250                            : top_depth    - START DEPTH
STOP.F        889.764                        : bot_depth    - STOP DEPTH
STEP.F        0.82                           : increment    - STEP LENGTH
 NULL. -999.2500:NULL Value
~CURVE INFORMATION BLOCK
#MNEM UNIT       ERCB CURVE CODE    CURVE DESCRIPTION
#-----------   ------------------   ----------------------------------
DEPT.F        00 001 00 00         : DEPTH        - DEPTH
CALI.IN       00 280 01 00         : CAL          - CALIPER
GR  .API      00 310 00 00         : GR           - GAMMA RAY
NPHI.V/V      00 330 00 00         : PHIN         - NEUTRON POROSITY (SANDSTONE)
DPHI.V/V      00 890 00 00         : PHID         - DENSITY POROSITY (SANDSTONE)
ILD .OHMM     00 120 00 00         : RESD         - DEEP RESISTIVITY (DIL)
~PARAMETER INFORMATION
#MNEM.UNIT           DATA             DESCRIPTION OF MNEMONIC
#---------         -----------     ------------------------------
GL  .M        548.64               : gl           - GROUND LEVEL ELEVATION
EREF.M        550.469              : kb           - ELEVATION OF DEPTH REFERENCE
DATM.M        550.469              : datum        - DATUM ELEVATION
TDD .M        383.134              : tdd          - TOTAL DEPTH DRILLER
RUN .         ONE                  : Run          - RUN NUMBER
ENG .         BILL                 : Engineer     - RECORDING ENGINEER
WIT .         JIM                  : Witness      - WITNESSED BY
MUD .         GEL                  : Mud_type     - MUD TYPE
MATR.         SANDSTONE            : Logunit      - NEUTRON MATRIX
TMAX.F        69.8                 : BHT          - MAXIMUM RECORDED TEMPERATURE
BHTD.F        1257                 : BHTDEP       - MAXIMUM RECORDED TEMPERATURE
RMT .F        65                   : MDTP         - TEMPERATURE OF MUD
MUDD.LB/G     9.2                  : MWT          - MUD DENSITY
NEUT.         1                    : NEUTRON      - NEUTRON TYPE
RESI.         0                    : RESIST       - RESISTIVITY TYPE
RM  .OHMM     3.85                 : RM           - RESISTIVITY OF MUD
RMC .OHMM     3.85                 : RMC          - RESISTIVITY OF MUD CAKE
RMF .OHMM     3.85                 : RMF          - RESISTIVITY OF MUD FILTRATE
SUFT.F        39.2                 : SUFT         - SURFACE TEMPERATURE
~A  DEPTH      CAL       GR     PHIN     PHID     RESD
# ...
  729.003    9.396  101.176    0.516    0.315    6.351
  729.823    9.193  102.457    0.528    0.324    6.357
  730.643    9.031   98.806    0.535    0.328    6.981
  731.463    8.993   95.750    0.523    0.316    8.107
  732.283    9.120   89.008    0.500    0.286    9.415
  733.104    9.248   82.873    0.485    0.242   10.531
  733.924    9.251   80.435    0.434    0.169   13.419
  734.744    9.253   82.975    0.394    0.193   15.872
  735.564    9.257   86.718    0.377    0.208   18.428
  736.385    9.260   92.325    0.364    0.215   20.237
  737.205    9.428   96.079    0.364    0.225   18.460
  738.025    9.720  102.934    0.418    0.250   14.249
  738.845    9.846  109.159    0.425    0.250   11.415
  739.665    9.849  113.531    0.468    0.306    9.849
  740.486    9.730  114.835    0.475    0.312    8.660
  741.306    9.649  116.723    0.475    0.312    8.348
  742.126    9.571  123.567    0.481    0.291    8.358
  742.946    9.574  135.984    0.478    0.269    8.367
  743.766    9.617  141.591    0.469    0.272    8.529
  744.587    9.745  135.457    0.472    0.291    8.537
  745.407    9.913  129.322    0.479    0.293    8.544
  746.227   10.039  125.041    0.495    0.298    8.394
  747.047    9.877  124.480    0.493    0.299    8.247
  747.867    9.716  124.525    0.486    0.300    8.103
  748.688    9.596  123.335    0.479    0.304    7.671
  749.508    9.641  116.582    0.476    0.307    6.999
  750.328    9.684  109.211    0.471    0.311    6.876
  751.148    9.976  111.728    0.469    0.315    7.144
  751.969   10.391  117.336    0.491    0.312    7.419
  752.789   10.971  121.719    0.500    0.307    7.850
  753.609   10.520  125.472    0.475    0.318    8.307
  754.429    9.411  131.080    0.443    0.296    9.123
  755.249    9.126  142.250    0.431    0.254   10.211
  756.070    9.087  134.261    0.444    0.259   11.216
  756.890    9.091  126.272    0.451    0.296   11.436
  757.710    9.135  128.801    0.427    0.303   11.441
  758.530    9.138  131.936    0.425    0.299   11.451
  759.350    9.142  129.509    0.422    0.300   11.046
  760.171    9.145  120.285    0.429    0.311   10.655
  760.991    9.149  109.824    0.445    0.308   10.664
  761.811    9.151  104.318    0.458    0.300   11.075
  762.631    9.197  104.982    0.451    0.270   12.162
  763.451    9.199   94.509    0.426    0.201   14.124
  764.272    9.203   87.150    0.366    0.172   14.674
  765.092    9.205   90.274    0.340    0.132   14.158
  765.912    9.208  101.455    0.340    0.171   13.904
  766.732    9.211  113.861    0.368    0.210   13.165
  767.552    9.215  124.424    0.395    0.281   12.234
  768.373    9.217  123.245    0.495    0.297   11.579
  769.193    9.222  122.043    0.479    0.292   10.960
  770.013    9.224  120.852    0.467    0.293   10.185
  770.833    9.228  120.279    0.470    0.292    9.644
  771.654    9.230  119.089    0.473    0.263    9.300
  772.474    9.234  120.988    0.477    0.274    8.971
  773.294    9.238  121.652    0.463    0.280    8.977
  774.114    9.239  120.484    0.458    0.288    9.154
  774.934    9.161  120.518    0.461    0.294    9.333
  775.755    9.000  111.293    0.465    0.296    9.343
  776.575    8.919  105.776    0.483    0.292    9.527
  777.395    8.922   99.023    0.449    0.294   10.658
  778.215    9.050   97.226    0.405    0.279   12.150
  779.035    9.258  100.979    0.431    0.312   13.850
  779.856    9.551   96.687    0.461    0.307   14.380
  780.676    9.429   97.362    0.472    0.275   14.128
  781.496    9.144  105.442    0.466    0.242   13.381
  782.316    9.023  120.937    0.417    0.242   12.665
  783.136    9.027  125.320    0.398    0.280   11.345
  783.957    9.114  127.838    0.421    0.291   10.939
  784.777    9.115  128.513    0.443    0.312   10.547
  785.597    9.160  128.547    0.447    0.305   10.176
  786.417    9.164  128.603    0.445    0.300    9.994
  787.238    9.166  129.267    0.446    0.301    9.821
  788.058    9.211  131.166    0.443    0.305    9.647
  788.878    9.215  133.066    0.435    0.307    9.657
  789.698    9.217  133.729    0.433    0.302   10.033
  790.518    9.221  131.932    0.439    0.295   10.228
  791.339    9.223  130.112    0.437    0.291   10.828
  792.159    9.185  130.775    0.438    0.292   10.835
  792.979    9.148  125.888    0.441    0.293   10.643
  793.799    9.150  130.259    0.443    0.296   10.458
  794.619    9.113  128.462    0.467    0.282    9.721
  795.440    9.116  124.799    0.488    0.273    9.033
  796.260    9.118  121.125    0.450    0.252    9.041
  797.080    9.081  116.226    0.397    0.196    9.565
  797.900    9.085  117.508    0.392    0.207   10.904
  798.720    9.087  125.599    0.416    0.265   11.754
  799.541    9.091  129.970    0.451    0.297   11.985
  800.361    9.093  135.578    0.481    0.302   11.137
  801.181    9.097  136.241    0.511    0.312    9.259
  802.001    9.099  126.398    0.530    0.316    6.276
  802.822    9.103  120.264    0.525    0.298    4.334
  803.642    9.106  114.747    0.502    0.287    4.258
  804.462    9.110  107.994    0.474    0.262    4.590
  805.282    9.113  103.713    0.444    0.235    5.137
  806.102    9.116  108.714    0.430    0.182    5.536
  806.923    9.077  120.502    0.393    0.191    6.429
  807.743    9.077  119.311    0.384    0.207    7.193
  808.563    9.168  118.121    0.393    0.246    8.669
  809.383    9.251  116.312    0.410    0.283    9.343
  810.203    9.214  118.841    0.470    0.278    9.526
  811.024    9.216  120.740    0.483    0.276    8.532
  811.844    9.178  122.662    0.478    0.248    8.077
  812.664    9.183  123.921    0.474    0.237    8.086
  813.484    9.185  128.922    0.470    0.272    8.244
  814.304    9.189  134.530    0.474    0.275    8.404
  815.125    9.191  131.485    0.488    0.287    8.571
  815.945    9.195  124.732    0.482    0.278    8.577
  816.765    9.198  108.091    0.477    0.252    8.749
  817.585    9.201  113.080    0.476    0.156    9.431
  818.406    9.204  123.014    0.441    0.175    9.978
  819.226    9.207  127.420    0.369    0.246   11.587
  820.046    9.210  127.442    0.420    0.291   12.488
  820.866    9.214  126.870    0.438    0.288   12.742
  821.686    9.216  124.443    0.437    0.290   12.283
  822.507    9.220  127.590    0.434    0.291   11.414
  823.327    9.223  130.737    0.435    0.286   10.808
  824.147    9.226  129.557    0.454    0.275   10.426
  824.967    9.229  128.344    0.448    0.237   10.628
  825.787    9.232  127.771    0.426    0.232   10.635
  826.608    9.235  129.053    0.423    0.230   11.049
  827.428    9.238  130.346    0.420    0.236   11.266
  828.248    9.200  125.447    0.426    0.253   11.487
  829.068    9.203  113.750    0.433    0.253   11.932
  829.888    9.166  110.076    0.432    0.216   12.394
  830.709    9.168  106.413    0.430    0.209   13.611
  831.529    9.131  110.189    0.423    0.202   15.516
  832.349    9.134  112.077    0.393    0.263   18.696
  833.169    9.096  112.741    0.382    0.286   20.916
  833.990    9.100  112.786    0.434    0.254   19.079
  834.810    9.102  112.843    0.447    0.246   16.773
  835.630    9.106  112.888    0.423    0.269   16.177
  836.450    9.108  111.698    0.427    0.274   16.191
  837.270    9.153  109.271    0.439    0.274   17.133
  838.091    9.156  106.856    0.455    0.250   18.473
  838.911    9.159  105.665    0.460    0.236   19.184
  839.731    9.204  102.632    0.466    0.222   20.680
  840.551    9.206  100.823    0.437    0.244   22.721
  841.371    9.210   99.610    0.412    0.293   24.043
  842.192    9.212  100.296    0.413    0.290   24.974
  843.012    9.217  102.184    0.428    0.273   25.458
  843.832    9.219  105.949    0.429    0.249   25.480
  844.652    9.223  102.904    0.420    0.271   25.503
  845.472    9.226  100.466    0.483    0.289   24.143
  846.293    9.228  102.983    0.491    0.276   22.023
  847.113    9.232  105.512    0.495    0.255   19.720
  847.933    9.235  106.176    0.493    0.254   17.014
