~VERSION INFORMATION
 VERS.                 2.0:   CWLS LOG ASCII STANDARD -VERSION 2.0
 WRAP.                  NO:   ONE LINE PER DEPTH STEP
~WELL INFORMATION BLOCK
#MNEM.UNIT           DATA                    DESCRIPTION OF MNEMONIC
#---------    -------------------            -------------------------------
# Generated from Intellog Unique Number	CW_73_75/WELL/1036
WELL.         ICGR FRANCIS 11-10             : Well_name    - WELL
LOC .         00/11-10-074-22W4/0            : Location     - LOCATION
UWI .         00/11-10-074-22W4/0            : Uwi          - UNIQUE WELL ID
ENTR.         JAYE                           : Entered      - ENTERED BY
SRVC.         SCHLUMBERGER                   : Scn          - SERVICE COMPANY
DATE.         27 MAR 82                      : Date         - LOG DATE
STRT.M        350                            : top_depth    - START DEPTH
STOP.M        555                            : bot_depth    - STOP DEPTH
STEP.M        0.25                           : increment    - STEP LENGTH
 NULL. -999.2500:NULL Value
~CURVE INFORMATION BLOCK
#MNEM UNIT       ERCB CURVE CODE    CURVE DESCRIPTION
#-----------   ------------------   ----------------------------------
DEPT.M        00 001 00 00         : DEPTH        - DEPTH
NPHI.V/V      00 330 00 00         : PHIN         - NEUTRON POROSITY (SANDSTONE)
DPHI.V/V      00 890 00 00         : PHID         - DENSITY POROSITY (SANDSTONE)
GR  .API      00 310 00 00         : GR           - GAMMA RAY
CALI.MM       00 280 01 00         : CAL          - CALIPER
ILD .OHMM     00 120 00 00         : RESD         - DEEP RESISTIVITY (DLL)
~PARAMETER INFORMATION
#MNEM.UNIT           DATA             DESCRIPTION OF MNEMONIC
#---------         -----------     ------------------------------
GL  .M        646.2                : gl           - GROUND LEVEL ELEVATION
EREF.M        648.7                : kb           - ELEVATION OF DEPTH REFERENCE
DATM.M        646.2                : datum        - DATUM ELEVATION
TDD .M        600                  : tdd          - TOTAL DEPTH DRILLER
RUN .         ONE                  : Run          - RUN NUMBER
ENG .         HOLDE                : Engineer     - RECORDING ENGINEER
WIT .         COOK                 : Witness      - WITNESSED BY
BASE.         EDMONTON             : Branch       - HOME BASE OF LOGGING UNIT
MUD .         GEL CHEM             : Mud_type     - MUD TYPE
MATR.         SANDSTONE            : Logunit      - NEUTRON MATRIX
TMAX.C        25                   : BHT          - MAXIMUM RECORDED TEMPERATURE
BHTD.M        600.5                : BHTDEP       - MAXIMUM RECORDED TEMPERATURE
RMT .C        20                   : MDTP         - TEMPERATURE OF MUD
MUDD.KG/M     9.5                  : MWT          - MUD DENSITY
NEUT.         1                    : NEUTRON      - NEUTRON TYPE
RESI.         1                    : RESIST       - RESISTIVITY TYPE
RM  .OHMM     5.105                : RM           - RESISTIVITY OF MUD
RMC .OHMM     2.13                 : RMC          - RESISTIVITY OF MUD CAKE
RMF .OHMM     7.23                 : RMF          - RESISTIVITY OF MUD FILTRATE
SUFT.C        0                    : SUFT         - SURFACE TEMPERATURE
~A  DEPTH     PHIN     PHID       GR      CAL     RESD
# ...
  459.500    0.460    0.332   65.922  146.858    4.192
  459.750    0.476    0.333   67.967  146.442    4.278
  460.000    0.491    0.341   67.593  146.019    4.356
  460.250    0.486    0.340   65.717  145.399    4.404
  460.500    0.463    0.333   64.433  145.685    4.410
  460.750    0.479    0.330   62.369  146.179    4.434
  461.000    0.493    0.329   60.306  146.362    4.449
  461.250    0.485    0.324   60.905  146.342    4.447
  461.500    0.474    0.329   63.009  146.827    4.444
  461.750    0.466    0.325   66.023  148.327    4.427
  462.000    0.460    0.319   67.706  150.020    4.417
  462.250    0.475    0.315   69.201  152.127    4.408
  462.500    0.461    0.329   71.491  153.415    4.404
  462.750    0.444    0.336   73.352  154.108    4.419
  463.000    0.432    0.340   72.681  154.088    4.426
  463.250    0.415    0.335   70.616  153.975    4.432
  463.500    0.415    0.328   68.734  153.959    4.438
  463.750    0.439    0.323   72.232  153.947    4.420
  464.000    0.458    0.319   74.033  154.026    4.336
  464.250    0.473    0.317   70.640  154.513    4.231
  464.500    0.460    0.307   71.298  154.904    4.120
  464.750    0.450    0.292   74.974  156.706    3.997
  465.000    0.453    0.276   79.257  158.095    3.936
  465.250    0.463    0.262   84.929  160.797    3.854
  465.500    0.479    0.260   89.565  163.298    3.803
  465.750    0.494    0.268   91.799  165.700    3.780
  466.000    0.483    0.262   91.847  166.797    3.893
  466.250    0.457    0.248   91.109  164.667    4.146
  466.500    0.448    0.244   84.998  160.319    4.517
  466.750    0.440    0.264   76.951  155.567    4.802
  467.000    0.438    0.273   70.718  155.554    4.992
  467.250    0.437    0.277   74.757  156.156    5.122
  467.500    0.432    0.287   80.132  156.023    5.208
  467.750    0.432    0.308   76.918  156.112    5.233
  468.000    0.421    0.322   77.028  156.303    5.261
  468.250    0.405    0.319   81.004  155.878    5.289
  468.500    0.410    0.273   88.125  154.256    5.477
  468.750    0.427    0.254   86.002  151.619    5.375
  469.000    0.442    0.265   83.038  150.097    5.382
  469.250    0.440    0.264   80.368  149.976    5.420
  469.500    0.422    0.239   78.359  151.476    5.368
  469.750    0.418    0.245   79.136  154.279    5.366
  470.000    0.418    0.258   81.543  152.950    5.414
  470.250    0.415    0.252   84.799  151.021    5.534
  470.500    0.425    0.244   84.853  149.896    5.626
  470.750    0.441    0.245   83.397  148.886    5.646
  471.000    0.447    0.241   82.536  148.660    5.652
  471.250    0.436    0.236   85.727  148.554    5.639
  471.500    0.420    0.231   88.325  148.626    5.637
  471.750    0.425    0.229   88.368  149.116    5.647
  472.000    0.433    0.230   86.913  150.215    5.654
  472.250    0.429    0.231   86.721  150.401    5.663
  472.500    0.435    0.228   86.893  150.183    5.681
  472.750    0.442    0.234   86.759  150.274    5.744
  473.000    0.430    0.226   85.783  150.158    5.827
  473.250    0.423    0.214   84.809  149.630    5.923
  473.500    0.420    0.213   87.156  148.003    6.065
  473.750    0.416    0.226   87.996  148.598    6.306
  474.000    0.427    0.230   85.567  149.993    6.519
  474.250    0.417    0.218   84.291  151.479    6.688
  474.500    0.402    0.209   83.918  153.486    6.837
  474.750    0.410    0.212   84.028  153.869    6.937
  475.000    0.420    0.214   86.857  153.647    6.895
  475.250    0.414    0.208   90.477  153.837    6.716
  475.500    0.393    0.204   94.816  155.333    6.587
  475.750    0.424    0.206   96.014  157.028    6.452
  476.000    0.438    0.212   92.199  158.321    6.343
  476.250    0.447    0.215   90.678  152.666    6.257
  476.500    0.452    0.208   88.917  148.319    6.196
  476.750    0.451    0.195   90.423  148.307    6.044
  477.000    0.450    0.182   90.652  148.897    5.875
  477.250    0.446    0.176   88.405  149.987    5.647
  477.500    0.447    0.182   86.704  152.185    5.327
  477.750    0.459    0.200   88.933  150.565    5.017
  478.000    0.474    0.237   91.885  148.632    4.968
  478.250    0.463    0.244   93.265  147.609    5.042
  478.500    0.445    0.227   90.111  150.108    5.230
  478.750    0.414    0.213   89.198  153.420    5.457
  479.000    0.404    0.221   92.212  154.207    5.558
  479.250    0.395    0.226   93.527  155.097    5.588
  479.500    0.425    0.214   92.734  154.580    5.586
  479.750    0.432    0.210   90.736  153.962    5.582
  480.000    0.430    0.214   90.118  153.944    5.613
  480.250    0.431    0.223   89.625  152.324    5.652
  480.500    0.430    0.228   90.823  149.284    5.692
  480.750    0.453    0.223   89.728  148.360    5.710
  481.000    0.461    0.215   85.732  149.051    5.730
  481.250    0.458    0.210   84.996  150.645    5.727
  481.500    0.436    0.209   87.647  152.441    5.757
  481.750    0.433    0.221   87.096  151.528    5.799
  482.000    0.427    0.221   86.963  150.702    5.795
  482.250    0.422    0.217   87.258  152.102    5.814
  482.500    0.430    0.216   87.493  154.697    5.823
  482.750    0.433    0.215   88.142  156.492    5.865
  483.000    0.431    0.214   90.431  155.376    5.884
  483.250    0.419    0.217   90.905  154.254    5.881
  483.500    0.425    0.223   87.268  153.234    5.912
  483.750    0.437    0.234   86.052  152.205    5.932
  484.000    0.437    0.233   85.501  151.289    5.919
  484.250    0.425    0.225   84.768  149.856    5.905
  484.500    0.417    0.218   83.426  149.649    5.880
  484.750    0.411    0.207   80.155  150.730    5.856
  485.000    0.415    0.196   81.776  152.330    5.843
  485.250    0.426    0.188   89.318  155.240    5.808
  485.500    0.434    0.195   91.307  155.316    5.773
  485.750    0.429    0.213   91.901  153.897    5.749
  486.000    0.412    0.214   94.245  152.673    5.715
  486.250    0.395    0.208   95.263  151.850    5.649
  486.500    0.409    0.206   93.019  151.933    5.564
  486.750    0.434    0.210   88.356  153.728    5.468
  487.000    0.433    0.216   88.228  156.032    5.334
  487.250    0.434    0.224   90.032  156.014    5.205
  487.500    0.455    0.236   90.141  153.483    5.125
  487.750    0.484    0.255   85.539  150.752    5.259
  488.000    0.480    0.270   77.070  149.727    5.622
  488.250    0.441    0.270   77.914  150.315    6.101
  488.500    0.421    0.283   81.832  151.306    6.708
  488.750    0.421    0.297   84.721  152.103    7.307
  489.000    0.412    0.299   85.372  152.081    8.109
  489.250    0.412    0.289   81.438  151.572    9.033
  489.500    0.396    0.225   76.112  151.344   10.291
  489.750    0.370    0.187   68.971  152.341   11.569
  490.000    0.277    0.076   60.625  152.934   14.825
  490.250    0.189    0.046   54.148  153.012   20.546
  490.500    0.172    0.005   47.796  151.696   29.286
  490.750    0.186    0.043   44.948  149.660   30.618
  491.000    0.222    0.091   44.035  148.438   30.948
  491.250    0.240    0.110   45.291  148.724   26.593
  491.500    0.254    0.065   47.216  151.424   20.542
  491.750    0.287    0.175   50.167  151.010   14.321
  492.000    0.399    0.237   59.041  149.679   10.939
  492.250    0.409    0.207   70.756  150.076    9.595
  492.500    0.367    0.171   70.140  152.369    8.851
  492.750    0.338    0.145   70.552  151.950    8.334
  493.000    0.326    0.159   73.383  151.836    7.660
  493.250    0.343    0.195   76.698  152.327    7.092
  493.500    0.375    0.236   78.378  152.718    6.579
  493.750    0.397    0.259   79.760  152.700    6.058
  494.000    0.377    0.250   80.837  151.273    5.673
  494.250    0.380    0.237   81.855  150.749    5.493
  494.500    0.392    0.242   82.817  150.836    5.399
  494.750    0.398    0.236   84.496  151.732    5.377
  495.000    0.383    0.230   87.872  153.627    5.486
  495.250    0.386    0.225   94.329  154.615    5.757
  495.500    0.395    0.219   93.834  155.711    5.637
  495.750    0.412    0.212   89.176  156.401    5.742
