~VERSION INFORMATION
 VERS.                 2.0:   CWLS LOG ASCII STANDARD -VERSION 2.0
 WRAP.                  NO:   ONE LINE PER DEPTH STEP
~WELL INFORMATION BLOCK
#MNEM.UNIT           DATA                    DESCRIPTION OF MNEMONIC
#---------    -------------------            -------------------------------
# Generated from Intellog Unique Number	CC_80_83/WELL/2399
NULL.         -999.25                        : NULL_VALUE
WELL.         PEX HOUSE                      : Well_name    - WELL
LOC .         11-17-080-15W4                 : Location     - LOCATION          
UWI .         00/11-17-080-15W4/0            : Uwi          - UNIQUE WELL ID    
ENTR.         DW                             : Entered      - ENTERED BY        
SRVC.         SCHLUMBERGER                   : Scn          - SERVICE COMPANY   
DATE.         27 JAN 82                      : Date         - LOG DATE
STRT.M        150                            : top_depth    - START DEPTH       
STOP.M        384.896                        : bot_depth    - STOP DEPTH        
STEP.M        0.3                            : increment    - STEP LENGTH       
~CURVE INFORMATION BLOCK
#MNEM UNIT       ERCB CURVE CODE    CURVE DESCRIPTION
#-----------   ------------------   ----------------------------------
DEPT.M        00 001 00 00         : DEPTH        - DEPTH                       
ILD .OHMM     00 120 00 00         : RESD         - DEEP RESISTIVITY (DIL)      
GR  .API      00 310 00 00         : GR           - GAMMA RAY                   
NPHI.V/V      00 330 00 00         : PHIN         - NEUTRON POROSITY (LIMESTONE)
DPHI.V/V      00 890 00 00         : PHID         - DENSITY POROSITY (LIMESTONE)
~PARAMETER INFORMATION       
#MNEM.UNIT           DATA             DESCRIPTION OF MNEMONIC
#---------         -----------     ------------------------------
GL  .M        595.9                : gl           - GROUND LEVEL ELEVATION      
EREF.M        599.6                : kb           - ELEVATION OF DEPTH REFERENCE
DATM.M        599.6                : datum        - DATUM ELEVATION             
TDD .M        385                  : tdd          - TOTAL DEPTH DRILLER         
RUN .         ONE                  : Run          - RUN NUMBER                  
ENG .         BILL                 : Engineer     - RECORDING ENGINEER          
WIT .         JIM                  : Witness      - WITNESSED BY                
MUD .         GEL                  : Mud_type     - MUD TYPE                    
MATR.         LIMESTONE            : Logunit      - NEUTRON MATRIX              
TMAX.C        18.8                 : BHT          - MAXIMUM RECORDED TEMPERATURE
BHTD.M        388                  : BHTDEP       - MAXIMUM RECORDED TEMPERATURE
MATR.         1                    : LOGUNIT      - NEUTRON MATRIX              
RMT .C        25                   : MDTP         - TEMPERATURE OF MUD          
NEUT.         1                    : NEUTRON      - NEUTRON TYPE                
RESI.         0                    : RESIST       - RESISTIVITY TYPE            
RMC .OHMM     0.25                 : RMC          - RESISTIVITY OF MUD CAKE     
RMF .OHMM     0.25                 : RMF          - RESISTIVITY OF MUD FILTRATE 
SUFT.C        15                   : SUFT         - SURFACE TEMPERATURE         
~A  DEPTH     RESD       GR     PHIN     PHID
  150.000    3.140   82.947    0.598    0.314
  150.300    3.022   87.215    0.593    0.236
  150.600    2.964   82.863    0.588    0.221
  150.900    2.907   85.294    0.585    0.238
  151.200    2.907   90.788    0.570    0.259
  151.500    2.851   90.146    0.567    0.273
  151.800    2.797   82.120    0.542    0.243
  152.100    2.744   83.308    0.523    0.243
  152.400    2.743   85.737    0.558    0.268
  152.700    2.795   88.156    0.582    0.282
  153.000    2.849   89.357    0.578    0.294
  153.300    2.848   83.177    0.573    0.280
  153.600    2.848   75.157    0.556    0.061
  153.900    2.793   72.041    0.565    0.152
  154.200    2.740   76.926    0.587    0.190
  154.500    2.792   89.181    0.555    0.210
  154.800    2.956   94.678    0.550    0.208
  155.100    3.012   87.264    0.539    0.190
  155.400    3.129   80.471    0.550    0.197
  155.700    3.128   82.280    0.559    0.212
  156.000    3.128   87.163    0.525    0.224
  156.300    3.187   91.431    0.507    0.182
  156.600    3.248   85.861    0.509    0.204
  156.900    3.310   80.912    0.512    0.220
  157.200    3.438   79.649    0.510    0.203
  157.500    3.639   85.758    0.549    0.221
  157.800    3.780   96.171    0.583    0.237
  158.100    3.779   98.595    0.560    0.193
  158.400    3.779   89.342    0.526    0.205
  158.700    3.778   86.849    0.526    0.230
  159.000    3.706   83.746    0.505    0.198
  159.300    3.705   81.866    0.534    0.184
  159.600    3.704   87.965    0.539    0.196
  159.900    3.703   86.090    0.530    0.209
  160.200    3.774   83.602    0.518    0.191
  160.500    3.846   85.400    0.505    0.180
  160.800    3.920   87.224    0.487    0.214
  161.100    3.994   84.113    0.486    0.235
  161.400    3.918   86.533    0.522    0.227
  161.700    3.844   88.347    0.560    0.186
  162.000    3.629   84.011    0.535    0.192
  162.300    3.560   85.815    0.534    0.211
  162.600    3.559   88.859    0.544    0.220
  162.900    3.627   87.593    0.535    0.073
  163.200    3.696   75.267    0.572    0.169
  163.500    3.913   77.072    0.587    0.232
  163.800    4.222   77.656    0.479    0.303
  164.100    4.733   68.406    0.524    0.265
  164.400    5.949   60.385    0.540    0.245
  164.700    7.768   65.259    0.413    0.265
  165.000    9.579   77.517    0.423    0.248
  165.300   10.535   85.468    0.428    0.237
  165.600   10.534   86.659    0.430    0.237
  165.900   10.138   81.094    0.436    0.251
  166.200   10.530   78.610    0.449    0.259
  166.500   10.527   76.729    0.446    0.235
  166.800    9.753   73.624    0.447    0.245
  167.100    7.325   70.510    0.466    0.314
  167.400    6.532   72.319    0.479    0.328
  167.700    6.407   69.210    0.481    0.280
  168.000    9.745   67.954    0.431    0.280
  168.300   12.484   67.285    0.445    0.281
  168.600   13.216   67.886    0.453    0.272
  168.900   13.213   75.834    0.413    0.262
  169.200   12.962   86.244    0.413    0.164
  169.500   11.340   88.668    0.419    0.184
  169.800   10.505   87.401    0.423    0.215
  170.100    9.368   84.912    0.421    0.195
  170.400    7.888   83.644    0.438    0.202
  170.700    7.034   83.614    0.457    0.208
  171.000    6.273   93.409    0.469    0.174
  171.300    5.384  103.205    0.467    0.217
  171.600    4.894  105.010    0.463    0.269
  171.900    4.364  100.064    0.468    0.153
  172.200    3.891   86.514    0.491    0.196
  172.500    3.470   72.347    0.559    0.248
  172.800    3.276   79.681    0.528    0.261
  173.100    3.469   79.648    0.450    0.252
  173.400    4.196   67.939    0.461    0.241
  173.700    4.981   59.914    0.471    0.283
  174.000    5.801   53.125    0.456    0.197
  174.300    6.628   53.083    0.455    0.210
  174.600    8.019   54.283    0.426    0.246
  174.900   15.628   56.701    0.397    0.288
  175.200   17.857   64.657    0.412    0.267
  175.500   17.184   83.671    0.429    0.164
  175.800   14.750   84.250    0.417    0.147
  176.100   11.079   84.830    0.443    0.135
  176.400    9.510   94.627    0.453    0.177
  176.700    8.810  100.118    0.432    0.210
  177.000    8.478  100.697    0.412    0.198
  177.300    7.706   98.825    0.442    0.217
  177.600    6.128   88.959    0.477    0.291
  177.900    5.786   61.273    0.453    0.278
  178.200    5.785   64.298    0.411    0.214
  178.500    7.134   74.721    0.397    0.240
  178.800    9.864   76.528    0.417    0.290
  179.100   11.057   72.802    0.488    0.306
  179.400   10.441   80.143    0.509    0.270
  179.700    9.858   85.028    0.474    0.260
  180.000   10.240   72.090    0.442    0.282
  180.300   11.478   62.836    0.461    0.292
  180.600   12.624   65.877    0.461    0.299
  180.900   13.365   70.141    0.437    0.305
  181.200   13.881   75.636    0.430    0.312
  181.500   14.147   82.356    0.439    0.260
  181.800   13.876   84.783    0.442    0.243
  182.100   14.690   89.664    0.441    0.268
  182.400   14.688   94.544    0.455    0.291
  182.700   14.685   92.050    0.450    0.277
  183.000   14.682   80.342    0.432    0.275
  183.300   15.250   79.074    0.420    0.277
  183.600   15.247   82.119    0.430    0.199
  183.900   14.957   73.479    0.448    0.200
  184.200   13.593   66.687    0.447    0.129
  184.500   12.835   80.171    0.368    0.134
  184.800   11.017   88.124    0.376    0.171
  185.100    9.824   80.102    0.419    0.256
  185.400    8.929   75.148    0.413    0.250
  185.700    9.453   78.798    0.391    0.225
  186.000   10.397   77.531    0.405    0.238
  186.300   11.879   71.357    0.384    0.258
  186.600   13.064   67.023    0.402    0.272
  186.900   13.314   68.817    0.430    0.275
  187.200   13.828   71.240    0.436    0.277
  187.500   13.564   74.284    0.443    0.251
  187.800   12.566   79.173    0.415    0.172
  188.100    9.994   91.427    0.412    0.159
  188.400    8.416   99.992    0.444    0.160
  188.700    6.443   96.266    0.479    0.104
  189.000    5.426   99.916    0.508    0.125
  189.300    4.838  108.486    0.486    0.164
  189.600    4.656  102.926    0.495    0.166
  189.900    4.313  109.026    0.522    0.180
  190.200    4.231  110.842    0.561    0.199
  190.500    4.312  105.883    0.552    0.163
  190.800    4.565  103.400    0.520    0.191
  191.100    4.741  106.426    0.518    0.017
  191.400    4.651  100.261    0.559    0.136
  191.700    4.562   94.080    0.541    0.236
  192.000    4.226  106.949    0.510    0.210
  192.300    3.841  100.767    0.488    0.250
  192.600    4.389   98.890    0.478    0.288
  192.900    5.310   91.480    0.439    0.196
  193.200    7.774   92.673    0.456    0.179
  193.500    9.405   99.395    0.459    0.201
  193.800    9.403  100.595    0.426    0.214
  194.100    9.402   96.254    0.425    0.171
  194.400    9.222   91.918    0.460    0.159
  194.700    8.708   99.869    0.491    0.187
  195.000    8.222  101.065    0.497    0.202
  195.300    7.617   97.346    0.491    0.200
  195.600    6.923   92.394    0.483    0.213
  195.900    7.470   89.906    0.455    0.235
  196.200    8.699   86.787    0.441    0.245
  196.500    9.387   86.146    0.460    0.261
  196.800   10.324   84.253    0.467    0.262
  197.100   10.723   83.623    0.459    0.229
  197.400   10.928   85.430    0.438    0.255
  197.700   11.351   95.225    0.414    0.255
  198.000   11.567  110.551    0.438    0.230
  198.300   11.346  112.972    0.432    0.224
  198.600   11.343  106.181    0.433    0.225
  198.900   11.127   92.016    0.437    0.243
  199.201   11.125   76.002    0.444    0.222
  199.501   11.123   69.199    0.452    0.208
  199.801   10.503   67.326    0.446    0.214
  200.101   10.108   67.909    0.463    0.247
  200.401    9.915   67.877    0.468    0.260
  200.701   10.103   66.614    0.447    0.260
  201.001   10.296   63.508    0.430    0.255
  201.301   10.694   61.003    0.431    0.222
  201.601   10.898   64.052    0.421    0.196
  201.901   10.896   74.464    0.432    0.206
