~VERSION INFORMATION
 VERS.                 2.0:   CWLS LOG ASCII STANDARD -VERSION 2.0
 WRAP.                  NO:   ONE LINE PER DEPTH STEP
~WELL INFORMATION BLOCK
#MNEM.UNIT           DATA                    DESCRIPTION OF MNEMONIC
#---------    -------------------            -------------------------------
# Generated from Intellog Unique Number	CS_73_76/WELL/2208
WELL.         DOME PETROLEUM LIMITED         : Well_name    - WELL
LOC .         00/12-08-074-10W4/0            : Location     - LOCATION
UWI .         00/12-08-074-10W4/0            : Uwi          - UNIQUE WELL ID
ENTR.         SP                             : Entered      - ENTERED BY
SRVC.         SCHLUMBERGER                   : Scn          - SERVICE COMPANY
STRT.M        285                            : top_depth    - START DEPTH
STOP.M        515                            : bot_depth    - STOP DEPTH
STEP.M        0.25                           : increment    - STEP LENGTH
 NULL. -999.2500:NULL Value
~CURVE INFORMATION BLOCK
#MNEM UNIT       ERCB CURVE CODE    CURVE DESCRIPTION
#-----------   ------------------   ----------------------------------
DEPT.M        00 001 00 00         : DEPTH        - DEPTH
ILD .OHMM     00 120 00 00         : RESD         - DEEP RESISTIVITY (DIL)
DPHI.V/V      00 890 00 00         : PHID         - DENSITY POROSITY (LIMESTONE)
NPHI.V/V      00 330 00 00         : PHIN         - NEUTRON POROSITY (LIMESTONE)
GR  .API      00 310 00 00         : GR           - GAMMA RAY
~PARAMETER INFORMATION
#MNEM.UNIT           DATA             DESCRIPTION OF MNEMONIC
#---------         -----------     ------------------------------
GL  .M        658.95               : gl           - GROUND LEVEL ELEVATION
EREF.M        663                  : kb           - ELEVATION OF DEPTH REFERENCE
DATM.M        658.95               : datum        - DATUM ELEVATION
TDD .M        527                  : tdd          - TOTAL DEPTH DRILLER
RUN .         ONE                  : Run          - RUN NUMBER
ENG .         BILL                 : Engineer     - RECORDING ENGINEER
WIT .         JIM                  : Witness      - WITNESSED BY
MUD .         GEL                  : Mud_type     - MUD TYPE
MATR.         LIMESTONE            : Logunit      - NEUTRON MATRIX
TMAX.C        23                   : BHT          - MAXIMUM RECORDED TEMPERATURE
BHTD.M        527                  : BHTDEP       - MAXIMUM RECORDED TEMPERATURE
MATR.         1                    : LOGUNIT      - NEUTRON MATRIX
RMT .C        25                   : MDTP         - TEMPERATURE OF MUD
NEUT.         1                    : NEUTRON      - NEUTRON TYPE
RESI.         0                    : RESIST       - RESISTIVITY TYPE
RMC .OHMM     0.25                 : RMC          - RESISTIVITY OF MUD CAKE
RMF .OHMM     0.25                 : RMF          - RESISTIVITY OF MUD FILTRATE
SUFT.C        15                   : SUFT         - SURFACE TEMPERATURE
~A  DEPTH     RESD     PHID     PHIN       GR
  285.000    4.213    0.262    0.466  100.196
  285.250    4.360    0.248    0.446   97.118
  285.500    4.458    0.255    0.447   91.575
  285.750    4.719    0.253    0.449   90.340
  286.000    5.089    0.245    0.440   89.102
  286.250    5.186    0.238    0.431   90.323
  286.500    5.185    0.239    0.417   94.002
  286.750    5.184    0.247    0.413   94.612
  287.000    5.184    0.242    0.417   92.145
  287.250    5.086    0.245    0.425   89.062
  287.500    4.990    0.244    0.423   88.442
  287.750    4.896    0.232    0.420   87.819
  288.000    4.804    0.223    0.428   87.810
  288.250    4.713    0.216    0.443   89.647
  288.500    4.624    0.216    0.441   93.328
  288.750    4.537    0.218    0.431   93.930
  289.000    4.537    0.216    0.439   93.925
  289.250    4.536    0.208    0.450   90.844
  289.500    4.536    0.201    0.451   88.993
  289.750    4.535    0.196    0.449   89.601
  290.000    4.535    0.213    0.440   87.747
  290.250    4.709    0.270    0.428   79.748
  290.500    5.079    0.355    0.418   69.289
  290.750    5.375    0.404    0.425   58.216
  291.000    5.797    0.422    0.454   47.145
  291.250    6.744    0.407    0.437   38.530
  291.500    7.846    0.385    0.411   37.294
  291.750   10.420    0.356    0.390   40.975
  292.000   13.075    0.365    0.403   44.649
  292.250   14.926    0.413    0.391   45.872
  292.500   15.796    0.458    0.396   48.324
  292.750   16.402    0.486    0.411   50.159
  293.000   17.034    0.487    0.414   51.994
  293.250   17.690    0.433    0.426   53.216
  293.500   19.443    0.405    0.433   53.829
  293.750   20.969    0.413    0.443   56.280
  294.000   21.367    0.331    0.443   59.959
  294.250   21.773    0.305    0.406   59.336
  294.500   22.187    0.300    0.378   57.486
  294.750   23.040    0.321    0.380   53.789
  295.000   23.038    0.346    0.389   51.323
  295.250   23.036    0.359    0.391   50.700
  295.500   23.034    0.352    0.388   53.149
  295.750   22.598    0.356    0.389   56.826
  296.000   22.172    0.378    0.396   58.665
  296.250   21.754    0.405    0.415   59.275
  296.500   21.344    0.427    0.420   59.266
  296.750   20.942    0.394    0.413   58.643
  297.000   20.547    0.344    0.406   58.636
  297.250   20.544    0.304    0.396   60.473
  297.500   20.543    0.279    0.405   63.538
  297.750   20.932    0.241    0.414   62.917
  298.000   20.538    0.122    0.393   62.908
  298.250   19.773    0.159    0.327   70.888
  298.500   17.985    0.230    0.378   75.800
  298.750   16.672    0.262    0.398   76.407
  299.000   14.881    0.281    0.417   80.702
  299.250   14.059    0.268    0.404   91.759
  299.500   11.201    0.250    0.410   95.442
  299.750    9.626    0.233    0.424   94.204
  300.000    8.592    0.209    0.428   88.664
  300.250    8.117    0.213    0.425   83.738
  300.500    7.668    0.230    0.417   81.270
  300.750    7.523    0.236    0.412   87.409
  301.000    7.666    0.244    0.404   94.165
  301.250    7.812    0.268    0.393   96.616
  301.500    8.917    0.288    0.382   85.542
  301.750    9.437    0.309    0.371   76.314
  302.000   10.179    0.325    0.356   64.011
  302.250   11.619    0.345    0.353   51.094
  302.500   13.264    0.305    0.357   57.231
  302.750   14.857    0.297    0.361   57.226
  303.000   16.024    0.308    0.354   53.530
  303.250   16.958    0.323    0.350   50.448
  303.500   17.280    0.329    0.367   52.898
  303.750   17.278    0.335    0.386   55.966
  304.000   16.952    0.339    0.386   57.188
  304.250   16.632    0.331    0.366   57.178
  304.500   16.630    0.285    0.373   59.016
  304.750   16.317    0.218    0.388   61.466
  305.000   16.316    0.197    0.391   58.997
  305.250   16.313    0.218    0.376   61.449
  305.500   16.006    0.249    0.367   58.981
  305.750   15.410    0.166    0.351   55.286
  306.000   14.836    0.116    0.338   77.409
  306.250   14.556    0.152    0.357   85.393
  306.500   13.752    0.196    0.376   90.303
  306.750   12.991    0.238    0.388   89.066
  307.000   12.746    0.264    0.387   84.138
  307.250   12.270    0.261    0.378   82.900
  307.500   12.039    0.270    0.377   82.893
  307.750   12.038    0.259    0.375   84.117
  308.000   12.037    0.248    0.369   82.876
  308.250   12.266    0.244    0.376   81.029
  308.500   12.737    0.255    0.362   74.257
  308.750   13.737    0.275    0.351   67.487
  309.000   13.998    0.282    0.350   73.625
  309.250   14.264    0.287    0.364   77.922
  309.500   14.535    0.290    0.356   80.372
  309.750   14.811    0.290    0.370   82.826
  310.000   14.531    0.275    0.364   90.193
  310.250   13.990    0.265    0.372   91.416
  310.500   13.726    0.262    0.384   86.489
  310.750   13.468    0.265    0.381   80.949
  311.000   12.485    0.257    0.374   79.097
  311.250   12.020    0.251    0.371   82.777
  311.500   10.933    0.259    0.379   87.071
  311.750   10.329    0.265    0.375   88.910
  312.000    9.574    0.251    0.391   92.588
  312.250    9.218    0.240    0.391   96.271
  312.500    8.875    0.238    0.385   98.106
  312.750    8.544    0.251    0.381   90.106
  313.000    8.706    0.262    0.378   80.263
  313.250    9.041    0.259    0.380   72.879
  313.500    9.040    0.246    0.379   67.340
  313.750    8.704    0.242    0.374   61.799
  314.000    8.222    0.226    0.376   90.681
  314.250    7.479    0.192    0.401   92.518
  314.500    7.066    0.163    0.431   88.822
  314.750    6.306    0.422    0.442   82.668
  315.000    6.072    0.465    0.473   64.833
  315.250    5.845    0.523    0.495   51.916
  315.500    6.548    0.524    0.444   40.843
  315.750    8.373    0.407    0.400   34.689
  316.000   10.912    0.384    0.384   40.822
  316.250   15.339    0.380    0.386   42.044
  316.500   18.887    0.378    0.395   42.037
  316.750   21.156    0.367    0.397   41.413
  317.000   23.253    0.362    0.374   41.409
  317.250   24.146    0.352    0.368   43.862
  317.500   24.605    0.346    0.375   47.541
  317.750   25.073    0.343    0.386   53.679
  318.000   25.070    0.348    0.389   56.132
  318.250   24.136    0.338    0.384   59.196
  318.500   23.237    0.338    0.380   59.192
  318.750   22.371    0.334    0.371   55.492
  319.000   21.538    0.329    0.373   54.255
  319.250   21.535    0.334    0.368   53.635
  319.500   21.534    0.343    0.362   54.854
  319.750   21.531    0.351    0.369   55.464
  320.000   21.529    0.345    0.382   57.296
  320.250   21.527    0.345    0.378   59.135
  320.500   21.121    0.351    0.371   60.971
  320.750   21.118    0.340    0.367   62.193
  321.000   20.720    0.334    0.374   64.030
  321.250   20.718    0.319    0.383   65.247
  321.500   20.327    0.312    0.385   65.243
  321.750   19.944    0.293    0.383   64.006
  322.000   19.942    0.268    0.381   65.224
  322.250   19.197    0.292    0.376   66.449
  322.500   18.835    0.298    0.374   69.513
  322.750   18.481    0.293    0.383   75.038
  323.000   17.793    0.282    0.388   80.562
  323.250   16.494    0.277    0.394   84.858
  323.500   14.175    0.267    0.398   92.227
  323.750   12.653    0.251    0.405   99.596
  324.000   10.081    0.235    0.420  108.809
  324.250    9.170    0.222    0.434  111.260
  324.500    8.031    0.219    0.444  112.484
  324.750    6.902    0.201    0.450  113.706
  325.000    6.520    0.182    0.450  114.925
  325.250    5.931    0.155    0.451  116.148
  325.500    5.395    0.160    0.446  116.756
  325.750    5.497    0.194    0.430  114.904
  326.000    5.929    0.217    0.415  108.749
  326.250    6.157    0.226    0.397  101.976
  326.500    7.299    0.239    0.380   99.513
  326.750    8.988    0.263    0.372   93.971
  327.000   10.859    0.279    0.378   90.890
  327.250   12.396    0.290    0.387   85.964
  327.500   14.151    0.306    0.390   82.883
  327.750   14.976    0.280    0.390   86.562
  328.000   13.882    0.250    0.392   92.698
  328.250   12.868    0.236    0.398   96.379
