~VERSION INFORMATION
 VERS.                 2.0:   CWLS LOG ASCII STANDARD -VERSION 2.0
 WRAP.                  NO:   ONE LINE PER DEPTH STEP
~WELL INFORMATION BLOCK
#MNEM.UNIT           DATA                    DESCRIPTION OF MNEMONIC
#---------    -------------------            -------------------------------
# Generated from Intellog Unique Number	CS_69_70/WELL/892
NULL.         -999.25                        : NULL_VALUE
WELL.         HB PITLOCHRIE                  : Well_name    - WELL              
LOC .         00/11-21-070-12W4/0            : Location     - LOCATION          
UWI .         00/11-21-070-12W4/0            : Uwi          - UNIQUE WELL ID    
ENTR.         SP                             : Entered      - ENTERED BY        
SRVC.         SCHLUMBERGER                   : Scn          - SERVICE COMPANY   
STRT.M        259.080                        : top_depth    - START DEPTH       
STOP.M        456.830                        : bot_depth    - STOP DEPTH        
STEP.M        0.25                           : increment    - STEP LENGTH       
~CURVE INFORMATION BLOCK
#MNEM UNIT       ERCB CURVE CODE    CURVE DESCRIPTION
#-----------   ------------------   ----------------------------------
DEPT.M        00 001 00 00         : DEPTH        - DEPTH                       
GR  .API      00 310 00 00         : GR           - GAMMA RAY                   
DPHI.V/V      00 890 00 00         : PHID         - DENSITY POROSITY (SANDSTONE)
NPHI.V/V      00 330 00 00         : PHIN         - NEUTRON POROSITY (SANDSTONE)
ILD .OHMM     00 120 00 00         : RESD         - DEEP RESISTIVITY (DIL)      
~PARAMETER INFORMATION       
#MNEM.UNIT           DATA             DESCRIPTION OF MNEMONIC
#---------         -----------     ------------------------------
GL  .M        576.682              : gl           - GROUND LEVEL ELEVATION      
EREF.M        580.339              : kb           - ELEVATION OF DEPTH REFERENCE
DATM.M        576.682              : datum        - DATUM ELEVATION             
TDD .M        460.248              : tdd          - TOTAL DEPTH DRILLER         
RUN .         ONE                  : Run          - RUN NUMBER                  
ENG .         BILL                 : Engineer     - RECORDING ENGINEER          
WIT .         JIM                  : Witness      - WITNESSED BY                
MUD .         GEL                  : Mud_type     - MUD TYPE                    
MATR.         SANDSTONE            : Logunit      - NEUTRON MATRIX              
TMAX.C        12.2222              : BHT          - MAXIMUM RECORDED TEMPERATURE
BHTD.M        460.248              : BHTDEP       - MAXIMUM RECORDED TEMPERATURE
MATR.         1                    : LOGUNIT      - NEUTRON MATRIX              
RMT .C        25                   : MDTP         - TEMPERATURE OF MUD          
NEUT.         1                    : NEUTRON      - NEUTRON TYPE                
RESI.         0                    : RESIST       - RESISTIVITY TYPE            
RMC .OHMM     0.25                 : RMC          - RESISTIVITY OF MUD CAKE     
RMF .OHMM     0.25                 : RMF          - RESISTIVITY OF MUD FILTRATE 
SUFT.C        15                   : SUFT         - SURFACE TEMPERATURE         
~A  DEPTH       GR     PHID     PHIN     RESD
  259.080   97.655    0.291    0.582    2.505
  259.330   97.081    0.265    0.584    2.591
  259.580   96.799    0.278    0.567    2.717
  259.830   97.577    0.277    0.563    2.877
  260.080  100.368    0.262    0.577    3.002
  260.330  102.255    0.269    0.574    3.198
  260.580  100.303    0.279    0.561    3.288
  260.830   97.623    0.271    0.564    3.389
  261.080   95.151    0.243    0.567    3.418
  261.330   92.584    0.260    0.567    3.397
  261.580   92.025    0.253    0.568    3.309
  261.830   94.383    0.234    0.555    3.153
  262.080   97.615    0.246    0.556    3.022
  262.330   99.467    0.254    0.574    2.889
  262.580   98.759    0.257    0.594    2.735
  262.830   96.873    0.264    0.595    2.664
  263.080   96.060    0.248    0.577    2.668
  263.330   96.728    0.245    0.563    2.744
  263.580   96.755    0.249    0.564    2.894
  263.830   97.744    0.234    0.555    2.981
  264.080   99.542    0.240    0.601    3.045
  264.330  100.900    0.256    0.591    3.100
  264.580   99.406    0.262    0.570    3.082
  264.830   95.949    0.242    0.553    3.015
  265.080   93.652    0.224    0.536    2.963
  265.330   92.387    0.222    0.550    2.927
  265.580   94.120    0.238    0.545    2.929
  265.830   94.731    0.247    0.529    2.936
  266.080   94.639    0.259    0.538    2.918
  266.330   94.115    0.268    0.556    2.865
  266.580   91.275    0.259    0.578    2.768
  266.830   85.428    0.327    0.588    2.676
  267.080   79.441    0.392    0.603    2.654
  267.330   74.811    0.426    0.624    2.702
  267.580   71.671    0.405    0.640    2.815
  267.830   67.101    0.361    0.643    2.959
  268.080   60.348    0.371    0.626    3.164
  268.330   53.897    0.266    0.618    3.250
  268.580   46.179    0.260    0.435    3.332
  268.830   42.789    0.270    0.421    3.231
  269.080   46.175    0.280    0.407    3.099
  269.330   48.919    0.291    0.407    3.051
  269.580   51.821    0.299    0.401    3.009
  269.830   54.840    0.282    0.394    3.137
  270.080   56.568    0.274    0.403    3.302
  270.330   57.756    0.257    0.412    3.469
  270.580   60.149    0.245    0.414    3.601
  270.830   64.520    0.221    0.418    3.562
  271.080   67.988    0.223    0.425    3.562
  271.330   70.901    0.264    0.435    3.557
  271.580   74.056    0.285    0.432    3.592
  271.830   76.453    0.283    0.431    3.668
  272.080   83.706    0.257    0.430    3.858
  272.330   90.419    0.225    0.431    4.154
  272.580   96.210    0.209    0.446    4.415
  272.830  100.244    0.222    0.474    4.739
  273.080  101.659    0.241    0.475    4.978
  273.330  101.205    0.260    0.470    5.094
  273.580  100.178    0.275    0.497    5.138
  273.830  100.477    0.291    0.515    5.150
  274.080  101.082    0.290    0.515    5.139
  274.330  100.457    0.272    0.516    5.128
  274.580  100.575    0.283    0.508    5.154
  274.830  101.030    0.274    0.499    5.178
  275.080  102.174    0.260    0.499    5.185
  275.330  103.239    0.244    0.488    5.142
  275.580  102.748    0.262    0.499    5.142
  275.830   99.311    0.277    0.515    5.140
  276.080   93.117    0.230    0.464    5.106
  276.330   86.975    0.212    0.447    5.038
  276.580   80.174    0.261    0.455    4.991
  276.830   77.117    0.260    0.458    4.936
  277.080   79.612    0.247    0.450    4.870
  277.330   82.450    0.239    0.435    4.829
  277.580   84.322    0.231    0.418    4.800
  277.830   84.255    0.234    0.416    4.788
  278.080   84.731    0.242    0.429    4.787
  278.330   89.816    0.241    0.438    4.824
  278.580   94.131    0.233    0.446    4.892
  278.830   97.070    0.212    0.437    4.974
  279.080   94.949    0.228    0.433    5.037
  279.330   90.100    0.218    0.438    5.107
  279.580   86.327    0.220    0.424    5.156
  279.830   90.047    0.236    0.439    5.203
  280.080   96.310    0.241    0.457    4.956
  280.330  100.550    0.230    0.530    4.621
  280.580  103.683    0.232    0.585    4.109
  280.830  106.227    0.227    0.608    3.673
  281.080  108.322    0.268    0.631    3.415
  281.330  108.156    0.298    0.608    3.082
  281.580  106.372    0.288    0.600    2.736
  281.830  101.030    0.307    0.668    2.502
  282.080   92.753    0.290    0.560    2.741
  282.330   86.397    0.276    0.506    3.233
  282.580   82.389    0.245    0.481    3.752
  282.830   80.301    0.238    0.483    4.389
  283.080   79.586    0.242    0.478    5.055
  283.330   76.016    0.230    0.455    5.402
  283.580   70.097    0.228    0.423    6.227
  283.830   61.574    0.127    0.303    7.408
  284.080   55.509    0.089    0.198    8.740
  284.330   55.301    0.045    0.174   10.712
  284.580   61.419    0.004    0.159   12.118
  284.830   71.117    0.059    0.409   10.775
  285.080   76.678    0.195    0.450    8.957
  285.330   79.539    0.229    0.474    7.478
  285.580   80.890    0.244    0.483    6.432
  285.830   83.861    0.259    0.486    5.732
  286.080   88.194    0.262    0.484    5.493
  286.330   91.131    0.260    0.472    5.334
  286.580   94.137    0.257    0.459    5.264
  286.830   95.961    0.274    0.455    5.173
  287.080   95.917    0.265    0.472    5.087
  287.330   99.356    0.284    0.490    4.978
  287.580  103.059    0.316    0.517    4.790
  287.830  105.858    0.319    0.536    4.599
  288.080  107.877    0.322    0.553    4.349
  288.330  109.000    0.307    0.542    4.193
  288.580  109.250    0.283    0.528    4.145
  288.830  111.196    0.264    0.545    4.167
  289.080  113.475    0.249    0.551    4.302
  289.330  115.538    0.233    0.542    4.493
  289.580  117.988    0.249    0.522    4.805
  289.830  119.899    0.261    0.500    5.115
  290.080  118.329    0.230    0.476    5.381
  290.330  112.976    0.218    0.462    5.600
  290.580  107.607    0.228    0.446    5.444
  290.830  102.931    0.262    0.448    4.958
  291.080   99.388    0.283    0.450    4.578
  291.330   96.238    0.280    0.438    4.389
  291.580   95.356    0.267    0.436    4.426
  291.830   95.581    0.255    0.444    4.594
  292.080   95.558    0.245    0.451    4.779
  292.330   95.325    0.240    0.460    4.994
  292.580   97.118    0.241    0.461    5.162
  292.830   99.147    0.241    0.468    5.292
  293.080  100.777    0.242    0.485    5.274
  293.330  101.602    0.280    0.499    4.940
  293.580   94.651    0.247    0.492    4.683
  293.830   83.519    0.244    0.487    4.472
  294.080   77.405    0.261    0.471    4.365
  294.330   80.195    0.279    0.461    4.403
  294.580   84.748    0.280    0.467    4.509
  294.830   89.761    0.264    0.478    4.690
  295.080   95.727    0.247    0.465    4.946
  295.330   99.519    0.229    0.450    5.181
  295.580  103.104    0.210    0.443    5.381
  295.830  106.456    0.201    0.440    5.537
  296.080  108.942    0.199    0.438    5.660
  296.330  106.505    0.197    0.450    5.727
  296.580  108.226    0.196    0.456    5.752
  296.830  110.508    0.207    0.458    5.760
  297.080  111.029    0.211    0.453    5.727
  297.330  110.051    0.186    0.461    5.631
  297.580  106.921    0.203    0.479    5.471
  297.830   98.727    0.256    0.508    5.245
  298.080   89.268    0.303    0.525    4.979
  298.330   80.633    0.304    0.506    4.810
  298.580   87.314    0.288    0.490    4.740
  298.830   91.790    0.271    0.503    4.831
  299.080   96.631    0.226    0.512    4.975
  299.330   98.563    0.215    0.519    5.005
  299.580   98.141    0.248    0.513    5.059
  299.830   95.825    0.243    0.532    4.894
  300.080   94.219    0.241    0.521    4.379
  300.330   94.830    0.239    0.506    3.933
  300.580   98.369    0.234    0.516    3.644
  300.830  102.492    0.236    0.578    3.473
  301.080  105.727    0.260    0.597    3.395
  301.330  104.358    0.246    0.578    3.451
  301.580  101.268    0.254    0.564    3.624
  301.830  100.958    0.242    0.562    3.823
  302.080  100.478    0.249    0.553    3.985
  302.330   99.298    0.243    0.543    4.203
