~VERSION INFORMATION
 VERS.                 2.0:   CWLS LOG ASCII STANDARD -VERSION 2.0
 WRAP.                  NO:   ONE LINE PER DEPTH STEP
~WELL INFORMATION BLOCK
#MNEM.UNIT           DATA                    DESCRIPTION OF MNEMONIC
#---------    -------------------            -------------------------------
# Generated from Intellog Unique Number	CW_73_75/WELL/1048
WELL.         CDN SUP ET AL FRANCIS 11-35    : Well_name    - WELL
LOC .         00/11-35-074-20W4/0            : Location     - LOCATION
UWI .         00/11-35-074-20W4/0            : Uwi          - UNIQUE WELL ID
ENTR.         JAYE                           : Entered      - ENTERED BY
SRVC.         SCHLUMBERGER                   : Scn          - SERVICE COMPANY
DATE.         3 MAR 76                       : Date         - LOG DATE
STRT.M        323.088                        : top_depth    - START DEPTH
STOP.M        524.313                        : bot_depth    - STOP DEPTH
STEP.M        0.25                           : increment    - STEP LENGTH
 NULL. -999.2500:NULL Value
~CURVE INFORMATION BLOCK
#MNEM UNIT       ERCB CURVE CODE    CURVE DESCRIPTION
#-----------   ------------------   ----------------------------------
DEPT.M        00 001 00 00         : DEPTH        - DEPTH
GR  .API      00 310 00 00         : GR           - GAMMA RAY
CALI.IN       00 280 01 00         : CAL          - CALIPER
NPHI.V/V      00 330 00 00         : PHIN         - NEUTRON POROSITY (SANDSTONE)
DPHI.V/V      00 890 00 00         : PHID         - DENSITY POROSITY (SANDSTONE)
ILD .OHMM     00 120 00 00         : RESD         - DEEP RESISTIVITY (DLL)
~PARAMETER INFORMATION
#MNEM.UNIT           DATA             DESCRIPTION OF MNEMONIC
#---------         -----------     ------------------------------
GL  .M        640.69               : gl           - GROUND LEVEL ELEVATION
EREF.M        644.652              : kb           - ELEVATION OF DEPTH REFERENCE
DATM.M        640.69               : datum        - DATUM ELEVATION
TDD .M        585.216              : tdd          - TOTAL DEPTH DRILLER
RUN .         ONE                  : Run          - RUN NUMBER
BASE.         EDM                  : Branch       - HOME BASE OF LOGGING UNIT
MUD .         GEL CHEM             : Mud_type     - MUD TYPE
MATR.         SANDSTONE            : Logunit      - NEUTRON MATRIX
TMAX.C        23.8889              : BHT          - MAXIMUM RECORDED TEMPERATURE
BHTD.M        585.826              : BHTDEP       - MAXIMUM RECORDED TEMPERATURE
RMT .C        17.7778              : MDTP         - TEMPERATURE OF MUD
MUDD.KG/M     1164                 : MWT          - MUD DENSITY
NEUT.         1                    : NEUTRON      - NEUTRON TYPE
RESI.         1                    : RESIST       - RESISTIVITY TYPE
RM  .OHMM     1.96                 : RM           - RESISTIVITY OF MUD
RMC .OHMM     0                    : RMC          - RESISTIVITY OF MUD CAKE
RMF .OHMM     2.24                 : RMF          - RESISTIVITY OF MUD FILTRATE
SUFT.C        -17.7778             : SUFT         - SURFACE TEMPERATURE
~A  DEPTH       GR      CAL     PHIN     PHID     RESD
  323.088   90.215    8.851    0.530    0.257    2.947
  323.338   89.593    8.868    0.536    0.251    2.990
  323.588   89.604    8.848    0.526    0.240    3.062
  323.838   90.122    8.764    0.529    0.240    3.129
  324.088   90.448    8.639    0.523    0.230    3.175
  324.338   89.953    8.534    0.516    0.200    3.210
  324.588   89.457    8.581    0.518    0.213    3.210
  324.838   89.721    8.750    0.509    0.237    3.175
  325.088   90.048    8.869    0.524    0.219    3.112
  325.338   90.819    8.802    0.537    0.237    3.067
  325.588   91.778    8.554    0.537    0.237    3.039
  325.838   92.295    8.327    0.521    0.257    3.050
  326.088   91.295    8.164    0.508    0.264    3.050
  326.338   88.458    8.025    0.495    0.221    3.100
  326.588   85.179    7.954    0.492    0.215    3.192
  326.838   82.028    7.904    0.489    0.181    3.414
  327.088   79.634    7.875    0.502    0.198    3.679
  327.338   73.571    7.859    0.513    0.202    4.074
  327.588   63.903    7.763    0.480    0.216    4.688
  327.838   61.446    7.595    0.432    0.140    5.364
  328.088   65.380    7.570    0.385    0.116    6.240
  328.338   69.313    7.630    0.399    0.128    7.780
  328.588   67.680    7.698    0.443    0.285    8.352
  328.838   64.338    7.788    0.408    0.293    8.292
  329.088   70.357    7.898    0.392    0.280    7.708
  329.338   78.403    7.975    0.390    0.244    7.232
  329.588   77.846    8.068    0.422    0.216    6.698
  329.838   71.909    8.145    0.453    0.222    6.353
  330.088   72.300    8.205    0.455    0.245    5.993
  330.338   78.194    8.210    0.440    0.235    5.572
  330.588   90.351    8.181    0.439    0.219    5.227
  330.838   96.752    8.135    0.453    0.219    4.868
  331.088  101.381    8.102    0.474    0.220    4.468
  331.338  101.961    8.031    0.502    0.225    4.162
  331.588   94.633    7.964    0.529    0.244    4.277
  331.838   86.863    7.864    0.513    0.254    4.534
  332.088   75.803    7.793    0.481    0.278    5.011
  332.338   70.120    7.773    0.457    0.258    5.611
  332.588   73.800    7.778    0.447    0.279    6.057
  332.838   81.655    7.795    0.435    0.294    6.491
  333.088   86.728    7.842    0.418    0.252    6.931
  333.338   88.952    7.898    0.407    0.227    7.097
  333.588   90.735    7.979    0.400    0.221    6.918
  333.838   93.214    8.038    0.413    0.203    6.694
  334.088   95.438    8.098    0.439    0.187    6.443
  334.338   96.588    8.166    0.458    0.184    6.144
  334.588   93.942    8.264    0.452    0.205    5.775
  334.838   87.437    8.412    0.456    0.216    5.538
  335.088   82.007    8.476    0.478    0.216    5.477
  335.338   78.221    8.414    0.488    0.268    5.816
  335.588   76.335    8.254    0.416    0.243    6.313
  335.838   78.687    7.989    0.399    0.252    6.890
  336.088   81.797    7.855    0.400    0.243    7.452
  336.338   83.707    7.822    0.397    0.240    7.672
  336.588   85.615    7.835    0.406    0.241    7.574
  336.838   88.156    7.866    0.421    0.225    7.210
  337.088   86.965    7.930    0.440    0.222    6.452
  337.338   82.990    8.019    0.456    0.253    5.751
  337.588   81.419    8.075    0.474    0.242    5.596
  337.838   82.569    8.042    0.456    0.223    5.835
  338.088   84.605    7.899    0.425    0.218    6.265
  338.338   87.779    7.777    0.406    0.241    6.702
  338.588   91.396    7.744    0.387    0.239    7.209
  338.838   93.430    7.791    0.379    0.217    7.544
  339.088   90.405    7.860    0.388    0.212    7.782
  339.338   82.698    7.924    0.417    0.212    7.881
  339.588   78.660    7.979    0.432    0.223    8.026
  339.838   72.661    7.992    0.416    0.249    8.293
  340.088   65.206    7.976    0.408    0.248    9.560
  340.338   56.234    7.939    0.424    0.267   11.243
  340.588   47.578    7.851    0.390    0.292   13.490
  340.838   40.693    7.692    0.373    0.331   16.635
  341.088   37.731    7.536    0.353    0.348   20.107
  341.338   37.615    7.503    0.333    0.335   25.621
  341.588   38.448    7.601    0.327    0.323   31.884
  341.838   40.484    7.724    0.343    0.331   31.651
  342.088   42.899    7.826    0.355    0.341   28.999
  342.338   45.946    7.949    0.369    0.339   24.343
  342.588   49.563    8.039    0.385    0.329   19.667
  342.838   53.812    8.077    0.406    0.314   15.688
  343.088   59.959    8.086    0.404    0.322   12.311
  343.338   66.360    8.087    0.394    0.289   10.241
  343.588   75.417    8.071    0.399    0.264    8.534
  343.838   82.261    8.030    0.402    0.249    7.622
  344.088   85.056    7.980    0.397    0.217    7.177
  344.338   85.320    7.938    0.393    0.199    7.085
  344.588   84.888    7.905    0.397    0.191    7.150
  344.838   85.785    7.902    0.415    0.216    7.268
  345.088   88.199    7.919    0.418    0.196    7.307
  345.338   90.234    7.928    0.410    0.186    7.321
  345.588   89.107    7.954    0.401    0.199    7.058
  345.838   87.535    7.976    0.398    0.229    6.634
  346.088   92.987    7.998    0.412    0.226    5.946
  346.338   99.262    8.007    0.446    0.189    5.196
  346.588  102.437    8.012    0.470    0.154    4.434
  346.838  105.799    8.021    0.523    0.109    3.804
  347.088  110.365    8.031    0.565    0.100    3.361
  347.338  111.263    8.031    0.582    0.152    3.223
  347.588  109.122    8.032    0.595    0.193    3.130
  347.838  104.388    8.045    0.567    0.185    3.051
  348.088  104.145    8.088    0.549    0.163    3.007
  348.338  107.573    8.131    0.543    0.128    3.034
  348.588  108.216    8.246    0.550    0.160    3.118
  348.838  105.571    8.440    0.542    0.240    3.234
  349.088  103.430    8.580    0.529    0.214    3.472
  349.338  101.100    8.412    0.514    0.276    3.803
  349.588   97.315    8.227    0.496    0.278    4.555
  349.838   98.465    8.287    0.447    0.233    5.455
  350.088   99.171    8.385    0.469    0.235    6.097
  350.338   97.475    8.445    0.471    0.238    6.254
  350.588   95.651    8.348    0.472    0.188    6.277
  350.838   93.321    8.193    0.533    0.238    6.438
  351.088   85.107    7.886    0.522    0.253    6.763
  351.338   73.224    7.680    0.481    0.239    7.156
  351.588   65.770    7.630    0.440    0.244    7.655
  351.838   67.426    7.622    0.412    0.265    8.041
  352.088   74.460    7.628    0.400    0.259    8.477
  352.338   79.974    7.641    0.406    0.253    8.855
  352.588   80.744    7.650    0.426    0.227    9.251
  352.838   74.619    7.668    0.475    0.208    9.559
  353.088   69.821    7.702    0.443    0.263    9.770
  353.338   65.847    7.741    0.424    0.278    9.646
  353.588   66.870    7.809    0.429    0.309    9.334
  353.838   70.044    7.881    0.447    0.298    9.000
  354.088   73.788    7.979    0.444    0.276    8.459
  354.338   77.847    8.127    0.433    0.238    7.979
  354.588   82.286    8.276    0.433    0.240    7.500
  354.838   86.915    8.264    0.456    0.217    7.284
  355.088   88.699    8.007    0.484    0.229    7.191
  355.338   86.811    7.734    0.503    0.259    7.323
  355.588   87.454    7.570    0.487    0.249    7.526
  355.838   91.578    7.558    0.459    0.264    7.526
  356.088   96.903    7.567    0.449    0.278    7.362
  356.338  101.279    7.606    0.438    0.270    7.177
  356.588  101.859    7.708    0.447    0.241    7.111
  356.838   97.378    7.835    0.466    0.224    7.189
  357.088   86.760    7.967    0.488    0.238    7.456
  357.338   74.941    8.069    0.506    0.241    7.889
  357.588   66.031    8.078    0.506    0.258    8.689
  357.838   60.981    7.977    0.490    0.304   10.350
  358.088   63.839    7.835    0.476    0.333   13.285
  358.338   69.733    7.755    0.484    0.335   16.028
  358.588   75.755    7.676    0.483    0.330   15.853
  358.838   75.829    7.655    0.473    0.317   15.285
  359.088   72.360    7.635    0.447    0.314   14.366
  359.338   72.687    7.636    0.447    0.324   13.751
