~VERSION INFORMATION
 VERS.                 2.0:   CWLS LOG ASCII STANDARD -VERSION 2.0
 WRAP.                  NO:   ONE LINE PER DEPTH STEP
~WELL INFORMATION BLOCK
#MNEM.UNIT           DATA                    DESCRIPTION OF MNEMONIC
#---------    -------------------            -------------------------------
# Generated from Intellog Unique Number	CS_69_70/WELL/902
NULL.         -999.25                        : NULL_VALUE
WELL.         BVX ET AL HEART LAKE           : Well_name    - WELL              
LOC .         00/13-18-070-10W4/0            : Location     - LOCATION          
UWI .         00/13-18-070-10W4/0            : Uwi          - UNIQUE WELL ID    
ENTR.         SP                             : Entered      - ENTERED BY        
SRVC.         SCHLUMBERGER                   : Scn          - SERVICE COMPANY   
STRT.M        295                            : top_depth    - START DEPTH       
STOP.M        530                            : bot_depth    - STOP DEPTH        
STEP.M        0.25                           : increment    - STEP LENGTH       
~CURVE INFORMATION BLOCK
#MNEM UNIT       ERCB CURVE CODE    CURVE DESCRIPTION
#-----------   ------------------   ----------------------------------
DEPT.M        00 001 00 00         : DEPTH        - DEPTH                       
DPHI.V/V      00 890 00 00         : PHID         - DENSITY POROSITY (LIMESTONE)
NPHI.V/V      00 330 00 00         : PHIN         - NEUTRON POROSITY (LIMESTONE)
GR  .API      00 310 00 00         : GR           - GAMMA RAY                   
ILD .OHMM     00 120 00 00         : RESD         - DEEP RESISTIVITY (DIL)      
~PARAMETER INFORMATION       
#MNEM.UNIT           DATA             DESCRIPTION OF MNEMONIC
#---------         -----------     ------------------------------
GL  .M        632.82               : gl           - GROUND LEVEL ELEVATION      
EREF.M        635.5                : kb           - ELEVATION OF DEPTH REFERENCE
DATM.M        632.82               : datum        - DATUM ELEVATION             
TDD .M        545                  : tdd          - TOTAL DEPTH DRILLER         
RUN .         ONE                  : Run          - RUN NUMBER                  
ENG .         BILL                 : Engineer     - RECORDING ENGINEER          
WIT .         JIM                  : Witness      - WITNESSED BY                
MUD .         GEL                  : Mud_type     - MUD TYPE                    
MATR.         LIMESTONE            : Logunit      - NEUTRON MATRIX              
TMAX.C        23                   : BHT          - MAXIMUM RECORDED TEMPERATURE
BHTD.M        545                  : BHTDEP       - MAXIMUM RECORDED TEMPERATURE
MATR.         1                    : LOGUNIT      - NEUTRON MATRIX              
RMT .C        25                   : MDTP         - TEMPERATURE OF MUD          
NEUT.         1                    : NEUTRON      - NEUTRON TYPE                
RESI.         0                    : RESIST       - RESISTIVITY TYPE            
RMC .OHMM     0.25                 : RMC          - RESISTIVITY OF MUD CAKE     
RMF .OHMM     0.25                 : RMF          - RESISTIVITY OF MUD FILTRATE 
SUFT.C        15                   : SUFT         - SURFACE TEMPERATURE         
~A  DEPTH     PHID     PHIN       GR     RESD
# ...
  338.500    0.282    0.497   91.816    6.441
  338.750    0.280    0.472   92.124    6.728
  339.000    0.283    0.468   92.433    6.820
  339.250    0.284    0.474   92.680    7.019
  339.500    0.281    0.476   93.109    7.453
  339.750    0.226    0.468   89.320    8.122
  340.000    0.135    0.440   87.458    8.802
  340.250    0.097    0.335   86.439    9.107
  340.500    0.106    0.271   89.037    9.133
  340.750    0.159    0.303   92.901    8.794
  341.000    0.220    0.344   96.343    8.236
  341.250    0.271    0.410   95.386    7.813
  341.500    0.291    0.456   92.198    7.360
  341.750    0.263    0.471   89.312    7.179
  342.000    0.235    0.425   86.667    7.214
  342.250    0.218    0.397   88.784    7.245
  342.500    0.212    0.385   92.949    7.291
  342.750    0.252    0.414   95.849    7.218
  343.000    0.266    0.431   97.181    6.812
  343.250    0.266    0.451   97.851    6.607
  343.500    0.278    0.461   98.399    6.458
  343.750    0.274    0.458   97.563    6.414
  344.000    0.269    0.454   97.630    6.420
  344.250    0.248    0.461   97.817    6.438
  344.500    0.241    0.465   96.619    6.540
  344.750    0.244    0.449   90.840    6.681
  345.000    0.272    0.424   85.061    6.941
  345.250    0.275    0.407   80.668    7.169
  345.500    0.268    0.396   75.492    7.503
  345.750    0.285    0.402   71.581    7.560
  346.000    0.279    0.398   76.892    7.841
  346.250    0.250    0.409   80.092    8.100
  346.500    0.232    0.420   81.907    8.336
  346.750    0.249    0.431   84.144    8.595
  347.000    0.267    0.444   85.838    8.711
  347.250    0.281    0.454   83.374    8.914
  347.500    0.301    0.448   80.307    9.124
  347.750    0.316    0.432   77.301    9.217
  348.000    0.325    0.424   76.463    9.242
  348.250    0.325    0.420   76.048    9.046
  348.500    0.312    0.430   76.175    8.856
  348.750    0.309    0.445   77.569    8.638
  349.000    0.310    0.456   79.443    8.349
  349.250    0.302    0.449   80.053    8.054
  349.500    0.305    0.452   79.638    7.727
  349.750    0.309    0.463   80.247    7.495
  350.000    0.317    0.446   83.087    7.059
  350.250    0.321    0.457   86.348    6.600
  350.500    0.313    0.468   90.092    6.296
  350.750    0.292    0.471   93.111    6.151
  351.000    0.274    0.460   96.613    6.123
  351.250    0.278    0.466  100.718    6.278
  351.500    0.254    0.447  104.521    6.544
  351.750    0.263    0.465  102.298    6.950
  352.000    0.287    0.480   98.750    7.204
  352.250    0.291    0.480   96.165    7.318
  352.500    0.284    0.459   96.593    7.284
  352.750    0.262    0.443   98.349    7.079
  353.000    0.244    0.431  100.586    6.791
  353.250    0.244    0.451  102.761    6.661
  353.500    0.258    0.474  105.781    6.905
  353.750    0.253    0.487  104.040    7.415
  354.000    0.241    0.472   98.864    7.829
  354.250    0.263    0.449   91.458    8.360
  354.500    0.285    0.433   86.161    9.062
  354.750    0.300    0.416   82.974    9.322
  355.000    0.291    0.426   82.498    9.647
  355.250    0.302    0.438   83.832    9.708
  355.500    0.286    0.447   85.645    9.664
  355.750    0.293    0.458   87.942    9.656
  356.000    0.278    0.465   89.938    9.702
  356.250    0.288    0.445   90.969    9.656
  356.500    0.281    0.445   88.987    9.632
  356.750    0.281    0.449   83.691    9.550
  357.000    0.284    0.436   80.744    9.437
  357.250    0.292    0.424   78.943    9.394
  357.500    0.291    0.417   81.842    9.367
  357.750    0.296    0.412   85.224    9.359
  358.000    0.295    0.411   87.582    9.351
  358.250    0.285    0.411   88.673    9.343
  358.500    0.285    0.410   88.681    9.320
  358.750    0.273    0.404   88.686    9.377
  359.000    0.265    0.393   91.043    9.473
  359.250    0.266    0.385   93.642    9.517
  359.500    0.246    0.392   94.371    9.474
  359.750    0.253    0.395   93.234    9.398
  360.000    0.264    0.404   92.999    9.318
  360.250    0.260    0.416   94.694    9.190
  360.500    0.263    0.428   96.629    8.948
  360.750    0.247    0.437   97.117    8.680
  361.000    0.239    0.438  101.041    8.388
  361.250    0.226    0.424  103.700    8.153
  361.500    0.208    0.430  104.731    7.939
  361.750    0.216    0.423  104.738    7.784
  362.000    0.246    0.409  105.890    7.536
  362.250    0.255    0.421  108.670    7.298
  362.500    0.229    0.438  111.210    7.306
  362.750    0.207    0.451  112.058    7.477
  363.000    0.211    0.470  109.955    7.778
  363.250    0.226    0.462  103.031    8.352
  363.500    0.249    0.457   95.142    8.867
  363.750    0.267    0.451   87.254    9.540
  364.000    0.282    0.443   85.635    9.851
  364.250    0.297    0.437   86.846   10.255
  364.500    0.295    0.433   87.938   10.441
  364.750    0.285    0.444   85.473   10.466
  365.000    0.302    0.449   83.732   10.477
  365.250    0.318    0.451   86.029   10.391
  365.500    0.316    0.457   85.313   10.395
  365.750    0.312    0.466   79.535   10.290
  366.000    0.323    0.466   77.251   10.168
  366.250    0.328    0.451   75.449    9.944
  366.500    0.321    0.439   75.094    9.933
  366.750    0.314    0.431   75.885    9.899
  367.000    0.313    0.424   79.688    9.824
  367.250    0.312    0.425   81.563    9.719
  367.500    0.312    0.430   80.605    9.692
  367.750    0.312    0.432   82.662    9.667
  368.000    0.313    0.431   85.623    9.712
  368.250    0.307    0.439   87.618    9.738
  368.500    0.316    0.446   88.708    9.695
  368.750    0.310    0.427   88.896    9.631
  369.000    0.304    0.411   84.804    9.437
  369.250    0.294    0.404   81.436    9.391
  369.500    0.290    0.404   80.540    9.310
  369.750    0.291    0.414   79.943    9.215
  370.000    0.283    0.422   79.528    9.088
  370.250    0.288    0.426   84.598    8.963
  370.500    0.293    0.426   88.883    8.599
  370.750    0.271    0.424   94.013    8.218
  371.000    0.250    0.419   97.937    8.349
  371.250    0.239    0.413   99.330    8.404
  371.500    0.243    0.414   99.698    8.334
  371.750    0.247    0.408   97.595    7.834
  372.000    0.256    0.405   92.117    7.613
  372.250    0.235    0.418   94.475    7.677
  372.500    0.224    0.425   91.167    7.958
  372.750    0.244    0.428   84.545    8.466
  373.000    0.267    0.428   72.799    9.090
  373.250    0.296    0.431   67.442    9.354
  373.500    0.318    0.439   72.451    9.364
  373.750    0.327    0.448   75.652    9.220
  374.000    0.319    0.448   76.622    8.925
  374.250    0.312    0.443   76.751    8.176
  374.500    0.307    0.439   80.192    6.655
  374.750    0.314    0.450   84.779    5.468
  375.000    0.319    0.470   87.859    4.819
  375.250    0.282    0.464   90.518    4.422
  375.500    0.260    0.452   92.393    4.730
  375.750    0.250    0.466   92.159    5.042
  376.000    0.282    0.484   90.960    5.384
  376.250    0.273    0.463   88.315    5.632
  376.500    0.270    0.446   88.924    5.732
  376.750    0.265    0.449   91.342    5.812
  377.000    0.252    0.468   92.614    6.036
  377.250    0.256    0.479   92.019    6.787
  377.500    0.261    0.468   89.194    7.646
  377.750    0.284    0.464   86.910    8.424
  378.000    0.317    0.474   84.686    8.977
  378.250    0.323    0.480   81.439    9.343
  378.500    0.326    0.471   78.673    9.597
  378.750    0.331    0.451   76.510    9.729
  379.000    0.334    0.439   74.949   10.031
  379.250    0.328    0.462   72.729   10.494
  379.500    0.328    0.496   71.829   11.605
  379.750    0.300    0.500   70.028   13.517
  380.000    0.265    0.462   67.383   14.536
  380.250    0.239    0.420   63.534   15.407
  380.500    0.034    0.384   60.707   15.536
  380.750    0.017    0.226   57.278   14.904
  381.000    0.108    0.187   52.162   13.729
  381.250    0.158    0.207   57.413   12.394
  381.500    0.202    0.252   61.095   11.502
  381.750    0.273    0.322   63.513   10.951
