~VERSION INFORMATION
 VERS.                 2.0:   CWLS LOG ASCII STANDARD -VERSION 2.0
 WRAP.                  NO:   ONE LINE PER DEPTH STEP
~WELL INFORMATION BLOCK
#MNEM.UNIT           DATA                    DESCRIPTION OF MNEMONIC
#---------    -------------------            -------------------------------
# Generated from Intellog Unique Number	CS_71_72/WELL/871
WELL.         PACIFIC PHILLIPS AEC WIAU      : Well_name    - WELL
LOC .         00/10-25-072-09W4/0            : Location     - LOCATION
UWI .         00/10-25-072-09W4/0            : Uwi          - UNIQUE WELL ID
ENTR.         SP                             : Entered      - ENTERED BY
SRVC.         SCHLUMBERGER                   : Scn          - SERVICE COMPANY
STRT.M        315                            : top_depth    - START DEPTH
STOP.M        520                            : bot_depth    - STOP DEPTH
STEP.M        0.25                           : increment    - STEP LENGTH
 NULL. -999.2500:NULL Value
~CURVE INFORMATION BLOCK
#MNEM UNIT       ERCB CURVE CODE    CURVE DESCRIPTION
#-----------   ------------------   ----------------------------------
DEPT.M        00 001 00 00         : DEPTH        - DEPTH
GR  .API      00 310 00 00         : GR           - GAMMA RAY
NPHI.V/V      00 330 00 00         : PHIN         - NEUTRON POROSITY (LIMESTONE)
DPHI.V/V      00 890 00 00         : PHID         - DENSITY POROSITY (LIMESTONE)
ILD .OHMM     00 120 00 00         : RESD         - DEEP RESISTIVITY (DIL)
~PARAMETER INFORMATION
#MNEM.UNIT           DATA             DESCRIPTION OF MNEMONIC
#---------         -----------     ------------------------------
GL  .M        682.3                : gl           - GROUND LEVEL ELEVATION
EREF.M        685.3                : kb           - ELEVATION OF DEPTH REFERENCE
DATM.M        682.3                : datum        - DATUM ELEVATION
TDD .M        530                  : tdd          - TOTAL DEPTH DRILLER
RUN .         ONE                  : Run          - RUN NUMBER
ENG .         BILL                 : Engineer     - RECORDING ENGINEER
WIT .         JIM                  : Witness      - WITNESSED BY
MUD .         GEL                  : Mud_type     - MUD TYPE
MATR.         LIMESTONE            : Logunit      - NEUTRON MATRIX
TMAX.C        16                   : BHT          - MAXIMUM RECORDED TEMPERATURE
BHTD.M        530                  : BHTDEP       - MAXIMUM RECORDED TEMPERATURE
MATR.         1                    : LOGUNIT      - NEUTRON MATRIX
RMT .C        25                   : MDTP         - TEMPERATURE OF MUD
NEUT.         1                    : NEUTRON      - NEUTRON TYPE
RESI.         0                    : RESIST       - RESISTIVITY TYPE
RMC .OHMM     0.25                 : RMC          - RESISTIVITY OF MUD CAKE
RMF .OHMM     0.25                 : RMF          - RESISTIVITY OF MUD FILTRATE
SUFT.C        15                   : SUFT         - SURFACE TEMPERATURE
~A  DEPTH       GR     PHIN     PHID     RESD
# ...
  402.000   70.993    0.496    0.266    7.185
  402.250   72.199    0.482    0.261    7.057
  402.500   71.598    0.476    0.254    6.930
  402.750   71.600    0.481    0.241    6.682
  403.000   71.601    0.473    0.240    6.561
  403.250   72.205    0.470    0.237    6.326
  403.500   71.605    0.467    0.230    6.213
  403.750   71.003    0.462    0.218    6.215
  404.000   69.800    0.476    0.222    6.218
  404.250   69.801    0.482    0.225    6.221
  404.500   70.405    0.475    0.232    6.340
  404.750   68.600    0.468    0.249    6.462
  405.000   67.396    0.464    0.232    6.464
  405.250   65.590    0.470    0.223    6.588
  405.500   64.387    0.475    0.230    6.591
  405.750   62.582    0.467    0.242    6.594
  406.000   62.583    0.463    0.248    6.597
  406.250   64.391    0.453    0.258    6.479
  406.500   67.405    0.452    0.248    5.801
  406.750   70.419    0.478    0.240    5.389
  407.000   72.227    0.500    0.237    5.099
  407.250   73.433    0.528    0.248    4.826
  407.500   72.832    0.548    0.276    5.104
  407.750   66.810    0.533    0.298    5.707
  408.000   62.595    0.508    0.311    6.262
  408.250   60.789    0.498    0.306    6.873
  408.500   60.790    0.476    0.287    7.269
  408.750   61.394    0.467    0.281    7.548
  409.000   62.601    0.469    0.273    7.692
  409.250   62.602    0.480    0.287    7.839
  409.500   61.399    0.488    0.292    7.844
  409.750   60.797    0.498    0.282    7.994
  410.000   60.196    0.486    0.275    8.147
  410.250   60.199    0.463    0.266    8.151
  410.500   60.802    0.456    0.275    8.153
  410.750   60.803    0.458    0.289    8.624
  411.000   60.805    0.458    0.296    8.789
  411.250   60.807    0.470    0.304    8.956
  411.500   60.205    0.478    0.317    9.128
  411.750   59.604    0.482    0.322    8.965
  412.000   59.605    0.484    0.311    8.970
  412.250   61.414    0.475    0.299    8.808
  412.500   63.223    0.464    0.292    8.650
  412.750   63.827    0.457    0.289    8.495
  413.000   60.214    0.464    0.283    8.191
  413.250   59.613    0.471    0.277    8.044
  413.500   60.217    0.487    0.277    7.755
  413.750   62.025    0.492    0.286    7.477
  414.000   65.040    0.490    0.278    7.480
  414.250   66.246    0.484    0.266    7.345
  414.500   66.850    0.480    0.260    7.349
  414.750   66.249    0.473    0.266    7.352
  415.000   66.250    0.467    0.281    7.220
  415.250   65.649    0.471    0.272    6.961
  415.500   65.650    0.474    0.254    6.711
  415.750   65.049    0.485    0.242    6.590
  416.000   63.846    0.499    0.244    6.593
  416.250   62.041    0.504    0.263    6.596
  416.500   62.042    0.511    0.272    6.599
  416.750   63.249    0.519    0.288    6.602
  417.000   63.852    0.509    0.299    6.366
  417.250   65.661    0.481    0.282    6.251
  417.500   67.469    0.473    0.257    6.140
  417.750   70.483    0.470    0.231    6.030
  418.000   71.087    0.477    0.217    5.922
  418.250   71.691    0.490    0.201    5.924
  418.500   71.693    0.509    0.212    5.927
  418.750   71.693    0.538    0.226    5.931
  419.000   74.105    0.512    0.236    5.932
  419.250   75.311    0.487    0.222    5.826
  419.500   76.518    0.480    0.222    5.829
  419.750   76.519    0.476    0.213    5.831
  420.000   75.918    0.473    0.209    5.833
  420.250   75.920    0.476    0.201    5.945
  420.500   75.921    0.483    0.196    5.948
  420.750   76.525    0.496    0.223    5.843
  421.000   76.526    0.497    0.224    5.845
  421.250   75.925    0.483    0.229    5.848
  421.500   75.927    0.477    0.236    5.850
  421.750   75.326    0.473    0.223    5.852
  422.000   75.327    0.470    0.195    6.077
  422.250   76.534    0.467    0.183    6.192
  422.500   77.137    0.464    0.173    6.428
  422.750   77.139    0.464    0.188    6.674
  423.000   76.538    0.471    0.189    6.678
  423.250   74.732    0.483    0.176    6.681
  423.500   75.336    0.496    0.193    6.683
  423.750   77.145    0.506    0.218    6.326
  424.000   80.158    0.494    0.229    5.876
  424.250   82.569    0.487    0.215    5.069
  424.500   82.571    0.482    0.199    4.293
  424.750   80.765    0.508    0.207    3.703
  425.000   80.164    0.528    0.214    3.377
  425.250   80.165    0.549    0.232    3.138
  425.500   78.360    0.563    0.240    2.862
  425.750   76.555    0.576    0.223    2.758
  426.000   75.953    0.582    0.215    2.760
  426.250   76.557    0.584    0.234    2.813
  426.500   78.366    0.566    0.223    3.087
  426.750   80.778    0.544    0.209    3.389
  427.000   81.381    0.524    0.205    3.583
  427.250   80.177    0.520    0.235    4.236
  427.500   78.372    0.505    0.247    4.480
  427.750   77.771    0.480    0.231    4.826
  428.000   77.169    0.468    0.213    5.199
  428.250   74.762    0.464    0.230    5.499
  428.500   72.354    0.465    0.247    5.604
  428.750   70.548    0.483    0.253    5.504
  429.000   69.344    0.506    0.258    5.507
  429.250   66.936    0.500    0.253    5.408
  429.500   65.732    0.480    0.275    5.410
  429.750   65.131    0.476    0.258    5.513
  430.000   65.736    0.481    0.266    5.516
  430.250   67.544    0.487    0.250    5.623
  430.500   68.148    0.489    0.236    5.624
  430.750   69.354    0.494    0.254    5.627
  431.000   68.151    0.489    0.270    5.527
  431.250   66.947    0.500    0.300    5.529
  431.500   65.142    0.505    0.300    5.429
  431.750   63.939    0.495    0.307    5.334
  432.000   62.133    0.491    0.312    5.335
  432.250   61.532    0.498    0.300    5.337
  432.500   60.931    0.514    0.290    5.339
  432.750   59.728    0.514    0.288    5.442
  433.000   60.332    0.503    0.265    5.444
  433.250   62.141    0.493    0.250    5.653
  433.500   64.551    0.485    0.229    5.654
  433.750   63.950    0.468    0.236    5.763
  434.000   60.940    0.460    0.247    5.873
  434.250   59.134    0.454    0.259    5.986
  434.500   57.931    0.474    0.270    6.100
  434.750   56.727    0.479    0.277    6.333
  435.000   55.524    0.464    0.289    6.575
  435.250   56.128    0.431    0.287    6.955
  435.500   56.129    0.364    0.243    7.220
  435.750   57.335    0.331    0.209    7.497
  436.000   59.144    0.367    0.160    7.639
  436.250   59.748    0.462    0.229    7.365
  436.500   59.147    0.476    0.266    6.970
  436.750   60.353    0.488    0.281    6.597
  437.000   65.777    0.495    0.267    6.243
  437.250   66.983    0.485    0.262    6.018
  437.500   69.996    0.463    0.243    5.803
  437.750   70.600    0.450    0.226    5.594
  438.000   70.602    0.453    0.208    5.393
  438.250   70.001    0.477    0.231    5.199
  438.500   69.400    0.488    0.248    5.106
  438.750   69.401    0.500    0.235    5.015
  439.000   69.403    0.486    0.238    5.110
  439.250   69.404    0.477    0.252    5.306
  439.500   68.803    0.475    0.265    5.407
  439.750   68.202    0.497    0.270    5.511
  440.000   68.806    0.501    0.261    5.513
  440.250   70.615    0.487    0.243    5.620
  440.500   71.219    0.508    0.224    5.727
  440.750   69.413    0.518    0.238    5.947
  441.000   67.607    0.520    0.261    6.059
  441.250   65.801    0.491    0.277    6.175
  441.500   67.610    0.468    0.268    6.412
  441.750   68.214    0.459    0.260    6.535
  442.000   67.613    0.460    0.248    6.537
  442.250   68.819    0.460    0.242    6.662
  442.500   68.821    0.469    0.248    6.789
  442.750   66.413    0.479    0.250    6.792
  443.000   64.607    0.481    0.252    6.796
  443.250   63.404    0.483    0.254    6.674
  443.500   61.598    0.485    0.258    6.678
  443.750   60.997    0.482    0.264    7.062
  444.000   60.998    0.470    0.254    7.332
  444.250   63.409    0.468    0.256    7.201
  444.500   64.013    0.466    0.255    7.071
  444.750   64.617    0.462    0.242    6.692
  445.000   66.426    0.454    0.233    6.105
  445.250   68.837    0.440    0.229    5.885
