~VERSION INFORMATION
 VERS.                 2.0:   CWLS LOG ASCII STANDARD -VERSION 2.0
 WRAP.                  NO:   ONE LINE PER DEPTH STEP
~WELL INFORMATION BLOCK
#MNEM.UNIT           DATA                    DESCRIPTION OF MNEMONIC
#---------    -------------------            -------------------------------
# Generated from Intellog Unique Number	CS_71_72/WELL/909
WELL.         BVX-PCP ET AL DUNCAN           : Well_name    - WELL
LOC .         00/11-30-071-14W4/0            : Location     - LOCATION
UWI .         00/11-30-071-14W4/0            : Uwi          - UNIQUE WELL ID
ENTR.         SP                             : Entered      - ENTERED BY
SRVC.         SCHLUMBERGER                   : Scn          - SERVICE COMPANY
STRT.M        350                            : top_depth    - START DEPTH
STOP.M        535                            : bot_depth    - STOP DEPTH
STEP.M        0.25                           : increment    - STEP LENGTH
 NULL. -999.2500:NULL Value
~CURVE INFORMATION BLOCK
#MNEM UNIT       ERCB CURVE CODE    CURVE DESCRIPTION
#-----------   ------------------   ----------------------------------
DEPT.M        00 001 00 00         : DEPTH        - DEPTH
ILD .OHMM     00 120 00 00         : RESD         - DEEP RESISTIVITY (DIL)
DPHI.V/V      00 890 00 00         : PHID         - DENSITY POROSITY (LIMESTONE)
NPHI.V/V      00 330 00 00         : PHIN         - NEUTRON POROSITY (LIMESTONE)
GR  .API      00 310 00 00         : GR           - GAMMA RAY
~PARAMETER INFORMATION
#MNEM.UNIT           DATA             DESCRIPTION OF MNEMONIC
#---------         -----------     ------------------------------
GL  .M        668.81               : gl           - GROUND LEVEL ELEVATION
EREF.M        672.81               : kb           - ELEVATION OF DEPTH REFERENCE
DATM.M        668.81               : datum        - DATUM ELEVATION
TDD .M        536                  : tdd          - TOTAL DEPTH DRILLER
RUN .         ONE                  : Run          - RUN NUMBER
ENG .         BILL                 : Engineer     - RECORDING ENGINEER
WIT .         JIM                  : Witness      - WITNESSED BY
MUD .         GEL                  : Mud_type     - MUD TYPE
MATR.         LIMESTONE            : Logunit      - NEUTRON MATRIX
TMAX.C        25                   : BHT          - MAXIMUM RECORDED TEMPERATURE
BHTD.M        536                  : BHTDEP       - MAXIMUM RECORDED TEMPERATURE
MATR.         1                    : LOGUNIT      - NEUTRON MATRIX
RMT .C        25                   : MDTP         - TEMPERATURE OF MUD
NEUT.         1                    : NEUTRON      - NEUTRON TYPE
RESI.         0                    : RESIST       - RESISTIVITY TYPE
RMC .OHMM     0.25                 : RMC          - RESISTIVITY OF MUD CAKE
RMF .OHMM     0.25                 : RMF          - RESISTIVITY OF MUD FILTRATE
SUFT.C        15                   : SUFT         - SURFACE TEMPERATURE
~A  DEPTH     RESD     PHID     PHIN       GR
# ...
  437.000    4.588    0.273    0.447   98.653
  437.250    4.611    0.264    0.447   97.549
  437.500    4.539    0.247    0.442   96.933
  437.750    4.345    0.234    0.437   97.173
  438.000    4.151    0.232    0.440   97.839
  438.250    4.002    0.229    0.455   96.919
  438.500    3.940    0.221    0.462   93.372
  438.750    4.019    0.228    0.461   89.214
  439.000    4.139    0.257    0.451   78.277
  439.250    4.271    0.270    0.444   65.935
  439.500    4.497    0.262    0.439   67.396
  439.750    4.563    0.270    0.447   72.704
  440.000    4.664    0.322    0.455   77.402
  440.250    4.651    0.341    0.457   79.046
  440.500    4.562    0.329    0.462   77.637
  440.750    4.358    0.319    0.467   79.647
  441.000    4.243    0.312    0.458   80.070
  441.250    4.114    0.306    0.459   77.927
  441.500    4.089    0.315    0.472   76.823
  441.750    4.101    0.321    0.455   76.635
  442.000    4.160    0.320    0.441   77.424
  442.250    4.221    0.322    0.434   77.297
  442.500    4.338    0.324    0.425   75.094
  442.750    4.577    0.310    0.432   75.761
  443.000    4.894    0.307    0.450   77.282
  443.250    5.516    0.295    0.430   78.255
  443.500    7.415    0.258    0.425   74.463
  443.750    9.673    0.205    0.435   71.099
  444.000   11.706    0.154    0.435   66.879
  444.250   14.435    0.033    0.381   64.127
  444.500   17.080    0.014    0.313   61.741
  444.750   19.611    0.006    0.165   62.102
  445.000   21.086    0.018    0.170   65.823
  445.250   14.835    0.057    0.219   70.337
  445.500    9.502    0.130    0.267   73.081
  445.750    7.059    0.187    0.309   76.556
  446.000    5.156    0.261    0.371   78.446
  446.250    4.352    0.311    0.418   80.456
  446.500    4.173    0.287    0.436   82.467
  446.750    4.139    0.287    0.433   86.431
  447.000    4.214    0.297    0.446   89.298
  447.250    4.397    0.288    0.438   93.446
  447.500    4.630    0.251    0.452   97.533
  447.750    4.716    0.233    0.458   94.962
  448.000    4.865    0.233    0.445   93.064
  448.250    4.973    0.236    0.423   91.961
  448.500    5.017    0.240    0.413   94.093
  448.750    4.976    0.239    0.426   98.180
  449.000    4.871    0.241    0.441  100.924
  449.250    4.733    0.255    0.452   95.239
  449.500    4.677    0.273    0.456   88.638
  449.750    4.552    0.287    0.450   83.931
  450.000    4.365    0.293    0.448   80.933
  450.250    4.177    0.302    0.451   78.730
  450.500    4.074    0.314    0.454   75.305
  450.750    4.034    0.313    0.449   77.315
  451.000    4.100    0.300    0.439   80.486
  451.250    4.167    0.294    0.430   83.352
  451.500    4.211    0.298    0.424   87.133
  451.750    4.232    0.292    0.431   90.305
  452.000    4.189    0.285    0.436   83.826
  452.250    4.163    0.288    0.438   80.034
  452.500    4.145    0.297    0.431   80.091
  452.750    4.165    0.297    0.436   78.498
  453.000    4.178    0.283    0.435   80.325
  453.250    4.262    0.274    0.422   84.107
  453.500    4.389    0.267    0.409   88.683
  453.750    4.478    0.269    0.426   88.311
  454.000    4.560    0.276    0.438   88.306
  454.250    4.626    0.269    0.436   90.254
  454.500    4.728    0.258    0.440   91.595
  454.750    4.795    0.258    0.440   93.848
  455.000    4.820    0.266    0.431   93.784
  455.250    4.844    0.271    0.426   93.779
  455.500    4.841    0.260    0.430   95.239
  455.750    4.829    0.251    0.440   95.783
  456.000    4.880    0.242    0.457   95.718
  456.250    4.886    0.236    0.457   95.042
  456.500    4.864    0.233    0.461   94.121
  456.750    4.798    0.235    0.462   93.811
  457.000    4.777    0.239    0.461   92.401
  457.250    4.900    0.234    0.476   89.098
  457.500    5.123    0.231    0.491   84.085
  457.750    5.396    0.242    0.484   75.469
  458.000    5.683    0.206    0.440   68.013
  458.250    5.819    0.086    0.276   57.748
  458.500    5.882    0.060    0.243   66.782
  458.750    5.618    0.104    0.289   74.167
  459.000    5.199    0.180    0.343   78.620
  459.250    4.883    0.259    0.406   81.852
  459.500    4.648    0.289    0.430   85.451
  459.750    4.482    0.297    0.444   89.294
  460.000    4.362    0.288    0.453   93.442
  460.250    4.287    0.284    0.439   92.521
  460.500    4.276    0.283    0.429   90.194
  460.750    4.297    0.284    0.430   89.396
  461.000    4.359    0.288    0.441   89.269
  461.250    4.439    0.298    0.437   89.448
  461.500    4.545    0.297    0.437   89.260
  461.750    4.620    0.289    0.445   88.767
  462.000    4.591    0.283    0.437   87.968
  462.250    4.427    0.282    0.427   90.528
  462.500    4.151    0.285    0.437   94.919
  462.750    3.549    0.293    0.440   97.908
  463.000    2.962    0.295    0.436  102.301
  463.250    2.572    0.287    0.446  106.815
  463.500    2.220    0.279    0.480  108.765
  463.750    2.046    0.273    0.519  109.737
  464.000    2.033    0.270    0.571  108.572
  464.250    2.122    0.270    0.573  106.918
  464.500    2.346    0.267    0.566  105.570
  464.750    2.533    0.263    0.560  101.961
  465.000    2.827    0.258    0.544   98.474
  465.250    3.222    0.252    0.509   95.904
  465.500    3.713    0.249    0.480   94.435
  465.750    4.030    0.245    0.458   94.979
  466.000    4.237    0.241    0.446   97.906
  466.250    4.330    0.239    0.433  101.505
  466.500    4.385    0.241    0.438  105.226
  466.750    4.390    0.245    0.444  105.709
  467.000    4.371    0.251    0.451  102.895
  467.250    4.327    0.261    0.454  100.690
  467.500    4.284    0.266    0.448   99.403
  467.750    4.297    0.272    0.443   98.972
  468.000    4.398    0.271    0.451   98.051
  468.250    4.446    0.262    0.457   95.175
  468.500    4.511    0.250    0.455   92.421
  468.750    4.637    0.234    0.441   90.707
  469.000    4.713    0.213    0.434   91.069
  469.250    4.799    0.208    0.446   87.888
  469.500    4.832    0.223    0.458   81.653
  469.750    4.775    0.234    0.469   80.549
  470.000    4.701    0.210    0.401   87.018
  470.250    4.636    0.240    0.404   92.327
  470.500    4.572    0.273    0.416   93.727
  470.750    4.535    0.296    0.430   88.775
  471.000    4.523    0.283    0.442   85.472
  471.250    4.606    0.254    0.421   82.169
  471.500    4.612    0.262    0.411   77.949
  471.750    4.456    0.285    0.437   73.120
  472.000    4.233    0.305    0.451   66.703
  472.250    3.991    0.337    0.443   62.850
  472.500    3.672    0.347    0.434   61.136
  472.750    3.316    0.352    0.437   62.535
  473.000    3.126    0.352    0.437   64.179
  473.250    2.981    0.351    0.449   65.274
  473.500    2.923    0.352    0.451   66.490
  473.750    2.905    0.355    0.433   67.951
  474.000    2.892    0.358    0.449   70.633
  474.250    2.923    0.356    0.460   73.803
  474.500    2.982    0.351    0.443   76.120
  474.750    3.100    0.343    0.435   78.437
  475.000    3.284    0.329    0.441   82.463
  475.250    3.497    0.271    0.447   87.160
  475.500    3.670    0.257    0.443   91.187
  475.750    3.815    0.246    0.438   92.647
  476.000    3.928    0.235    0.433   90.505
  476.250    4.008    0.226    0.431   91.233
  476.500    4.065    0.216    0.429   94.160
  476.750    4.093    0.217    0.425   97.881
  477.000    4.091    0.226    0.422   99.341
  477.250    4.035    0.238    0.430   91.153
  477.500    3.964    0.260    0.445   84.552
  477.750    3.859    0.285    0.463   85.219
  478.000    3.792    0.304    0.451   87.962
  478.250    3.754    0.318    0.440   89.179
  478.500    3.730    0.313    0.438   81.723
  478.750    3.777    0.237    0.443   74.084
  479.000    3.824    0.222    0.442   75.178
  479.250    3.865    0.255    0.430   77.922
  479.500    3.892    0.285    0.422   80.664
  479.750    3.897    0.305    0.417   81.453
  480.000    3.901    0.309    0.422   80.716
  480.250    3.920    0.304    0.426   78.513
