~VERSION INFORMATION
 VERS.                 2.0:   CWLS LOG ASCII STANDARD -VERSION 2.0
 WRAP.                  NO:   ONE LINE PER DEPTH STEP
~WELL INFORMATION BLOCK
#MNEM.UNIT           DATA                    DESCRIPTION OF MNEMONIC
#---------    -------------------            -------------------------------
# Generated from Intellog Unique Number	CC_80_83/WELL/2408
NULL.         -999.25                        : NULL_VALUE
WELL.         CHEVRON BP GRAND RAPIDS        : Well_name    - WELL
LOC .         11-25-083-17W4                 : Location     - LOCATION          
UWI .         00/11-25-083-17W400            : Uwi          - UNIQUE WELL ID    
ENTR.         DW                             : Entered      - ENTERED BY        
SRVC.         SCHLUMBERGER                   : Scn          - SERVICE COMPANY   
DATE.         26 JAN 73                      : Date         - LOG DATE
STRT.M        91.44                          : top_depth    - START DEPTH       
STOP.M        280.415                        : bot_depth    - STOP DEPTH        
STEP.M        0.3048                         : increment    - STEP LENGTH       
~CURVE INFORMATION BLOCK
#MNEM UNIT       ERCB CURVE CODE    CURVE DESCRIPTION
#-----------   ------------------   ----------------------------------
DEPT.M        00 001 00 00         : DEPTH        - DEPTH                       
DPHI.V/V      00 890 00 00         : PHID         - DENSITY POROSITY (LIMESTONE)
NPHI.V/V      00 330 00 00         : PHIN         - NEUTRON POROSITY (LIMESTONE)
GR  .API      00 310 00 00         : GR           - GAMMA RAY                   
ILD .OHMM     00 120 00 00         : RESD         - DEEP RESISTIVITY (DIL)      
~PARAMETER INFORMATION       
#MNEM.UNIT           DATA             DESCRIPTION OF MNEMONIC
#---------         -----------     ------------------------------
GL  .M        510.388              : gl           - GROUND LEVEL ELEVATION      
EREF.M        513.588              : kb           - ELEVATION OF DEPTH REFERENCE
DATM.M        513.588              : datum        - DATUM ELEVATION             
TDD .M        321.259              : tdd          - TOTAL DEPTH DRILLER         
RUN .         ONE                  : Run          - RUN NUMBER                  
ENG .         BILL                 : Engineer     - RECORDING ENGINEER          
WIT .         JIM                  : Witness      - WITNESSED BY                
MUD .         GEL                  : Mud_type     - MUD TYPE                    
MATR.         LIMESTONE            : Logunit      - NEUTRON MATRIX              
TMAX.C        26.1111              : BHT          - MAXIMUM RECORDED TEMPERATURE
BHTD.M        321.259              : BHTDEP       - MAXIMUM RECORDED TEMPERATURE
MATR.         1                    : LOGUNIT      - NEUTRON MATRIX              
RMT .C        25                   : MDTP         - TEMPERATURE OF MUD          
NEUT.         1                    : NEUTRON      - NEUTRON TYPE                
RESI.         0                    : RESIST       - RESISTIVITY TYPE            
RMC .OHMM     0.25                 : RMC          - RESISTIVITY OF MUD CAKE     
RMF .OHMM     0.25                 : RMF          - RESISTIVITY OF MUD FILTRATE 
SUFT.C        15                   : SUFT         - SURFACE TEMPERATURE         
~A  DEPTH     PHID     PHIN       GR     RESD
# ...
  250.544    0.183    0.425   78.945    7.503
  250.848    0.140    0.418   77.175    9.174
  251.153    0.137    0.438   74.224   11.424
  251.458    0.178    0.426   70.092   13.716
  251.763    0.196    0.443   61.235   19.410
  252.068    0.234    0.487   47.064   22.883
  252.372    0.270    0.475   52.971   23.308
  252.677    0.261    0.450   57.107   22.475
  252.982    0.267    0.451   59.471   21.672
  253.287    0.248    0.461   58.292   20.520
  253.591    0.234    0.431   47.663   18.059
  253.896    0.227    0.463   44.122   12.765
  254.201    0.277    0.395   55.935    9.189
  254.506    0.249    0.391   73.063    5.122
  254.811    0.237    0.478   81.334    4.190
  255.115    0.227    0.535   81.336    4.427
  255.420    0.215    0.548   80.746    6.991
  255.725    0.184    0.529   81.340   12.095
  256.030    0.160    0.462   83.704   15.062
  256.335    0.122    0.444   85.478   15.342
  256.639    0.103    0.432   86.069   15.068
  256.944    0.190    0.408   89.615   14.528
  257.249    0.146    0.394   92.570   13.022
  257.554    0.122    0.396   92.571   11.887
  257.859    0.147    0.416   90.802   11.674
  258.164    0.155    0.440   85.488   12.334
  258.468    0.151    0.426   87.262   13.515
  258.773    0.153    0.422   86.083   16.227
  259.078    0.165    0.410   73.092   18.108
  259.383    0.209    0.403   70.141   21.349
  259.688    0.212    0.388   69.552   21.744
  259.992    0.206    0.370   79.003   21.747
  260.297    0.196    0.351   85.502   19.852
  260.602    0.179    0.362   85.503   18.456
  260.907    0.167    0.381   76.647   21.363
  261.212    0.178    0.406   66.018   29.686
  261.516    0.198    0.393   60.114   33.129
  261.821    0.227    0.378   59.526   31.947
  262.126    0.240    0.363   66.615   29.699
  262.431    0.209    0.359   79.609   26.620
  262.736    0.184    0.393   82.564   23.003
  263.040    0.166    0.425   74.298   18.144
  263.345    0.181    0.444   66.622   17.496
  263.650    0.174    0.425   63.081   18.149
  263.955    0.140    0.449   61.311   20.628
  264.260    0.126    0.426   67.810   28.145
  264.565    0.259    0.412   69.583   36.352
  264.869    0.255    0.395   69.585   42.854
  265.174    0.241    0.426   68.996   43.651
  265.479    0.246    0.451   67.817   47.835
  265.784    0.259    0.465   62.503   57.431
  266.089    0.276    0.476   53.056   60.673
  266.393    0.298    0.501   59.554   60.684
  266.698    0.324    0.438   77.273   55.398
  267.003    0.283    0.412   79.047   52.448
  267.308    0.254    0.410   75.505   47.011
  267.613    0.230    0.397   70.783   41.374
  267.917    0.221    0.372   71.375   38.464
  268.222    0.243    0.383   75.511   37.773
  268.527    0.256    0.396   84.371   34.483
  268.832    0.233    0.403   95.003   28.729
  269.137    0.206    0.406   92.643   24.377
  269.441    0.188    0.381   89.102   22.252
  269.746    0.163    0.389   92.057   19.946
  270.051    0.148    0.410   92.649   19.233
  270.356    0.173    0.397   88.517   21.859
  270.661    0.154    0.400   75.526   29.824
  270.966    0.165    0.400   61.355   52.551
  271.270    0.246    0.418   50.136   64.258
  271.575    0.290    0.428   53.681   67.888
  271.880    0.290    0.466   70.219   64.279
  272.185    0.270    0.425   78.489   56.570
  272.490    0.234    0.404   87.349   42.239
  272.794    0.221    0.398   93.847   28.785
  273.099    0.225    0.413   93.259   21.889
  273.404    0.174    0.416   85.583   19.981
  273.709    0.202    0.438   77.907   19.985
  274.014    0.231    0.460   76.138   22.715
  274.318    0.246    0.416   82.046   25.817
  274.623    0.228    0.394   83.228   25.820
  274.928    0.202    0.387   89.726   21.513
  275.233    0.177    0.382  103.311   16.660
  275.538    0.143    0.392  102.132    9.991
  275.842    0.130    0.491   95.638    9.288
  276.147    0.155    0.551   44.260   11.997
  276.452    0.185    0.557   24.183   17.609
  276.757    0.235    0.493   23.004   28.841
  277.062    0.289    0.466   76.748   44.718
  277.367    0.295    0.469   77.930   57.762
  277.671    0.282    0.466   73.798   62.151
  277.976    0.290    0.441   67.304   63.303
  278.281    0.309    0.432   66.124   63.313
  278.586    0.328    0.445   23.606   59.946
  278.891    0.314    0.420   17.702   55.734
  279.195    0.297    0.376   17.704   55.742
  279.500    0.239    0.296   18.887   55.749
  279.805    0.172    0.192   20.070   55.756
  280.110    0.125    0.160   19.481   54.756
  280.415    0.132    0.149   18.302   54.762
