~VERSION INFORMATION
 VERS.                 2.0:   CWLS LOG ASCII STANDARD -VERSION 2.0
 WRAP.                  NO:   ONE LINE PER DEPTH STEP
~WELL INFORMATION BLOCK
#MNEM.UNIT           DATA                    DESCRIPTION OF MNEMONIC
#---------    -------------------            -------------------------------
# Generated from Intellog Unique Number	CW_76_78/WELL/877
WELL.         10-16-076-25W4                 : Well_name    - WELL
LOC .         00/10-16-076-25W4/0            : Location     - LOCATION
UWI .         00/10-16-076-25W4/0            : Uwi          - UNIQUE WELL ID
ENTR.         JAYE                           : Entered      - ENTERED BY
SRVC.         SCHLUMBERGER                   : Scn          - SERVICE COMPANY
DATE.         8 FEB 75                       : Date         - LOG DATE
STRT.M        472.44                         : top_depth    - START DEPTH
STOP.M        679.69                         : bot_depth    - STOP DEPTH
STEP.M        0.25                           : increment    - STEP LENGTH
 NULL. -999.2500:NULL Value
~CURVE INFORMATION BLOCK
#MNEM UNIT       ERCB CURVE CODE    CURVE DESCRIPTION
#-----------   ------------------   ----------------------------------
DEPT.M        00 001 00 00         : DEPTH        - DEPTH
ILD .OHMM     00 120 00 00         : RESD         - DEEP RESISTIVITY (DIL)
NPHI.V/V      00 330 00 00         : PHIN         - NEUTRON POROSITY (SANDSTONE)
DPHI.V/V      00 890 00 00         : PHID         - DENSITY POROSITY (SANDSTONE)
GR  .API      00 310 00 00         : GR           - GAMMA RAY
CALI.MM       00 280 01 00         : CAL          - CALIPER
~PARAMETER INFORMATION
#MNEM.UNIT           DATA             DESCRIPTION OF MNEMONIC
#---------         -----------     ------------------------------
GL  .M        763.829              : gl           - GROUND LEVEL ELEVATION
EREF.M        768.096              : kb           - ELEVATION OF DEPTH REFERENCE
DATM.M        763.829              : datum        - DATUM ELEVATION
TDD .M        673.608              : tdd          - TOTAL DEPTH DRILLER
RUN .         ONE                  : Run          - RUN NUMBER
ENG .         EARLEY               : Engineer     - RECORDING ENGINEER
WIT .         BRONK/AYERS          : Witness      - WITNESSED BY
BASE.         EDM                  : Branch       - HOME BASE OF LOGGING UNIT
MUD .         GEL CHEM             : Mud_type     - MUD TYPE
MATR.         SANDSTONE            : Logunit      - NEUTRON MATRIX
TMAX.C        35                   : BHT          - MAXIMUM RECORDED TEMPERATURE
BHTD.M        666.902              : BHTDEP       - MAXIMUM RECORDED TEMPERATURE
RMT .C        3.33333              : MDTP         - TEMPERATURE OF MUD
MUDD.KG/M     1080                 : MWT          - MUD DENSITY
NEUT.         1                    : NEUTRON      - NEUTRON TYPE
RESI.         0                    : RESIST       - RESISTIVITY TYPE
RM  .OHMM     2.32                 : RM           - RESISTIVITY OF MUD
RMC .OHMM     2.65                 : RMC          - RESISTIVITY OF MUD CAKE
RMF .OHMM     3.87                 : RMF          - RESISTIVITY OF MUD FILTRATE
SUFT.C        -17.7778             : SUFT         - SURFACE TEMPERATURE
~A  DEPTH     RESD     PHIN     PHID       GR      CAL
# ...
  545.440    6.417    1.071    0.196   96.013  229.914
  545.690    6.240    1.068    0.175   96.561  231.155
  545.940    5.989    1.106    0.175   97.658  234.661
  546.190    5.790    1.158    0.188   98.635  239.186
  546.440    5.578    1.213    0.237  101.070  247.912
  546.690    5.434    1.230    0.274  104.772  258.693
  546.940    5.341    1.222    0.244  105.563  262.100
  547.190    5.398    1.187    0.205  102.132  274.306
  547.440    5.455    1.166    0.255   99.476  284.270
  547.690    5.411    1.138    0.264   97.971  253.939
  547.940    5.340    1.143    0.234   98.102  259.801
  548.190    5.229    1.166    0.292   99.566  294.876
  548.440    5.131    1.203    0.298  101.327  288.339
  548.690    4.998    1.207    0.275   99.225  271.738
  548.940    4.904    1.178    0.247   97.657  260.277
  549.190    4.821    1.183    0.310   96.576  261.114
  549.440    4.899    1.197    0.344   96.163  277.226
  549.690    5.155    1.208    0.373   96.657  288.929
  549.940    5.464    1.148    0.388   97.821  272.337
  550.190    5.707    1.131    0.315   98.853  258.821
  550.440    5.864    1.157    0.289   99.409  265.297
  550.690    6.035    1.183    0.359   98.875  279.868
  550.940    6.178    1.155    0.368   98.159  275.789
  551.190    6.290    1.185    0.359   98.107  263.920
  551.440    6.321    1.202    0.342  100.053  289.356
  551.690    6.305    1.226    0.325   97.585  240.891
  551.940    6.279    1.211    0.348   95.420  262.733
  552.190    6.195    1.192    0.361   94.282  283.762
  552.440    6.090    1.173    0.324   93.439  246.268
  552.690    5.986    1.197    0.332   92.416  260.323
  552.940    5.885    1.223    0.345   91.640  253.271
  553.190    5.892    1.196    0.328   88.929  251.747
  553.440    6.054    1.191    0.384   83.971  271.447
  553.690    6.231    1.243    0.478   81.925  378.374
  553.940    6.509    1.213    0.498   82.969  375.624
  554.190    6.761    1.165    0.416   85.095  240.655
  554.440    6.820    1.150    0.282   87.527  224.367
  554.690    6.704    1.141    0.184   89.474  237.606
  554.940    6.494    1.124    0.199   90.334  251.659
  555.190    6.479    1.121    0.205   91.433  275.561
  555.440    6.780    1.184    0.208   92.650  290.336
  555.690    7.293    1.204    0.238  101.978  266.780
  555.940    7.831    1.168    0.289   98.237  240.865
  556.190    8.301    1.173    0.263   92.681  229.921
  556.440    8.639    1.125    0.263   87.604  227.065
  556.690    8.843    1.107    0.275   86.652  224.742
  556.940    8.969    1.110    0.247   86.409  223.233
  557.190    9.063    1.119    0.258   84.190  222.803
  557.440    9.537    1.123    0.269   81.714  222.241
  557.690   10.128    1.110    0.271   78.754  222.145
  557.940   11.262    1.103    0.252   74.890  222.248
  558.190   12.732    1.085    0.207   71.389  222.468
  558.440   13.797    1.058    0.185   70.366  223.413
  558.690   14.253    1.033    0.176   70.441  224.453
  558.940   14.166    1.043    0.157   72.444  226.007
  559.190   13.130    1.074    0.195   75.425  226.938
  559.440   12.282    1.108    0.261   78.403  227.784
  559.690   11.530    1.129    0.287   80.043  228.323
  559.940   11.068    1.149    0.281   79.088  228.343
  560.190   10.277    1.174    0.283   76.973  228.045
  560.440    9.828    1.162    0.283   75.107  227.539
  560.690    9.346    1.124    0.280   74.512  226.674
  560.940    8.954    1.136    0.274   77.008  226.133
  561.190    8.595    1.154    0.271   80.712  225.972
  561.440    8.159    1.148    0.267   81.204  225.902
  561.690    7.745    1.143    0.251   81.089  225.885
  561.940    7.841    1.156    0.230   81.163  225.520
  562.190    8.799    1.157    0.250   81.291  225.526
  562.440    9.875    1.143    0.271   79.185  225.327
  562.690   10.799    1.029    0.242   75.622  225.474
  562.940   11.178    0.993    0.146   75.207  225.463
  563.190   10.474    0.992    0.097   80.368  225.276
  563.440    9.673    1.082    0.176   85.456  225.387
  563.690    8.915    1.133    0.220   88.675  225.721
  563.940    8.279    1.122    0.239   86.087  226.242
  564.190    7.744    1.083    0.224   82.525  226.966
  564.440    7.419    1.054    0.188   78.597  227.601
  564.690    7.388    1.033    0.142   79.825  228.845
  564.940    7.933    1.046    0.122   82.792  234.297
  565.190    9.051    1.072    0.142   86.077  248.862
  565.440   11.788    1.115    0.181   87.415  258.829
  565.690   14.772    0.951    0.094   84.032  252.901
  565.940   17.136    0.922    0.069   79.563  242.360
  566.190   15.912    0.900    0.028   76.551  235.812
  566.440   12.567    0.899    0.024   77.409  232.453
  566.690   10.922    0.918    0.013   80.810  231.666
  566.940    9.302    0.984    0.104   83.910  231.772
  567.190    8.084    1.052    0.192   86.273  234.856
  567.440    7.478    1.154    0.183   88.706  244.408
  567.690    7.258    1.109    0.212   92.890  269.841
  567.940    7.161    1.083    0.215   97.378  264.217
  568.190    7.183    1.084    0.174   96.608  250.297
  568.440    7.339    1.107    0.149   94.252  240.471
  568.690    7.416    1.112    0.163   92.084  240.495
  568.940    7.454    1.100    0.180   90.458  246.564
  569.190    7.449    1.090    0.201   89.803  249.145
  569.440    7.417    1.102    0.139   90.001  244.344
  569.690    7.345    1.078    0.142   91.708  241.476
  569.940    7.247    1.068    0.152   94.257  239.253
  570.190    7.164    1.076    0.152   96.506  238.548
  570.440    7.108    1.082    0.136   98.452  235.490
  570.690    7.052    1.085    0.139   99.850  234.984
  570.940    6.957    1.098    0.156  100.590  240.024
  571.190    6.915    1.095    0.201   99.393  248.870
  571.440    6.912    1.107    0.169   97.101  241.596
  571.690    6.920    1.109    0.139   93.168  239.902
  571.940    6.980    1.087    0.132   90.523  240.725
  572.190    6.938    1.088    0.150   89.685  243.502
  572.440    6.746    1.111    0.130   90.112  246.795
  572.690    6.439    1.143    0.200   90.731  248.036
  572.940    6.045    1.147    0.213   90.804  244.065
  573.190    5.760    1.163    0.219   90.508  240.074
  573.440    5.725    1.157    0.240   89.366  244.309
  573.690    5.903    1.185    0.265   87.932  266.353
  573.940    6.065    1.191    0.282   87.331  297.744
  574.190    6.254    1.143    0.191   87.402  263.000
  574.440    6.390    1.069    0.166   88.802  242.519
  574.690    6.517    1.090    0.119   90.812  233.205
  574.940    6.622    1.119    0.204   92.456  236.419
  575.190    6.643    1.123    0.250   94.404  238.582
  575.440    6.615    1.162    0.270   96.897  237.666
  575.690    6.672    1.168    0.349   99.141  252.032
  575.940    6.830    1.092    0.283  101.087  256.661
  576.190    7.121    1.101    0.239  100.432  237.620
  576.440    7.632    1.110    0.179   94.085  233.231
  576.690    8.135    1.088    0.171   84.593  233.150
  576.940    8.466    1.075    0.147   79.761  234.408
  577.190    8.155    1.094    0.144   80.625  235.629
  577.440    7.770    1.104    0.131   83.537  237.812
  577.690    7.527    1.115    0.142   87.117  238.533
  577.940    7.332    1.097    0.159   88.947  238.472
  578.190    7.181    1.105    0.130   89.858  239.285
  578.440    7.123    1.124    0.155   88.355  240.131
  578.690    7.133    1.111    0.170   85.700  239.725
  578.940    7.301    1.070    0.200   84.498  238.321
  579.190    7.585    1.083    0.146   84.211  236.887
  579.440    8.310    1.088    0.129   82.888  235.606
  579.690    9.139    1.049    0.152   80.354  234.892
  579.940    9.886    1.001    0.136   76.129  234.489
  580.190   10.138    0.989    0.114   74.928  234.524
  580.440   10.283    1.019    0.068   77.184  234.440
  580.690    9.905    1.048    0.106   81.423  234.121
  580.940    9.404    1.086    0.134   86.338  233.645
  581.190    8.340    1.117    0.155   91.492  233.437
  581.440    7.561    1.116    0.169   94.528  233.256
  581.690    7.177    1.107    0.156   96.725  233.690
