~VERSION INFORMATION
 VERS.                 2.0:   CWLS LOG ASCII STANDARD -VERSION 2.0
 WRAP.                  NO:   ONE LINE PER DEPTH STEP
~WELL INFORMATION BLOCK
#MNEM.UNIT           DATA                    DESCRIPTION OF MNEMONIC
#---------    -------------------            -------------------------------
# Generated from Intellog Unique Number	CW_70_72/WELL/1064
NULL.         -999.25                        : NULL_VALUE
WELL.         LANDBANK ET AL MITSUE 11-36    : Well_name    - WELL              
LOC .         11-36-072-03W5                 : Location     - LOCATION          
UWI .         00/11-36-072-03W5/0            : Uwi          - UNIQUE WELL ID    
ENTR.         JAYE                           : Entered      - ENTERED BY        
SRVC.         SCHLUMBERGER                   : Scn          - SERVICE COMPANY   
DATE.         29 FEB 79                      : Date         - LOG DATE          
STRT.M        395                            : top_depth    - START DEPTH       
STOP.M        635                            : bot_depth    - STOP DEPTH        
STEP.M        0.25                           : increment    - STEP LENGTH       
~CURVE INFORMATION BLOCK
#MNEM UNIT       ERCB CURVE CODE    CURVE DESCRIPTION
#-----------   ------------------   ----------------------------------
DEPT.M        00 001 00 00         : DEPTH        - DEPTH                       
DPHI.V/V      00 890 00 00         : PHID         - DENSITY POROSITY (SANDSTONE)
NPHI.V/V      00 330 00 00         : PHIN         - NEUTRON POROSITY (SANDSTONE)
GR  .API      00 310 00 00         : GR           - GAMMA RAY                   
CALI.MM       00 280 01 00         : CAL          - CALIPER                     
ILD .OHMM     00 120 00 00         : RESD         - DEEP RESISTIVITY (DIL)      
~PARAMETER INFORMATION       
#MNEM.UNIT           DATA             DESCRIPTION OF MNEMONIC
#---------         -----------     ------------------------------
GL  .M        589                  : gl           - GROUND LEVEL ELEVATION      
EREF.M        591.7                : kb           - ELEVATION OF DEPTH REFERENCE
DATM.M        589                  : datum        - DATUM ELEVATION             
TDD .M        637                  : tdd          - TOTAL DEPTH DRILLER         
RUN .         ONE                  : Run          - RUN NUMBER                  
ENG .         MARSCHNER            : Engineer     - RECORDING ENGINEER          
WIT .         LOWTHER              : Witness      - WITNESSED BY                
BASE.         EDM                  : Branch       - HOME BASE OF LOGGING UNIT   
MUD .         GEL XHEM             : Mud_type     - MUD TYPE                    
MATR.         SANDSTONE            : Logunit      - NEUTRON MATRIX              
TMAX.C        25.5                 : BHT          - MAXIMUM RECORDED TEMPERATURE
BHTD.M        638                  : BHTDEP       - MAXIMUM RECORDED TEMPERATURE
RMT .C        7.8                  : MDTP         - TEMPERATURE OF MUD          
MUDD.KG/M     1190                 : MWT          - MUD DENSITY                 
NEUT.         1                    : NEUTRON      - NEUTRON TYPE                
RESI.         0                    : RESIST       - RESISTIVITY TYPE            
RM  .OHMM     4.55                 : RM           - RESISTIVITY OF MUD          
RMC .OHMM     0                    : RMC          - RESISTIVITY OF MUD CAKE     
RMF .OHMM     4.7                  : RMF          - RESISTIVITY OF MUD FILTRATE 
SUFT.C        32                   : SUFT         - SURFACE TEMPERATURE         
~A  DEPTH     PHID     PHIN       GR      CAL     RESD
# ...
  614.000    0.247    0.386   68.760  157.992    4.296
  614.250    0.281    0.398   58.884  158.019    4.841
  614.500    0.333    0.535   50.126  158.254    5.610
  614.750    0.392    0.607   41.929  158.487    6.927
  615.000    0.434    0.659   36.035  158.615    9.625
  615.250    0.571    0.686   38.788  159.060   13.472
  615.500    0.592    0.712   40.174  159.291   18.507
  615.750    0.644    0.707   47.718  159.112   25.096
  616.000    0.685    0.709   63.351  158.932   29.298
  616.250    0.691    0.745   78.300  158.436   26.780
  616.500    0.513    0.736   86.591  159.193   23.748
  616.750    0.432    0.729   79.328  160.151   20.520
  617.000    0.327    0.725   69.140  161.214   17.794
  617.250    0.270    0.726   59.325  162.070   15.488
  617.500    0.260    0.728   65.254  163.133   13.636
  617.750    0.246    0.712   73.171  164.820   12.437
  618.000    0.216    0.385   75.861  166.405   11.473
  618.250    0.201    0.406   77.496  167.880   10.566
  618.500    0.185    0.425   78.945  169.983   10.061
  618.750    0.165    0.438   81.698  172.912    9.687
  619.000    0.154    0.436   84.327  175.948    9.380
  619.250    0.158    0.431   82.600  178.358    9.051
  619.500    0.163    0.420   80.686  171.230    8.879
  619.750    0.167    0.399   84.563  168.974    8.744
  620.000    0.143    0.360   89.929  166.929    8.643
  620.250    0.118    0.312   93.739  167.681    8.481
  620.500    0.113    0.287   94.503  169.676    8.337
  620.750    0.108    0.278   88.918  171.881    8.257
  621.000    0.113    0.263   89.495  173.879    8.241
  621.250    0.121    0.246   92.561  173.180    8.251
  621.500    0.125    0.247   95.377  173.311    8.112
  621.750    0.118    0.268   98.004  176.968    7.871
  622.000    0.135    0.311  100.758  180.518    7.665
  622.250    0.133    0.362  101.956  172.147    7.491
  622.500    0.134    0.376   96.435  169.580    7.335
  622.750    0.168    0.400   90.602  169.607    7.225
  623.000    0.144    0.373   84.521  168.705    7.209
  623.250    0.131    0.350   77.693  167.485    7.181
  623.500    0.151    0.328   72.855  165.955    7.150
  623.750    0.156    0.308   74.862  164.840    7.016
  624.000    0.146    0.299   77.367  163.831    6.846
  624.250    0.141    0.317   75.144  162.095    6.654
  624.500    0.151    0.320   71.613  160.462    6.515
  624.750    0.153    0.312   68.207  159.141    6.370
  625.000    0.153    0.305   62.250  158.648    6.180
  625.250    0.154    0.297   55.359  158.678    6.018
  625.500    0.174    0.281   57.866  159.635    5.916
  625.750    0.160    0.270   63.978  162.465    5.805
  626.000    0.151    0.277   69.720  165.911    5.663
  626.250    0.133    0.301   70.419  166.664    5.453
  626.500    0.177    0.336   60.417  161.090    5.078
  626.750    0.199    0.320   52.407  160.912    4.826
  627.000    0.214    0.301   48.877  163.943    4.544
  627.250    0.232    0.291   54.617  166.770    4.303
  627.500    0.244    0.294   61.540  165.760    4.159
  627.750    0.244    0.300   67.839  162.572    4.012
  628.000    0.215    0.297   74.950  160.318    3.952
  628.250    0.197    0.288   84.547  159.308    3.943
  628.500    0.185    0.285   93.149  158.299    4.017
  628.750    0.210    0.281   99.512  157.708    4.107
  629.000    0.216    0.274  105.440  157.626    4.190
  629.250    0.209    0.268  106.450  157.654    4.284
  629.500    0.192    0.271  108.644  157.782    4.355
  629.750    0.190    0.293  115.940  157.606    4.370
  630.000    0.204    0.294  122.426  157.530    4.377
  630.250    0.207    0.293  127.732  157.449    4.367
  630.500    0.203    0.298  132.539  157.581    4.365
  630.750    0.194    0.316  133.923  157.605    4.349
  631.000    0.183    0.324  134.253  157.735    4.322
  631.250    0.173    0.332  134.766  159.114    4.265
  631.500    0.180    0.344  136.274  159.862    4.231
  631.750    0.207    0.335  139.152  159.788    4.285
  632.000    0.250    0.319  145.141  159.088    4.390
  632.250    0.273    0.303  151.193  158.285    4.471
  632.500    0.244    0.287  152.580  158.519    4.512
  632.750    0.225    0.271  152.718  160.518    4.519
  633.000    0.201    0.253  152.922  163.761    4.500
  633.250    0.186   -0.009  153.061  167.415    4.474
  633.500    0.173   -0.019  152.831  171.383    4.422
  633.750    0.161   -0.019  152.659  168.192    4.307
  634.000    0.182   -0.018  152.673  161.377    4.124
  634.250    0.226   -0.017  152.876  160.572    3.912
  634.500    0.256   -0.015  152.894  160.599    3.542
  634.750    0.232   -0.015  152.975  160.937    3.267
  635.000    0.212   -0.015  153.051  161.793    2.969
