~VERSION INFORMATION
 VERS.                 2.0:   CWLS LOG ASCII STANDARD -VERSION 2.0
 WRAP.                  NO:   ONE LINE PER DEPTH STEP
~WELL INFORMATION BLOCK
#MNEM.UNIT           DATA                    DESCRIPTION OF MNEMONIC
#---------    -------------------            -------------------------------
# Generated from Intellog Unique Number	CW_70_72/WELL/1038
NULL.         -999.25                        : NULL_VALUE
WELL.         LANDBANK ET AL SPURFIELD 10-15 : Well_name    - WELL              
LOC .         10-15-072-02W5                 : Location     - LOCATION          
UWI .         00/10-15-072-02W5/0            : Uwi          - UNIQUE WELL ID    
ENTR.         JAYE                           : Entered      - ENTERED BY        
SRVC.         SCHLUMBERGER                   : Scn          - SERVICE COMPANY   
DATE.         6 MAR 83                       : Date         - LOG DATE          
STRT.M        375                            : top_depth    - START DEPTH       
STOP.M        590                            : bot_depth    - STOP DEPTH        
STEP.M        0.25                           : increment    - STEP LENGTH       
~CURVE INFORMATION BLOCK
#MNEM UNIT       ERCB CURVE CODE    CURVE DESCRIPTION
#-----------   ------------------   ----------------------------------
DEPT.M        00 001 00 00         : DEPTH        - DEPTH                       
DPHI.V/V      00 890 00 00         : PHID         - DENSITY POROSITY (SANDSTONE)
NPHI.V/V      00 330 00 00         : PHIN         - NEUTRON POROSITY (SANDSTONE)
GR  .API      00 310 00 00         : GR           - GAMMA RAY                   
CALI.MM       00 280 01 00         : CAL          - CALIPER                     
ILD .OHMM     00 120 00 00         : RESD         - DEEP RESISTIVITY (DIL)      
~PARAMETER INFORMATION       
#MNEM.UNIT           DATA             DESCRIPTION OF MNEMONIC
#---------         -----------     ------------------------------
GL  .M        589.3                : gl           - GROUND LEVEL ELEVATION      
EREF.M        593                  : kb           - ELEVATION OF DEPTH REFERENCE
DATM.M        589.3                : datum        - DATUM ELEVATION             
TDD .M        622                  : tdd          - TOTAL DEPTH DRILLER         
RUN .         ONE                  : Run          - RUN NUMBER                  
ENG .         DUNLOP               : Engineer     - RECORDING ENGINEER          
WIT .         SMITH                : Witness      - WITNESSED BY                
BASE.         EDM                  : Branch       - HOME BASE OF LOGGING UNIT   
MUD .         CHEM GEL             : Mud_type     - MUD TYPE                    
MATR.         SANDSTONE            : Logunit      - NEUTRON MATRIX              
TMAX.C        35.6                 : BHT          - MAXIMUM RECORDED TEMPERATURE
BHTD.M        622.2                : BHTDEP       - MAXIMUM RECORDED TEMPERATURE
RMT .C        21.1                 : MDTP         - TEMPERATURE OF MUD          
MUDD.KG/M     1140                 : MWT          - MUD DENSITY                 
NEUT.         1                    : NEUTRON      - NEUTRON TYPE                
RESI.         0                    : RESIST       - RESISTIVITY TYPE            
RM  .OHMM     5.6                  : RM           - RESISTIVITY OF MUD          
RMC .OHMM     0                    : RMC          - RESISTIVITY OF MUD CAKE     
RMF .OHMM     6.48                 : RMF          - RESISTIVITY OF MUD FILTRATE 
SUFT.C        32                   : SUFT         - SURFACE TEMPERATURE         
~A  DEPTH     PHID     PHIN       GR      CAL     RESD
# ...
  411.500    0.267    0.371   65.032  160.391    3.989
  411.750    0.255    0.370   64.256  160.562    4.035
  412.000    0.281    0.378   59.658  161.044    3.917
  412.250    0.302    0.373   58.881  161.732    3.669
  412.500    0.313    0.360   63.243  161.902    3.412
  412.750    0.307    0.375   70.614  162.179    3.097
  413.000    0.304    0.392   76.164  162.241    2.749
  413.250    0.303    0.395   82.845  162.204    2.500
  413.500    0.290    0.386   87.644  161.327    2.395
  413.750    0.273    0.401   90.690  161.393    2.464
  414.000    0.254    0.414   92.483  161.768    2.674
  414.250    0.232    0.404   97.222  163.923    2.855
  414.500    0.218    0.404   97.761  168.162    3.059
  414.750    0.242    0.410   88.151  171.257    3.290
  415.000    0.259    0.406   79.543  169.128    3.493
  415.250    0.273    0.392   72.941  164.909    3.687
  415.500    0.284    0.374   69.158  163.095    3.526
  415.750    0.267    0.363   74.898  162.424    3.455
  416.000    0.248    0.371   80.701  161.967    3.391
  416.250    0.250    0.374   77.606  161.929    3.360
  416.500    0.275    0.386   71.067  161.992    3.354
  416.750    0.284    0.404   69.853  162.159    3.342
  417.000    0.279    0.384   74.778  162.436    3.361
  417.250    0.271    0.383   83.712  162.605    3.374
  417.500    0.262    0.409   88.639  162.356    3.431
  417.750    0.240    0.432   79.655  162.209    3.464
  418.000    0.239    0.417   68.415  162.379    3.516
  418.250    0.267    0.399   55.609  163.376    3.630
  418.500    0.284    0.393   52.893  163.965    3.576
  418.750    0.295    0.396   54.060  164.240    3.395
  419.000    0.304    0.398   54.222  164.411    3.134
  419.250    0.295    0.396   54.262  164.478    2.997
  419.500    0.285    0.392   55.867  164.334    2.920
  419.750    0.273    0.400   58.223  164.395    2.861
  420.000    0.262    0.409   56.818  164.139    2.803
  420.250    0.275    0.415   53.350  163.682    2.736
  420.500    0.291    0.401   50.505  163.230    2.691
  420.750    0.303    0.381   47.914  163.394    2.651
  421.000    0.310    0.379   46.513  162.941    2.622
  421.250    0.313    0.385   47.052  163.213    2.578
  421.500    0.312    0.380   47.967  163.594    2.531
  421.750    0.311    0.379   48.195  163.661    2.508
  422.000    0.309    0.379   47.105  164.141    2.489
  422.250    0.306    0.378   47.518  164.411    2.480
  422.500    0.301    0.377   48.498  164.481    2.462
  422.750    0.297    0.371   48.475  164.435    2.458
  423.000    0.293    0.374   48.575  164.602    2.463
  423.250    0.299    0.384   49.367  164.778    2.486
  423.500    0.304    0.384   49.717  165.249    2.505
  423.750    0.305    0.385   49.067  165.323    2.505
  424.000    0.305    0.387   47.101  165.490    2.505
  424.250    0.301    0.392   48.769  165.869    2.524
  424.500    0.307    0.403   52.378  165.932    2.553
  424.750    0.308    0.401   54.485  165.782    2.577
  425.000    0.298    0.397   54.147  165.644    2.611
  425.250    0.297    0.398   53.747  165.919    2.646
  425.500    0.294    0.394   55.727  166.088    2.696
  425.750    0.280    0.390   58.523  165.943    2.741
  426.000    0.265    0.394   60.378  165.586    2.814
  426.250    0.255    0.402   60.919  165.340    2.889
  426.500    0.260    0.407   61.709  164.981    2.949
  426.750    0.264    0.413   64.003  164.735    3.010
  427.000    0.272    0.402   68.677  164.802    3.085
  427.250    0.269    0.385   75.860  164.763    3.208
  427.500    0.226    0.393   89.745  169.207    3.263
  427.750    0.195    0.408   99.180  172.929    3.300
  428.000    0.188    0.424  101.224  174.771    3.356
  428.250    0.181    0.415  101.451  175.567    3.413
  428.500    0.167    0.433  102.304  176.355    3.458
  428.750    0.172    0.461  102.218  176.525    3.458
  429.000    0.177    0.449  101.817  176.905    3.459
  429.250    0.171    0.439  102.482  176.973    3.478
  429.500    0.177    0.440  104.463  175.470    3.511
  429.750    0.190    0.441   99.867  174.378    3.525
  430.000    0.204    0.432   92.636  174.449    3.518
  430.250    0.217    0.419   84.907  172.110    3.506
  430.500    0.233    0.411   79.808  169.565    3.532
  430.750    0.252    0.418   76.714  166.917    3.626
  431.000    0.267    0.414   80.886  168.340    3.799
  431.250    0.264    0.421   89.947  170.701    3.951
  431.500    0.258    0.443   98.381  175.355    4.164
  431.750    0.284    0.459   97.669  177.404    4.420
  432.000    0.298    0.470   99.085  177.469    4.520
  432.250    0.286    0.476  105.202  177.113    4.283
  432.500    0.272    0.485   99.602  176.348    4.088
  432.750    0.260    0.493   94.502  175.679    3.954
  433.000    0.284    0.503   89.026  174.699    3.932
  433.250    0.380    0.518   84.744  173.928    3.984
  433.500    0.427    0.465   88.603  172.636    3.867
  433.750    0.341    0.427   88.578  170.506    3.603
  434.000    0.274    0.448   82.166  168.480    3.395
  434.250    0.298    0.435   76.940  166.251    3.151
  434.500    0.313    0.407   75.225  163.913    2.898
  434.750    0.323    0.398   72.194  162.094    2.802
  435.000    0.314    0.402   68.349  162.472    2.808
  435.250    0.299    0.395   69.073  163.164    2.882
  435.500    0.285    0.382   69.614  163.851    2.948
  435.750    0.267    0.372   66.458  163.708    3.026
  436.000    0.247    0.413   62.299  163.353    3.112
  436.250    0.213    0.455   61.524  162.689    3.177
  436.500    0.281    0.410   65.321  162.547    3.231
  436.750    0.289    0.400   66.864  162.920    3.268
  437.000    0.285    0.398   59.822  163.303    3.280
  437.250    0.289    0.379   57.857  163.264    3.286
  437.500    0.303    0.375   64.411  163.532    3.293
  437.750    0.318    0.376   66.518  163.602    3.349
  438.000    0.315    0.389   66.242  163.873    3.425
  438.250    0.281    0.396   63.711  164.146    3.616
  438.500    0.268    0.368   61.495  164.523    3.932
  438.750    0.258    0.366   62.597  164.896    4.182
  439.000    0.249    0.374   64.829  165.593    4.540
  439.250    0.246    0.367   66.620  166.182    4.883
  439.500    0.255    0.356   67.163  166.970    4.609
  439.750    0.260    0.362   64.633  167.555    4.542
  440.000    0.269    0.382   63.920  168.037    4.500
  440.250    0.277    0.399   62.016  168.733    4.467
  440.500    0.275    0.397   59.736  169.003    4.409
  440.750    0.266    0.385   56.830  168.967    4.385
  441.000    0.272    0.397   56.430  168.821    4.353
  441.250    0.281    0.391   57.911  168.568    4.313
  441.500    0.276    0.381   59.829  168.741    4.321
  441.750    0.265    0.391   61.872  168.808    4.314
  442.000    0.262    0.393   62.725  168.870    4.306
  442.250    0.257    0.380   58.942  169.042    4.298
  442.500    0.253    0.389   58.354  169.100    4.251
  442.750    0.250    0.384   60.648  169.061    4.212
  443.000    0.254    0.377   62.190  169.025    4.189
  443.250    0.264    0.377   59.473  168.985    4.189
  443.500    0.270    0.371   58.885  168.942    4.308
  443.750    0.255    0.360   58.609  169.010    4.423
  444.000    0.199    0.337   58.398  169.493    4.783
  444.250    0.158    0.292   57.246  171.432    5.251
  444.500    0.153    0.273   55.656  172.543    5.819
  444.750    0.178    0.287   56.759  172.711    6.631
  445.000    0.179    0.293   55.106  172.464    7.334
  445.250    0.164    0.285   55.333  171.378    7.684
  445.500    0.144    0.289   56.247  169.771    7.888
  445.750    0.155    0.296   57.851  169.521    7.686
  446.000    0.157    0.291   58.581  170.627    7.161
  446.250    0.184    0.294   55.425  170.801    6.759
  446.500    0.232    0.348   57.406  169.090    6.193
  446.750    0.277    0.375   57.068  167.589    5.227
  447.000    0.278    0.391   55.603  166.393    4.379
  447.250    0.262    0.400   58.900  165.838    4.004
  447.500    0.279    0.404   61.570  165.793    3.851
  447.750    0.282    0.405   60.103  166.798    3.946
