~VERSION INFORMATION
 VERS.                 2.0:   CWLS LOG ASCII STANDARD -VERSION 2.0
 WRAP.                  NO:   ONE LINE PER DEPTH STEP
~WELL INFORMATION BLOCK
#MNEM.UNIT           DATA                    DESCRIPTION OF MNEMONIC
#---------    -------------------            -------------------------------
# Generated from Intellog Unique Number	CS_71_72/WELL/873
WELL.         BVX ET AL BRETT                : Well_name    - WELL
LOC .         00/10-30-071-12W4/0            : Location     - LOCATION
UWI .         00/10-30-071-12W4/0            : Uwi          - UNIQUE WELL ID
ENTR.         SP                             : Entered      - ENTERED BY
SRVC.         SCHLUMBERGER                   : Scn          - SERVICE COMPANY
STRT.M        310                            : top_depth    - START DEPTH
STOP.M        540                            : bot_depth    - STOP DEPTH
STEP.M        0.25                           : increment    - STEP LENGTH
 NULL. -999.2500:NULL Value
~CURVE INFORMATION BLOCK
#MNEM UNIT       ERCB CURVE CODE    CURVE DESCRIPTION
#-----------   ------------------   ----------------------------------
DEPT.M        00 001 00 00         : DEPTH        - DEPTH
GR  .API      00 310 00 00         : GR           - GAMMA RAY
NPHI.V/V      00 330 00 00         : PHIN         - NEUTRON POROSITY (LIMESTONE)
DPHI.V/V      00 890 00 00         : PHID         - DENSITY POROSITY (LIMESTONE)
ILD .OHMM     00 120 00 00         : RESD         - DEEP RESISTIVITY (DIL)
~PARAMETER INFORMATION
#MNEM.UNIT           DATA             DESCRIPTION OF MNEMONIC
#---------         -----------     ------------------------------
GL  .M        643.76               : gl           - GROUND LEVEL ELEVATION
EREF.M        646.5                : kb           - ELEVATION OF DEPTH REFERENCE
DATM.M        643.76               : datum        - DATUM ELEVATION
TDD .M        542                  : tdd          - TOTAL DEPTH DRILLER
RUN .         ONE                  : Run          - RUN NUMBER
ENG .         BILL                 : Engineer     - RECORDING ENGINEER
WIT .         JIM                  : Witness      - WITNESSED BY
MUD .         GEL                  : Mud_type     - MUD TYPE
MATR.         LIMESTONE            : Logunit      - NEUTRON MATRIX
TMAX.C        20                   : BHT          - MAXIMUM RECORDED TEMPERATURE
BHTD.M        542                  : BHTDEP       - MAXIMUM RECORDED TEMPERATURE
MATR.         1                    : LOGUNIT      - NEUTRON MATRIX
RMT .C        25                   : MDTP         - TEMPERATURE OF MUD
NEUT.         1                    : NEUTRON      - NEUTRON TYPE
RESI.         0                    : RESIST       - RESISTIVITY TYPE
RMC .OHMM     0.25                 : RMC          - RESISTIVITY OF MUD CAKE
RMF .OHMM     0.25                 : RMF          - RESISTIVITY OF MUD FILTRATE
SUFT.C        15                   : SUFT         - SURFACE TEMPERATURE
~A  DEPTH       GR     PHIN     PHID     RESD
# ...
  397.000   45.833    0.366    0.338    6.059
  397.250   42.170    0.388    0.335    6.093
  397.500   42.825    0.391    0.336    6.149
  397.750   48.591    0.372    0.339    6.161
  398.000   50.404    0.359    0.340    6.183
  398.250   50.511    0.364    0.327    6.194
  398.500   51.897    0.375    0.322    6.194
  398.750   53.831    0.375    0.331    6.182
  399.000   47.304    0.363    0.339    6.124
  399.250   43.336    0.366    0.345    6.056
  399.500   41.558    0.375    0.348    5.999
  399.750   44.709    0.388    0.342    5.943
  400.000   44.391    0.386    0.340    5.910
  400.250   52.775    0.384    0.341    5.855
  400.500   49.170    0.384    0.334    5.822
  400.750   47.210    0.380    0.330    5.821
  401.000   51.150    0.376    0.328    5.789
  401.250   50.893    0.374    0.333    5.777
  401.500   46.559    0.375    0.337    5.756
  401.750   45.694    0.373    0.328    5.723
  402.000   47.749    0.368    0.320    5.723
  402.250   55.585    0.375    0.318    5.701
  402.500   55.327    0.368    0.323    5.680
  402.750   50.446    0.344    0.322    5.627
  403.000   54.631    0.326    0.323    5.512
  403.250   61.433    0.358    0.329    5.390
  403.500   64.582    0.370    0.328    5.300
  403.750   61.952    0.379    0.321    5.251
  404.000   56.767    0.369    0.314    5.260
  404.250   53.710    0.373    0.312    5.299
  404.500   55.461    0.383    0.324    5.328
  404.750   59.403    0.390    0.321    5.348
  405.000   59.207    0.399    0.300    5.338
  405.250   65.520    0.389    0.293    5.337
  405.500   59.300    0.380    0.295    5.297
  405.750   54.966    0.384    0.307    5.367
  406.000   51.850    0.385    0.318    5.696
  406.250   56.338    0.396    0.329    6.102
  406.500   57.541    0.390    0.146    6.636
  406.750   56.676    0.161    0.082    7.243
  407.000   52.950    0.180    0.042    8.328
  407.250   50.198    0.191    0.041    9.227
  407.500   46.959    0.198    0.054   10.071
  407.750   50.048    0.193    0.037   10.729
  408.000   52.772    0.166    0.016   11.156
  408.250   52.212    0.142    0.010   11.863
  408.500   50.251    0.135    0.009   12.662
  408.750   45.613    0.135    0.015   13.540
  409.000   43.409    0.144    0.097   14.317
  409.250   43.881    0.165    0.191   14.640
  409.500   42.347    0.200    0.251   13.387
  409.750   43.791    0.260    0.298   11.028
  410.000   49.498    0.317    0.314    9.017
  410.250   55.265    0.360    0.319    7.696
  410.500   59.330    0.362    0.319    7.089
  410.750   57.308    0.359    0.307    6.543
  411.000   53.155    0.362    0.295    6.005
  411.250   57.158    0.381    0.288    5.700
  411.500   62.251    0.391    0.302    5.542
  411.750   64.068    0.401    0.297    5.480
  412.000   57.967    0.147   -0.002    5.542
  412.250   53.330    0.138    0.048    5.816
  412.500   47.169    0.249    0.206    6.059
  412.750   42.957    0.308    0.262    6.161
  413.000   40.025    0.344    0.292    6.104
  413.250   51.206    0.372    0.309    6.002
  413.500   57.582    0.387    0.306    5.602
  413.750   64.749    0.396    0.305    5.180
  414.000   67.289    0.384    0.305    4.898
  414.250   65.877    0.379    0.304    4.763
  414.500   63.794    0.377    0.301    4.736
  414.750   68.161    0.384    0.299    4.780
  415.000   69.060    0.375    0.296    4.806
  415.250   63.997    0.368    0.291    4.851
  415.500   62.036    0.374    0.289    4.842
  415.750   57.884    0.385    0.292    4.823
  416.000   51.117    0.392    0.289    4.787
  416.250   58.465    0.381    0.272    4.778
  416.500   70.134    0.360    0.283    4.751
  416.750   67.321    0.343    0.279    4.733
  417.000   68.218    0.345    0.265    4.707
  417.250   73.682    0.339    0.259    4.689
  417.500   71.296    0.328    0.265    4.697
  417.750   66.473    0.341    0.275    4.714
  418.000   65.123    0.354    0.266    4.749
  418.250   66.205    0.352    0.246    4.802
  418.500   62.844    0.343    0.235    4.820
  418.750   60.335    0.336    0.238    4.865
  419.000   60.321    0.338    0.238    4.910
  419.250   64.384    0.352    0.257    4.938
  419.500   71.001    0.349    0.272    4.974
  419.750   74.639    0.347    0.278    5.002
  420.000   69.515    0.345    0.267    5.039
  420.250   65.851    0.348    0.256    5.029
  420.500   64.742    0.355    0.244    5.001
  420.750   64.789    0.364    0.228    4.963
  421.000   71.468    0.371    0.222    4.872
  421.250   77.113    0.367    0.226    4.746
  421.500   69.494    0.363    0.226    4.693
  421.750   67.229    0.378    0.223    4.658
  422.000   74.699    0.364    0.217    4.649
  422.250   79.674    0.350    0.209    4.648
  422.500   76.859    0.354    0.205    4.648
  422.750   74.840    0.355    0.213    4.622
  423.000   72.879    0.349    0.247    4.587
  423.250   74.265    0.355    0.274    4.561
  423.500   77.720    0.361    0.256    4.527
  423.750   73.811    0.351    0.231    4.519
  424.000   71.973    0.350    0.218    4.476
  424.250   72.992    0.354    0.209    4.435
  424.500   75.473    0.336    0.211    4.369
  424.750   78.502    0.325    0.220    4.320
  425.000   83.722    0.336    0.217    4.264
  425.250   88.394    0.340    0.211    4.208
  425.500   78.521    0.339    0.204    4.161
  425.750   82.342    0.339    0.202    4.115
  426.000   81.779    0.331    0.203    4.031
  426.250   82.253    0.332    0.215    3.986
  426.500   85.222    0.347    0.207    3.949
  426.750   83.383    0.364    0.211    3.905
  427.000   82.821    0.356    0.213    3.868
  427.250   82.564    0.380    0.213    3.832
  427.500   78.108    0.387    0.213    3.846
  427.750   76.086    0.376    0.214    3.896
  428.000   74.734    0.366    0.222    3.933
  428.250   77.518    0.361    0.219    3.918
  428.500   81.091    0.360    0.204    3.896
  428.750   81.995    0.371    0.209    3.866
  429.000   77.111    0.365    0.214    3.838
  429.250   79.349    0.343    0.217    3.844
  429.500   82.562    0.327    0.225    3.837
  429.750   75.915    0.321    0.241    3.830
  430.000   84.542    0.317    0.253    3.801
  430.250   78.626    0.321    0.249    3.495
  430.500   76.605    0.347    0.253    3.011
  430.750   84.440    0.393    0.261    2.522
  431.000   88.990    0.406    0.264    2.097
  431.250   90.680    0.414    0.261    1.724
  431.500   89.873    0.423    0.254    1.505
  431.750   90.104    0.433    0.247    1.353
  432.000   90.030    0.444    0.243    1.394
  432.250   89.225    0.391    0.243    1.642
  432.500   83.065    0.348    0.236    1.964
  432.750   82.382    0.342    0.228    2.246
  433.000   82.065    0.355    0.220    2.671
  433.250   77.850    0.365    0.217    3.048
  433.500   80.454    0.375    0.224    3.303
  433.750   88.046    0.383    0.229    3.531
  434.000   76.412    0.378    0.231    3.652
  434.250   80.107    0.370    0.233    3.557
  434.500   84.961    0.362    0.244    3.459
  434.750   83.670    0.354    0.255    3.433
  435.000   80.555    0.351    0.260    3.439
  435.250   79.567    0.353    0.256    3.478
  435.500   76.025    0.350    0.246    3.510
  435.750   72.542    0.345    0.262    3.543
  436.000   69.912    0.350    0.298    3.576
  436.250   65.516    0.358    0.307    3.609
  436.500   63.677    0.362    0.305    3.636
  436.750   68.532    0.371    0.310    3.629
  437.000   66.813    0.376    0.310    3.609
  437.250   66.497    0.378    0.305    3.588
  437.500   75.428    0.383    0.297    3.561
  437.750   72.311    0.378    0.290    3.561
  438.000   72.601    0.370    0.304    3.541
  438.250   70.092    0.364    0.310    3.528
  438.500   64.481    0.361    0.306    3.488
  438.750   61.241    0.371    0.304    3.462
  439.000   57.881    0.375    0.307    3.443
  439.250   57.259    0.363    0.322    3.430
  439.500   56.511    0.351    0.319    3.410
  439.750   55.832    0.355    0.308    3.397
  440.000   54.781    0.353    0.297    3.391
  440.250   56.169    0.344    0.298    3.397
