~VERSION INFORMATION
 VERS.                 2.0:   CWLS LOG ASCII STANDARD -VERSION 2.0
 WRAP.                  NO:   ONE LINE PER DEPTH STEP
~WELL INFORMATION BLOCK
#MNEM.UNIT           DATA                    DESCRIPTION OF MNEMONIC
#---------    -------------------            -------------------------------
# Generated from Intellog Unique Number	CW_76_78/WELL/2817
WELL.         SCURRY ATKINSON MCMULLEN 11-18 : Well_name    - WELL
LOC .         00/11-18-077-01W5/0            : Location     - LOCATION
UWI .         00/11-18-077-01W5/0            : Uwi          - UNIQUE WELL ID
ENTR.         JJ                             : Entered      - ENTERED BY
SRVC.         WESTERN ATLAS                  : Scn          - SERVICE COMPANY
DATE.         9 JAN 74                       : Date         - LOG DATE
STRT.M        493.776                        : top_depth    - START DEPTH
STOP.M        621.776                        : bot_depth    - STOP DEPTH
STEP.M        0.25                           : increment    - STEP LENGTH
 NULL. -999.2500:NULL Value
~CURVE INFORMATION BLOCK
#MNEM UNIT       ERCB CURVE CODE    CURVE DESCRIPTION
#-----------   ------------------   ----------------------------------
DEPT.M        00 001 00 00         : DEPTH        - DEPTH
DELT.US/F     00 520 00 00         : DELT         - SONIC TRAVEL TIME
CALI.MM       00 280 01 00         : CAL          - CALIPER
GR  .API      00 310 00 00         : GR           - GAMMA RAY
ILD .OHMM     00 120 00 00         : RESD         - DEEP RESISTIVITY (DIL)
~PARAMETER INFORMATION
#MNEM.UNIT           DATA             DESCRIPTION OF MNEMONIC
#---------         -----------     ------------------------------
GL  .M        694.944              : gl           - GROUND LEVEL ELEVATION
EREF.M        698.906              : kb           - ELEVATION OF DEPTH REFERENCE
DATM.M        694.944              : datum        - DATUM ELEVATION
TDD .M        621.182              : tdd          - TOTAL DEPTH DRILLER
RUN .         ONE                  : Run          - RUN NUMBER
ENG .         HOPP-GAU             : Engineer     - RECORDING ENGINEER
WIT .         KIRKPATRICK          : Witness      - WITNESSED BY
BASE.         EDMONTON             : Branch       - HOME BASE OF LOGGING UNIT
MUD .         GEL-CHEM             : Mud_type     - MUD TYPE
MATR.         SANDSTONE            : Logunit      - NEUTRON MATRIX
TMAX.C        23.8889              : BHT          - MAXIMUM RECORDED TEMPERATURE
BHTD.M        622.097              : BHTDEP       - MAXIMUM RECORDED TEMPERATURE
RMT .C        12.7778              : MDTP         - TEMPERATURE OF MUD
MUDD.KG/M     1128                 : MWT          - MUD DENSITY
NEUT.         1                    : NEUTRON      - NEUTRON TYPE
RESI.         0                    : RESIST       - RESISTIVITY TYPE
RM  .OHMM     4.5                  : RM           - RESISTIVITY OF MUD
RMC .OHMM     0                    : RMC          - RESISTIVITY OF MUD CAKE
RMF .OHMM     0                    : RMF          - RESISTIVITY OF MUD FILTRATE
SUFT.C        5                    : SUFT         - SURFACE TEMPERATURE
~A  DEPTH     DELT      CAL       GR     RESD
# ...
  537.276  365.040  232.260  107.220    6.228
  537.526  366.465  232.776  111.780    6.292
  537.776  375.986  230.363  113.431    6.823
  538.026  376.953  225.726  112.653    7.687
  538.276  367.933  224.017  110.481    8.617
  538.526  355.194  223.219  108.065    9.835
  538.776  347.024  223.536  103.829   10.943
  539.026  341.465  223.952   97.530   12.338
  539.276  340.474  224.273   92.748   12.470
  539.526  351.168  224.182   90.211   11.492
  539.776  360.623  224.194   91.497   10.580
  540.026  351.798  224.509   90.779   10.335
  540.276  349.766  224.119   90.852   10.267
  540.526  355.562  221.703   90.439   10.909
  540.776  360.188  216.661   89.240   11.661
  541.026  344.966  218.088   88.157   12.191
  541.276  332.815  221.339   86.165   12.323
  541.526  323.796  220.543   83.385   11.368
  541.776  320.849  216.615   84.306   10.190
  542.026  320.054  215.612   87.899    9.700
  542.276  318.868  216.737   85.786    9.544
  542.526  316.442  220.591   83.797   10.007
  542.776  311.860  223.232   83.020   10.294
  543.026  309.566  220.616   82.301   10.581
  543.276  311.447  217.398   81.648   10.978
  543.526  311.240  216.499   83.841   11.265
  543.776  306.332  220.048   86.037   11.507
  544.026  302.146  222.994   87.202   12.016
  544.276  290.842  223.410   86.061   12.636
  544.526  269.683  222.921   83.220   14.098
  544.776  237.164  222.626   80.682   16.004
  545.026  224.620  222.035   76.992   18.087
  545.276  218.408  221.744   77.856   20.282
  545.526  227.209  221.149   80.899   21.256
  545.776  264.731  221.161   84.918   19.147
  546.026  264.002  221.173   86.750   17.326
  546.276  251.718  221.690   87.003   16.171
  546.526  252.492  222.412   78.823   15.127
  546.776  288.187  222.728   74.767   14.149
  547.026  335.239  222.437   78.057   13.149
  547.276  340.384  221.944   78.918   12.593
  547.526  340.569  221.151   80.872   12.347
  547.776  345.779  220.657   84.158   12.301
  548.026  354.842  220.568   84.776   12.410
  548.276  362.469  220.377   85.638   12.653
  548.526  365.262  219.075   88.563   13.272
  548.776  364.469  218.279   90.395   13.470
  549.026  362.044  218.089   91.195   13.158
  549.276  348.715  217.596   90.905   12.824
  549.526  340.286  218.015   90.187   13.044
  549.776  326.502  218.232   89.772   13.596
  550.026  306.255  217.332   90.695   13.927
  550.276  323.477  215.422   90.707   13.859
  550.526  353.426  214.322   89.565   13.281
  550.776  361.509  215.750   87.878   11.904
  551.026  363.130  218.092   89.890   11.370
  551.276  363.773  219.317   92.511   11.235
  551.526  350.250  220.036   92.950   11.322
  551.776  327.589  220.757   93.141   11.121
  552.026  335.998  220.769   93.152   10.254
  552.276  349.628  220.581   93.952    9.432
  552.526  360.519  220.290   96.451    8.631
  552.776  367.688  220.099   99.681    8.430
  553.026  363.435  219.811  102.180    8.717
  553.276  355.003  220.023  106.075    9.735
  553.526  341.807  220.546  107.967   10.177
  553.776  340.619  220.252  103.001    9.776
  554.026  350.596  219.151   97.127    8.909
  554.276  358.745  216.637   99.627    8.331
  554.526  367.090  214.020  104.372    7.908
  554.776  361.007  211.910  101.713    7.707
  555.026  362.891  211.011  101.299    7.594
  555.276  356.808  210.922  100.219    7.615
  555.526  350.205  211.947  100.654    7.657
  555.776  363.833  214.488  100.180    7.633
  556.026  357.625  217.534  106.261    7.698
  556.276  351.543  219.872  106.211    7.696
  556.526  353.751  221.502  101.673    7.673
  556.776  360.331  222.225   97.375    7.671
  557.026  362.933  221.731   99.693    7.624
  557.276  370.688  219.521  104.985    7.601
  557.526  363.694  218.114  107.543    7.644
  557.776  351.150  217.523  104.824    7.664
  558.026  350.943  218.240  105.140    7.773
  558.276  348.583  220.479  106.850    7.971
  558.526  336.626  222.211  107.348    8.324
  558.776  344.513  221.111  105.781    8.678
  559.026  326.878  217.988  103.852    9.496
  559.276  302.715  215.373  101.070    9.983
  559.526  286.190  216.194   93.679   10.115
  559.776  322.145  218.838   92.114    9.825
  560.026  351.247  222.997   95.644    8.603
  560.276  366.315  226.142  102.269    7.825
  560.526  371.852  228.783  107.742    7.135
  560.776  379.870  230.615  109.573    6.756
  561.026  385.276  226.179  112.559    6.400
  561.276  378.542  219.419  112.389    6.243
  561.526  369.850  217.409  114.706    6.242
  561.776  362.398  218.234  118.721    6.439
  562.026  364.476  219.154  116.367    6.792
  562.276  353.433  220.683  112.009    7.345
  562.526  330.185  221.302  106.257    8.231
  562.776  325.278  218.078  104.753    8.828
  563.026  361.821  215.056  104.459    9.803
  563.276  358.415  212.544  104.531   11.021
  563.526  370.741  212.557  103.087   12.084
  563.776  381.827  213.173  100.428   13.679
  564.026  366.346  214.602   94.251   15.608
  564.276  355.826  216.233   87.832   17.381
  564.526  313.452  217.154   83.353   19.642
  564.776  238.831  217.168   78.509   22.146
  565.026  225.568  215.966   74.879   23.897
  565.276  223.730  214.262   77.076   22.054
  565.526  260.992  215.487   81.395   18.237
  565.776  294.793  219.340   84.501   15.396
  566.026  320.499  219.050   88.517   13.531
  566.276  338.113  213.807   91.626   12.398
  566.526  348.612  213.415   95.397   11.753
  566.776  336.198  220.001   99.837   11.042
  567.026  340.757  225.373  100.759   10.330
  567.276  357.979  223.463  101.680    9.641
  567.526  349.220  218.420  101.694    8.774
  567.776  335.829  218.533  101.036    8.195
  568.026  352.071  219.556   97.710    8.016
  568.276  352.974  218.660  100.817    7.948
  568.526  361.252  217.460  104.833    7.991
  568.776  357.324  217.372   98.112    7.967
  569.026  341.908  216.878   95.633    8.009
  569.276  355.670  216.286   99.228    8.030
  569.526  348.153  215.288  102.393    8.095
  569.776  341.353  213.984  104.708    8.182
  570.026  356.877  213.089  100.958    8.247
  570.276  357.647  213.505  103.457    8.311
  570.526  357.115  215.640  103.531    8.421
  570.776  352.341  218.078   98.141    8.641
  571.026  345.150  218.900   96.149    8.706
  571.276  331.888  217.194   94.887    8.770
  571.526  334.879  215.996   93.442    8.703
  571.776  335.521  216.310   94.669    8.456
  572.026  342.560  217.639   97.289    8.322
  572.276  345.029  219.164   99.545    8.231
  572.526  333.270  221.304  100.345    8.075
  572.776  353.754  220.707   97.686    7.918
  573.026  359.749  215.562  102.856    7.827
  573.276  349.032  212.542   99.651    7.870
  573.526  345.824  211.645  100.394    8.001
  573.776  329.885  211.459  102.162    8.044
  574.026  349.000  211.468  102.174    7.998
  574.276  356.299  211.686  104.491    7.819
  574.526  351.785  211.395  106.688    7.595
  574.776  347.074  211.709  106.517    7.416
  575.026  349.935  212.533  104.589    7.192
  575.276  351.033  213.452  102.655    7.169
  575.526  343.843  215.082  101.941    7.256
  575.776  340.958  215.095   99.220    7.343
  576.026  342.385  216.322   95.835    7.408
  576.276  344.395  219.064   92.995    7.495
  576.526  341.906  218.772   90.578    7.560
  576.776  340.000  209.889   93.625    7.580
  577.026  308.332  203.430   94.423    8.022
  577.276  276.989  200.409   93.466    8.686
  577.526  277.501  202.343   91.474    9.261
  577.776  341.524  207.714   88.875    9.925
  578.026  340.403  211.672   90.282   10.256
  578.276  341.895  213.707   89.749   10.010
  578.526  279.611  214.325   88.971    9.609
  578.776  252.968  214.543   84.735    9.852
  579.026  252.627  214.653   81.471   11.313
  579.276  252.291  215.075   79.418   12.576
  579.526  247.255  214.983   77.549   14.350
  579.776  226.747  214.995   75.436   17.076
  580.026  220.798  214.708   72.961   18.938
  580.276  213.801  214.412   66.785   20.777
  580.526  212.745  214.324   63.216   23.836
