~VERSION INFORMATION
 VERS.                 2.0:   CWLS LOG ASCII STANDARD -VERSION 2.0
 WRAP.                  NO:   ONE LINE PER DEPTH STEP
~WELL INFORMATION BLOCK
#MNEM.UNIT           DATA                    DESCRIPTION OF MNEMONIC
#---------    -------------------            -------------------------------
# Generated from Intellog Unique Number	CW_79_81/WELL/222
WELL.         MEGA ET AL MISTAHAE 10-06      : Well_name    - WELL
LOC .         00/10-06-080-01W5/0            : Location     - LOCATION
UWI .         00/10-06-080-01W5/0            : Uwi          - UNIQUE WELL ID
ENTR.         JJ                             : Entered      - ENTERED BY
SRVC.         COMPUTALOG                     : Scn          - SERVICE COMPANY
DATE.         3 MAR 89                       : Date         - LOG DATE
STRT.M        285                            : top_depth    - START DEPTH
STOP.M        535                            : bot_depth    - STOP DEPTH
STEP.M        0.25                           : increment    - STEP LENGTH
 NULL. -999.2500:NULL Value
~CURVE INFORMATION BLOCK
#MNEM UNIT       ERCB CURVE CODE    CURVE DESCRIPTION
#-----------   ------------------   ----------------------------------
DEPT.M        00 001 00 00         : DEPTH        - DEPTH
DPHI.V/V      00 890 00 00         : PHID         - DENSITY POROSITY (SANDSTONE)
NPHI.V/V      00 330 00 00         : PHIN         - NEUTRON POROSITY (SANDSTONE)
GR  .API      00 310 00 00         : GR           - GAMMA RAY
CALI.MM       00 280 01 00         : CAL          - CALIPER
ILD .OHMM     00 120 00 00         : RESD         - DEEP RESISTIVITY (DIL)
~PARAMETER INFORMATION
#MNEM.UNIT           DATA             DESCRIPTION OF MNEMONIC
#---------         -----------     ------------------------------
GL  .M        605                  : gl           - GROUND LEVEL ELEVATION
EREF.M        608.64               : kb           - ELEVATION OF DEPTH REFERENCE
DATM.M        608.64               : datum        - DATUM ELEVATION
TDD .M        555                  : tdd          - TOTAL DEPTH DRILLER
RUN .         ONE                  : Run          - RUN NUMBER
ENG .         GAIR                 : Engineer     - RECORDING ENGINEER
WIT .         STRONG               : Witness      - WITNESSED BY
BASE.         RED DEER             : Branch       - HOME BASE OF LOGGING UNIT
MUD .         GEL CHEM             : Mud_type     - MUD TYPE
MATR.         SANDSTONE            : Logunit      - NEUTRON MATRIX
TMAX.C        37                   : BHT          - MAXIMUM RECORDED TEMPERATURE
BHTD.M        554.9                : BHTDEP       - MAXIMUM RECORDED TEMPERATURE
RMT .C        19                   : MDTP         - TEMPERATURE OF MUD
MUDD.KG/M     1140                 : MWT          - MUD DENSITY
NEUT.         1                    : NEUTRON      - NEUTRON TYPE
RESI.         0                    : RESIST       - RESISTIVITY TYPE
RM  .OHMM     4.1                  : RM           - RESISTIVITY OF MUD
RMC .OHMM     2.8                  : RMC          - RESISTIVITY OF MUD CAKE
RMF .OHMM     4.3                  : RMF          - RESISTIVITY OF MUD FILTRATE
SUFT.C        5                    : SUFT         - SURFACE TEMPERATURE
~A  DEPTH     PHID     PHIN       GR      CAL     RESD
# ...
  321.500    0.265    0.287   52.778  159.971   40.886
  321.750    0.172    0.259   43.651  162.741   41.340
  322.000    0.120    0.228   35.776  163.638   38.524
  322.250    0.059    0.209   39.554  159.653   34.199
  322.500    0.073    0.248   47.201  158.366   27.815
  322.750    0.167    0.299   53.849  156.460   23.875
  323.000    0.255    0.379   56.254  156.004   20.689
  323.250    0.288    0.409   54.927  155.649   19.978
  323.500    0.289    0.406   52.098  156.035   20.656
  323.750    0.309    0.391   53.759  155.785   21.971
  324.000    0.319    0.383   50.183  155.956   22.591
  324.250    0.326    0.377   50.779  156.234   22.768
  324.500    0.317    0.374   51.696  155.992   22.514
  324.750    0.311    0.370   51.858  155.747   21.816
  325.000    0.314    0.357   48.470  156.023   20.905
  325.250    0.311    0.380   46.704  156.077   20.989
  325.500    0.306    0.396   47.245  156.361   21.382
  325.750    0.303    0.408   48.344  156.839   21.995
  326.000    0.302    0.410   50.814  157.115   22.322
  326.250    0.303    0.387   52.600  157.078   21.270
  326.500    0.308    0.375   53.325  157.043   20.189
  326.750    0.310    0.387   54.800  157.940   19.970
  327.000    0.299    0.401   56.646  159.145   20.772
  327.250    0.289    0.410   53.197  159.938   20.929
  327.500    0.298    0.414   50.678  160.219   19.534
  327.750    0.312    0.404   51.966  159.866   17.700
  328.000    0.312    0.397   56.120  158.067   17.246
  328.250    0.307    0.402   57.782  156.779   16.930
  328.500    0.306    0.398   54.454  157.679   17.774
  328.750    0.315    0.390   52.437  158.575   17.977
  329.000    0.315    0.383   51.789  159.270   16.811
  329.250    0.310    0.378   52.954  158.607   16.320
  329.500    0.298    0.378   55.924  157.527   16.360
  329.750    0.296    0.390   56.834  156.765   16.693
  330.000    0.305    0.399   55.131  157.444   17.362
  330.250    0.315    0.396   53.054  158.045   18.024
  330.500    0.320    0.386   51.721  158.727   18.743
  330.750    0.323    0.370   51.077  158.594   18.163
  331.000    0.319    0.373   50.863  158.243   16.889
  331.250    0.315    0.414   51.215  158.514   16.125
  331.500    0.318    0.430   51.631  158.690   16.005
  331.750    0.315    0.424   53.917  158.854   16.465
  332.000    0.311    0.413   58.633  158.088   16.963
  332.250    0.305    0.399   49.632  157.215   17.772
  332.500    0.307    0.389   47.367  156.982   18.693
  332.750    0.315    0.384   50.273  156.944   19.437
  333.000    0.323    0.392   49.876  157.632   20.108
  333.250    0.324    0.392   47.980  157.072   20.074
  333.500    0.316    0.381   46.653  155.264   19.485
  333.750    0.314    0.386   46.630  155.233   18.221
  334.000    0.318    0.394   47.353  156.532   16.918
  334.250    0.323    0.398   48.582  157.332   15.911
  334.500    0.328    0.394   49.182  158.655   13.630
  334.750    0.299    0.365   46.478  160.072   10.661
  335.000    0.253    0.350   50.259  160.972    7.929
  335.250    0.222    0.365   61.584  162.390    5.886
  335.500    0.242    0.392   83.128  164.845    4.596
  335.750    0.275    0.413   89.653  164.809    3.997
  336.000    0.291    0.437   88.072  163.832    3.683
  336.250    0.303    0.448   82.813  166.709    3.562
  336.500    0.302    0.441   84.039  164.383    3.511
  336.750    0.280    0.453   87.755  170.477    3.517
  337.000    0.286    0.472   86.862  175.842    3.712
  337.250    0.313    0.490   86.152  169.156    3.898
  337.500    0.312    0.503   83.137  166.520    4.025
  337.750    0.300    0.514   85.421  166.898    4.032
  338.000    0.345    0.524   92.318  171.539    3.988
  338.250    0.349    0.511   95.663  171.495    4.125
  338.500    0.324    0.506   97.637  165.228    4.401
  338.750    0.347    0.519   87.577  163.630    4.905
  339.000    0.361    0.520   79.763  164.216    5.445
  339.250    0.274    0.500   85.036  165.110    5.735
  339.500    0.251    0.475   86.075  166.109    6.010
  339.750    0.227    0.460   84.496  166.796    6.135
  340.000    0.233    0.486   83.475  167.487    6.274
  340.250    0.238    0.482   84.013  167.450    6.357
  340.500    0.238    0.471   88.291  167.728    6.453
  340.750    0.237    0.462   90.824  167.687    6.480
  341.000    0.236    0.463   91.739  167.544    6.482
  341.250    0.239    0.469   88.662  167.101    6.456
  341.500    0.248    0.472   87.143  166.848    6.617
  341.750    0.253    0.474   89.988  166.196    6.791
  342.000    0.262    0.468   92.084  165.428    6.996
  342.250    0.264    0.467   89.939  164.879    7.183
  342.500    0.261    0.457   87.240  164.108    7.280
  342.750    0.254    0.439   82.794  163.869    7.361
  343.000    0.246    0.450   83.644  163.515    7.429
  343.250    0.236    0.471   86.985  163.478    7.459
  343.500    0.236    0.455   84.534  163.749    7.459
  343.750    0.233    0.446   82.142  164.239    7.378
  344.000    0.235    0.455   82.867  165.127    7.297
  344.250    0.237    0.447   87.957  165.408    7.215
  344.500    0.232    0.437   89.742  165.890    6.940
  344.750    0.224    0.441   88.473  166.051    6.600
  345.000    0.231    0.451   90.881  166.027    6.383
  345.250    0.231    0.450   93.040  165.983    6.210
  345.500    0.228    0.445   90.777  165.634    6.398
  345.750    0.227    0.446   86.764  164.874    6.830
  346.000    0.227    0.454   89.732  164.517    7.088
  346.250    0.225    0.462   91.146  164.770    7.011
  346.500    0.222    0.467   87.755  164.761    6.132
  346.750    0.236    0.471   85.738  167.325    5.274
  347.000    0.253    0.475   89.269  175.599    4.796
  347.250    0.265    0.477   90.807  165.062    4.461
  347.500    0.266    0.482   84.610  160.871    4.282
  347.750    0.269    0.485   81.907  160.939    4.164
  348.000    0.268    0.482   84.068  161.943    3.997
  348.250    0.256    0.476   90.217  164.503    3.746
  348.500    0.246    0.470   93.873  170.487    3.591
  348.750    0.252    0.465   96.407  165.984    3.665
  349.000    0.269    0.459   90.646  162.921    3.840
  349.250    0.273    0.462   84.830  162.572    4.138
  349.500    0.281    0.470   80.631  162.444    4.498
  349.750    0.287    0.463   76.803  160.540    5.040
  350.000    0.293    0.452   75.344  159.048    5.807
  350.250    0.300    0.443   73.829  157.757    6.706
  350.500    0.306    0.449   70.500  156.166    7.414
  350.750    0.320    0.457   67.115  154.049    8.184
  351.000    0.316    0.458   66.346  155.674    8.741
  351.250    0.306    0.465   69.814  159.690    8.987
  351.500    0.298    0.469   67.294  156.221    9.346
  351.750    0.298    0.460   60.477  153.272   10.240
  352.000    0.306    0.450   55.409  153.551   11.799
  352.250    0.312    0.448   54.388  154.343   12.692
  352.500    0.310    0.445   59.602  155.349   12.977
  352.750    0.290    0.430   66.999  156.344   12.956
  353.000    0.274    0.413   73.398  157.143   12.645
  353.250    0.272    0.402   64.897  158.976   11.851
  353.500    0.289    0.397   61.571  161.429   10.840
  353.750    0.286    0.420   67.408  161.912   10.402
  354.000    0.280    0.435   70.503  161.669   10.213
  354.250    0.286    0.428   71.787  160.800   10.177
  354.500    0.283    0.419   73.763  160.241   10.197
  354.750    0.284    0.425   78.540  159.274   10.313
  355.000    0.294    0.434   74.092  158.196   10.512
  355.250    0.300    0.448   68.269  157.947   10.528
  355.500    0.306    0.463   63.571  159.362   10.392
  355.750    0.314    0.468   60.309  160.569   10.144
  356.000    0.283    0.465   68.513  161.472    9.650
  356.250    0.260    0.444   77.221  162.057    9.126
  356.500    0.246    0.433   86.177  162.536    8.699
  356.750    0.237    0.447   88.334  162.190    8.535
  357.000    0.236    0.445   84.385  162.257    8.352
  357.250    0.235    0.441   84.051  162.120    8.301
  357.500    0.231    0.438   87.209  161.871    8.290
  357.750    0.228    0.436   85.873  162.250    8.246
