~VERSION INFORMATION
 VERS.                 2.0:   CWLS LOG ASCII STANDARD -VERSION 2.0
 WRAP.                  NO:   ONE LINE PER DEPTH STEP
~WELL INFORMATION BLOCK
#MNEM.UNIT           DATA                    DESCRIPTION OF MNEMONIC
#---------    -------------------            -------------------------------
# Generated from Intellog Unique Number	CS_69_70/WELL/898
WELL.         PROVIDENT RESOURCES LTD.       : Well_name    - WELL
LOC .         00/11-31-070-17W4/0            : Location     - LOCATION
UWI .         00/11-31-070-17W4/0            : Uwi          - UNIQUE WELL ID
ENTR.         SP                             : Entered      - ENTERED BY
SRVC.         SCHLUMBERGER                   : Scn          - SERVICE COMPANY
STRT.M        283.464                        : top_depth    - START DEPTH
STOP.M        475.214                        : bot_depth    - STOP DEPTH
STEP.M        0.25                           : increment    - STEP LENGTH
 NULL. -999.2500:NULL Value
~CURVE INFORMATION BLOCK
#MNEM UNIT       ERCB CURVE CODE    CURVE DESCRIPTION
#-----------   ------------------   ----------------------------------
DEPT.M        00 001 00 00         : DEPTH        - DEPTH
GR  .API      00 310 00 00         : GR           - GAMMA RAY
DPHI.V/V      00 890 00 00         : PHID         - DENSITY POROSITY (SANDSTONE)
NPHI.V/V      00 330 00 00         : PHIN         - NEUTRON POROSITY (SANDSTONE)
ILD .OHMM     00 120 00 00         : RESD         - DEEP RESISTIVITY (DIL)
~PARAMETER INFORMATION
#MNEM.UNIT           DATA             DESCRIPTION OF MNEMONIC
#---------         -----------     ------------------------------
GL  .M        566.318              : gl           - GROUND LEVEL ELEVATION
EREF.M        569.062              : kb           - ELEVATION OF DEPTH REFERENCE
DATM.M        566.318              : datum        - DATUM ELEVATION
TDD .M        502.92               : tdd          - TOTAL DEPTH DRILLER
RUN .         ONE                  : Run          - RUN NUMBER
ENG .         BILL                 : Engineer     - RECORDING ENGINEER
WIT .         JIM                  : Witness      - WITNESSED BY
MUD .         GEL                  : Mud_type     - MUD TYPE
MATR.         SANDSTONE            : Logunit      - NEUTRON MATRIX
TMAX.C        22.2222              : BHT          - MAXIMUM RECORDED TEMPERATURE
BHTD.M        502.92               : BHTDEP       - MAXIMUM RECORDED TEMPERATURE
MATR.         1                    : LOGUNIT      - NEUTRON MATRIX
RMT .C        25                   : MDTP         - TEMPERATURE OF MUD
NEUT.         1                    : NEUTRON      - NEUTRON TYPE
RESI.         0                    : RESIST       - RESISTIVITY TYPE
RMC .OHMM     0.25                 : RMC          - RESISTIVITY OF MUD CAKE
RMF .OHMM     0.25                 : RMF          - RESISTIVITY OF MUD FILTRATE
SUFT.C        15                   : SUFT         - SURFACE TEMPERATURE
~A  DEPTH       GR     PHID     PHIN     RESD
# ...
  370.464   64.061    0.279    0.453    4.680
  370.714   65.997    0.271    0.452    4.697
  370.964   66.034    0.262    0.459    4.815
  371.214   65.660    0.258    0.468    4.837
  371.464   68.397    0.278    0.465    4.890
  371.714   73.893    0.256    0.484    4.873
  371.964   79.341    0.232    0.479    4.726
  372.214   85.194    0.218    0.471    4.290
  372.464   89.047    0.207    0.475    3.884
  372.714   92.228    0.207    0.476    3.639
  372.964   90.974    0.211    0.485    3.403
  373.214   89.087    0.209    0.499    3.327
  373.464   86.916    0.223    0.508    3.340
  373.714   83.053    0.239    0.500    3.567
  373.964   80.051    0.262    0.464    3.950
  374.214   74.449    0.272    0.452    4.156
  374.464   72.279    0.263    0.452    4.483
  374.714   68.866    0.223    0.457    4.772
  374.964   66.407    0.149    0.396    5.033
  375.214   64.168    0.088    0.370    5.542
  375.464   63.247    0.086    0.345    6.569
  375.714   62.733    0.109    0.285    7.909
  375.964   66.195    0.135    0.365    9.158
  376.214   72.693    0.177    0.398    9.792
  376.464   77.366    0.232    0.431    9.265
  376.714   82.115    0.281    0.463    7.907
  376.964   85.938    0.247    0.478    6.698
  377.214   90.233    0.226    0.459    6.070
  377.464   93.239    0.212    0.452    5.791
  377.714   95.258    0.196    0.449    5.687
  377.964   95.690    0.187    0.448    5.727
  378.214   93.630    0.181    0.448    5.733
  378.464   91.075    0.189    0.448    5.756
  378.714   90.890    0.201    0.451    5.781
  378.964   92.568    0.193    0.447    5.846
  379.214   93.156    0.187    0.443    5.912
  379.464   93.495    0.193    0.442    5.998
  379.714   91.169    0.187    0.453    6.055
  379.964   90.060    0.194    0.461    6.116
  380.214   93.331    0.205    0.451    6.134
  380.464   94.695    0.215    0.451    6.067
  380.714   94.442    0.197    0.449    6.010
  380.964   93.492    0.189    0.451    5.995
  381.214   93.742    0.179    0.460    5.954
  381.464   93.253    0.169    0.463    5.924
  381.714   92.466    0.182    0.453    5.956
  381.964   91.861    0.209    0.442    6.054
  382.214   88.393    0.221    0.431    6.155
  382.464   89.676    0.202    0.418    6.409
  382.714   91.034    0.197    0.415    6.788
  382.964   89.047    0.199    0.419    6.910
  383.214   91.365    0.193    0.432    6.879
  383.464   93.834    0.180    0.440    6.779
  383.714   94.883    0.193    0.441    6.626
  383.964   96.712    0.176    0.442    6.465
  384.214   97.595    0.155    0.449    6.304
  384.464   97.864    0.154    0.457    6.153
  384.714   97.589    0.160    0.469    6.039
  384.964   96.950    0.181    0.475    5.939
  385.214   96.951    0.197    0.475    5.886
  385.464   97.244    0.186    0.466    5.833
  385.714   97.310    0.171    0.463    5.790
  385.964   96.820    0.160    0.467    5.780
  386.214   95.532    0.154    0.469    5.770
  386.464   94.941    0.164    0.459    5.774
  386.714   95.270    0.189    0.454    5.709
  386.964   95.196    0.200    0.448    5.535
  387.214   93.311    0.188    0.443    5.287
  387.464   91.688    0.193    0.441    5.012
  387.714   89.933    0.193    0.445    4.818
  387.964   89.118    0.189    0.452    4.767
  388.214   89.570    0.200    0.459    4.839
  388.464   91.012    0.215    0.464    5.036
  388.714   91.353    0.221    0.463    5.217
  388.964   89.264    0.218    0.464    5.374
  389.214   86.310    0.212    0.465    5.505
  389.464   83.129    0.219    0.467    5.477
  389.714   79.168    0.230    0.472    5.404
  389.964   76.732    0.233    0.476    5.161
  390.214   75.398    0.239    0.468    4.981
  390.464   74.918    0.256    0.457    4.706
  390.714   76.323    0.265    0.451    4.490
  390.964   77.502    0.271    0.446    4.381
  391.214   75.980    0.252    0.443    4.329
  391.464   75.198    0.195    0.420    4.349
  391.714   71.029    0.146    0.399    4.429
  391.964   64.371    0.066    0.360    4.619
  392.214   57.460    0.012    0.319    4.948
  392.464   52.440   -0.001    0.164    5.359
  392.714   47.753   -0.000    0.157    5.942
  392.964   47.260    0.005    0.156    6.936
  393.214   51.189    0.000    0.160    8.093
  393.464   55.048    0.007    0.175   10.637
  393.714   57.551    0.036    0.215   12.996
  393.964   57.156    0.083    0.251   14.966
  394.214   60.795    0.118    0.288   15.783
  394.464   64.527    0.144    0.325   10.690
  394.714   68.839    0.176    0.362    7.207
  394.964   72.066    0.214    0.392    5.544
  395.214   75.016    0.248    0.425    4.933
  395.464   75.842    0.288    0.441    4.706
  395.714   75.997    0.267    0.448    4.738
  395.964   76.399    0.261    0.451    4.845
  396.214   77.139    0.256    0.446    4.994
  396.464   77.905    0.250    0.442    5.039
  396.714   77.465    0.251    0.440    5.022
  396.964   77.205    0.243    0.447    4.925
  397.214   78.988    0.234    0.451    4.778
  397.464   82.099    0.231    0.455    4.412
  397.714   86.172    0.239    0.454    4.156
  397.964   90.332    0.247    0.456    3.771
  398.214   94.992    0.266    0.470    3.465
  398.464   99.437    0.299    0.489    3.078
  398.714  102.944    0.280    0.507    2.853
  398.964  104.576    0.250    0.524    2.623
  399.214  105.066    0.234    0.538    2.545
  399.464  105.455    0.251    0.529    2.702
  399.714  105.204    0.214    0.513    2.935
  399.964  101.699    0.218    0.486    3.257
  400.214   99.000    0.216    0.461    3.602
  400.464   96.076    0.198    0.435    4.002
  400.714   93.565    0.190    0.443    4.332
  400.964   90.551    0.184    0.457    4.572
  401.214   87.511    0.181    0.464    4.788
  401.464   85.192    0.172    0.457    4.847
  401.714   86.352    0.173    0.446    4.868
  401.964   89.138    0.190    0.453    4.862
  402.214   92.839    0.210    0.457    4.810
  402.464   96.335    0.214    0.446    4.784
  402.714   98.240    0.205    0.434    4.750
  402.964   99.292    0.196    0.426    4.717
  403.214   97.028    0.192    0.432    4.671
  403.464   91.802    0.205    0.444    4.594
  403.714   87.116    0.214    0.453    4.541
  403.964   84.976    0.219    0.447    4.554
  404.214   82.736    0.200    0.437    4.574
  404.464   81.178    0.188    0.440    4.676
  404.714   81.035    0.178    0.443    4.773
  404.964   80.737    0.168    0.433    5.105
  405.214   79.557    0.176    0.429    5.476
  405.464   76.575    0.177    0.431    6.700
  405.714   70.900    0.142    0.430    7.977
  405.964   64.012    0.102    0.344    9.131
  406.214   66.755    0.094    0.321    9.957
  406.464   73.515    0.136    0.327   10.164
  406.714   78.416    0.154    0.350    8.982
  406.964   84.545    0.168    0.392    6.814
  407.214   88.706    0.195    0.423    5.590
  407.464   85.742    0.227    0.459    4.717
  407.714   76.842    0.248    0.480    4.226
  407.964   70.444    0.266    0.468    3.956
  408.214   70.178    0.279    0.456    3.826
  408.464   74.937    0.271    0.448    3.759
  408.714   79.866    0.233    0.442    3.815
  408.964   82.185    0.227    0.436    3.912
  409.214   79.841    0.242    0.433    4.020
  409.464   76.249    0.241    0.430    4.108
  409.714   74.095    0.250    0.426    4.134
  409.964   72.717    0.238    0.427    4.132
  410.214   72.727    0.226    0.427    4.125
  410.464   73.553    0.214    0.417    4.195
  410.714   74.114    0.208    0.411    4.404
  410.964   73.776    0.202    0.405    4.769
  411.214   73.908    0.183    0.367    4.969
  411.464   74.677    0.165    0.364    4.742
  411.714   76.616    0.197    0.383    4.559
  411.964   79.456    0.229    0.413    4.347
  412.214   81.491    0.227    0.427    4.258
  412.464   81.674    0.221    0.426    4.207
  412.714   77.775    0.227    0.429    4.211
  412.964   75.994    0.215    0.427    4.287
  413.214   75.340    0.210    0.422    4.420
  413.464   74.929    0.215    0.418    4.614
  413.714   74.713    0.216    0.408    4.810
