~VERSION INFORMATION
 VERS.                 2.0:   CWLS LOG ASCII STANDARD -VERSION 2.0
 WRAP.                  NO:   ONE LINE PER DEPTH STEP
~WELL INFORMATION BLOCK
#MNEM.UNIT           DATA                    DESCRIPTION OF MNEMONIC
#---------    -------------------            -------------------------------
# Generated from Intellog Unique Number	CC_80_83/WELL/2345
NULL.         -999.25                        : NULL_VALUE
WELL.         HOMESTEAD JASPER COWPAR        : WELL_NAME
LOC .         10-10-080-04W4                 : Location     - LOCATION          
UWI .         00/10-10-080-04W400           : Uwi          - UNIQUE WELL ID    
ENTR.         DW                             : Entered      - ENTERED BY        
SRVC.         SCHLUMBERGER                   : Scn          - SERVICE COMPANY   
DATE.         24 NOV 77                      : Date         - LOG DATE
STRT.M        94.488                         : top_depth    - START DEPTH       
STOP.M        323.088                        : bot_depth    - STOP DEPTH        
STEP.M        0.3048                         : increment    - STEP LENGTH       
~CURVE INFORMATION BLOCK
#MNEM UNIT       ERCB CURVE CODE    CURVE DESCRIPTION
#-----------   ------------------   ----------------------------------
DEPT.M        00 001 00 00         : DEPTH        - DEPTH                       
DPHI.V/V      00 890 00 00         : PHID         - DENSITY POROSITY (LIMESTONE)
NPHI.V/V      00 330 00 00         : PHIN         - NEUTRON POROSITY (LIMESTONE)
GR  .API      00 310 00 00         : GR           - GAMMA RAY                   
ILD .OHMM     00 120 00 00         : RESD         - DEEP RESISTIVITY (DIL)      
~PARAMETER INFORMATION       
#MNEM.UNIT           DATA             DESCRIPTION OF MNEMONIC
#---------         -----------     ------------------------------
GL  .M        471.83               : gl           - GROUND LEVEL ELEVATION      
EREF.M        475.488              : kb           - ELEVATION OF DEPTH REFERENCE
DATM.M        475.488              : datum        - DATUM ELEVATION             
TDD .M        326.136              : tdd          - TOTAL DEPTH DRILLER         
RUN .         ONE                  : Run          - RUN NUMBER                  
ENG .         BILL                 : Engineer     - RECORDING ENGINEER          
WIT .         JIM                  : Witness      - WITNESSED BY                
MUD .         GEL                  : Mud_type     - MUD TYPE                    
MATR.         LIMESTONE            : Logunit      - NEUTRON MATRIX              
TMAX.C        23.3333              : BHT          - MAXIMUM RECORDED TEMPERATURE
BHTD.M        326.136              : BHTDEP       - MAXIMUM RECORDED TEMPERATURE
MATR.         1                    : LOGUNIT      - NEUTRON MATRIX              
RMT .C        25                   : MDTP         - TEMPERATURE OF MUD          
NEUT.         1                    : NEUTRON      - NEUTRON TYPE                
RESI.         0                    : RESIST       - RESISTIVITY TYPE            
RMC .OHMM     0.25                 : RMC          - RESISTIVITY OF MUD CAKE     
RMF .OHMM     0.25                 : RMF          - RESISTIVITY OF MUD FILTRATE 
SUFT.C        15                   : SUFT         - SURFACE TEMPERATURE         
~A  DEPTH     PHID     PHIN       GR     RESD
# ...
  200.557    0.284    0.583   98.241    3.273
  200.862    0.291    0.563   97.001    3.667
  201.167    0.301    0.574   91.421    4.266
  201.472    0.302    0.554   81.503    4.964
  201.776    0.288    0.540   80.263    5.776
  202.081    0.272    0.501   82.121    6.980
  202.386    0.230    0.479   80.881    7.970
  202.691    0.198    0.464   71.582    9.632
  202.996    0.149    0.358   59.805   11.208
  203.300    0.090    0.296   58.564   11.860
  203.605    0.185    0.402   63.522   10.582
  203.910    0.279    0.463   70.959    7.809
  204.215    0.290    0.481   79.016    7.956
  204.520    0.281    0.483   83.354    8.419
  204.824    0.283    0.464   79.634    9.612
  205.129    0.284    0.470   79.633   10.367
  205.434    0.281    0.463   80.252   10.764
  205.739    0.280    0.458   78.391   10.559
  206.044    0.278    0.462   77.771    9.971
  206.348    0.280    0.463   78.390   10.159
  206.653    0.285    0.457   79.009   10.351
  206.958    0.290    0.456   76.528   10.953
  207.263    0.294    0.464   80.866   11.161
  207.568    0.298    0.465   81.485   11.588
  207.872    0.300    0.456   82.104   12.032
  208.177    0.300    0.447   83.963   11.803
  208.482    0.291    0.443   83.342   11.577
  208.787    0.280    0.428   74.044   11.576
  209.091    0.231    0.417   74.662   10.726
  209.396    0.259    0.441   75.901   10.323
  209.701    0.237    0.438   77.760    9.749
  210.006    0.185    0.432   79.619    9.383
  210.311    0.252    0.415   83.337    9.031
  210.615    0.281    0.421   85.195    8.529
  210.920    0.262    0.470   90.153    7.188
  211.225    0.235    0.448   94.491    6.661
  211.530    0.228    0.464   97.589    6.411
  211.835    0.242    0.481   99.448    6.288
  212.139    0.263    0.489   97.587    6.529
  212.444    0.248    0.494   96.967    6.780
  212.749    0.243    0.486   93.247    7.596
  213.054    0.249    0.481   82.089    7.887
  213.359    0.270    0.488   80.848    6.279
  213.663    0.284    0.477   83.947    4.999
  213.968    0.290    0.465   88.285    4.212
  214.273    0.298    0.454   95.102    4.132
  214.578    0.304    0.485   95.101    4.131
  214.883    0.251    0.486   93.240    4.372
  215.187    0.240    0.485   91.380    4.715
  215.492    0.238    0.468   91.379    4.714
  215.797    0.243    0.479   95.097    4.368
  216.102    0.253    0.490  101.915    4.125
  216.407    0.263    0.547  104.393    3.750
  216.711    0.272    0.580  100.673    3.679
  217.016    0.295    0.544   88.275    3.609
  217.321    0.306    0.527   83.316    3.747
  217.626    0.316    0.515   80.836    3.343
  217.931    0.299    0.527   90.752    2.982
  218.235    0.299    0.548   99.429    2.981
  218.540    0.301    0.557   94.469    3.340
  218.845    0.298    0.562   90.749    4.355
  219.150    0.283    0.499   86.410    7.130
  219.454    0.269    0.483   82.690    7.986
  219.759    0.146    0.473   80.829    8.137
  220.064    0.164    0.415   78.349    7.684
  220.369    0.254    0.430   83.307    7.397
  220.674    0.259    0.447   93.224    7.254
  220.978    0.251    0.464   90.123    7.392
  221.283    0.236    0.483   84.544    7.972
  221.588    0.219    0.448   75.866    8.278
  221.893    0.238    0.431   74.625    8.435
  222.198    0.309    0.426   78.343    8.118
  222.502    0.290    0.444   82.061    6.223
  222.807    0.289    0.493   85.779    4.338
  223.112    0.312    0.521   93.216    3.389
  223.417    0.314    0.521   88.257    3.324
  223.722    0.321    0.511   83.917    3.518
  224.026    0.327    0.532   85.775    3.866
  224.331    0.331    0.533   85.155    4.249
  224.636    0.332    0.509   84.534    4.413
  224.941    0.326    0.502   87.013    4.496
  225.246    0.315    0.504   88.251    5.133
  225.550    0.305    0.537   84.531    5.750
  225.855    0.295    0.473   85.770    5.971
  226.160    0.278    0.475   88.869    6.562
  226.465    0.274    0.483   81.430    6.561
  226.770    0.290    0.480   81.429    6.560
  227.074    0.311    0.460   88.246    6.078
  227.379    0.298    0.440   88.865    5.423
  227.684    0.283    0.448   84.525    4.400
  227.989    0.286    0.496   82.045    3.570
  228.294    0.316    0.516   82.044    2.585
  228.598    0.320    0.558   82.043    2.263
  228.903    0.340    0.591   82.042    2.097
  229.208    0.363    0.609   80.802    2.018
  229.513    0.347    0.611   77.702    2.017
  229.818    0.337    0.546   77.081    2.017
  230.122    0.343    0.578   78.320    2.055
  230.427    0.347    0.562   79.559    2.134
  230.732    0.336    0.554   86.376    2.216
  231.037    0.326    0.563   91.953    2.345
  231.341    0.319    0.556   83.895    2.577
  231.646    0.326    0.537   77.695    3.235
  231.951    0.335    0.490   82.033    3.836
  232.256    0.309    0.488   82.652    4.464
  232.561    0.260    0.469   81.412    5.293
  232.865    0.273    0.463   79.551    5.497
  233.170    0.294    0.468   78.931    5.817
  233.475    0.278    0.446   80.789    6.040
  233.780    0.275    0.442   89.466    5.704
  234.085    0.289    0.447   96.283    4.290
  234.389    0.316    0.465   98.762    3.755
  234.694    0.327    0.499   95.042    3.350
  234.999    0.290    0.483   91.942    3.164
  235.304    0.283    0.498   93.800    3.045
  235.609    0.285    0.519   93.180    3.103
  235.913    0.290    0.520   91.319    3.102
  236.218    0.270    0.509   91.318    3.042
  236.523    0.262    0.507   93.797    3.100
  236.828    0.274    0.506   96.275    3.158
  237.133    0.284    0.500   95.654    3.218
  237.437    0.296    0.501   89.455    3.278
  237.742    0.283    0.504   86.975    3.340
  238.047    0.283    0.510   88.214    3.535
  238.352    0.286    0.516   88.833    3.741
  238.657    0.300    0.520   86.972    4.352
  238.961    0.288    0.464   87.591    4.876
  239.266    0.278    0.431   90.690    5.462
  239.571    0.265    0.427   94.408    5.257
  239.876    0.251    0.465   91.927    4.871
  240.181    0.264    0.509   88.827    4.963
  240.485    0.233    0.507   86.347    5.886
  240.790    0.196    0.502   83.867    6.848
  241.095    0.101    0.488   70.850    7.527
  241.400    0.194    0.348   75.807    7.384
  241.704    0.294    0.388   81.385    6.464
  242.009    0.332    0.459   83.243    4.861
  242.314    0.310    0.457   83.243    3.797
  242.619    0.302    0.431   77.663    3.140
  242.924    0.358    0.475   80.142    2.910
  243.228    0.363    0.520   83.860    3.138
  243.533    0.357    0.540   88.198    3.450
  243.838    0.342    0.500   86.337    4.091
  244.143    0.269    0.474   96.874    5.039
  244.448    0.190    0.464  106.790    5.863
  244.752    0.223    0.428  103.070    6.323
  245.057    0.226    0.447   99.350    6.442
  245.362    0.222    0.435   95.011    6.200
  245.667    0.209    0.394   89.431    6.317
  245.972    0.209    0.405   90.670    6.437
  246.276    0.231    0.412   93.768    6.811
  246.581    0.232    0.432   90.048    7.073
  246.886    0.225    0.416   88.188    6.938
  247.191    0.198    0.402   88.187    6.935
  247.496    0.211    0.396   91.905    6.803
  247.800    0.202    0.393   97.483    6.548
  248.105    0.191    0.407   98.101    6.546
  248.410    0.200    0.432   98.720    6.300
  248.715    0.219    0.417   99.959    5.728
  249.020    0.230    0.423  104.297    5.111
  249.324    0.241    0.456  109.875    4.826
  249.629    0.252    0.475  108.014    4.825
  249.934    0.221    0.493  106.154    5.010
  250.239    0.230    0.469  106.153    5.301
  250.544    0.225    0.481  101.813    5.505
  250.848    0.233    0.464  107.391    5.503
  251.153    0.212    0.480  109.249    5.297
  251.458    0.199    0.490  104.290    5.098
  251.763    0.207    0.470  102.430    5.001
  252.067    0.221    0.465   97.470    4.905
  252.372    0.206    0.474   96.229    4.904
  252.677    0.223    0.458  102.427    5.092
  252.982    0.231    0.474  101.187    5.188
  253.287    0.248    0.491   99.326    5.187
