~VERSION INFORMATION
 VERS.                 2.0:   CWLS LOG ASCII STANDARD -VERSION 2.0
 WRAP.                  NO:   ONE LINE PER DEPTH STEP
~WELL INFORMATION BLOCK
#MNEM.UNIT           DATA                    DESCRIPTION OF MNEMONIC
#---------    -------------------            -------------------------------
# Generated from Intellog Unique Number	CW_73_75/WELL/928
WELL.         GULF POC DROWNED 10-22         : Well_name    - WELL
LOC .         00/10-22-075-21W4/0            : Location     - LOCATION
UWI .         00/10-22-075-21W4/0            : Uwi          - UNIQUE WELL ID
ENTR.         JAYE                           : Entered      - ENTERED BY
SRVC.         SCHLUMBERGER                   : Scn          - SERVICE COMPANY
DATE.         19 FEB 77                      : Date         - LOG DATE
STRT.M        368.808                        : top_depth    - START DEPTH
STOP.M        562.058                        : bot_depth    - STOP DEPTH
STEP.M        0.25                           : increment    - STEP LENGTH
 NULL. -999.2500:NULL Value
~CURVE INFORMATION BLOCK
#MNEM UNIT       ERCB CURVE CODE    CURVE DESCRIPTION
#-----------   ------------------   ----------------------------------
DEPT.M        00 001 00 00         : DEPTH        - DEPTH
ILD .OHMM     00 120 00 00         : RESD         - DEEP RESISTIVITY (DIL)
NPHI.V/V      00 330 00 00         : PHIN         - NEUTRON POROSITY (SANDSTONE)
DPHI.V/V      00 890 00 00         : PHID         - DENSITY POROSITY (SANDSTONE)
GR  .API      00 310 00 00         : GR           - GAMMA RAY
CALI.MM       00 280 01 00         : CAL          - CALIPER
~PARAMETER INFORMATION
#MNEM.UNIT           DATA             DESCRIPTION OF MNEMONIC
#---------         -----------     ------------------------------
GL  .M        677.875              : gl           - GROUND LEVEL ELEVATION
EREF.M        681.228              : kb           - ELEVATION OF DEPTH REFERENCE
DATM.M        677.875              : datum        - DATUM ELEVATION
TDD .M        571.5                : tdd          - TOTAL DEPTH DRILLER
RUN .         ONE                  : Run          - RUN NUMBER
ENG .         CROCKFORD            : Engineer     - RECORDING ENGINEER
WIT .         FULTON               : Witness      - WITNESSED BY
BASE.         EDM                  : Branch       - HOME BASE OF LOGGING UNIT
MUD .         GEL BENDEX           : Mud_type     - MUD TYPE
MATR.         SANDSTONE            : Logunit      - NEUTRON MATRIX
TMAX.C        15.5556              : BHT          - MAXIMUM RECORDED TEMPERATURE
BHTD.M        570.586              : BHTDEP       - MAXIMUM RECORDED TEMPERATURE
RMT .C        13.3333              : MDTP         - TEMPERATURE OF MUD
MUDD.KG/M     1140                 : MWT          - MUD DENSITY
NEUT.         1                    : NEUTRON      - NEUTRON TYPE
RESI.         0                    : RESIST       - RESISTIVITY TYPE
RM  .OHMM     2.88                 : RM           - RESISTIVITY OF MUD
RMC .OHMM     0                    : RMC          - RESISTIVITY OF MUD CAKE
RMF .OHMM     2.84                 : RMF          - RESISTIVITY OF MUD FILTRATE
SUFT.C        -17.7778             : SUFT         - SURFACE TEMPERATURE
~A  DEPTH     RESD     PHIN     PHID       GR      CAL
# ...
  478.308    4.688    0.447    0.280   84.880  159.002
  478.558    4.950    0.441    0.253   86.574  159.680
  478.808    5.148    0.438    0.183   89.258  160.972
  479.058    5.256    0.417    0.169   88.419  162.789
  479.308    5.228    0.399    0.150   86.031  164.616
  479.558    5.094    0.410    0.176   95.756  165.280
  479.808    5.010    0.427    0.214  109.372  165.743
  480.058    4.955    0.431    0.186  108.472  166.105
  480.308    4.929    0.465    0.204  107.944  166.143
  480.558    4.921    0.478    0.227  108.278  166.298
  480.808    4.922    0.461    0.250  107.376  166.023
  481.058    5.025    0.454    0.235  105.729  165.855
  481.308    5.158    0.452    0.234  104.087  165.579
  481.558    5.316    0.457    0.235  102.320  165.102
  481.808    5.377    0.460    0.224  101.666  164.827
  482.058    5.408    0.448    0.204  105.830  164.561
  482.308    5.450    0.437    0.210  105.735  164.393
  482.558    5.492    0.418    0.231  102.978  164.223
  482.808    5.565    0.419    0.216  106.092  164.163
  483.058    5.660    0.440    0.201  107.846  164.424
  483.308    5.672    0.459    0.200  105.461  164.251
  483.558    5.631    0.456    0.210  106.660  164.397
  483.808    5.538    0.455    0.203  109.528  164.439
  484.058    5.247    0.458    0.208  112.826  164.698
  484.308    4.632    0.460    0.187  109.824  164.736
  484.558    4.066    0.464    0.192  109.232  164.685
  484.808    3.496    0.471    0.206  110.679  164.609
  485.058    3.139    0.461    0.196  109.406  164.656
  485.308    2.876    0.442    0.210  108.200  164.592
  485.558    2.611    0.448    0.198  111.433  164.432
  485.808    2.379    0.457    0.198  114.608  164.156
  486.058    2.196    0.457    0.184  114.326  164.294
  486.308    2.288    0.464    0.161  114.164  164.452
  486.558    2.470    0.443    0.178  119.071  164.489
  486.808    2.928    0.433    0.194  118.604  164.525
  487.058    3.343    0.425    0.208  117.266  164.364
  487.308    4.113    0.416    0.198  117.787  164.402
  487.558    5.617    0.411    0.187  118.492  164.443
  487.808    6.167    0.425    0.202  116.539  164.591
  488.058    6.054    0.448    0.190  111.931  164.648
  488.308    5.780    0.432    0.177  111.955  164.689
  488.558    5.517    0.444    0.186  111.302  164.839
  488.808    5.407    0.462    0.184  107.311  164.865
  489.058    5.348    0.448    0.200  103.135  165.019
  489.308    5.348    0.438    0.210   99.082  164.957
  489.558    5.380    0.428    0.219  101.271  164.793
  489.808    5.431    0.427    0.197  107.164  164.728
  490.058    5.442    0.453    0.185  112.009  164.768
  490.308    5.464    0.444    0.183  114.011  164.806
  490.558    5.475    0.435    0.190  113.911  164.650
  490.808    5.456    0.440    0.174  114.370  164.692
  491.058    5.477    0.449    0.174  116.804  164.733
  491.308    5.509    0.451    0.185  120.041  164.981
  491.558    5.531    0.455    0.187  122.601  164.823
  491.808    5.552    0.448    0.189  119.659  164.965
  492.058    5.564    0.469    0.183  115.052  164.793
  492.308    5.607    0.469    0.207  107.231  164.623
  492.558    5.618    0.454    0.193  108.553  164.773
  492.808    5.536    0.438    0.195  113.087  164.721
  493.058    5.537    0.429    0.192  113.544  164.764
  493.308    5.549    0.423    0.179  109.183  164.704
  493.558    5.498    0.412    0.194  111.309  164.835
  493.808    5.388    0.426    0.183  114.485  164.892
  494.058    5.389    0.436    0.167  116.981  165.026
  494.308    5.430    0.427    0.172  118.489  164.871
  494.558    5.544    0.417    0.190  117.218  164.806
  494.808    5.692    0.409    0.186  114.709  164.740
  495.058    5.757    0.428    0.179  112.016  164.480
  495.308    5.758    0.431    0.184  111.240  164.508
  495.558    5.674    0.437    0.181  108.605  164.463
  495.808    5.528    0.426    0.181  111.102  164.487
  496.058    5.268    0.427    0.180  114.155  164.634
  496.308    4.973    0.434    0.171  115.477  164.360
  496.558    4.738    0.444    0.187  115.687  166.391
  496.808    4.635    0.445    0.206  112.872  167.064
  497.058    4.558    0.445    0.198  113.205  167.103
  497.308    4.611    0.466    0.183  115.269  165.474
  497.558    4.922    0.480    0.205  113.193  164.364
  497.808    5.620    0.484    0.211  105.001  163.573
  498.058    6.736    0.492    0.224   96.747  163.197
  498.308    8.287    0.516    0.245   89.793  163.240
  498.558   12.424    0.486    0.270   83.949  162.863
  498.808   14.028    0.457    0.261   81.439  162.275
  499.058   14.136    0.442    0.280   82.267  161.695
  499.308   13.955    0.435    0.266   86.185  161.211
  499.558   14.220    0.456    0.259   87.754  160.841
  499.808   14.847    0.428    0.211   87.411  160.877
  500.058   15.045    0.394    0.141   88.859  160.923
  500.308   14.633    0.372    0.126   90.489  160.969
  500.558   14.073    0.334    0.133   91.995  161.008
  500.808   12.823    0.349    0.136   92.513  161.051
  501.058   11.815    0.365    0.115   92.601  161.092
  501.308   11.112    0.380    0.165   90.958  161.133
  501.558    9.754    0.395    0.189   90.924  160.862
  501.808    7.756    0.416    0.230   92.243  160.698
  502.058    6.474    0.422    0.267   94.559  160.532
  502.308    5.640    0.412    0.256   95.448  160.678
  502.558    5.007    0.412    0.243   96.026  160.931
  502.808    4.700    0.440    0.232   97.410  161.394
  503.058    4.521    0.426    0.227  102.933  161.445
  503.308    4.356    0.442    0.237  106.171  161.890
  503.558    4.276    0.459    0.247  103.541  162.146
  503.808    4.175    0.465    0.256  100.229  162.086
  504.058    4.106    0.456    0.242   96.546  162.129
  504.308    4.084    0.463    0.220   96.818  162.067
  504.558    4.077    0.456    0.235   99.688  162.111
  504.808    4.055    0.439    0.215  101.008  162.154
  505.058    4.041    0.442    0.223  101.218  162.298
  505.308    4.064    0.449    0.215  101.059  162.334
  505.558    4.088    0.449    0.239   99.971  162.378
  505.808    4.089    0.461    0.255  100.369  162.428
  506.058    4.082    0.481    0.245  103.049  162.677
  506.308    4.129    0.500    0.239  106.657  162.923
  506.558    4.199    0.507    0.241  112.305  163.396
  506.808    4.319    0.505    0.221  116.901  163.635
  507.058    4.476    0.471    0.229  114.270  163.990
  507.308    4.578    0.460    0.227  108.179  164.140
  507.558    4.648    0.448    0.219  103.199  164.396
  507.808    4.736    0.442    0.211  101.185  165.174
  508.058    4.845    0.441    0.204  100.904  166.673
  508.308    4.937    0.443    0.219  100.371  167.867
  508.558    4.993    0.446    0.209  101.200  168.329
  508.808    5.004    0.453    0.210  101.472  168.377
  509.058    4.986    0.459    0.207  105.635  168.309
  509.308    5.015    0.450    0.225  107.020  168.037
  509.558    5.110    0.435    0.209  105.625  167.353
  509.808    5.208    0.451    0.193  107.503  166.663
  510.058    5.376    0.466    0.191  109.072  165.976
  510.308    5.571    0.443    0.206  104.342  165.490
  510.558    5.882    0.398    0.190   99.175  164.699
  510.808    6.458    0.370    0.156   93.705  164.210
  511.058    7.065    0.360    0.142   92.986  163.521
  511.308    7.431    0.373    0.154   95.300  162.835
  511.558    6.658    0.383    0.185   97.361  162.665
  511.808    5.965    0.403    0.201  100.970  161.876
  512.058    5.579    0.424    0.224  103.280  161.284
  512.308    5.376    0.443    0.242   99.784  160.488
  512.558    5.229    0.455    0.242   96.845  160.014
  512.808    5.269    0.455    0.226  100.700  160.266
  513.058    5.774    0.443    0.212   98.994  160.623
  513.308    6.258    0.430    0.204   93.399  161.286
  513.558    6.607    0.429    0.195   92.620  162.387
  513.808    6.757    0.441    0.207  101.046  163.256
  514.058    6.344    0.449    0.196  113.242  164.764
  514.308    6.011    0.432    0.198  113.453  165.956
  514.558    5.813    0.424    0.180  113.850  166.736
