~VERSION INFORMATION
 VERS.                 2.0:   CWLS LOG ASCII STANDARD -VERSION 2.0
 WRAP.                  NO:   ONE LINE PER DEPTH STEP
~WELL INFORMATION BLOCK
#MNEM.UNIT           DATA                    DESCRIPTION OF MNEMONIC
#---------    -------------------            -------------------------------
# Generated from Intellog Unique Number	CW_70_72/WELL/3035
NULL.         -999.25                        : NULL_VALUE
WELL.         PALOMA MITSUE 11-33            : Well_name    - WELL              
LOC .         11-33-070-03W5                 : Location     - LOCATION          
UWI .         00/11-33-070-03W5/0            : Uwi          - UNIQUE WELL ID    
ENTR.         JAYE                           : Entered      - ENTERED BY        
SRVC.         SCHLUMBERGER                   : Scn          - SERVICE COMPANY   
DATE.         7 AUG 84                       : Date         - LOG DATE          
STRT.M        495                            : top_depth    - START DEPTH       
STOP.M        700                            : bot_depth    - STOP DEPTH        
STEP.M        0.25                           : increment    - STEP LENGTH       
~CURVE INFORMATION BLOCK
#MNEM UNIT       ERCB CURVE CODE    CURVE DESCRIPTION
#-----------   ------------------   ----------------------------------
DEPT.M        00 001 00 00         : DEPTH        - DEPTH                       
ILD .OHMM     00 120 00 00         : RESD         - DEEP RESISTIVITY (DIL)      
CALI.MM       00 280 01 00         : CAL          - CALIPER                     
GR  .API      00 310 00 00         : GR           - GAMMA RAY                   
NPHI.V/V      00 330 00 00         : PHIN         - NEUTRON POROSITY (SANDSTONE)
DPHI.V/V      00 890 00 00         : PHID         - DENSITY POROSITY (SANDSTONE)
~PARAMETER INFORMATION       
#MNEM.UNIT           DATA             DESCRIPTION OF MNEMONIC
#---------         -----------     ------------------------------
GL  .M        654.6                : gl           - GROUND LEVEL ELEVATION      
EREF.M        660.3                : kb           - ELEVATION OF DEPTH REFERENCE
DATM.M        654.6                : datum        - DATUM ELEVATION             
TDD .M        1723                 : tdd          - TOTAL DEPTH DRILLER         
RUN .         ONE                  : Run          - RUN NUMBER                  
ENG .         CSIKOS/CORNISH       : Engineer     - RECORDING ENGINEER          
WIT .         KELLY                : Witness      - WITNESSED BY                
BASE.         EDM                  : Branch       - HOME BASE OF LOGGING UNIT   
MUD .         GEL                  : Mud_type     - MUD TYPE                    
MATR.         SANDSTONE            : Logunit      - NEUTRON MATRIX              
TMAX.C        50                   : BHT          - MAXIMUM RECORDED TEMPERATURE
BHTD.M        1725.7               : BHTDEP       - MAXIMUM RECORDED TEMPERATURE
RMT .C        22.7                 : MDTP         - TEMPERATURE OF MUD          
MUDD.KG/M     1100                 : MWT          - MUD DENSITY                 
NEUT.         1                    : NEUTRON      - NEUTRON TYPE                
RESI.         0                    : RESIST       - RESISTIVITY TYPE            
RM  .OHMM     1.17                 : RM           - RESISTIVITY OF MUD          
RMC .OHMM     0.25                 : RMC          - RESISTIVITY OF MUD CAKE     
RMF .OHMM     0.89                 : RMF          - RESISTIVITY OF MUD FILTRATE 
SUFT.C        0                    : SUFT         - SURFACE TEMPERATURE         
~A  DEPTH     RESD      CAL       GR     PHIN     PHID
# ...
  677.500    1.705  269.533   88.898    0.530    0.320
  677.750    1.824  253.390   84.002    0.548    0.289
  678.000    1.988  240.562   71.889    0.456    0.270
  678.250    2.220  230.227   65.564    0.416    0.240
  678.500    2.679  231.093   64.339    0.323    0.216
  678.750    3.807  240.663   65.728    0.338    0.226
  679.000    4.787  262.682   84.798    0.363    0.198
  679.250    5.208  280.447   85.304    0.397    0.276
  679.500    5.469  262.439   84.142    0.409    0.244
  679.750    5.690  251.482   78.748    0.372    0.184
  680.000    5.909  244.873   79.332    0.365    0.145
  680.250    5.967  241.278   79.102    0.375    0.129
  680.500    5.961  239.755   80.241    0.333    0.056
  680.750    5.855  242.384   84.618    0.318    0.088
  681.000    5.707  255.900   85.699    0.315    0.138
  681.250    5.412  264.433   85.030    0.329    0.172
  681.500    5.276  271.107   83.680    0.352    0.253
  681.750    5.221  272.385   86.005    0.378    0.298
  682.000    5.234  264.120   88.449    0.377    0.293
  682.250    5.486  260.004   79.821    0.356    0.235
  682.500    5.869  260.764   88.303    0.338    0.185
  682.750    6.349  263.810   82.164    0.336    0.231
  683.000    6.971  264.462   83.303    0.377    0.258
  683.250    7.457  257.032   82.267    0.367    0.166
  683.500    7.787  236.115   76.561    0.282    0.042
  683.750    7.635  220.594   73.595    0.270    0.116
  684.000    7.105  231.929   82.079    0.344    0.250
  684.250    5.157  252.081   92.737    0.414    0.304
  684.500    4.872  268.499   96.243    0.417    0.312
  684.750    4.984  255.155   85.934    0.401    0.256
  685.000    5.503  236.213   76.993    0.305    0.114
  685.250    5.800  228.881   77.635    0.252    0.046
  685.500    5.500  238.563   88.607    0.360    0.232
  685.750    4.700  257.053   89.377    0.419    0.270
  686.000    3.756  268.499   85.723    0.474    0.226
  686.250    3.602  267.696   83.691    0.458    0.180
  686.500    4.089  255.804   83.833    0.395    0.144
  686.750    4.574  240.386   87.587    0.346    0.121
  687.000    5.379  232.648   87.111    0.326    0.094
  687.250    6.750  229.983   82.589    0.286    0.063
  687.500    7.807  228.769   80.679    0.277    0.069
  687.750    7.857  228.187   86.236    0.298    0.099
  688.000    7.631  228.110   89.056    0.310    0.114
  688.250    7.182  231.256   90.262    0.321    0.072
  688.500    6.735  238.755   92.958    0.312    0.105
  688.750    6.314  250.505   93.535    0.310    0.203
  689.000    5.976  271.384   93.496    0.345    0.236
  689.250    5.410  262.605   93.077    0.347    0.264
  689.500    5.054  243.658   91.294    0.365    0.226
  689.750    4.800  310.788   88.512    0.415    0.280
  690.000    4.493  311.031   88.968    0.453    0.313
  690.250    4.284  285.549   93.781    0.472    0.356
  690.500    4.146  266.296   89.754    0.398    0.260
  690.750    4.148  246.729   70.799    0.367    0.222
  691.000    4.674  226.023   56.570    0.309    0.263
  691.250    5.590  201.997   48.190    0.241    0.299
  691.500    6.465  196.642   39.503    0.297    0.276
  691.750    6.665  195.741   34.357    0.325    0.270
  692.000    6.365  195.461   34.748    0.337    0.265
  692.250    5.593  195.808   38.940    0.330    0.261
  692.500    4.834  196.773   41.633    0.313    0.252
  692.750    4.416  198.361   40.968    0.316    0.242
  693.000    4.203  198.913   41.051    0.320    0.235
  693.250    4.082  199.674   43.995    0.321    0.243
  693.500    4.062  199.707   48.434    0.318    0.243
  693.750    4.064  200.160   51.066    0.317    0.230
  694.000    4.135  200.811   47.480    0.321    0.220
  694.250    4.263  200.952   48.868    0.316    0.210
  694.500    4.477  201.304   52.246    0.309    0.203
  694.750    4.667  201.329   53.699    0.310    0.190
  695.000    4.846  201.568   53.406    0.309    0.192
  695.250    5.041  202.129   56.102    0.296    0.181
  695.500    5.495  202.993   59.170    0.288    0.191
  695.750    5.759  203.223   58.574    0.301    0.199
  696.000    6.036  204.402   59.398    0.303    0.188
  696.250    5.995  206.097   62.966    0.296    0.159
  696.500    5.248  207.477   65.100    0.280    0.157
  696.750    4.561  208.447   61.387    0.304    0.167
  697.000    4.284  208.886   44.423    0.378    0.160
  697.250    4.231  209.032   34.240    0.209    0.100
  697.500    4.544  210.105   27.663    0.168    0.062
  697.750    5.484  210.645   23.144    0.151    0.047
  698.000    7.679  211.406   22.724    0.144    0.033
  698.250   12.827  211.966   22.682    0.138    0.026
  698.500   15.086  212.200   24.445    0.135    0.029
  698.750   15.962  211.713   23.845    0.134    0.037
  699.000   16.731  210.814   21.997    0.138    0.043
  699.250   17.308  209.608   20.837    0.133    0.043
  699.500   17.840  209.020   20.730    0.123    0.043
  699.750   18.120  208.640   21.061    0.121    0.048
  700.000   18.163  208.054   21.889    0.128    0.058
