~VERSION INFORMATION
 VERS.                 2.0:   CWLS LOG ASCII STANDARD -VERSION 2.0
 WRAP.                  NO:   ONE LINE PER DEPTH STEP
~WELL INFORMATION BLOCK
#MNEM.UNIT           DATA                    DESCRIPTION OF MNEMONIC
#---------    -------------------            -------------------------------
# Generated from Intellog Unique Number	CX_WELLS/WELL/3044
WELL.         10-06-082-14W4                 : Well_name    - WELL
LOC .         00/10-06-082-14W4/0            : Location     - LOCATION
UWI .         00/10-06-082-14W400            : Uwi          - UNIQUE WELL ID
ENTR.         T                              : Entered      - ENTERED BY
SRVC.         SCHLUMBERGER                   : Scn          - SERVICE COMPANY
STRT.M        135                            : top_depth    - START DEPTH
STOP.M        350                            : bot_depth    - STOP DEPTH
STEP.M        0.25                           : increment    - STEP LENGTH
 NULL. -999.2500:NULL Value
~CURVE INFORMATION BLOCK
#MNEM UNIT       ERCB CURVE CODE    CURVE DESCRIPTION
#-----------   ------------------   ----------------------------------
DEPT.M        00 001 00 00         : DEPTH        - DEPTH
GR  .API      00 310 00 00         : GR           - GAMMA RAY
NPHI.V/V      00 330 00 00         : PHIN         - NEUTRON POROSITY (SANDSTONE)
DPHI.V/V      00 890 00 00         : PHID         - DENSITY POROSITY (SANDSTONE)
ILD .OHMM     00 120 00 00         : RESD         - DEEP RESISTIVITY (OTHER)
~PARAMETER INFORMATION
#MNEM.UNIT           DATA             DESCRIPTION OF MNEMONIC
#---------         -----------     ------------------------------
GL  .M        578                  : gl           - GROUND LEVEL ELEVATION
EREF.M        581.8                : kb           - ELEVATION OF DEPTH REFERENCE
DATM.M        581.8                : datum        - DATUM ELEVATION
TDD .M        352                  : tdd          - TOTAL DEPTH DRILLER
RUN .         ONE                  : Run          - RUN NUMBER
ENG .         BILL                 : Engineer     - RECORDING ENGINEER
WIT .         JIM                  : Witness      - WITNESSED BY
MUD .         GEL                  : Mud_type     - MUD TYPE
MATR.         SANDSTONE            : Logunit      - NEUTRON MATRIX
TMAX.C        29                   : BHT          - MAXIMUM RECORDED TEMPERATURE
BHTD.M        352                  : BHTDEP       - MAXIMUM RECORDED TEMPERATURE
MATR.         1                    : LOGUNIT      - NEUTRON MATRIX
RMT .C        25                   : MDTP         - TEMPERATURE OF MUD
NEUT.         1                    : NEUTRON      - NEUTRON TYPE
RESI.         2.6                  : RESIST       - RESISTIVITY TYPE
RMC .OHMM     1.5                  : RMC          - RESISTIVITY OF MUD CAKE
RMF .OHMM     3                    : RMF          - RESISTIVITY OF MUD FILTRATE
SUFT.C        4                    : SUFT         - SURFACE TEMPERATURE
~A  DEPTH       GR     PHIN     PHID     RESD
# ...
  309.000  104.339    0.467    0.225    5.278
  309.250  106.160    0.476    0.218    4.991
  309.500  105.609    0.475    0.191    4.810
  309.750  104.476    0.468    0.190    4.725
  310.000  105.704    0.459    0.207    4.643
  310.250  107.515    0.463    0.222    4.560
  310.500  111.740    0.471    0.224    4.653
  310.750  114.144    0.474    0.223    4.842
  311.000  116.558    0.464    0.220    5.231
  311.250  114.218    0.450    0.221    5.650
  311.500  100.632    0.434    0.233    6.221
  311.750   94.734    0.421    0.244    7.253
  312.000   84.092    0.412    0.259    9.850
  312.250   76.425    0.405    0.269   12.392
  312.500   77.061    0.401    0.270   14.448
  312.750   78.310    0.408    0.269   17.497
  313.000   75.377    0.432    0.268   21.204
  313.250   69.479    0.428    0.270   24.247
  313.500   60.627    0.400    0.283   27.213
  313.750   48.216    0.393    0.298   31.128
  314.000   41.736    0.369    0.301   36.313
  314.250   39.406    0.356    0.297   40.754
  314.500   40.041    0.355    0.296   45.739
  314.750   42.466    0.384    0.294   52.320
  315.000   40.730    0.393    0.293   57.612
  315.250   39.586    0.381    0.293   58.771
  315.500   42.604    0.366    0.293   53.499
  315.750   45.600    0.371    0.290   42.625
  316.000   49.804    0.376    0.288   35.956
  316.250   52.218    0.378    0.285   33.360
  316.500   53.447    0.384    0.282   31.564
  316.750   55.268    0.390    0.281   30.988
  317.000   58.275    0.393    0.280   28.225
  317.250   61.282    0.396    0.274   24.259
  317.500   63.707    0.399    0.257   21.673
  317.750   65.518    0.372    0.228   19.729
  318.000   67.932    0.357    0.194   18.651
  318.250   74.508    0.358    0.172   17.636
  318.500   81.073    0.386    0.201   15.756
  318.750   87.045    0.392    0.209   14.618
  319.000   91.831    0.395    0.220   14.921
  319.250   91.884    0.402    0.231   15.808
  319.500   96.680    0.404    0.240   17.078
  319.750  102.060    0.411    0.257   19.541
  320.000  105.649    0.417    0.270   21.925
  320.250  105.692    0.421    0.275   26.060
  320.500   98.025    0.422    0.273   31.562
  320.750   86.208    0.422    0.272   36.103
  321.000   79.727    0.419    0.256   42.912
  321.250   80.363    0.398    0.244   42.153
  321.500   85.742    0.386    0.238   38.383
  321.750   90.538    0.381    0.223   34.271
  322.000   90.602    0.376    0.209   29.465
  322.250   90.030    0.371    0.205   25.333
  322.500   88.315    0.362    0.200   23.504
  322.750   87.171    0.357    0.190   22.659
  323.000   86.006    0.363    0.182   22.686
  323.250   81.315    0.367    0.188   23.150
  323.500   77.207    0.363    0.203   24.539
  323.750   75.470    0.358    0.213   26.020
  324.000   76.105    0.348    0.221   27.573
  324.250   77.323    0.344    0.213   29.228
  324.500   82.109    0.349    0.208   27.647
  324.750   89.871    0.355    0.206   26.143
  325.000   94.064    0.361    0.205   25.196
  325.250   92.920    0.363    0.205   23.826
  325.500   85.857    0.363    0.204   22.963
  325.750   84.110    0.362    0.202   22.138
  326.000   84.756    0.361    0.200   21.734
  326.250   87.763    0.359    0.196   20.953
  326.500   90.760    0.355    0.191   20.582
  326.750   96.150    0.357    0.182   20.218
  327.000   87.297    0.358    0.154   19.855
  327.250   83.189    0.358    0.112   18.786
  327.500   83.242    0.358    0.146   18.448
  327.750   84.470    0.359    0.166   18.127
  328.000   86.884    0.369    0.166   18.148
  328.250   91.067    0.382    0.131   18.170
  328.500   97.632    0.396    0.166   17.854
  328.750   85.814    0.405    0.215   17.864
  329.000   71.032    0.380    0.248   18.229
  329.250   62.773    0.359    0.266   20.465
  329.500   65.208    0.335    0.278   22.968
  329.750   67.601    0.342    0.259   27.825
  330.000   73.573    0.350    0.245   31.228
  330.250   77.777    0.360    0.235   33.738
  330.500   74.251    0.368    0.243   38.593
  330.750   65.992    0.374    0.255   41.683
  331.000   65.451    0.379    0.258   43.351
  331.250   68.480    0.385    0.259   41.018
  331.500   70.280    0.393    0.259   39.521
  331.750   73.287    0.399    0.259   37.372
  332.000   77.480    0.404    0.259   33.388
  332.250   79.905    0.404    0.255   30.967
  332.500   81.133    0.402    0.251   28.189
  332.750   81.133    0.397    0.246   26.154
  333.000   87.169    0.388    0.240   24.280
  333.250   87.793    0.386    0.237   23.836
  333.500   89.011    0.386    0.231   22.973
  333.750   90.843    0.391    0.228   21.723
  334.000   91.489    0.397    0.228   21.756
  334.250   91.521    0.402    0.226   21.775
  334.500   90.991    0.386    0.224   21.390
  334.750   91.605    0.383    0.222   21.421
  335.000   92.844    0.386    0.219   21.440
  335.250   93.469    0.393    0.218   21.067
  335.500   94.708    0.395    0.218   21.092
  335.750   93.564    0.395    0.218   20.725
  336.000   91.817    0.391    0.220   21.148
  336.250   89.487    0.386    0.224   21.587
  336.500   87.179    0.388    0.227   22.444
  336.750   85.431    0.392    0.229   23.343
  337.000   84.288    0.383    0.230   24.277
  337.250   84.923    0.375    0.230   25.249
  337.500   86.766    0.375    0.230   25.279
  337.750   87.390    0.382    0.229   24.364
  338.000   88.618    0.385    0.229   21.773
  338.250   89.836    0.390    0.228   20.195
  338.500   92.250    0.393    0.227   18.736
  338.750   94.082    0.395    0.224   18.053
  339.000   94.728    0.401    0.221   16.754
  339.250   95.374    0.401    0.218   16.457
  339.500   95.988    0.395    0.216   16.166
  339.750   96.041    0.387    0.214   16.181
  340.000   96.083    0.383    0.206   16.516
  340.250   95.522    0.379    0.201   16.858
  340.500   94.971    0.376    0.198   17.192
  340.750   95.607    0.372    0.199   18.241
  341.000   94.474    0.369    0.208   18.251
  341.250   92.133    0.366    0.216   19.347
  341.500   85.060    0.365    0.222   20.908
  341.750   84.520    0.365    0.231   22.157
  342.000   86.330    0.367    0.239   23.486
  342.250   89.348    0.370    0.244   24.427
  342.500   91.773    0.371    0.242   23.563
  342.750   93.594    0.371    0.231   22.703
  343.000   95.415    0.371    0.216   22.295
  343.250   97.237    0.371    0.210   21.494
  343.500   94.897    0.369    0.209   21.519
  343.750   90.788    0.368    0.205   21.139
  344.000   90.237    0.365    0.200   21.985
  344.250   90.873    0.364    0.196   23.297
  344.500   91.519    0.365    0.196   28.215
  344.750   90.968    0.365    0.197   36.190
  345.000   86.859    0.366    0.178   46.406
  345.250   83.937    0.365   -0.013   65.445
  345.500   82.200    0.355   -0.013   95.907
  345.750   81.056    0.116   -0.012  160.531
  346.000   79.913    0.102   -0.012  385.886
  346.250   79.373    0.098   -0.015  843.386
  346.500   78.229    0.096   -0.015  983.268
  346.750   77.668    0.095   -0.010  912.264
  347.000   76.524    0.095   -0.006  846.387
  347.250   76.566    0.095   -0.004  785.267
  347.500   77.795    0.095   -0.004  801.543
  347.750   80.230    0.091   -0.008  916.866
  348.000   79.679    0.086   -0.009 1110.410
  348.250   79.129    0.086    0.017 1479.530
  348.500   79.171    0.085    0.027 1568.330
  348.750   79.213    0.083    0.024 1511.540
  349.000   79.859    0.081    0.019 1456.370
  349.250   80.473    0.077    0.020 1404.050
  349.500   81.701    0.076    0.025 1353.200
  349.750   82.930    0.074    0.034 1304.590
  350.000   85.365    0.075    0.036 1281.510
