~VERSION INFORMATION
 VERS.                 2.0:   CWLS LOG ASCII STANDARD -VERSION 2.0
 WRAP.                  NO:   ONE LINE PER DEPTH STEP
~WELL INFORMATION BLOCK
#MNEM.UNIT           DATA                    DESCRIPTION OF MNEMONIC
#---------    -------------------            -------------------------------
# Generated from Intellog Unique Number	CS_69_70/WELL/885
NULL.         -999.25                        : NULL_VALUE
WELL.         CDN HOMSTEAD ET AL HEART       : Well_name    - WELL              
LOC .         00/11-05-070-09W4/0            : Location     - LOCATION          
UWI .         00/11-05-070-09W4/0            : Uwi          - UNIQUE WELL ID    
ENTR.         SP                             : Entered      - ENTERED BY        
SRVC.         SCHLUMBERGER                   : Scn          - SERVICE COMPANY   
STRT.M        320                            : top_depth    - START DEPTH       
STOP.M        545                            : bot_depth    - STOP DEPTH        
STEP.M        0.25                           : increment    - STEP LENGTH       
~CURVE INFORMATION BLOCK
#MNEM UNIT       ERCB CURVE CODE    CURVE DESCRIPTION
#-----------   ------------------   ----------------------------------
DEPT.M        00 001 00 00         : DEPTH        - DEPTH                       
ILD .OHMM     00 120 00 00         : RESD         - DEEP RESISTIVITY (DIL)      
DPHI.V/V      00 890 00 00         : PHID         - DENSITY POROSITY (LIMESTONE)
NPHI.V/V      00 330 00 00         : PHIN         - NEUTRON POROSITY (LIMESTONE)
GR  .API      00 310 00 00         : GR           - GAMMA RAY                   
~PARAMETER INFORMATION       
#MNEM.UNIT           DATA             DESCRIPTION OF MNEMONIC
#---------         -----------     ------------------------------
GL  .M        659.4                : gl           - GROUND LEVEL ELEVATION      
EREF.M        662.75               : kb           - ELEVATION OF DEPTH REFERENCE
DATM.M        659.4                : datum        - DATUM ELEVATION             
TDD .M        570.4                : tdd          - TOTAL DEPTH DRILLER         
RUN .         ONE                  : Run          - RUN NUMBER                  
ENG .         BILL                 : Engineer     - RECORDING ENGINEER          
WIT .         JIM                  : Witness      - WITNESSED BY                
MUD .         GEL                  : Mud_type     - MUD TYPE                    
MATR.         LIMESTONE            : Logunit      - NEUTRON MATRIX              
TMAX.C        25                   : BHT          - MAXIMUM RECORDED TEMPERATURE
BHTD.M        570.4                : BHTDEP       - MAXIMUM RECORDED TEMPERATURE
MATR.         1                    : LOGUNIT      - NEUTRON MATRIX              
RMT .C        25                   : MDTP         - TEMPERATURE OF MUD          
NEUT.         1                    : NEUTRON      - NEUTRON TYPE                
RESI.         0                    : RESIST       - RESISTIVITY TYPE            
RMC .OHMM     0.25                 : RMC          - RESISTIVITY OF MUD CAKE     
RMF .OHMM     0.25                 : RMF          - RESISTIVITY OF MUD FILTRATE 
SUFT.C        15                   : SUFT         - SURFACE TEMPERATURE         
~A  DEPTH     RESD     PHID     PHIN       GR
# ...
  407.000    7.695    0.324    0.466   49.622
  407.250    7.695    0.327    0.467   48.644
  407.500    7.710    0.337    0.469   48.215
  407.750    7.696    0.349    0.463   47.779
  408.000    7.711    0.342    0.457   47.898
  408.250    7.740    0.329    0.463   48.315
  408.500    7.755    0.319    0.456   48.730
  408.750    7.741    0.316    0.456   49.387
  409.000    7.756    0.312    0.457   50.049
  409.250    7.756    0.312    0.453   50.350
  409.500    7.742    0.315    0.462   51.673
  409.750    7.757    0.319    0.469   52.638
  410.000    7.743    0.319    0.473   53.419
  410.250    7.758    0.323    0.476   53.838
  410.500    7.788    0.316    0.478   53.711
  410.750    7.773    0.326    0.478   53.157
  411.000    7.789    0.329    0.478   52.787
  411.250    7.803    0.314    0.476   52.719
  411.500    7.789    0.303    0.466   53.017
  411.750    7.790    0.313    0.457   53.617
  412.000    7.819    0.326    0.453   53.671
  412.250    7.864    0.316    0.484   52.876
  412.500    7.879    0.308    0.482   52.142
  412.750    7.879    0.305    0.473   52.257
  413.000    7.924    0.323    0.474   53.522
  413.250    7.924    0.332    0.488   54.608
  413.500    7.925    0.323    0.507   55.329
  413.750    7.926    0.317    0.485   54.776
  414.000    7.926    0.315    0.475   51.678
  414.250    7.926    0.317    0.473   51.792
  414.500    7.912    0.320    0.471   53.119
  414.750    7.854    0.332    0.462   53.719
  415.000    7.869    0.335    0.450   52.317
  415.250    7.840    0.328    0.437   50.492
  415.500    7.826    0.322    0.433   49.636
  415.750    7.797    0.320    0.453   48.901
  416.000    7.769    0.315    0.471   48.653
  416.250    7.740    0.318    0.485   50.101
  416.500    7.726    0.317    0.477   51.792
  416.750    7.727    0.330    0.466   51.846
  417.000    7.742    0.325    0.461   50.505
  417.250    7.771    0.314    0.455   49.953
  417.500    7.786    0.306    0.450   51.825
  417.750    7.786    0.301    0.455   52.850
  418.000    8.113    0.299    0.448   53.328
  418.250    8.312    0.305    0.449   52.897
  418.500    8.628    0.309    0.462   51.374
  418.750    9.942    0.309    0.462   50.215
  419.000   11.285    0.304    0.461   50.209
  419.250   13.496    0.297    0.458   50.989
  419.500   16.292    0.246    0.423   51.105
  419.750   17.951    0.169    0.252   46.309
  420.000   17.654    0.066    0.211   41.391
  420.250   16.144    0.108    0.307   39.930
  420.500   13.883    0.239    0.363   41.014
  420.750   11.675    0.283    0.400   44.039
  421.000    9.763    0.299    0.430   47.548
  421.250    8.210    0.306    0.458   50.755
  421.500    7.328    0.294    0.472   52.992
  421.750    7.140    0.284    0.469   53.228
  422.000    7.088    0.300    0.466   52.069
  422.250    7.088    0.311    0.464   50.666
  422.500    7.088    0.315    0.456   50.539
  422.750    7.115    0.315    0.450   51.684
  423.000    7.155    0.306    0.450   53.193
  423.250    7.223    0.312    0.459   55.066
  423.500    7.237    0.303    0.457   56.453
  423.750    7.224    0.289    0.455   57.356
  424.000    7.471    0.296    0.451   58.078
  424.250    7.527    0.300    0.442   58.981
  424.500    7.556    0.301    0.455   59.581
  424.750    7.584    0.297    0.467   59.937
  425.000    7.599    0.303    0.462   59.688
  425.250    7.685    0.296    0.456   59.803
  425.500    7.801    0.300    0.454   61.372
  425.750    7.933    0.301    0.465   61.366
  426.000    7.948    0.301    0.476   58.570
  426.250    7.949    0.301    0.466   55.652
  426.500    7.861    0.300    0.457   53.949
  426.750    7.745    0.298    0.449   57.216
  427.000    7.532    0.297    0.441   60.969
  427.250    7.435    0.295    0.440   61.932
  427.500    7.339    0.282    0.447   62.106
  427.750    7.271    0.279    0.452   61.978
  428.000    7.245    0.289    0.467   62.639
  428.250    7.205    0.286    0.478   65.058
  428.500    7.178    0.279    0.457   69.354
  428.750    7.007    0.279    0.441   69.409
  429.000    6.602    0.274    0.433   71.099
  429.250    5.970    0.249    0.427   74.004
  429.500    5.369    0.204    0.435   78.725
  429.750    5.002    0.194    0.458   82.720
  430.000    4.757    0.191    0.473   83.623
  430.250    4.661    0.207    0.481   83.130
  430.500    4.600    0.203    0.494   83.307
  430.750    4.507    0.199    0.490   85.663
  431.000    4.319    0.202    0.475   88.325
  431.250    3.935    0.213    0.465   88.500
  431.500    3.578    0.216    0.461   85.826
  431.750    3.182    0.233    0.465   83.637
  432.000    2.798    0.234    0.488   86.600
  432.250    2.516    0.242    0.508   89.564
  432.500    2.366    0.224    0.529   88.588
  432.750    2.332    0.208    0.544   88.763
  433.000    2.371    0.192    0.532   90.272
  433.250    2.429    0.179    0.517   90.569
  433.500    2.531    0.171    0.507   91.168
  433.750    2.687    0.184    0.506   93.465
  434.000    2.906    0.204    0.517   90.852
  434.250    3.190    0.221    0.525   85.388
  434.500    3.607    0.228    0.500   82.532
  434.750    3.990    0.221    0.484   84.222
  435.000    4.315    0.220    0.478   85.732
  435.250    4.554    0.218    0.494   86.574
  435.500    4.754    0.206    0.505   84.263
  435.750    4.898    0.221    0.508   81.650
  436.000    4.991    0.242    0.512   80.309
  436.250    4.936    0.250    0.509   80.242
  436.500    4.564    0.245    0.506   79.569
  436.750    4.489    0.241    0.533   75.924
  437.000    4.608    0.250    0.549   75.069
  437.250    4.765    0.261    0.560   71.181
  437.500    4.983    0.284    0.539   66.749
  437.750    5.077    0.290    0.517   64.499
  438.000    5.270    0.286    0.499   63.098
  438.250    5.340    0.287    0.481   62.727
  438.500    5.441    0.288    0.473   63.751
  438.750    5.492    0.292    0.467   65.260
  439.000    5.637    0.291    0.477   67.374
  439.250    5.659    0.303    0.484   69.608
  439.500    5.617    0.321    0.479   69.969
  439.750    5.534    0.267    0.480   70.265
  440.000    5.453    0.257    0.481   69.410
  440.250    5.362    0.261    0.479   64.432
  440.500    5.313    0.276    0.472   61.940
  440.750    5.293    0.288    0.461   60.236
  441.000    5.274    0.288    0.454   58.834
  441.250    5.294    0.282    0.448   59.555
  441.500    5.304    0.290    0.445   60.458
  441.750    5.344    0.281    0.459   60.026
  442.000    5.375    0.297    0.476   58.504
  442.250    5.415    0.307    0.479   60.317
  442.500    5.446    0.310    0.447   63.280
  442.750    5.497    0.302    0.450   67.033
  443.000    5.570    0.291    0.462   70.058
  443.250    5.664    0.266    0.472   71.203
  443.500    5.760    0.240    0.465   71.559
  443.750    6.069    0.226    0.452   70.462
  444.000    6.650    0.216    0.439   66.028
  444.250    7.923    0.198    0.381   61.413
  444.500    9.708    0.139    0.265   57.770
  444.750   14.520    0.046    0.161   53.944
  445.000   29.811    0.015    0.161   50.481
  445.250   37.914   -0.000    0.174   48.777
  445.500   37.634    0.007    0.196   52.954
  445.750   25.735    0.010    0.212   60.344
  446.000   18.130    0.028    0.239   68.703
  446.250    8.493    0.065    0.269   72.698
  446.500    7.129    0.098    0.326   75.662
  446.750    6.257    0.138    0.399   76.990
  447.000    5.776    0.215    0.457   75.285
  447.250    5.472    0.243    0.458   72.793
  447.500    5.272    0.255    0.450   69.389
  447.750    5.175    0.271    0.454   67.443
  448.000    5.128    0.249    0.455   69.498
  448.250    5.128    0.221    0.444   74.221
  448.500    5.147    0.200    0.429   78.276
  448.750    5.148    0.186    0.423   80.331
  449.000    5.167    0.177    0.449   80.506
  449.250    5.187    0.181    0.455   80.923
  449.500    5.216    0.191    0.452   81.584
  449.750    5.226    0.200    0.452   83.881
  450.000    5.217    0.195    0.461   85.996
  450.250    5.198    0.201    0.466   84.777
