~VERSION INFORMATION
 VERS.                 2.0:   CWLS LOG ASCII STANDARD -VERSION 2.0
 WRAP.                  NO:   ONE LINE PER DEPTH STEP
~WELL INFORMATION BLOCK
#MNEM.UNIT           DATA                    DESCRIPTION OF MNEMONIC
#---------    -------------------            -------------------------------
# Generated from Intellog Unique Number	CW_70_72/WELL/1046
NULL.         -999.25                        : NULL_VALUE
WELL.         SUNDANCE ET AL SMITH 10-33-071 : Well_name    - WELL              
LOC .         10-33-071-23W4                 : Location     - LOCATION          
UWI .         00/10-33-071-23W4/0            : Uwi          - UNIQUE WELL ID    
ENTR.         JAYE                           : Entered      - ENTERED BY        
SRVC.         SCHLUMBERGER                   : Scn          - SERVICE COMPANY   
DATE.         3 MAR 76                       : Date         - LOG DATE          
STRT.M        432.816                        : top_depth    - START DEPTH       
STOP.M        646.066                        : bot_depth    - STOP DEPTH        
STEP.M        0.25                           : increment    - STEP LENGTH       
~CURVE INFORMATION BLOCK
#MNEM UNIT       ERCB CURVE CODE    CURVE DESCRIPTION
#-----------   ------------------   ----------------------------------
DEPT.M        00 001 00 00         : DEPTH        - DEPTH                       
DPHI.V/V      00 890 00 00         : PHID         - DENSITY POROSITY (SANDSTONE)
NPHI.V/V      00 330 00 00         : PHIN         - NEUTRON POROSITY (SANDSTONE)
GR  .API      00 310 00 00         : GR           - GAMMA RAY                   
CALI.MM       00 280 01 00         : CAL          - CALIPER                     
ILD .OHMM     00 120 00 00         : RESD         - DEEP RESISTIVITY (DIL)      
~PARAMETER INFORMATION       
#MNEM.UNIT           DATA             DESCRIPTION OF MNEMONIC
#---------         -----------     ------------------------------
GL  .M        679.399              : gl           - GROUND LEVEL ELEVATION      
EREF.M        683.057              : kb           - ELEVATION OF DEPTH REFERENCE
DATM.M        679.399              : datum        - DATUM ELEVATION             
TDD .M        662.94               : tdd          - TOTAL DEPTH DRILLER         
RUN .         ONE                  : Run          - RUN NUMBER                  
ENG .         WILSHIRE             : Engineer     - RECORDING ENGINEER          
WIT .         ROBINSON             : Witness      - WITNESSED BY                
BASE.         EDM                  : Branch       - HOME BASE OF LOGGING UNIT   
MATR.         SANDSTONE            : Logunit      - NEUTRON MATRIX              
TMAX.C        -17.7778             : BHT          - MAXIMUM RECORDED TEMPERATURE
BHTD.M        662.635              : BHTDEP       - MAXIMUM RECORDED TEMPERATURE
RMT .C        4.44444              : MDTP         - TEMPERATURE OF MUD          
MUDD.KG/M     0                    : MWT          - MUD DENSITY                 
NEUT.         1                    : NEUTRON      - NEUTRON TYPE                
RESI.         0                    : RESIST       - RESISTIVITY TYPE            
RM  .OHMM     1.93                 : RM           - RESISTIVITY OF MUD          
RMC .OHMM     0                    : RMC          - RESISTIVITY OF MUD CAKE     
RMF .OHMM     0                    : RMF          - RESISTIVITY OF MUD FILTRATE 
SUFT.C        -17.7778             : SUFT         - SURFACE TEMPERATURE         
~A  DEPTH     PHID     PHIN       GR      CAL     RESD
  432.816    0.215    0.500  111.925  204.024    2.872
  433.066    0.207    0.500  109.755  202.862    2.867
  433.316    0.227    0.503  106.720  202.744    2.873
  433.566    0.215    0.518  102.696  203.466    2.847
  433.816    0.208    0.541   98.857  204.186    2.784
  434.066    0.227    0.528   95.945  203.232    2.703
  434.316    0.238    0.509   93.219  194.222    2.628
  434.566    0.233    0.494   93.583  189.289    2.547
  434.816    0.220    0.529   96.048  192.103    2.500
  435.066    0.237    0.567  101.294  197.324    2.491
  435.316    0.271    0.596  103.266  204.325    2.568
  435.566    0.296    0.580  102.269  211.849    2.799
  435.816    0.273    0.525  100.717  208.698    3.127
  436.066    0.236    0.439   98.671  182.627    3.474
  436.316    0.248    0.423   95.512  169.009    4.302
  436.566    0.239    0.411   91.796  167.743    4.806
  436.816    0.227    0.419   89.441  168.986    5.143
  437.066    0.219    0.435   86.777  169.497    5.401
  437.316    0.176    0.431   83.804  170.324    5.577
  437.566    0.111    0.410   80.274  170.730    5.589
  437.816    0.083    0.385   77.424  171.765    5.497
  438.066    0.076    0.366   77.231  173.637    5.178
  438.316    0.157    0.371   83.158  174.776    4.752
  438.566    0.264    0.431   76.414  174.764    4.418
  438.816    0.305    0.419   70.041  169.520    4.162
  439.066    0.306    0.394   69.725  165.007    3.884
  439.316    0.285    0.400   74.477  166.669    3.707
  439.566    0.281    0.415   81.578  168.124    3.565
  439.816    0.297    0.413   92.634  170.206    3.467
  440.066    0.322    0.419   98.127  171.971    3.340
  440.316    0.355    0.474   99.912  173.322    3.267
  440.566    0.427    0.502  102.192  180.217    3.231
  440.816    0.468    0.533  103.792  191.194    3.232
  441.066    0.401    0.535  105.145  183.961    3.251
  441.316    0.399    0.547  106.621  203.625    3.319
  441.566    0.356    0.545  105.502  233.125    3.460
  441.816    0.322    0.485   96.904  200.461    3.865
  442.066    0.165    0.433   91.025  177.006    4.441
  442.316    0.174    0.392   90.339  169.773    4.717
  442.566    0.224    0.372   93.361  170.075    4.807
  442.816    0.223    0.376  100.523  169.960    4.763
  443.066    0.220    0.389  108.798  169.633    4.667
  443.316    0.231    0.396  118.494  169.621    4.573
  443.566    0.253    0.406  114.964  170.134    4.439
  443.816    0.278    0.427  109.704  170.227    4.317
  444.066    0.335    0.462  108.707  171.889    4.246
  444.316    0.331    0.500  110.864  175.540    4.239
  444.566    0.324    0.547  110.054  184.948    4.353
  444.816    0.320    0.539  107.080  200.424    4.503
  445.066    0.289    0.511  105.033  191.413    4.659
  445.316    0.268    0.447  105.644  187.423    4.669
  445.566    0.237    0.405  106.750  182.389    4.592
  445.816    0.235    0.375  107.362  179.656    4.440
  446.066    0.308    0.398  106.798  180.480    4.254
  446.316    0.302    0.459  104.752  180.469    4.023
  446.566    0.292    0.502  106.104  180.981    3.890
  446.816    0.279    0.519  102.884  186.725    4.002
  447.066    0.219    0.468   98.427  186.296    4.421
  447.316    0.131    0.434   99.223  174.770    4.748
  447.566    0.142    0.385  108.919  172.876    4.949
  447.816    0.188    0.406  109.840  170.141    5.091
  448.066    0.182    0.427  103.776  169.085    5.083
  448.316    0.194    0.437   96.415  173.782    4.870
  448.566    0.204    0.436   94.121  173.457    4.754
  448.816    0.224    0.416   98.687  171.038    4.667
  449.066    0.241    0.422  103.933  177.932    4.581
  449.316    0.236    0.424  105.347  180.538    4.617
  449.566    0.209    0.424  105.032  173.829    4.759
  449.816    0.224    0.405   97.237  179.782    4.941
  450.066    0.195    0.386   89.444  175.164    5.160
  450.316    0.227    0.382   79.796  178.711    5.318
  450.566    0.254    0.361   70.704  175.351    5.533
  450.816    0.261    0.355   66.247  172.722    5.954
  451.066    0.261    0.364   66.240  170.721    6.288
  451.316    0.235    0.368   65.738  168.513    6.716
  451.566    0.246    0.365   62.950  173.420    7.066
  451.816    0.261    0.363   60.657  170.373    7.393
  452.066    0.233    0.354   61.329  167.327    7.591
  452.316    0.218    0.346   64.536  166.058    7.607
  452.566    0.214    0.344   69.536  166.466    7.153
  452.816    0.226    0.348   76.327  167.289    6.789
  453.066    0.245    0.358   80.893  168.011    6.383
  453.316    0.226    0.378   76.931  168.419    5.968
  453.566    0.237    0.372   76.306  169.558    5.580
  453.816    0.242    0.354   80.934  168.604    5.277
  454.066    0.220    0.341   91.990  167.233    5.122
  454.316    0.207    0.351  100.203  167.953    5.009
  454.566    0.186    0.361   99.454  170.555    4.927
  454.816    0.157    0.362   91.969  171.384    4.956
  455.066    0.132    0.365   87.575  172.103    5.098
  455.316    0.119    0.373   85.590  172.615    5.215
  455.566    0.181    0.393   85.335  172.604    5.187
  455.816    0.227    0.437   83.412  170.708    4.998
  456.066    0.268    0.443   80.995  168.706    4.708
  456.316    0.289    0.438   78.578  167.124    4.460
  456.566    0.305    0.424   76.903  166.486    4.186
  456.816    0.299    0.413   78.749  166.057    3.995
  457.066    0.301    0.417   80.906  166.356    3.813
  457.316    0.297    0.427   83.927  166.555    3.750
  457.566    0.280    0.433   90.162  166.648    3.696
  457.816    0.309    0.423   99.734  167.054    3.587
  458.066    0.328    0.425  105.661  167.776    3.450
  458.316    0.340    0.478  112.390  168.393    3.324
  458.566    0.325    0.539  115.289  175.288    3.155
  458.816    0.293    0.568  116.209  211.905    2.977
  459.066    0.287    0.601  118.797  203.311    2.852
  459.316    0.307    0.558  117.987  213.765    2.707
  459.566    0.328    0.536  117.053  242.220    2.594
  459.816    0.352    0.520  119.024  233.626    2.532
  460.066    0.339    0.520  121.366  223.777    2.518
  460.316    0.364    0.524  119.999  226.904    2.586
  460.566    0.376    0.521  124.751  238.510    2.767
  460.816    0.349    0.506  128.019  246.556    2.961
  461.066    0.289    0.488  126.467  238.068    3.339
  461.316    0.251    0.425  120.589  188.659    3.723
  461.566    0.205    0.400  113.660  178.914    4.013
  461.816    0.253    0.432  106.793  181.100    4.343
  462.066    0.264    0.474  100.791  184.227    4.535
  462.316    0.278    0.479   89.598  181.496    4.536
  462.566    0.268    0.471   81.557  175.728    4.445
  462.816    0.279    0.422   71.846  172.786    4.227
  463.066    0.300    0.398   73.631  170.993    3.997
  463.316    0.313    0.393   80.114  170.355    3.800
  463.566    0.298    0.403   84.680  170.134    3.675
  463.816    0.281    0.417   91.471  170.226    3.608
  464.066    0.230    0.446   98.511  170.215    3.684
  464.316    0.215    0.458  105.735  170.829    3.804
  464.566    0.266    0.457  107.520  171.552    3.848
  464.816    0.284    0.451  103.805  172.376    3.944
  465.066    0.258    0.445   97.803  173.097    4.103
  465.316    0.264    0.433   94.211  173.400    4.277
  465.566    0.247    0.417   93.216  171.505    4.400
  465.816    0.238    0.398   96.916  170.866    4.475
  466.066    0.194    0.393  106.428  173.991    4.536
  466.316    0.216    0.438  101.662  179.005    4.580
  466.566    0.237    0.443   97.019  188.308    4.624
  466.816    0.207    0.453   93.243  178.248    4.634
  467.066    0.226    0.441   90.084  169.656    4.609
  467.316    0.210    0.438   91.003  167.549    4.490
  467.566    0.234    0.457   91.615  169.109    4.343
  467.816    0.253    0.474   89.383  169.830    4.161
  468.066    0.304    0.516   86.780  175.155    4.001
  468.316    0.319    0.485   85.845  172.213    3.755
  468.566    0.289    0.447   89.795  166.548    3.672
  468.816    0.280    0.436   98.193  166.850    3.564
  469.066    0.275    0.448  103.254  167.048    3.565
