~VERSION INFORMATION
 VERS.                 2.0:   CWLS LOG ASCII STANDARD -VERSION 2.0
 WRAP.                  NO:   ONE LINE PER DEPTH STEP
~WELL INFORMATION BLOCK
#MNEM.UNIT           DATA                    DESCRIPTION OF MNEMONIC
#---------    -------------------            -------------------------------
# Generated from Intellog Unique Number	CS_71_72/WELL/875
WELL.         PEX PHILLIPS AEC GRIST         : Well_name    - WELL
LOC .         00/10-31-071-07W4/0            : Location     - LOCATION
UWI .         00/10-31-071-07W4/0            : Uwi          - UNIQUE WELL ID
ENTR.         SP                             : Entered      - ENTERED BY
SRVC.         SCHLUMBERGER                   : Scn          - SERVICE COMPANY
STRT.M        300                            : top_depth    - START DEPTH
STOP.M        520                            : bot_depth    - STOP DEPTH
STEP.M        0.25                           : increment    - STEP LENGTH
 NULL. -999.2500:NULL Value
~CURVE INFORMATION BLOCK
#MNEM UNIT       ERCB CURVE CODE    CURVE DESCRIPTION
#-----------   ------------------   ----------------------------------
DEPT.M        00 001 00 00         : DEPTH        - DEPTH
ILD .OHMM     00 120 00 00         : RESD         - DEEP RESISTIVITY (DIL)
DPHI.V/V      00 890 00 00         : PHID         - DENSITY POROSITY (LIMESTONE)
NPHI.V/V      00 330 00 00         : PHIN         - NEUTRON POROSITY (LIMESTONE)
GR  .API      00 310 00 00         : GR           - GAMMA RAY
~PARAMETER INFORMATION
#MNEM.UNIT           DATA             DESCRIPTION OF MNEMONIC
#---------         -----------     ------------------------------
GL  .M        660.2                : gl           - GROUND LEVEL ELEVATION
EREF.M        664                  : kb           - ELEVATION OF DEPTH REFERENCE
DATM.M        660.2                : datum        - DATUM ELEVATION
TDD .M        532                  : tdd          - TOTAL DEPTH DRILLER
RUN .         ONE                  : Run          - RUN NUMBER
ENG .         BILL                 : Engineer     - RECORDING ENGINEER
WIT .         JIM                  : Witness      - WITNESSED BY
MUD .         GEL                  : Mud_type     - MUD TYPE
MATR.         LIMESTONE            : Logunit      - NEUTRON MATRIX
TMAX.C        22                   : BHT          - MAXIMUM RECORDED TEMPERATURE
BHTD.M        532                  : BHTDEP       - MAXIMUM RECORDED TEMPERATURE
MATR.         1                    : LOGUNIT      - NEUTRON MATRIX
RMT .C        25                   : MDTP         - TEMPERATURE OF MUD
NEUT.         1                    : NEUTRON      - NEUTRON TYPE
RESI.         0                    : RESIST       - RESISTIVITY TYPE
RMC .OHMM     0.25                 : RMC          - RESISTIVITY OF MUD CAKE
RMF .OHMM     0.25                 : RMF          - RESISTIVITY OF MUD FILTRATE
SUFT.C        15                   : SUFT         - SURFACE TEMPERATURE
~A  DEPTH     RESD     PHID     PHIN       GR
# ...
  474.000   11.653    0.269    0.408   68.718
  474.250    9.604    0.258    0.410   73.257
  474.500    8.485    0.244    0.394   77.497
  474.750    7.874    0.232    0.383   80.822
  475.000    7.688    0.227    0.370   82.812
  475.250    7.649    0.234    0.365   84.076
  475.500    7.785    0.223    0.373   85.642
  475.750    7.982    0.197    0.380   87.754
  476.000    8.294    0.178    0.364   89.138
  476.250    8.602    0.173    0.350   89.733
  476.500    8.870    0.193    0.371   85.044
  476.750    9.148    0.213    0.397   74.768
  477.000    9.274    0.240    0.381   66.498
  477.250    9.038    0.252    0.362   59.502
  477.500    8.230    0.228    0.350   57.849
  477.750    7.946    0.215    0.385   74.292
  478.000    9.020    0.265    0.426   88.003
  478.250   11.230    0.296    0.469   83.982
  478.500   14.520    0.299    0.483   65.266
  478.750   17.409    0.305    0.374   52.623
  479.000   19.432    0.318    0.364   44.291
  479.250   20.114    0.313    0.355   49.681
  479.500   16.922    0.270    0.340   58.350
  479.750   10.834    0.219    0.327   64.715
  480.000    9.590    0.201    0.312   71.564
  480.250   11.263    0.189    0.306   78.109
  480.500   14.783    0.217    0.348   78.340
  480.750   21.120    0.273    0.386   69.764
  481.000   34.825    0.307    0.408   51.353
  481.250   43.515    0.318    0.366   38.588
  481.500   61.353    0.314    0.354   45.012
  481.750   81.446    0.322    0.372   49.128
  482.000   93.155    0.329    0.389   48.811
  482.250  101.077    0.318    0.395   44.305
  482.500  106.226    0.308    0.397   50.362
  482.750  107.894    0.301    0.394   54.359
  483.000  100.877    0.305    0.385   57.928
  483.250   82.199    0.306    0.377   59.554
  483.500   64.016    0.302    0.367   57.173
  483.750   49.294    0.303    0.359   55.642
  484.000   31.977    0.289    0.359   56.965
  484.250   22.074    0.269    0.361   58.774
  484.500   18.889    0.259    0.337   61.859
  484.750   17.794    0.246    0.324   65.367
  485.000   17.115    0.231    0.367   66.266
  485.250   18.054    0.235    0.382   66.979
  485.500   19.477    0.243    0.385   68.422
  485.750   23.672    0.250    0.394   68.413
  486.000   27.287    0.273    0.403   58.926
  486.250   27.914    0.303    0.406   54.846
  486.500   29.777    0.308    0.395   56.714
  486.750   31.056    0.303    0.387   58.824
  487.000   26.826    0.299    0.404   59.118
  487.250   20.736    0.291    0.421   59.713
  487.500   17.348    0.280    0.396   64.800
  487.750   15.444    0.268    0.376   68.978
  488.000   13.697    0.273    0.383   71.454
  488.250   11.655    0.268    0.390   74.780
  488.500    9.807    0.255    0.398   79.200
  488.750    8.746    0.239    0.405   83.135
  489.000    7.671    0.225    0.406   87.007
  489.250    6.959    0.216    0.406   90.395
  489.500    6.469    0.218    0.390   97.730
  489.750    6.560    0.214    0.380  107.736
  490.000    6.790    0.199    0.383  115.192
  490.250    6.936    0.190    0.380  117.121
  490.500    7.126    0.186    0.381  114.498
  490.750    7.335    0.193    0.390   98.516
  491.000    7.521    0.209    0.393   83.989
  491.250    7.612    0.227    0.358   83.005
  491.500    7.644    0.204    0.359   90.218
  491.750    7.634    0.164    0.370   94.882
  492.000    7.567    0.181    0.379   95.415
  492.250    7.615    0.202    0.368   91.334
  492.500    7.912    0.218    0.358   83.303
  492.750    8.205    0.227    0.351   73.941
  493.000    8.623    0.232    0.343   65.670
  493.250    8.959    0.236    0.357   61.588
  493.500    9.414    0.243    0.370   59.692
  493.750    9.856    0.252    0.379   61.744
  494.000   10.377    0.260    0.376   62.886
  494.250   10.925    0.252    0.367   61.355
  494.500   11.677    0.245    0.361   59.033
  494.750   12.503    0.239    0.357   57.564
  495.000   13.618    0.237    0.368   57.064
  495.250   14.720    0.238    0.378   56.262
  495.500   15.913    0.255    0.386   53.699
  495.750   16.847    0.271    0.385   47.310
  496.000   17.672    0.274    0.377   45.112
  496.250   18.189    0.265    0.368   48.134
  496.500   18.268    0.259    0.374   49.881
  496.750   16.920    0.276    0.371   48.655
  497.000   15.820    0.294    0.356   46.394
  497.250   14.875    0.292    0.344   45.955
  497.500   13.829    0.283    0.344   45.033
  497.750   12.428    0.278    0.358   43.259
  498.000   10.940    0.294    0.354   41.243
  498.250    9.595    0.286    0.331   46.817
  498.500    8.786    0.209    0.317   59.312
  498.750    8.092    0.180    0.333   68.347
  499.000    7.523    0.183    0.364   74.892
  499.250    7.141    0.200    0.386   81.498
  499.500    6.985    0.187    0.382   80.633
  499.750    7.056    0.175    0.346   84.567
  500.000    7.249    0.167    0.351   88.564
  500.250    7.462    0.162    0.380   90.493
  500.500    7.710    0.152    0.407   91.328
  500.750    7.816    0.145    0.404   90.043
  501.000    7.879    0.141    0.393   87.964
  501.250    7.664    0.120    0.383   89.532
  501.500    7.275    0.106    0.376   88.122
  501.750    6.997    0.138    0.392   89.809
  502.000    6.794    0.161    0.440   95.018
  502.250    6.746    0.172    0.465   99.438
  502.500    6.763    0.185    0.452  102.097
  502.750    6.912    0.194    0.431  101.842
  503.000    6.966    0.183    0.418   99.218
  503.250    7.048    0.180    0.429   91.977
  503.500    7.160    0.193    0.439   83.343
  503.750    7.206    0.134    0.425   78.532
  504.000    7.209    0.088    0.373   73.784
  504.250    7.146    0.111    0.342   77.229
  504.500    7.178    0.126    0.370   79.890
  504.750    7.222    0.139    0.379   82.428
  505.000    7.213    0.150    0.383   81.504
  505.250    6.950    0.185    0.391   76.998
  505.500    6.672    0.212    0.400   73.159
  505.750    6.441    0.229    0.411   73.085
  506.000    6.266    0.239    0.431   77.322
  506.250    6.234    0.198    0.402   84.597
  506.500    6.431    0.178    0.384   92.114
  506.750    6.495    0.172    0.388   93.799
  507.000    6.571    0.164    0.391   93.909
  507.250    6.662    0.155    0.392   89.221
  507.500    6.629    0.146    0.367   83.804
  507.750    6.387    0.158    0.334   81.544
  508.000    6.120    0.171    0.344   79.649
  508.250    5.909    0.181    0.358   76.780
  508.500    5.824    0.184    0.354   81.321
  508.750    5.686    0.181    0.352   84.225
  509.000    5.448    0.192    0.370   86.337
  509.250    5.230    0.216    0.387   60.214
  509.500    5.106    0.238    0.357   53.339
  509.750    5.227    0.253    0.332   56.362
  510.000    5.502    0.188    0.318   66.853
  510.250    5.948    0.150    0.321   81.293
  510.500    6.406    0.132    0.335   91.906
  510.750    6.718    0.139    0.351   96.266
  511.000    6.928    0.145    0.349   96.191
  511.250    7.065    0.152    0.345   95.266
  511.500    7.109    0.161    0.350   93.917
  511.750    7.113    0.150    0.357   92.812
  512.000    7.103    0.141    0.364   92.618
  512.250    7.122    0.142    0.368   92.422
  512.500    7.006    0.155    0.367   90.769
  512.750    7.010    0.164    0.356   88.207
  513.000    6.845    0.169    0.341   84.429
  513.250    6.734    0.169    0.328   82.474
  513.500    6.612    0.175    0.323   82.582
  513.750    6.507    0.182    0.322   81.172
  514.000    6.508    0.188    0.322   80.794
  514.250    6.465    0.187    0.321   81.511
  514.500    6.479    0.182    0.320   80.829
  514.750    6.645    0.191    0.318   80.392
  515.000    6.826    0.177    0.318   86.451
  515.250    7.133    0.157    0.331   93.602
  515.500    7.799    0.116    0.370  100.939
  515.750    8.271    0.115    0.394  104.144
  516.000    9.164    0.109    0.413   98.666
  516.250    9.793    0.081    0.429   55.297
  516.500   10.625   -0.009    0.397   48.604
  516.750   11.551   -0.013    0.206   41.669
  517.000   13.288   -0.011    0.190   35.158
  517.250   15.723   -0.009    0.176   35.327
