~VERSION INFORMATION
 VERS.                 2.0:   CWLS LOG ASCII STANDARD -VERSION 2.0
 WRAP.                  NO:   ONE LINE PER DEPTH STEP
~WELL INFORMATION BLOCK
#MNEM.UNIT           DATA                    DESCRIPTION OF MNEMONIC
#---------    -------------------            -------------------------------
# Generated from Intellog Unique Number	CW_79_81/WELL/875
WELL.         PARAMOUNT ET AL HORIZON        : Well_name    - WELL
LOC .         00/10-29-079-19W4/0            : Location     - LOCATION
UWI .         00/10-29-079-19W4/0            : Uwi          - UNIQUE WELL ID
ENTR.         MAX                            : Entered      - ENTERED BY
SRVC.         SCHLUMBERGER                   : Scn          - SERVICE COMPANY
STRT.M        198.12                         : top_depth    - START DEPTH
STOP.M        381.62                         : bot_depth    - STOP DEPTH
STEP.M        0.25                           : increment    - STEP LENGTH
 NULL. -999.2500:NULL Value
~CURVE INFORMATION BLOCK
#MNEM UNIT       ERCB CURVE CODE    CURVE DESCRIPTION
#-----------   ------------------   ----------------------------------
DEPT.M        00 001 00 00         : DEPTH        - DEPTH
ILD .OHMM     00 120 00 00         : RESD         - DEEP RESISTIVITY (DIL)
NPHI.V/V      00 330 00 00         : PHIN         - NEUTRON POROSITY (SANDSTONE)
DPHI.V/V      00 890 00 00         : PHID         - DENSITY POROSITY (SANDSTONE)
CALI.MM       00 280 01 00         : CAL          - CALIPER
GR  .API      00 310 00 00         : GR           - GAMMA RAY
~PARAMETER INFORMATION
#MNEM.UNIT           DATA             DESCRIPTION OF MNEMONIC
#---------         -----------     ------------------------------
GL  .M        568.604              : gl           - GROUND LEVEL ELEVATION
EREF.M        571.652              : kb           - ELEVATION OF DEPTH REFERENCE
DATM.M        568.604              : datum        - DATUM ELEVATION
TDD .M        381.61               : tdd          - TOTAL DEPTH DRILLER
RUN .         ONE                  : Run          - RUN NUMBER
ENG .         BILL                 : Engineer     - RECORDING ENGINEER
WIT .         JIM                  : Witness      - WITNESSED BY
MUD .         GEL                  : Mud_type     - MUD TYPE
MATR.         SANDSTONE            : Logunit      - NEUTRON MATRIX
TMAX.C        21.1111              : BHT          - MAXIMUM RECORDED TEMPERATURE
BHTD.M        381.61               : BHTDEP       - MAXIMUM RECORDED TEMPERATURE
RMT .C        21.1111              : MDTP         - TEMPERATURE OF MUD
MUDD.KG/M     9700                 : MWT          - MUD DENSITY
NEUT.         1                    : NEUTRON      - NEUTRON TYPE
RESI.         0                    : RESIST       - RESISTIVITY TYPE
RM  .OHMM     0                    : RM           - RESISTIVITY OF MUD
RMC .OHMM     0                    : RMC          - RESISTIVITY OF MUD CAKE
RMF .OHMM     0                    : RMF          - RESISTIVITY OF MUD FILTRATE
SUFT.C        -15                  : SUFT         - SURFACE TEMPERATURE
~A  DEPTH     RESD     PHIN     PHID      CAL       GR
# ...
  344.120   16.999    0.442    0.223  151.369   78.670
  344.370   17.904    0.428    0.180  153.534   74.627
  344.620   19.012    0.404    0.103  152.656   72.372
  344.870   19.229    0.275    0.065  152.793   72.727
  345.120   18.659    0.274    0.064  153.428   73.986
  345.370   17.491    0.300    0.081  154.562   78.494
  345.620   16.029    0.330    0.099  155.731   80.647
  345.870   13.187    0.388    0.143  155.369   80.748
  346.120   12.710    0.419    0.172  154.473   80.818
  346.370   12.137    0.442    0.221  152.116   80.899
  346.620   11.865    0.457    0.230  150.757   81.000
  346.870   11.783    0.464    0.243  150.893   81.345
  347.120   11.605    0.471    0.259  152.044   80.542
  347.370   11.328    0.493    0.248  153.677   81.232
  347.620   11.248    0.482    0.257  154.330   81.312
  347.870   11.073    0.465    0.261  154.982   81.099
  348.120   10.998    0.478    0.265  153.640   82.053
  348.370   10.998    0.487    0.251  153.742   84.794
  348.620   11.032    0.489    0.235  153.879   87.820
  348.870   11.051    0.486    0.239  154.032   90.278
  349.120   11.266    0.490    0.235  155.149   93.588
  349.370   11.880    0.491    0.228  156.283   90.134
  349.620   12.985    0.483    0.217  155.955   84.324
  349.870   14.392    0.470    0.216  155.576   81.165
  350.120   14.804    0.462    0.206  154.732   81.825
  350.370   14.922    0.451    0.190  154.852   82.220
  350.620   14.450    0.433    0.173  155.487   82.291
  350.870   13.877    0.462    0.156  156.621   85.327
  351.120   13.402    0.459    0.180  156.775   96.021
  351.370   13.402    0.456    0.191  156.413   99.047
  351.620   13.051    0.464    0.215  156.051   99.422
  351.870   11.982    0.468    0.218  156.221  103.047
  352.120   11.409    0.473    0.211  156.840  110.207
  352.370   10.737    0.476    0.188  156.976  122.993
  352.620   10.262    0.484    0.209  157.612  127.177
  352.870    9.884    0.498    0.213  157.748  136.103
  353.120    9.610    0.503    0.184  157.885  146.807
  353.370    9.627    0.486    0.183  158.039  152.210
  353.620    9.550    0.469    0.159  157.676  151.102
  353.870    9.586    0.453    0.181  157.297  148.238
  354.120    9.591    0.459    0.206  156.470  145.982
  354.370    9.904    0.461    0.215  156.607  146.947
  354.620   10.219    0.466    0.211  157.242  149.363
  354.870   10.634    0.470    0.200  157.379  148.865
  355.120   11.248    0.474    0.200  157.034  144.518
  355.370   11.862    0.470    0.198  157.136  138.403
  355.620   12.773    0.459    0.189  156.774  131.415
  355.870   13.481    0.448    0.175  156.928  125.300
  356.120   14.490    0.446    0.153  157.064  113.884
  356.370   15.005    0.430    0.127  157.201  106.886
  356.620   14.928    0.415    0.142  157.338  101.665
  356.870   14.748    0.399    0.174  157.010  100.273
  357.120   14.666    0.380    0.172  157.146  101.237
  357.370   14.685    0.395    0.186  157.300  101.318
  357.620   14.803    0.409    0.198  157.402   98.757
  357.870   15.220    0.420    0.201  157.057   95.883
  358.120   15.832    0.423    0.207  156.179   93.912
  358.370   16.641    0.419    0.169  155.318   94.571
  358.620   17.848    0.404    0.135  155.472   93.474
  358.870   19.055    0.385    0.086  156.108   92.397
  359.120   20.064    0.356    0.065  157.259   94.539
  359.370   19.488    0.354    0.075  157.894   97.555
  359.620   17.930    0.355    0.088  158.031  101.769
  359.870   16.960    0.366    0.147  158.167  102.734
  360.120   16.485    0.387    0.156  158.304   99.594
  360.370   16.013    0.382    0.177  158.475   99.655
  360.620   15.739    0.392    0.184  157.597  102.397
  360.870   15.657    0.405    0.166  157.269   98.638
  361.120   15.479    0.401    0.145  157.371   96.078
  361.370   15.200    0.400    0.143  157.491   99.693
  361.620   14.431    0.405    0.173  158.126  109.209
  361.870   13.757    0.411    0.164  158.812  111.961
  362.120   13.186    0.413    0.168  159.431  114.093
  362.370   12.512    0.417    0.173  159.584  118.003
  362.620   10.759    0.426    0.190  160.220  123.700
  362.870    9.887    0.436    0.199  160.356  126.431
  363.120    8.916    0.448    0.202  160.476  128.279
  363.370    7.951    0.458    0.177  161.111  133.671
  363.620    7.573    0.466    0.161  162.761  136.108
  363.870    7.098    0.464    0.168  162.399  122.935
  364.120    6.624    0.467    0.170  160.059  113.276
  364.370    6.051    0.479    0.204  159.164  108.065
  364.620    5.184    0.486    0.210  159.318  110.217
  364.870    5.107    0.515    0.207  159.007  107.922
  365.120    6.212    0.574    0.234  158.593   98.862
  365.370    7.315    0.587    0.264  158.265   90.096
  365.620    9.707    0.572    0.260  158.385   82.509
  365.870   21.978    0.540    0.242  159.003   72.271
  366.120   26.942    0.386    0.245  159.638   67.639
  366.370   24.587    0.399    0.275  159.809   68.898
  366.620   21.841    0.412    0.270  160.445   69.578
  366.870   19.883    0.426    0.265  161.080   72.014
  367.120   15.755    0.418    0.248  161.216   77.996
  367.370   13.204    0.417    0.227  160.339   88.101
  367.620    9.765    0.410    0.207  160.011   97.911
  367.870    8.896    0.411    0.185  160.646  102.125
  368.120    8.027    0.427    0.176  160.765  104.583
  368.370    7.947    0.442    0.165  160.420  107.009
  368.620    8.169    0.454    0.178  160.557  110.046
  368.870    9.176    0.451    0.161  160.212  112.787
  369.120   10.481    0.454    0.147  160.314  112.269
  369.370   11.584    0.439    0.156  160.468   98.201
  369.620   12.492    0.422    0.143  160.605   90.614
  369.870   12.810    0.378    0.110  160.741   98.088
  370.120   12.040    0.367    0.123  160.895  106.701
  370.370   10.481    0.415    0.134  161.031  115.922
  370.620    9.508    0.453    0.162  161.168  126.626
  370.870    8.446    0.444    0.153  160.806  129.947
  371.120    8.364    0.450    0.152  160.960  132.708
  371.370    8.878    0.457    0.158  161.096  133.957
  371.620    9.588    0.464    0.160  161.233  126.075
  371.870   10.992    0.472    0.172  161.352  113.765
  372.120   14.174    0.480    0.171  161.506  105.589
  372.370   17.849    0.468    0.166  161.677   96.234
  372.620   19.350    0.454    0.166  161.779   89.551
  372.870   19.075    0.404    0.160  161.916   90.221
  373.120   18.505    0.386    0.158  162.069   93.246
  373.370   17.929    0.393    0.183  161.707   99.807
  373.620   17.161    0.399    0.178  161.328  105.199
  373.870   15.302    0.400    0.169  160.983  107.656
  374.120   14.726    0.395    0.164  161.154  107.727
  374.370   14.153    0.389    0.150  161.256  107.229
  374.620   14.175    0.383    0.150  161.427  105.238
  374.870   14.594    0.398    0.173  161.529   93.821
  375.120   15.011    0.408    0.153  161.666   93.018
  375.370   15.121    0.417    0.152  161.820  100.178
  375.620   15.143    0.406    0.177  160.976  102.320
  375.870   14.671    0.362    0.197  160.631  108.596
  376.120   14.296    0.384    0.197  160.733  111.632
  376.370   14.120    0.391    0.178  160.371  110.261
  376.620   14.038    0.370    0.170  160.060  108.259
  376.870   14.156    0.325    0.178  160.163  100.377
  377.120   14.570    0.320    0.198  160.299   83.954
  377.370   15.481    0.317    0.206  159.954   77.545
  377.620   16.288    0.323    0.203  159.575   74.680
  377.870   17.001    0.325    0.210  159.712   72.405
  378.120   17.321    0.319    0.210  159.865   73.085
  378.370   17.439    0.307    0.193  159.985   73.450
  378.620   17.851    0.309    0.193  160.121   71.773
  378.870   17.969    0.293    0.172  160.292   70.970
  379.120   17.991    0.277    0.168  160.446   72.523
  379.370   17.712    0.261    0.147  161.047   79.379
  379.620   17.141    0.287    0.137  161.201   96.867
  379.870   16.664    0.321    0.121  160.821  119.352
  380.120   15.698    0.383    0.121  160.958  126.807
  380.370   15.125    0.415    0.116  161.129  129.264
