~VERSION INFORMATION
 VERS.                 2.0:   CWLS LOG ASCII STANDARD -VERSION 2.0
 WRAP.                  NO:   ONE LINE PER DEPTH STEP
~WELL INFORMATION BLOCK
#MNEM.UNIT           DATA                    DESCRIPTION OF MNEMONIC
#---------    -------------------            -------------------------------
# Generated from Intellog Unique Number	CX_WELLS/WELL/4017
WELL.         HOMESTEAD LOCHIEL              : Well_name    - WELL
LOC .         00/10-05-079-04W4/0            : Location     - LOCATION
UWI .         00/10-05-079-04W4/0            : Uwi          - UNIQUE WELL ID
ENTR.         T                              : Entered      - ENTERED BY
SRVC.         SCHLUMBERGER                   : Scn          - SERVICE COMPANY
STRT.F        390                            : top_depth    - START DEPTH
STOP.F        1250.4                         : bot_depth    - STOP DEPTH
STEP.F        0.82                           : increment    - STEP LENGTH
 NULL. -999.2500:NULL Value
~CURVE INFORMATION BLOCK
#MNEM UNIT       ERCB CURVE CODE    CURVE DESCRIPTION
#-----------   ------------------   ----------------------------------
DEPT.F        00 001 00 00         : DEPTH        - DEPTH
GR  .API      00 310 00 00         : GR           - GAMMA RAY
NPHI.V/V      00 330 00 00         : PHIN         - NEUTRON POROSITY (SANDSTONE)
DPHI.V/V      00 890 00 00         : PHID         - DENSITY POROSITY (SANDSTONE)
ILD .OHMM     00 120 00 00         : RESD         - DEEP RESISTIVITY (DIL)
~PARAMETER INFORMATION
#MNEM.UNIT           DATA             DESCRIPTION OF MNEMONIC
#---------         -----------     ------------------------------
GL  .F        1695                 : gl           - GROUND LEVEL ELEVATION
EREF.F        1707                 : kb           - ELEVATION OF DEPTH REFERENCE
DATM.F        1707                 : datum        - DATUM ELEVATION
TDD .F        1290                 : tdd          - TOTAL DEPTH DRILLER
RUN .         ONE                  : Run          - RUN NUMBER
ENG .         BILL                 : Engineer     - RECORDING ENGINEER
WIT .         JIM                  : Witness      - WITNESSED BY
MUD .         GEL                  : Mud_type     - MUD TYPE
MATR.         SANDSTONE            : Logunit      - NEUTRON MATRIX
TMAX.F        69                   : BHT          - MAXIMUM RECORDED TEMPERATURE
BHTD.F        1290                 : BHTDEP       - MAXIMUM RECORDED TEMPERATURE
MATR.         1                    : LOGUNIT      - NEUTRON MATRIX
RMT .F        77                   : MDTP         - TEMPERATURE OF MUD
NEUT.         1                    : NEUTRON      - NEUTRON TYPE
RESI.         4.5                  : RESIST       - RESISTIVITY TYPE
RMC .OHMM     4.5                  : RMC          - RESISTIVITY OF MUD CAKE
RMF .OHMM     4.5                  : RMF          - RESISTIVITY OF MUD FILTRATE
SUFT.F        59                   : SUFT         - SURFACE TEMPERATURE
~A  DEPTH       GR     PHIN     PHID     RESD
# ...
  675.433  100.247    0.446    0.266    7.832
  676.253  100.271    0.446    0.267    7.841
  677.073  100.912    0.446    0.266    7.994
  677.894  100.944    0.445    0.266    8.154
  678.714  100.975    0.445    0.268    8.313
  679.534   99.785    0.444    0.267    8.640
  680.354   99.816    0.444    0.261    8.809
  681.175  100.458    0.444    0.255    8.985
  681.995  100.489    0.445    0.258    8.993
  682.815   99.299    0.447    0.257    8.836
  683.635   98.743    0.445    0.251    8.681
  684.455   98.758    0.444    0.242    8.528
  685.276  100.637    0.448    0.248    8.375
  686.096  101.263    0.454    0.254    8.229
  686.916  102.516    0.463    0.257    8.235
  687.736  103.157    0.463    0.254    8.090
  688.556  103.196    0.464    0.253    7.657
  689.377  103.235    0.468    0.255    7.114
  690.197  103.251    0.471    0.256    6.732
  691.017  103.282    0.474    0.255    6.489
  691.837  103.924    0.475    0.254    6.373
  692.657  104.574    0.482    0.249    6.262
  693.478  104.605    0.498    0.249    6.385
  694.298  104.636    0.494    0.248    6.511
  695.118  104.667    0.484    0.243    6.643
  695.938  107.157    0.477    0.247    6.651
  696.759  107.783    0.466    0.253    6.655
  697.579  109.035    0.460    0.257    6.661
  698.399  109.677    0.454    0.248    6.545
  699.219  110.327    0.455    0.223    6.548
  700.039  110.358    0.454    0.220    6.199
  700.860  109.168    0.452    0.229    6.204
  701.680  107.978    0.449    0.247    6.094
  702.500  108.009    0.453    0.213    6.098
  703.320  108.048    0.457    0.226    6.104
  704.140  108.071    0.456    0.246    5.779
  704.961  108.110    0.454    0.241    5.467
  705.781  108.134    0.458    0.225    5.270
  706.601  106.333    0.466    0.230    4.989
  707.421  103.311    0.476    0.230    4.810
  708.241  101.510    0.484    0.223    4.639
  709.062  101.541    0.486    0.227    4.642
  709.882  100.969    0.482    0.232    4.646
  710.702   99.176    0.490    0.233    5.013
  711.522   97.970    0.497    0.240    5.208
  712.343   94.948    0.499    0.256    5.410
  713.163   90.705    0.494    0.263    5.945
  713.983   84.629    0.484    0.270    7.041
  714.803   80.394    0.473    0.276    8.821
  715.623   79.814    0.461    0.289    9.876
  716.444   80.464    0.458    0.298   11.696
  717.264   81.098    0.459    0.302   12.155
  718.084   81.732    0.468    0.305   12.164
  718.904   82.389    0.487    0.308   12.175
  719.724   82.420    0.491    0.309   12.421
  720.545   83.054    0.493    0.313   12.427
  721.365   83.712    0.485    0.317   12.912
  722.185   83.727    0.463    0.321   13.672
  723.005   84.377    0.451    0.325   14.205
  723.825   84.408    0.444    0.326   14.486
  724.646   81.997    0.440    0.326   13.458
  725.466   81.409    0.436    0.326   12.736
  726.286   80.830    0.442    0.322   12.279
  727.106   81.472    0.445    0.314   11.617
  727.927   82.740    0.449    0.302   10.999
  728.747   85.824    0.457    0.291   10.803
  729.567   87.077    0.458    0.287   10.612
  730.387   87.108    0.462    0.290   10.234
  731.207   87.139    0.461    0.287   10.239
  732.028   87.789    0.445    0.289   10.253
  732.848   88.415    0.436    0.289   10.067
  733.668   89.675    0.439    0.287    9.711
  734.488   90.936    0.441    0.274    9.188
  735.308   90.951    0.448    0.267    8.693
  736.129   89.761    0.471    0.261    7.928
  736.949   89.189    0.484    0.257    7.642
  737.769   88.610    0.494    0.251    7.368
  738.589   89.260    0.498    0.245    6.974
  739.409   89.283    0.491    0.247    6.850
  740.230   90.543    0.482    0.253    6.485
  741.050   91.177    0.473    0.250    6.368
  741.870   93.048    0.463    0.241    6.258
  742.690   95.522    0.461    0.217    6.147
  743.510   96.767    0.473    0.211    6.040
  744.331   98.019    0.481    0.223    6.042
  745.151   98.661    0.485    0.237    5.937
  745.971   98.692    0.478    0.241    5.943
  746.791   97.502    0.469    0.244    5.948
  747.612   93.885    0.464    0.248    5.955
  748.432   92.687    0.462    0.254    6.070
  749.252   95.161    0.469    0.266    6.191
  750.072   97.635    0.479    0.286    6.315
  750.892   98.276    0.488    0.294    6.562
  751.713   95.262    0.500    0.313    6.816
  752.533   92.232    0.509    0.320   10.101
  753.353   86.157    0.508    0.328   11.963
  754.173   77.638    0.497    0.326   14.438
  754.993   69.731    0.488    0.310   16.474
  755.814   65.487    0.472    0.284   16.485
  756.634   62.473    0.439    0.274   15.601
  757.454   64.344    0.427    0.282   14.493
  758.274   65.589    0.451    0.305   13.715
  759.094   68.063    0.475    0.332   13.470
  759.915   69.926    0.487    0.344   12.991
  760.735   73.010    0.492    0.345   12.762
  761.555   74.255    0.459    0.351   12.534
  762.375   76.744    0.439    0.357   12.313
  763.196   76.776    0.470    0.331   12.096
  764.016   76.799    0.480    0.324   11.882
  764.836   76.830    0.485    0.321   11.893
  765.656   75.029    0.483    0.331   11.470
  766.476   74.450    0.477    0.324   11.267
  767.297   75.099    0.463    0.314   10.665
  768.117   76.970    0.466    0.302   10.283
  768.937   78.207    0.469    0.284    9.733
  769.757   81.910    0.461    0.267    9.557
  770.577   84.995    0.467    0.250    8.714
  771.398   89.919    0.477    0.240    7.946
  772.218   94.225    0.482    0.245    7.516
  773.038   97.920    0.485    0.246    6.853
  773.858   99.173    0.489    0.248    6.731
  774.678  100.417    0.490    0.252    6.369
  775.499  101.678    0.490    0.253    6.028
  776.319  102.930    0.493    0.247    5.704
  777.139  104.801    0.494    0.243    5.201
  777.959  106.054    0.498    0.236    4.741
  778.780  106.688    0.503    0.235    4.322
  779.600  107.337    0.510    0.247    3.940
  780.420  107.369    0.522    0.262    3.526
  781.240  106.781    0.535    0.274    3.335
  782.060  106.202    0.563    0.278    2.985
  782.881  106.851    0.575    0.262    2.824
  783.701  107.485    0.564    0.241    2.934
  784.521  108.143    0.558    0.233    3.108
  785.341  108.158    0.548    0.226    3.228
  786.161  108.808    0.541    0.256    3.291
  786.982  108.839    0.531    0.269    3.421
  787.802  110.100    0.520    0.257    3.488
  788.622  110.139    0.522    0.253    3.557
  789.442  110.154    0.532    0.261    3.696
  790.262  110.193    0.528    0.260    3.769
  791.083  109.614    0.511    0.271    3.916
  791.903  108.431    0.499    0.271    4.225
  792.723  107.225    0.486    0.271    4.472
  793.543  104.211    0.475    0.270    4.916
  794.364  101.181    0.489    0.271    5.107
  795.184   93.274    0.499    0.274    5.508
  796.004   92.083    0.498    0.275    5.831
  796.824   90.290    0.490    0.279    6.060
  797.644   89.092    0.482    0.284    6.179
  798.465   85.460    0.462    0.284    6.420
  799.285   83.056    0.455    0.284    7.058
  800.105   80.644    0.444    0.284    7.195
  800.925   78.844    0.439    0.286    8.056
  801.745   77.661    0.438    0.295    9.366
  802.566   77.066    0.438    0.299   11.094
  803.386   75.265    0.435    0.247   12.422
  804.206   72.259    0.380    0.161   13.398
  805.026   70.442    0.329    0.122   13.918
  805.846   68.031    0.322    0.147   14.461
  806.667   66.856    0.384    0.249   14.206
  807.487   69.941    0.405    0.294   13.959
  808.307   72.407    0.428    0.296   13.712
  809.127   77.323    0.437    0.292   13.471
  809.948   81.637    0.410    0.277   14.260
  810.768   81.050    0.362    0.220   15.967
  811.588   76.806    0.316    0.200   18.559
  812.408   73.784    0.273    0.138   21.172
  813.228   71.373    0.256    0.079   24.154
  814.049   69.572    0.257    0.081   22.857
  814.869   69.000    0.299    0.125   20.072
  815.689   69.650    0.360    0.147   17.300
  816.509   70.284    0.393    0.173   14.638
  817.329   72.765    0.411    0.225   13.094
