~VERSION INFORMATION
 VERS.                 2.0:   CWLS LOG ASCII STANDARD -VERSION 2.0
 WRAP.                  NO:   ONE LINE PER DEPTH STEP
~WELL INFORMATION BLOCK
#MNEM.UNIT           DATA                    DESCRIPTION OF MNEMONIC
#---------    -------------------            -------------------------------
# Generated from Intellog Unique Number	CS_71_72/WELL/906
WELL.         PETRO-CANADA EXPLORATION       : Well_name    - WELL
LOC .         00/11-26-072-08W4/0            : Location     - LOCATION
UWI .         00/11-26-072-08W4/0            : Uwi          - UNIQUE WELL ID
ENTR.         SP                             : Entered      - ENTERED BY
SRVC.         SCHLUMBERGER                   : Scn          - SERVICE COMPANY
STRT.M        305                            : top_depth    - START DEPTH
STOP.M        543                            : bot_depth    - STOP DEPTH
STEP.M        0.25                           : increment    - STEP LENGTH
 NULL. -999.2500:NULL Value
~CURVE INFORMATION BLOCK
#MNEM UNIT       ERCB CURVE CODE    CURVE DESCRIPTION
#-----------   ------------------   ----------------------------------
DEPT.M        00 001 00 00         : DEPTH        - DEPTH
ILD .OHMM     00 120 00 00         : RESD         - DEEP RESISTIVITY (DIL)
DPHI.V/V      00 890 00 00         : PHID         - DENSITY POROSITY (LIMESTONE)
NPHI.V/V      00 330 00 00         : PHIN         - NEUTRON POROSITY (LIMESTONE)
GR  .API      00 310 00 00         : GR           - GAMMA RAY
~PARAMETER INFORMATION
#MNEM.UNIT           DATA             DESCRIPTION OF MNEMONIC
#---------         -----------     ------------------------------
GL  .M        680.2                : gl           - GROUND LEVEL ELEVATION
EREF.M        683.7                : kb           - ELEVATION OF DEPTH REFERENCE
DATM.M        680.2                : datum        - DATUM ELEVATION
TDD .M        545                  : tdd          - TOTAL DEPTH DRILLER
RUN .         ONE                  : Run          - RUN NUMBER
ENG .         BILL                 : Engineer     - RECORDING ENGINEER
WIT .         JIM                  : Witness      - WITNESSED BY
MUD .         GEL                  : Mud_type     - MUD TYPE
MATR.         LIMESTONE            : Logunit      - NEUTRON MATRIX
TMAX.C        24                   : BHT          - MAXIMUM RECORDED TEMPERATURE
BHTD.M        545                  : BHTDEP       - MAXIMUM RECORDED TEMPERATURE
MATR.         1                    : LOGUNIT      - NEUTRON MATRIX
RMT .C        25                   : MDTP         - TEMPERATURE OF MUD
NEUT.         1                    : NEUTRON      - NEUTRON TYPE
RESI.         0                    : RESIST       - RESISTIVITY TYPE
RMC .OHMM     0.25                 : RMC          - RESISTIVITY OF MUD CAKE
RMF .OHMM     0.25                 : RMF          - RESISTIVITY OF MUD FILTRATE
SUFT.C        15                   : SUFT         - SURFACE TEMPERATURE
~A  DEPTH     RESD     PHID     PHIN       GR
# ...
  348.500    8.721    0.249    0.428   74.072
  348.750    9.698    0.252    0.416   73.889
  349.000   10.294    0.265    0.404   74.435
  349.250   10.867    0.265    0.394   74.434
  349.500   11.471    0.257    0.390   73.339
  349.750   11.930    0.263    0.395   69.876
  350.000   12.156    0.280    0.417   64.346
  350.250   12.136    0.292    0.413   59.181
  350.500   11.740    0.247    0.397   63.554
  350.750   10.840    0.222    0.429   72.727
  351.000   10.985    0.247    0.450   76.614
  351.250   12.147    0.281    0.452   67.075
  351.500   13.786    0.302    0.432   52.676
  351.750   16.361    0.315    0.410   46.964
  352.000   19.524    0.321    0.416   42.953
  352.250   22.956    0.302    0.424   41.069
  352.500   26.005    0.300    0.403   39.974
  352.750   28.071    0.304    0.392   38.941
  353.000   27.869    0.303    0.386   38.028
  353.250   27.875    0.315    0.393   37.967
  353.500   29.207    0.326    0.414   38.209
  353.750   30.489    0.339    0.421   37.904
  354.000   31.650    0.335    0.417   36.931
  354.250   32.072    0.324    0.408   36.869
  354.500   32.500    0.319    0.403   36.686
  354.750   32.445    0.321    0.402   35.956
  355.000   32.033    0.333    0.407   34.254
  355.250   32.340    0.337    0.407   32.856
  355.500   32.467    0.328    0.407   33.158
  355.750   32.474    0.324    0.407   34.494
  356.000   32.602    0.333    0.410   34.918
  356.250   32.669    0.332    0.412   34.796
  356.500   32.676    0.333    0.401   34.673
  356.750   32.502    0.340    0.389   34.976
  357.000   32.509    0.346    0.385   36.980
  357.250   32.455    0.349    0.409   41.961
  357.500   32.043    0.350    0.392   45.119
  357.750   31.696    0.350    0.408   47.305
  358.000   31.408    0.347    0.427   44.935
  358.250   31.125    0.343    0.424   43.111
  358.500   30.729    0.330    0.415   43.414
  358.750   30.338    0.328    0.421   43.595
  359.000   29.953    0.337    0.423   42.926
  359.250   28.974    0.339    0.408   40.131
  359.500   27.922    0.318    0.400   45.050
  359.750   27.516    0.311    0.412   48.270
  360.000   27.779    0.324    0.430   46.932
  360.250   28.842    0.340    0.418   40.977
  360.500   29.276    0.346    0.435   34.840
  360.750   30.166    0.350    0.445   31.012
  361.000   31.199    0.355    0.431   29.310
  361.250   31.969    0.364    0.423   29.673
  361.500   32.095    0.372    0.432   31.191
  361.750   31.746    0.361    0.420   31.251
  362.000   30.651    0.353    0.419   30.096
  362.250   28.674    0.365    0.423   30.095
  362.500   26.379    0.373    0.428   32.706
  362.750   23.166    0.321    0.421   49.777
  363.000   20.007    0.283    0.409   67.030
  363.250   16.433    0.258    0.410   78.876
  363.500   14.139    0.254    0.435   86.651
  363.750   12.510    0.253    0.450   88.047
  364.000   10.966    0.246    0.455   84.584
  364.250   10.145    0.241    0.447   86.952
  364.500    9.420    0.239    0.439   90.961
  364.750    8.894    0.233    0.445   92.114
  365.000    8.414    0.242    0.464   91.202
  365.250    7.915    0.263    0.477   98.126
  365.500    6.760    0.232    0.475  101.042
  365.750    5.838    0.220    0.476  102.195
  366.000    5.331    0.219    0.505  101.526
  366.250    5.617    0.238    0.494   98.062
  366.500    6.495    0.265    0.482   91.135
  366.750    7.622    0.283    0.471   84.330
  367.000    9.564    0.292    0.470   76.978
  367.250   11.714    0.289    0.468   71.023
  367.500   14.781    0.281    0.449   66.466
  367.750   17.346    0.199    0.417   64.642
  368.000   18.898    0.164    0.349   65.735
  368.250   19.221    0.181    0.320   69.075
  368.500   17.981    0.237    0.426   73.084
  368.750   16.728    0.264    0.442   75.391
  369.000   16.888    0.280    0.459   75.937
  369.250   18.229    0.284    0.478   72.838
  369.500   19.064    0.285    0.473   68.706
  369.750   19.644    0.278    0.454   65.546
  370.000   19.466    0.276    0.438   63.722
  370.250   18.691    0.285    0.425   63.296
  370.500   16.753    0.274    0.419   67.305
  370.750   14.713    0.264    0.427   72.407
  371.000   13.460    0.261    0.459   77.205
  371.250   11.887    0.254    0.454   80.242
  371.500   11.099    0.242    0.446   82.610
  371.750   10.117    0.234    0.450   84.736
  372.000    9.359    0.232    0.443   86.922
  372.250    8.530    0.241    0.473   86.496
  372.500    8.084    0.252    0.492   82.607
  372.750    8.086    0.237    0.497   83.760
  373.000    9.025    0.222    0.477   86.068
  373.250    9.706    0.223    0.452   86.492
  373.500   10.535    0.247    0.458   84.304
  373.750   11.393    0.258    0.450   81.873
  374.000   12.389    0.265    0.428   79.988
  374.250   13.054    0.272    0.418   77.800
  374.500   13.376    0.281    0.413   76.341
  374.750   13.182    0.289    0.413   78.406
  375.000   12.774    0.274    0.414   81.260
  375.250   12.084    0.231    0.421   85.816
  375.500   10.953    0.210    0.438   92.012
  375.750    9.965    0.209    0.459   96.446
  376.000    8.899    0.224    0.466   92.192
  376.250    7.902    0.264    0.446   85.204
  376.500    7.018    0.275    0.462   80.404
  376.750    6.209    0.263    0.478   77.123
  377.000    6.199    0.267    0.491   74.084
  377.250    6.868    0.281    0.505   70.195
  377.500    7.468    0.294    0.489   67.278
  377.750    8.320    0.284    0.455   65.150
  378.000    9.427    0.285    0.448   63.266
  378.250    9.730    0.302    0.458   61.321
  378.500   10.214    0.305    0.459   59.011
  378.750   11.253    0.305    0.438   55.912
  379.000   12.192    0.308    0.419   53.663
  379.250   13.111    0.315    0.404   50.260
  379.500   14.021    0.303    0.405   55.970
  379.750   14.883    0.312    0.418   59.978
  380.000   15.623    0.355    0.440   58.884
  380.250   16.279    0.421    0.586   49.345
  380.500   16.465    0.426    0.601   43.937
  380.750   16.469    0.354    0.561   39.197
  381.000   16.169    0.312    0.404   41.262
  381.250   15.904    0.319    0.384   42.658
  381.500   15.615    0.317    0.385   43.022
  381.750   15.274    0.317    0.396   42.656
  382.000   15.220    0.329    0.402   41.501
  382.250   15.309    0.339    0.405   39.556
  382.500   15.775    0.347    0.401   41.135
  382.750   16.254    0.346    0.423   41.923
  383.000   16.717    0.334    0.422   40.586
  383.250   17.066    0.322    0.406   42.225
  383.500   17.262    0.317    0.402   43.743
  383.750   17.297    0.321    0.401   44.896
  384.000   17.141    0.331    0.395   43.316
  384.250   17.018    0.330    0.388   44.044
  384.500   16.833    0.327    0.385   45.136
  384.750   16.742    0.328    0.384   45.864
  385.000   16.409    0.338    0.396   43.555
  385.250   16.259    0.342    0.405   41.245
  385.500   16.323    0.339    0.407   44.647
  385.750   16.357    0.334    0.406   47.197
  386.000   16.452    0.328    0.418   48.897
  386.250   16.610    0.339    0.435   49.808
  386.500   16.675    0.345    0.445   48.166
  386.750   17.054    0.336    0.449   46.282
  387.000   16.996    0.331    0.453   44.580
  387.250   17.062    0.333    0.439   42.878
  387.500   16.971    0.334    0.422   41.297
  387.750   16.662    0.329    0.411   40.568
  388.000   16.389    0.327    0.400   43.179
  388.250   16.121    0.332    0.393   47.066
  388.500   15.710    0.338    0.392   48.827
  388.750   15.112    0.343    0.400   47.246
  389.000   14.782    0.346    0.401   49.797
  389.250   14.540    0.349    0.411   51.922
  389.500   14.517    0.352    0.431   52.711
  389.750   14.519    0.356    0.428   51.495
  390.000   14.549    0.357    0.418   49.915
  390.250   14.715    0.358    0.413   49.306
  390.500   14.746    0.359    0.413   50.338
  390.750   14.832    0.355    0.431   52.220
  391.000   14.946    0.345    0.443   53.009
  391.250   15.033    0.347    0.450   53.677
  391.500   15.148    0.350    0.454   53.858
  391.750   15.322    0.356    0.449   53.249
