~VERSION INFORMATION
 VERS.                 2.0:   CWLS LOG ASCII STANDARD -VERSION 2.0
 WRAP.                  NO:   ONE LINE PER DEPTH STEP
~WELL INFORMATION BLOCK
#MNEM.UNIT           DATA                    DESCRIPTION OF MNEMONIC
#---------    -------------------            -------------------------------
# Generated from Intellog Unique Number	CS_77_79/WELL/1003
WELL.         HOME LEISTER                   : Well_name    - WELL
LOC .         00/11-30-078-06W4/0            : Location     - LOCATION
UWI .         00/11-30-078-06W4/0            : Uwi          - UNIQUE WELL ID
ENTR.         JHS                            : Entered      - ENTERED BY
SRVC.         SCHLUMBERGER                   : Scn          - SERVICE COMPANY
STRT.M        137                            : top_depth    - START DEPTH
STOP.M        384.25                         : bot_depth    - STOP DEPTH
STEP.M        0.25                           : increment    - STEP LENGTH
 NULL. -999.2500:NULL Value
~CURVE INFORMATION BLOCK
#MNEM UNIT       ERCB CURVE CODE    CURVE DESCRIPTION
#-----------   ------------------   ----------------------------------
DEPT.M        00 001 00 00         : DEPTH        - DEPTH
DPHI.V/V      00 890 00 00         : PHID         - DENSITY POROSITY (LIMESTONE)
NPHI.V/V      00 330 00 00         : PHIN         - NEUTRON POROSITY (LIMESTONE)
GR  .API      00 310 00 00         : GR           - GAMMA RAY
ILD .OHMM     00 120 00 00         : RESD         - DEEP RESISTIVITY (DIL)
~PARAMETER INFORMATION
#MNEM.UNIT           DATA             DESCRIPTION OF MNEMONIC
#---------         -----------     ------------------------------
GL  .M        561.09               : gl           - GROUND LEVEL ELEVATION
EREF.M        564.09               : kb           - ELEVATION OF DEPTH REFERENCE
DATM.M        564.09               : datum        - DATUM ELEVATION
TDD .M        386                  : tdd          - TOTAL DEPTH DRILLER
RUN .         ONE                  : Run          - RUN NUMBER
ENG .         BILL                 : Engineer     - RECORDING ENGINEER
WIT .         JIM                  : Witness      - WITNESSED BY
MUD .         GEL                  : Mud_type     - MUD TYPE
MATR.         LIMESTONE            : Logunit      - NEUTRON MATRIX
TMAX.C        27                   : BHT          - MAXIMUM RECORDED TEMPERATURE
BHTD.M        386                  : BHTDEP       - MAXIMUM RECORDED TEMPERATURE
MATR.         1                    : LOGUNIT      - NEUTRON MATRIX
RMT .C        25                   : MDTP         - TEMPERATURE OF MUD
NEUT.         1                    : NEUTRON      - NEUTRON TYPE
RESI.         0                    : RESIST       - RESISTIVITY TYPE
RMC .OHMM     0.25                 : RMC          - RESISTIVITY OF MUD CAKE
RMF .OHMM     0.25                 : RMF          - RESISTIVITY OF MUD FILTRATE
SUFT.C        15                   : SUFT         - SURFACE TEMPERATURE
~A  DEPTH     PHID     PHIN       GR     RESD
# ...
  354.500    0.168    0.407  112.440    6.955
  354.750    0.158    0.426   95.577    6.956
  355.000    0.182    0.454   88.682    6.957
  355.250    0.198    0.493   80.531    6.959
  355.500    0.232    0.450   73.001    7.091
  355.750    0.253    0.424   80.396    7.362
  356.000    0.249    0.342   93.379    7.501
  356.250    0.143    0.307  106.366    7.789
  356.500    0.125    0.315  103.164    7.936
  356.750    0.135    0.350  110.574    7.647
  357.000    0.161    0.389  117.962    7.507
  357.250    0.167    0.421  117.898    7.369
  357.500    0.169    0.389  121.556    7.510
  357.750    0.172    0.348  119.005    7.511
  358.000    0.171    0.360  126.396    7.653
  358.250    0.175    0.396  130.683    7.655
  358.500    0.181    0.423  121.288    7.514
  358.750    0.170    0.435  119.962    7.240
  359.000    0.160    0.429  123.628    7.108
  359.250    0.167    0.456  127.922    7.109
  359.500    0.179    0.483  124.712    7.110
  359.750    0.171    0.492  121.559    7.245
  360.000    0.166    0.510  116.519    7.383
  360.250    0.156    0.499  109.618    7.665
  360.500    0.166    0.497  108.901    7.811
  360.750    0.186    0.429  107.591    7.812
  361.000    0.168    0.412  106.296    7.813
  361.250    0.159    0.408  117.417    7.670
  361.500    0.145    0.362  121.700    7.529
  361.750    0.138    0.346  122.877    7.120
  362.000    0.127    0.357  112.868    6.609
  362.250    0.126    0.376  100.347    6.135
  362.500    0.150    0.369   95.314    5.589
  362.750    0.194    0.366   85.306    5.285
  363.000    0.254    0.380   75.293    5.093
  363.250    0.274    0.425   72.737    4.999
  363.500    0.280    0.456   72.674    5.000
  363.750    0.275    0.468   73.848    5.095
  364.000    0.263    0.484   71.292    5.290
  364.250    0.269    0.468   75.566    5.701
  364.500    0.271    0.387   82.343    5.919
  364.750    0.237    0.381   83.495    5.920
  365.000    0.247    0.407   85.938    5.921
  365.250    0.238    0.463   89.589    6.034
  365.500    0.215    0.456   91.388    6.264
  365.750    0.202    0.409   94.434    6.504
  366.000    0.213    0.396   91.868    6.752
  366.250    0.211    0.368   92.426    6.880
  366.500    0.213    0.321   96.713    6.883
  366.750    0.191    0.303   94.159    6.756
  367.000    0.178    0.320   92.212    6.757
  367.250    0.204    0.355   87.791    6.758
  367.500    0.218    0.381   95.814    7.016
  367.750    0.208    0.369  100.091    7.150
  368.000    0.190    0.384   98.150    7.151
  368.250    0.187    0.386   98.710    7.152
  368.500    0.180    0.369   98.019    7.154
  368.750    0.177    0.361   95.455    7.154
  369.000    0.182    0.362   97.888    7.155
  369.250    0.190    0.380  113.979    7.157
  369.500    0.194    0.408  117.025    7.293
  369.750    0.174    0.425  111.978    7.431
  370.000    0.161    0.478  106.939    7.716
  370.250    0.176    0.493  100.635    7.863
  370.500    0.198    0.425  103.696    8.163
  370.750    0.184    0.403  101.136    8.475
  371.000    0.168    0.404   92.366    8.965
  371.250    0.185    0.438   72.409    9.844
  371.500    0.225    0.465   50.585   10.808
  371.750    0.299    0.484   40.560   11.868
  372.000    0.314    0.499   60.391   13.277
  372.250    0.318    0.510   74.001   14.853
  372.500    0.324    0.411   95.051   16.930
  372.750    0.300    0.372   83.180   17.251
  373.000    0.302    0.426   71.924   16.622
  373.250    0.297    0.459   57.559   15.144
  373.500    0.283    0.438   50.654   14.321
  373.750    0.265    0.338   56.793   14.059
  374.000    0.239    0.356   56.738   13.295
  374.250    0.258    0.384   47.344   11.668
  374.500    0.259    0.408   39.814    9.682
  374.750    0.256    0.440   35.396    8.340
  375.000    0.270    0.456  116.753    7.052
  375.250    0.295    0.479  107.976    6.546
  375.500    0.272    0.544   94.242    6.425
  375.750    0.260    0.605   86.708    6.427
  376.000    0.312    0.336  116.480    6.549
  376.250    0.381    0.362  125.735    6.673
  376.500    0.424    0.374  130.023    6.674
  376.750    0.497    0.379  124.344    6.801
  377.000    0.197    0.399  119.934    6.553
  377.250    0.212    0.419  116.133    6.678
  377.500    0.178    0.418  114.185    6.679
  377.750    0.163    0.383  109.150    6.806
  378.000    0.160    0.366  100.386    6.681
  378.250    0.146    0.399   93.472    6.559
  378.500    0.118    0.449   89.048    6.088
  378.750    0.098    0.478   79.667    5.757
  379.000    0.148    0.505   64.065    5.344
  379.250    0.208    0.497   50.940    5.054
  379.500    0.223    0.369   29.741    4.869
  379.750    0.267    0.399   22.206    4.605
  380.000    0.295    0.444   20.248    4.692
  380.250    0.307    0.497   20.203    4.964
  380.500    0.332    0.443   21.994    5.250
  380.750    0.337    0.394   22.557    6.212
  381.000    0.282    0.419   21.859    8.376
  381.250    0.247    0.191   21.162   10.097
  381.500    0.133    0.251   21.089   11.296
  381.750    0.027    0.263   22.265   12.875
  382.000    0.035    0.220   22.816   14.137
  382.250    0.006    0.210   23.379   14.954
  382.500    0.000    0.201   23.942   15.526
  382.750    0.000    0.201   23.236   15.821
  383.000    0.000    0.198   25.660   15.823
  383.250    0.000    0.194   25.595   15.826
  383.500    0.017    0.194   24.279   15.830
  383.750    0.020    0.201   24.212   15.831
  384.000    0.005    0.206   21.040   15.835
  384.250    0.000    0.207   12.270   15.837
