~VERSION INFORMATION
 VERS.                 2.0:   CWLS LOG ASCII STANDARD -VERSION 2.0
 WRAP.                  NO:   ONE LINE PER DEPTH STEP
~WELL INFORMATION BLOCK
#MNEM.UNIT           DATA                    DESCRIPTION OF MNEMONIC
#---------    -------------------            -------------------------------
# Generated from Intellog Unique Number	CW_76_78/WELL/2578
WELL.         10-20-078-24W4                 : Well_name    - WELL
LOC .         00/10-20-078-24W4/0            : Location     - LOCATION
UWI .         00/10-20-078-24W4/0            : Uwi          - UNIQUE WELL ID
ENTR.         MAX                            : Entered      - ENTERED BY
SRVC.         SCHLUMBERGER                   : Scn          - SERVICE COMPANY
STRT.M        274.32                         : top_depth    - START DEPTH
STOP.M        518.07                         : bot_depth    - STOP DEPTH
STEP.M        0.25                           : increment    - STEP LENGTH
 NULL. -999.2500:NULL Value
~CURVE INFORMATION BLOCK
#MNEM UNIT       ERCB CURVE CODE    CURVE DESCRIPTION
#-----------   ------------------   ----------------------------------
DEPT.M        00 001 00 00         : DEPTH        - DEPTH
ILD .OHMM     00 120 00 00         : RESD         - DEEP RESISTIVITY (DIL)
NPHI.V/V      00 330 00 00         : PHIN         - NEUTRON POROSITY (SANDSTONE)
DPHI.V/V      00 890 00 00         : PHID         - DENSITY POROSITY (SANDSTONE)
CALI.MM       00 280 01 00         : CAL          - CALIPER
GR  .API      00 310 00 00         : GR           - GAMMA RAY
~PARAMETER INFORMATION
#MNEM.UNIT           DATA             DESCRIPTION OF MNEMONIC
#---------         -----------     ------------------------------
GL  .M        588.874              : gl           - GROUND LEVEL ELEVATION
EREF.M        592.836              : kb           - ELEVATION OF DEPTH REFERENCE
DATM.M        588.874              : datum        - DATUM ELEVATION
TDD .M        536.448              : tdd          - TOTAL DEPTH DRILLER
RUN .         ONE                  : Run          - RUN NUMBER
ENG .         BILL                 : Engineer     - RECORDING ENGINEER
WIT .         JIM                  : Witness      - WITNESSED BY
MUD .         GEL                  : Mud_type     - MUD TYPE
MATR.         SANDSTONE            : Logunit      - NEUTRON MATRIX
TMAX.C        16.6667              : BHT          - MAXIMUM RECORDED TEMPERATURE
BHTD.M        536.448              : BHTDEP       - MAXIMUM RECORDED TEMPERATURE
RMT .C        19.4444              : MDTP         - TEMPERATURE OF MUD
MUDD.KG/M     9300                 : MWT          - MUD DENSITY
NEUT.         1                    : NEUTRON      - NEUTRON TYPE
RESI.         0                    : RESIST       - RESISTIVITY TYPE
RM  .OHMM     3.82                 : RM           - RESISTIVITY OF MUD
RMC .OHMM     0                    : RMC          - RESISTIVITY OF MUD CAKE
RMF .OHMM     3.9                  : RMF          - RESISTIVITY OF MUD FILTRATE
SUFT.C        -20.5556             : SUFT         - SURFACE TEMPERATURE
~A  DEPTH     RESD     PHIN     PHID      CAL       GR
# ...
  310.820   14.054    0.507    0.276  204.000   69.684
  311.070   15.781    0.518    0.269  203.959   70.822
  311.320   16.944    0.529    0.275  204.408   70.217
  311.570   18.031    0.503    0.301  204.870   68.451
  311.820   19.183    0.468    0.298  204.833   65.801
  312.070   20.596    0.449    0.275  205.789   63.155
  312.320   22.316    0.430    0.214  207.230   59.633
  312.570   26.443    0.397    0.173  208.182   56.106
  312.820   28.394    0.411    0.162  208.145   58.129
  313.070   31.038    0.457    0.233  206.129   62.483
  313.320   33.929    0.491    0.304  205.599   62.167
  313.570   37.086    0.490    0.308  205.599   62.146
  313.820   39.459    0.488    0.324  205.009   64.458
  314.070   40.502    0.499    0.322  204.991   65.600
  314.320   40.818    0.512    0.326  204.955   65.579
  314.570   41.175    0.526    0.332  204.914   66.721
  314.820   41.148    0.511    0.333  204.869   67.867
  315.070   41.113    0.504    0.336  204.832   67.262
  315.320   40.350    0.496    0.339  204.311   62.574
  315.570   40.320    0.493    0.335  204.275   59.924
  315.820   40.290    0.488    0.325  203.237   59.903
  316.070   40.252    0.484    0.329  202.716   60.465
  316.320   39.866    0.486    0.333  202.177   61.318
  316.570   39.127    0.500    0.336  202.113   62.169
  316.820   38.394    0.492    0.337  201.605   62.731
  317.070   37.346    0.475    0.329  201.574   63.290
  317.320   35.994    0.469    0.333  201.542   64.436
  317.570   35.017    0.476    0.330  201.496   64.997
  317.820   33.455    0.508    0.313  200.966   64.393
  318.070   31.959    0.515    0.297  200.930   62.910
  318.320   30.529    0.521    0.292  200.893   62.305
  318.570   29.696    0.502    0.319  200.853   62.867
  318.820   29.405    0.498    0.337  200.812   63.723
  319.070   28.863    0.518    0.340  200.784   63.991
  319.320   28.072    0.523    0.335  200.784   65.136
  319.570   26.579    0.522    0.336  200.213   66.573
  319.820   23.630    0.525    0.321  200.168   65.966
  320.070   22.170    0.525    0.309  200.168   65.069
  320.320   21.759    0.525    0.301  200.086   62.423
  320.570   21.759    0.525    0.298  200.059   61.523
  320.820   21.524    0.521    0.293  200.018   63.835
  321.070   21.516    0.518    0.295  199.991   65.561
  321.320   22.087    0.514    0.301  199.941   63.792
  321.570   22.671    0.508    0.319  199.411   61.143
  321.820   23.051    0.510    0.324  199.379   60.538
  322.070   23.462    0.503    0.323  199.338   60.223
  322.320   23.462    0.491    0.315  199.302   59.618
  322.570   24.058    0.494    0.312  199.261   59.883
  322.820   24.701    0.486    0.313  199.718   60.742
  323.070   25.132    0.476    0.322  199.677   62.173
  323.320   25.799    0.481    0.327  199.650   62.738
  323.570   26.481    0.479    0.312  199.614   62.422
  323.820   26.943    0.472    0.305  199.573   61.528
  324.070   27.408    0.461    0.299  200.030   61.215
  324.320   27.632    0.459    0.290  199.990   60.902
  324.570   27.863    0.472    0.284  199.958   60.292
  324.820   27.097    0.477    0.279  200.411   58.812
  325.070   26.359    0.493    0.279  201.358   57.626
  325.320   25.181    0.513    0.295  202.314   57.019
  325.570   24.059    0.518    0.296  202.273   58.164
  325.820   23.191    0.512    0.292  202.232   59.890
  326.070   22.756    0.500    0.294  201.697   61.032
  326.320   22.538    0.494    0.285  201.697   63.053
  326.570   21.530    0.489    0.295  201.620   65.073
  326.820   20.203    0.482    0.288  201.094   67.677
  327.070   19.300    0.479    0.278  201.062   70.283
  327.320   18.607    0.498    0.275  201.520   71.134
  327.570   17.935    0.525    0.320  201.520   67.610
  327.820   17.442    0.512    0.288  202.431   64.088
  328.070   17.120    0.501    0.288  203.378   63.481
  328.320   17.258    0.497    0.301  203.840   65.790
  328.570   17.716    0.484    0.292  203.305   67.521
  328.820   17.232    0.485    0.290  201.787   69.833
  329.070   15.461    0.503    0.277  200.758   71.853
  329.320   13.747    0.506    0.267  200.228   72.121
  329.570   13.015    0.502    0.263  200.685   70.933
  329.820   12.771    0.490    0.276  201.637   70.622
  330.070   12.649    0.500    0.268  203.082   72.643
  330.320   12.638    0.516    0.261  204.025   74.072
  330.570   12.293    0.549    0.264  203.993   72.597
  330.820   11.330    0.586    0.252  203.458   68.200
  331.070    8.267    0.574    0.228  202.932   60.593
  331.320    7.687    0.530    0.232  202.892   51.529
  331.570    8.033    0.475    0.278  202.851   45.085
  331.820    9.696    0.468    0.314  202.320   42.436
  332.070   11.805    0.480    0.327  200.798   41.542
  332.320   14.501    0.481    0.323  199.284   40.352
  332.570   21.514    0.475    0.315  199.733   39.455
  332.820   26.192    0.474    0.302  200.689   39.434
  333.070   26.172    0.481    0.318  200.652   40.284
  333.320   26.150    0.489    0.329  200.612   41.141
  333.570   26.844    0.491    0.334  200.580   41.703
  333.820   27.310    0.483    0.335  201.527   43.137
  334.070   26.801    0.470    0.333  203.466   44.860
  334.320   25.147    0.465    0.327  204.413   45.716
  334.570   23.179    0.459    0.314  204.871   46.859
  334.820   20.610    0.459    0.309  205.324   47.718
  335.070   18.822    0.467    0.300  206.275   48.277
  335.320   18.146    0.483    0.302  206.733   47.961
  335.570   17.647    0.489    0.304  206.696   47.062
  335.820   17.318    0.484    0.309  207.154   46.168
  336.070   17.142    0.477    0.319  207.607   45.269
  336.320   17.137    0.469    0.309  207.077   44.662
  336.570   17.124    0.468    0.306  205.554   44.645
  336.820   17.111    0.482    0.306  204.525   44.621
  337.070   16.943    0.488    0.328  204.498   44.600
  337.320   16.933    0.474    0.326  204.951   45.156
  337.570   16.769    0.466    0.324  204.951   45.716
  337.820   17.057    0.460    0.318  206.342   46.283
  338.070   17.200    0.459    0.310  206.818   47.134
  338.320   17.183    0.459    0.325  206.278   47.693
  338.570   17.169    0.469    0.334  205.753   48.255
  338.820   17.169    0.479    0.335  205.712   48.528
  339.070   17.140    0.488    0.326  205.671   48.798
  339.320   17.132    0.486    0.325  206.138   48.191
  339.570   17.119    0.474    0.315  204.610   47.294
  339.820   17.260    0.467    0.329  203.586   46.687
  340.070   17.246    0.465    0.331  203.061   46.959
  340.320   17.223    0.464    0.323  203.509   48.391
  340.570   17.374    0.467    0.311  203.473   49.245
  340.820   17.374    0.461    0.310  203.436   50.093
  341.070   17.339    0.453    0.316  202.906   50.660
  341.320   17.331    0.444    0.330  202.371   50.636
  341.570   17.318    0.445    0.331  201.343   50.325
  341.820   17.305    0.439    0.306  201.306   49.426
  342.070   17.292    0.447    0.299  201.764   47.944
  342.320   17.276    0.453    0.296  201.238   47.922
  342.570   17.266    0.449    0.298  201.197   49.651
  342.820   17.250    0.443    0.301  201.161   52.835
  343.070   17.085    0.447    0.289  202.108   52.819
  343.320   16.916    0.437    0.285  202.076   52.206
  343.570   16.903    0.428    0.278  203.023   53.062
  343.820   17.195    0.434    0.297  203.023   53.916
  344.070   16.727    0.449    0.305  203.431   54.767
  344.320   16.123    0.464    0.317  203.897   54.748
  344.570   16.123    0.470    0.304  203.861   54.435
  344.820   15.953    0.477    0.297  204.314   53.244
  345.070   15.800    0.487    0.309  204.282   51.176
  345.320   15.789    0.500    0.330  204.735   50.865
  345.570   15.493    0.484    0.343  206.176   50.846
  345.820   15.344    0.475    0.335  205.646   50.239
  346.070   15.194    0.484    0.330  205.609   49.926
  346.320   15.181    0.484    0.338  205.578   49.902
  346.570   15.171    0.469    0.336  205.578   50.172
  346.820   15.432    0.465    0.323  205.500   50.150
  347.070   15.703    0.460    0.303  204.970   50.129
