~VERSION INFORMATION
 VERS.                 2.0:   CWLS LOG ASCII STANDARD -VERSION 2.0
 WRAP.                  NO:   ONE LINE PER DEPTH STEP
~WELL INFORMATION BLOCK
#MNEM.UNIT           DATA                    DESCRIPTION OF MNEMONIC
#---------    -------------------            -------------------------------
# Generated from Intellog Unique Number	CW_79_81/WELL/2465
WELL.         10-10-080-24W4                 : Well_name    - WELL
LOC .         00/10-10-080-24W4/0            : Location     - LOCATION
UWI .         00/10-10-080-24W4/0            : Uwi          - UNIQUE WELL ID
ENTR.         MAX                            : Entered      - ENTERED BY
SRVC.         SCHLUMBERGER                   : Scn          - SERVICE COMPANY
STRT.M        200                            : top_depth    - START DEPTH
STOP.M        455                            : bot_depth    - STOP DEPTH
STEP.M        0.25                           : increment    - STEP LENGTH
 NULL. -999.2500:NULL Value
~CURVE INFORMATION BLOCK
#MNEM UNIT       ERCB CURVE CODE    CURVE DESCRIPTION
#-----------   ------------------   ----------------------------------
DEPT.M        00 001 00 00         : DEPTH        - DEPTH
ILD .OHMM     00 120 00 00         : RESD         - DEEP RESISTIVITY (DIL)
NPHI.V/V      00 330 00 00         : PHIN         - NEUTRON POROSITY (SANDSTONE)
DPHI.V/V      00 890 00 00         : PHID         - DENSITY POROSITY (SANDSTONE)
GR  .API      00 310 00 00         : GR           - GAMMA RAY
CALI.MM       00 280 01 00         : CAL          - CALIPER
~PARAMETER INFORMATION
#MNEM.UNIT           DATA             DESCRIPTION OF MNEMONIC
#---------         -----------     ------------------------------
GL  .M        558.63               : gl           - GROUND LEVEL ELEVATION
EREF.M        562.83               : kb           - ELEVATION OF DEPTH REFERENCE
DATM.M        558.63               : datum        - DATUM ELEVATION
TDD .M        456.5                : tdd          - TOTAL DEPTH DRILLER
RUN .         ONE                  : Run          - RUN NUMBER
ENG .         BILL                 : Engineer     - RECORDING ENGINEER
WIT .         JIM                  : Witness      - WITNESSED BY
MUD .         GEL                  : Mud_type     - MUD TYPE
MATR.         SANDSTONE            : Logunit      - NEUTRON MATRIX
TMAX.C        24.5                 : BHT          - MAXIMUM RECORDED TEMPERATURE
BHTD.M        456.5                : BHTDEP       - MAXIMUM RECORDED TEMPERATURE
MATR.         1                    : LOGUNIT      - NEUTRON MATRIX
RMT .C        18.5                 : MDTP         - TEMPERATURE OF MUD
NEUT.         1                    : NEUTRON      - NEUTRON TYPE
RESI.         0                    : RESIST       - RESISTIVITY TYPE
RMC .OHMM     7.95                 : RMC          - RESISTIVITY OF MUD CAKE
RMF .OHMM     5.82                 : RMF          - RESISTIVITY OF MUD FILTRATE
SUFT.C        -20                  : SUFT         - SURFACE TEMPERATURE
~A  DEPTH     RESD     PHIN     PHID       GR      CAL
  200.000    6.300    0.469    0.210   96.969  249.704
  200.250    6.063    0.504    0.218   99.216  247.628
  200.500    5.656    0.499    0.226  100.744  245.719
  200.750    4.909    0.493    0.229  101.943  244.325
  201.000    4.185    0.504    0.227  103.142  243.630
  201.250    3.824    0.534    0.229  105.558  242.819
  201.500    3.766    0.534    0.227  108.054  240.744
  201.750    3.794    0.516    0.235  107.816  238.751
  202.000    3.844    0.504    0.240  104.706  234.664
  202.250    3.873    0.498    0.241  103.032  231.276
  202.500    3.873    0.502    0.237  104.111  229.782
  202.750    3.874    0.521    0.236  106.817  229.786
  203.000    3.874    0.515    0.250  109.562  229.789
  203.250    3.875    0.497    0.249  108.128  228.994
  203.500    3.876    0.490    0.246  104.717  228.199
  203.750    3.947    0.487    0.240   99.212  227.005
  204.000    4.214    0.477    0.234   87.601  226.010
  204.250    5.154    0.447    0.237   56.897  226.812
  204.500    6.316    0.411    0.259   31.459  226.815
  204.750   11.766    0.332    0.264   26.194  226.818
  205.000   17.457    0.334    0.261   28.111  226.223
  205.250   20.240    0.376    0.257   32.663  225.627
  205.500   21.408    0.411    0.261   34.280  225.132
  205.750   21.991    0.383    0.288   25.234  224.338
  206.000   22.507    0.367    0.308   19.500  224.340
  206.250   23.350    0.370    0.311   22.614  224.344
  206.500   24.489    0.359    0.310   23.394  224.047
  206.750   26.151    0.349    0.308   22.079  223.651
  207.000   28.276    0.346    0.309   20.525  223.256
  207.250   30.463    0.343    0.317   22.452  222.860
  207.500   31.663    0.332    0.318   23.701  222.863
  207.750   32.373    0.332    0.312   22.267  222.467
  208.000   33.099    0.341    0.303   19.575  222.071
  208.250   33.597    0.341    0.298   17.901  221.675
  208.500   33.972    0.330    0.299   17.962  221.379
  208.750   34.793    0.330    0.308   19.221  221.217
  209.000   35.066    0.338    0.312   20.720  220.388
  209.250   35.071    0.344    0.314   21.679  219.992
  209.500   35.076    0.347    0.314   22.998  219.596
  209.750   35.080    0.348    0.313   24.317  219.400
  210.000   35.020    0.349    0.310   25.336  219.402
  210.250   34.769    0.354    0.310   25.667  219.489
  210.500   34.774    0.367    0.313   24.921  219.909
  210.750   34.778    0.363    0.313   22.768  220.310
  211.000   34.976    0.341    0.313   22.231  220.413
  211.250   35.368    0.321    0.303   22.473  220.217
  211.500   35.897    0.315    0.282   21.935  219.821
  211.750   36.436    0.334    0.262   18.247  219.425
  212.000   36.442    0.358    0.277   17.750  219.428
  212.250   35.913    0.362    0.298   19.906  219.831
  212.500   34.609    0.370    0.311   22.063  219.933
  212.750   32.991    0.374    0.316   23.382  219.936
  213.000   31.583    0.374    0.317   23.683  220.039
  213.250   30.900    0.369    0.316   23.446  220.525
  213.500   30.905    0.361    0.315   23.448  220.944
  213.750   32.297    0.362    0.318   25.126  222.144
  214.000   34.121    0.355    0.317   24.828  223.045
  214.250   35.812    0.337    0.310   23.393  223.846
  214.500   36.829    0.318    0.301   21.480  224.647
  214.750   36.779    0.314    0.297   19.467  225.616
  215.000   36.503    0.307    0.296   18.970  226.450
  215.250   35.445    0.311    0.291   18.493  228.049
  215.500   34.999    0.316    0.286   18.016  229.350
  215.750   34.618    0.320    0.283   17.659  229.353
  216.000   33.989    0.322    0.286   17.660  228.059
  216.250   32.598    0.319    0.291   18.431  226.300
  216.500   30.673    0.315    0.290   18.682  225.471
  216.750   27.017    0.306    0.295   20.839  225.873
  217.000   23.401    0.307    0.297   25.868  225.976
  217.250   19.783    0.325    0.291   34.251  226.179
  217.500   16.346    0.359    0.277   45.745  226.781
  217.750   12.784    0.405    0.256   60.691  228.397
  218.000   10.753    0.417    0.242   67.178  230.479
  218.250    8.507    0.426    0.231   72.447  232.478
  218.500    7.383    0.433    0.229   73.945  232.979
  218.750    6.851    0.436    0.233   72.870  232.782
  219.000    6.716    0.434    0.242   69.879  232.486
  219.250    7.021    0.428    0.258   64.045  232.407
  219.500    7.586    0.417    0.265   58.809  231.994
  219.750    8.399    0.410    0.264   57.135  233.195
  220.000    8.823    0.398    0.253   58.334  234.095
  220.250    8.724    0.392    0.241   60.132  234.298
  220.500    8.383    0.392    0.238   60.493  233.802
  220.750    8.374    0.390    0.258   56.924  232.842
  221.000    8.636    0.390    0.275   53.434  232.013
  221.250    9.358    0.400    0.278   53.435  232.415
  221.500    9.878    0.418    0.271   54.694  232.219
  221.750   10.103    0.421    0.259   56.253  232.023
  222.000   10.048    0.407    0.243   57.931  232.325
  222.250    9.739    0.404    0.228   61.175  233.693
  222.500    9.304    0.427    0.243   65.416  234.527
  222.750    7.592    0.450    0.255   68.052  236.125
  223.000    6.551    0.468    0.257   70.688  237.426
  223.250    5.738    0.466    0.247   73.563  238.227
  223.500    5.084    0.451    0.235   77.575  238.729
  223.750    4.561    0.445    0.237   83.583  239.780
  224.000    4.259    0.446    0.232   80.093  241.030
  224.250    4.260    0.440    0.231   72.433  241.433
  224.500    4.546    0.438    0.229   66.928  241.835
  224.750    4.898    0.435    0.228   65.493  242.436
  225.000    5.123    0.433    0.227   67.650  243.137
  225.250    5.076    0.443    0.223   71.972  243.623
  225.500    4.849    0.460    0.213   79.206  244.042
  225.750    4.402    0.485    0.206   81.842  244.045
  226.000    4.068    0.503    0.224   81.964  242.552
  226.250    3.765    0.517    0.243   82.804  240.360
  226.500    3.508    0.522    0.252   84.242  238.568
  226.750    3.343    0.514    0.261   82.109  238.820
  227.000    3.267    0.528    0.255   78.619  240.070
  227.250    3.220    0.525    0.254   82.213  241.271
  227.500    3.138    0.530    0.254   86.883  242.471
  227.750    3.036    0.529    0.253   88.561  243.273
  228.000    2.932    0.522    0.249   86.947  243.475
  228.250    2.835    0.515    0.245   85.513  242.913
  228.500    2.771    0.514    0.240   85.514  242.085
  228.750    2.751    0.522    0.255   86.713  238.896
  229.000    2.761    0.536    0.267   88.272  235.707
  229.250    2.762    0.548    0.282   89.950  233.515
  229.500    2.711    0.553    0.297   91.568  232.919
  229.750    2.539    0.548    0.298   92.857  234.536
  230.000    2.372    0.537    0.277   92.110  236.618
  230.250    2.320    0.532    0.280   91.394  236.620
  230.500    2.333    0.543    0.288   91.037  235.426
  230.750    2.368    0.551    0.293   90.081  233.633
  231.000    2.395    0.552    0.289   88.466  232.140
  231.250    2.391    0.558    0.270   86.782  232.310
  231.500    2.373    0.557    0.272   85.538  233.145
  231.750    2.305    0.568    0.285   85.539  235.542
  232.000    2.251    0.563    0.285   85.900  237.041
  232.250    2.226    0.548    0.281   86.980  237.444
  232.500    2.231    0.536    0.276   88.658  237.048
  232.750    2.248    0.544    0.273   90.186  236.901
  233.000    2.248    0.540    0.289   89.439  238.151
  233.250    2.281    0.558    0.289   85.611  236.958
  233.500    2.341    0.552    0.285   86.810  231.274
  233.750    2.411    0.540    0.278   89.086  226.488
  234.000    2.484    0.530    0.266   89.507  224.796
  234.250    2.570    0.522    0.242   86.057  225.532
  234.500    2.631    0.518    0.234   85.561  227.197
  234.750    2.651    0.534    0.239   88.196  229.594
  235.000    2.627    0.568    0.246   88.497  230.794
  235.250    2.579    0.579    0.248   88.140  230.997
  235.500    2.546    0.557    0.246   88.980  229.803
  235.750    2.608    0.531    0.248   92.503  225.883
  236.000    2.732    0.544    0.260   89.762  224.223
  236.250    2.876    0.537    0.258   90.482  223.428
