~VERSION INFORMATION
 VERS.                 2.0:   CWLS LOG ASCII STANDARD -VERSION 2.0
 WRAP.                  NO:   ONE LINE PER DEPTH STEP
~WELL INFORMATION BLOCK
#MNEM.UNIT           DATA                    DESCRIPTION OF MNEMONIC
#---------    -------------------            -------------------------------
# Generated from Intellog Unique Number	CS_73_76/WELL/2191
WELL.         HOUSTON OILS LIMITED           : Well_name    - WELL
LOC .         00/10-16-074-17W4/0            : Location     - LOCATION
UWI .         00/10-16-074-17W4/0            : Uwi          - UNIQUE WELL ID
ENTR.         SP                             : Entered      - ENTERED BY
SRVC.         SCHLUMBERGER                   : Scn          - SERVICE COMPANY
STRT.M        234.696                        : top_depth    - START DEPTH
STOP.M        426.446                        : bot_depth    - STOP DEPTH
STEP.M        0.25                           : increment    - STEP LENGTH
 NULL. -999.2500:NULL Value
~CURVE INFORMATION BLOCK
#MNEM UNIT       ERCB CURVE CODE    CURVE DESCRIPTION
#-----------   ------------------   ----------------------------------
DEPT.M        00 001 00 00         : DEPTH        - DEPTH
GR  .API      00 310 00 00         : GR           - GAMMA RAY
DPHI.V/V      00 890 00 00         : PHID         - DENSITY POROSITY (SANDSTONE)
NPHI.V/V      00 330 00 00         : PHIN         - NEUTRON POROSITY (SANDSTONE)
ILD .OHMM     00 120 00 00         : RESD         - DEEP RESISTIVITY (DIL)
~PARAMETER INFORMATION
#MNEM.UNIT           DATA             DESCRIPTION OF MNEMONIC
#---------         -----------     ------------------------------
GL  .M        575.767              : gl           - GROUND LEVEL ELEVATION
EREF.M        578.206              : kb           - ELEVATION OF DEPTH REFERENCE
DATM.M        575.767              : datum        - DATUM ELEVATION
TDD .M        429.768              : tdd          - TOTAL DEPTH DRILLER
RUN .         ONE                  : Run          - RUN NUMBER
ENG .         BILL                 : Engineer     - RECORDING ENGINEER
WIT .         JIM                  : Witness      - WITNESSED BY
MUD .         GEL                  : Mud_type     - MUD TYPE
MATR.         SANDSTONE            : Logunit      - NEUTRON MATRIX
TMAX.C        21.1111              : BHT          - MAXIMUM RECORDED TEMPERATURE
BHTD.M        429.768              : BHTDEP       - MAXIMUM RECORDED TEMPERATURE
MATR.         1                    : LOGUNIT      - NEUTRON MATRIX
RMT .C        25                   : MDTP         - TEMPERATURE OF MUD
NEUT.         1                    : NEUTRON      - NEUTRON TYPE
RESI.         0                    : RESIST       - RESISTIVITY TYPE
RMC .OHMM     0.25                 : RMC          - RESISTIVITY OF MUD CAKE
RMF .OHMM     0.25                 : RMF          - RESISTIVITY OF MUD FILTRATE
SUFT.C        15                   : SUFT         - SURFACE TEMPERATURE
~A  DEPTH       GR     PHID     PHIN     RESD
# ...
  365.196   48.551    0.066    0.278    9.148
  365.446   50.725    0.112    0.318    7.741
  365.696   56.244    0.180    0.418    6.844
  365.946   61.807    0.246    0.461    6.184
  366.196   66.230    0.284    0.483    5.835
  366.446   67.981    0.301    0.538    5.690
  366.696   68.763    0.310    0.559    5.695
  366.946   64.414    0.319    0.603    5.694
  367.196   63.160    0.327    0.612    5.678
  367.446   61.141    0.317    0.568    5.916
  367.696   57.657    0.307    0.539    5.909
  367.946   56.373    0.295    0.535    5.919
  368.196   56.966    0.309    0.546    5.807
  368.446   57.255    0.308    0.524    5.807
  368.696   56.889    0.299    0.571    5.809
  368.946   56.875    0.293    0.548    5.707
  369.196   58.769    0.292    0.528    5.697
  369.446   61.413    0.298    0.525    5.684
  369.696   63.808    0.301    0.549    5.588
  369.946   65.318    0.304    0.555    5.593
  370.196   63.551    0.293    0.542    5.594
  370.446   63.577    0.295    0.531    5.931
  370.696   64.621    0.289    0.518    6.332
  370.946   65.987    0.279    0.519    6.734
  371.196   67.505    0.265    0.503    6.863
  371.446   68.499    0.247    0.509    6.827
  371.696   75.104    0.212    0.524    6.740
  371.946   87.629    0.228    0.538    6.286
  372.196   95.947    0.242    0.562    5.887
  372.446   95.555    0.239    0.575    5.716
  372.696   94.156    0.245    0.564    5.546
  372.946   92.852    0.241    0.554    5.385
  373.196   93.749    0.206    0.586    5.398
  373.446   95.565    0.215    0.564    5.244
  373.696   96.501    0.217    0.541    5.195
  373.946   96.030    0.234    0.563    5.125
  374.196   95.709    0.240    0.580    5.094
  374.446   95.305    0.244    0.591    5.193
  374.696   93.243    0.250    0.607    5.249
  374.946   92.879    0.233    0.613    5.450
  375.196   90.298    0.224    0.593    5.994
  375.446   85.574    0.237    0.570    6.327
  375.696   83.105    0.247    0.540    6.534
  375.946   83.632    0.224    0.518    6.736
  376.196   86.434    0.213    0.516    6.879
  376.446   86.972    0.232    0.575    6.865
  376.696   84.821    0.246    0.570    6.864
  376.946   81.818    0.240    0.549    6.865
  377.196   82.174    0.240    0.533    6.865
  377.446   84.485    0.247    0.524    6.776
  377.696   87.358    0.244    0.522    6.708
  377.946   88.720    0.232    0.555    6.618
  378.196   88.648    0.253    0.572    6.495
  378.446   90.300    0.265    0.556    6.368
  378.696   90.137    0.260    0.531    6.270
  378.946   88.998    0.243    0.531    6.212
  379.196   89.505    0.239    0.524    6.012
  379.446   90.986    0.230    0.518    5.924
  379.696   92.868    0.233    0.511    5.795
  379.946   94.820    0.226    0.529    5.806
  380.196   96.718    0.220    0.541    5.629
  380.446   96.195    0.230    0.546    5.461
  380.696   97.721    0.218    0.558    5.298
  380.946   96.319    0.210    0.572    5.138
  381.196   96.015    0.208    0.550    4.982
  381.446   98.112    0.216    0.533    4.910
  381.696  100.850    0.216    0.549    5.048
  381.946  102.025    0.198    0.569    5.313
  382.196  102.552    0.201    0.550    5.657
  382.446   99.563    0.202    0.575    5.942
  382.696   92.360    0.202    0.568    6.542
  382.946   83.900    0.181    0.541    7.212
  383.196   81.081    0.180    0.523    7.741
  383.446   79.178    0.203    0.515    8.592
  383.696   74.741    0.161    0.495    9.431
  383.946   71.277    0.142    0.423   10.059
  384.196   66.730    0.089    0.330   10.719
  384.446   70.350    0.074    0.314    9.703
  384.696   75.252    0.147    0.363    8.463
  384.946   81.165    0.193    0.477    7.340
  385.196   85.831    0.195    0.515    6.923
  385.446   89.711    0.174    0.501    6.868
  385.696   90.707    0.160    0.479    6.975
  385.946   89.263    0.152    0.462    6.996
  386.196   89.384    0.157    0.474    7.000
  386.446   87.317    0.152    0.491    6.996
  386.696   89.746    0.158    0.500    6.956
  386.946   91.781    0.189    0.514    6.872
  387.196   91.397    0.179    0.536    6.748
  387.446   91.210    0.185    0.549    6.614
  387.696   91.174    0.182    0.503    6.510
  387.946   88.620    0.195    0.487    6.574
  388.196   84.516    0.207    0.495    6.840
  388.446   80.250    0.188    0.502    7.751
  388.696   73.094    0.170    0.509    8.661
  388.946   68.126    0.127    0.472    9.453
  389.196   61.525    0.059    0.272    9.889
  389.446   68.752    0.069    0.248    9.955
  389.696   76.991    0.114    0.287    9.965
  389.946   81.078    0.148    0.347    9.833
  390.196   80.213    0.122    0.422    9.750
  390.446   83.293    0.088    0.380    9.278
  390.696   88.607    0.110    0.350    8.683
  390.946   94.104    0.157    0.407    7.930
  391.196   98.665    0.153    0.444    7.734
  391.446  100.539    0.176    0.485    7.329
  391.696  100.774    0.161    0.508    7.128
  391.946  100.733    0.159    0.508    7.123
  392.196  101.530    0.170    0.526    7.274
  392.446  100.091    0.180    0.508    7.418
  392.696   98.079    0.147    0.488    7.555
  392.946   98.251    0.128    0.474    7.602
  393.196  101.969    0.144    0.480    7.545
  393.446  103.558    0.149    0.464    7.565
  393.696  104.409    0.147    0.440    7.407
  393.946  104.422    0.179    0.452    7.158
  394.196  102.596    0.178    0.472    6.937
  394.446  100.121    0.173    0.451    6.721
  394.696   98.759    0.170    0.433    6.623
  394.946   95.702    0.182    0.447    6.629
  395.196   94.244    0.191    0.469    6.638
  395.446   92.961    0.169    0.454    6.742
  395.696   91.709    0.138    0.415    6.851
  395.946   94.877    0.114    0.401    6.621
  396.196   97.288    0.109    0.417    6.091
  396.446   99.772    0.161    0.435    5.235
  396.696  101.977    0.172    0.462    4.116
  396.946  103.412    0.181    0.472    3.443
  397.196  100.649    0.185    0.502    2.853
  397.446   97.853    0.220    0.571    2.633
  397.696   97.121    0.238    0.618    2.426
  397.946   98.845    0.246    0.653    2.291
  398.196  102.837    0.230    0.652    2.220
  398.446  106.066    0.215    0.629    2.299
  398.696  106.171    0.208    0.610    2.395
  398.946  102.578    0.223    0.623    2.589
  399.196   96.070    0.211    0.631    2.916
  399.446   94.849    0.188    0.624    3.461
  399.696   93.487    0.185    0.629    4.219
  399.946   91.454    0.173    0.559    4.830
  400.196   97.389    0.131    0.375    5.380
  400.446  103.469    0.127    0.379    5.783
  400.696  106.733    0.151    0.424    6.176
  400.946  101.876    0.155    0.465    6.561
  401.196   97.812    0.156    0.486    7.083
  401.446   91.521    0.118    0.392    7.451
  401.696   88.675    0.075    0.348    7.804
  401.946   92.825    0.056    0.345    7.997
  402.196   94.924    0.105    0.385    7.984
  402.446   94.038    0.145    0.425    7.979
  402.696   87.880    0.135    0.454    7.940
  402.946   82.380    0.131    0.443    7.836
  403.196   84.228    0.079    0.401    7.834
  403.446   92.000    0.098    0.395    7.820
  403.696   96.390    0.126    0.434    8.118
  403.946   98.175    0.123    0.482    7.961
  404.196   99.112    0.110    0.503    7.977
  404.446   98.631    0.130    0.491    8.206
  404.696   96.618    0.124    0.469    8.916
  404.946   91.499    0.112    0.480    9.677
  405.196   85.293    0.066    0.440   10.834
  405.446   80.824    0.015    0.341   11.295
  405.696   90.144    0.021    0.313   11.796
  405.946   92.905    0.054    0.335   11.826
  406.196   93.363    0.078    0.343   11.197
  406.446   91.903    0.097    0.359   10.033
  406.696   92.859    0.102    0.362    8.979
  406.946   93.798    0.113    0.365    8.017
  407.196   95.376    0.120    0.378    7.467
  407.446   95.573    0.125    0.394    6.613
  407.696   98.838    0.117    0.412    6.131
  407.946  102.717    0.106    0.428    5.767
  408.196  106.436    0.150    0.440    5.459
  408.446  109.329    0.149    0.460    5.304
