~VERSION INFORMATION
 VERS.                 2.0:   CWLS LOG ASCII STANDARD -VERSION 2.0
 WRAP.                  NO:   ONE LINE PER DEPTH STEP
~WELL INFORMATION BLOCK
#MNEM.UNIT           DATA                    DESCRIPTION OF MNEMONIC
#---------    -------------------            -------------------------------
# Generated from Intellog Unique Number	CS_73_76/WELL/3264
WELL.         BOW VALLEY INDUSTRIES LTD      : Well_name    - WELL
LOC .         00/11-18-075-12W4/0            : Location     - LOCATION
UWI .         00/11-18-075-12W4/0            : Uwi          - UNIQUE WELL ID
ENTR.         SP                             : Entered      - ENTERED BY
SRVC.         SCHLUMBERGER                   : Scn          - SERVICE COMPANY
STRT.M        315                            : top_depth    - START DEPTH
STOP.M        534                            : bot_depth    - STOP DEPTH
STEP.M        0.25                           : increment    - STEP LENGTH
 NULL. -999.2500:NULL Value
~CURVE INFORMATION BLOCK
#MNEM UNIT       ERCB CURVE CODE    CURVE DESCRIPTION
#-----------   ------------------   ----------------------------------
DEPT.M        00 001 00 00         : DEPTH        - DEPTH
ILD .OHMM     00 120 00 00         : RESD         - DEEP RESISTIVITY (DIL)
NPHI.V/V      00 330 00 00         : PHIN         - NEUTRON POROSITY (LIMESTONE)
DPHI.V/V      00 890 00 00         : PHID         - DENSITY POROSITY (LIMESTONE)
GR  .API      00 310 00 00         : GR           - GAMMA RAY
~PARAMETER INFORMATION
#MNEM.UNIT           DATA             DESCRIPTION OF MNEMONIC
#---------         -----------     ------------------------------
GL  .M        685.02               : gl           - GROUND LEVEL ELEVATION
EREF.M        688.37               : kb           - ELEVATION OF DEPTH REFERENCE
DATM.M        685.02               : datum        - DATUM ELEVATION
TDD .M        544                  : tdd          - TOTAL DEPTH DRILLER
RUN .         ONE                  : Run          - RUN NUMBER
ENG .         BILL                 : Engineer     - RECORDING ENGINEER
WIT .         JIM                  : Witness      - WITNESSED BY
MUD .         GEL                  : Mud_type     - MUD TYPE
MATR.         LIMESTONE            : Logunit      - NEUTRON MATRIX
TMAX.C        23.9                 : BHT          - MAXIMUM RECORDED TEMPERATURE
BHTD.M        537                  : BHTDEP       - MAXIMUM RECORDED TEMPERATURE
MATR.         1                    : LOGUNIT      - NEUTRON MATRIX
RMT .C        25                   : MDTP         - TEMPERATURE OF MUD
NEUT.         1                    : NEUTRON      - NEUTRON TYPE
RESI.         0                    : RESIST       - RESISTIVITY TYPE
RMC .OHMM     0.25                 : RMC          - RESISTIVITY OF MUD CAKE
RMF .OHMM     0.25                 : RMF          - RESISTIVITY OF MUD FILTRATE
SUFT.C        15                   : SUFT         - SURFACE TEMPERATURE
~A  DEPTH     RESD     PHIN     PHID       GR
  315.000    1.225    0.500    0.222  107.657
  315.250    3.709    0.500    0.227  106.441
  315.500    3.573    0.502    0.235  109.453
  315.750    3.380    0.515    0.224  110.054
  316.000    3.256    0.492    0.226  111.862
  316.250    3.195    0.480    0.230  111.856
  316.500    3.135    0.502    0.239  109.430
  316.750    3.134    0.520    0.243  110.633
  317.000    3.133    0.499    0.236  108.811
  317.250    3.191    0.474    0.245  106.991
  317.500    3.371    0.463    0.234  103.959
  317.750    3.497    0.484    0.224  106.372
  318.000    3.763    0.471    0.230  106.970
  318.250    3.977    0.480    0.238  106.358
  318.500    3.975    0.471    0.243  108.165
  318.750    3.557    0.493    0.251  106.947
  319.000    3.242    0.504    0.248  104.523
  319.250    3.123    0.492    0.254   96.652
  319.500    3.826    0.518    0.243   89.388
  319.750    4.433    0.504    0.258   82.728
  320.000    5.232    0.467    0.279   75.465
  320.250    5.632    0.480    0.315   67.593
  320.500    7.427    0.521    0.375   64.562
  320.750   10.351    0.553    0.412   61.531
  321.000   11.349    0.538    0.355   63.338
  321.250   11.772    0.470    0.349   63.937
  321.500   11.767    0.430    0.351   66.348
  321.750   11.764    0.435    0.336   66.947
  322.000   11.976    0.424    0.347   67.542
  322.250   11.972    0.423    0.351   68.749
  322.500   11.970    0.410    0.335   66.925
  322.750   11.745    0.402    0.333   67.525
  323.000   11.742    0.395    0.318   69.938
  323.250   11.736    0.406    0.301   73.560
  323.500   11.518    0.412    0.283   72.948
  323.750   11.514    0.389    0.274   74.755
  324.000   11.298    0.376    0.283   78.378
  324.250   11.296    0.389    0.288   83.209
  324.500   10.487    0.393    0.281   86.831
  324.750    9.919    0.394    0.267   91.663
  325.000    9.040    0.404    0.256   97.701
  325.250    8.241    0.407    0.248  101.927
  325.500    7.511    0.418    0.235  104.340
  325.750    6.973    0.424    0.236  106.754
  326.000    6.971    0.429    0.241  108.563
  326.250    6.969    0.437    0.236  110.975
  326.500    7.229    0.443    0.241  110.969
  326.750    7.637    0.454    0.232  105.518
  327.000    8.220    0.477    0.261   98.859
  327.250    8.685    0.434    0.281   90.384
  327.500    9.699    0.412    0.309   82.515
  327.750   10.633    0.409    0.327   86.740
  328.000   11.031    0.412    0.323   89.155
  328.250   11.655    0.417    0.317   94.588
  328.500   12.088    0.422    0.305   96.399
  328.750   12.084    0.436    0.300  101.228
  329.000   11.857    0.443    0.289  106.663
  329.250   11.636    0.434    0.281  107.869
  329.500   11.849    0.411    0.267  107.257
  329.750   12.066    0.404    0.258  100.598
  330.000   12.287    0.388    0.257   88.493
  330.250   12.746    0.360    0.249   78.810
  330.500   13.221    0.340    0.235   71.545
  330.750   13.714    0.362    0.248   66.701
  331.000   13.707    0.390    0.265   59.433
  331.250   13.205    0.370    0.286   56.404
  331.500   12.723    0.356    0.309   58.817
  331.750   11.383    0.365    0.287   67.277
  332.000   10.767    0.377    0.265   76.342
  332.250    9.634    0.394    0.237   84.197
  332.500    8.781    0.404    0.242   89.633
  332.750    7.857    0.421    0.219   92.047
  333.000    7.855    0.418    0.143   95.062
  333.250    8.146    0.409    0.150  101.103
  333.500    8.296    0.412    0.196  104.123
  333.750    7.562    0.430    0.212  110.768
  334.000    6.642    0.447    0.183  116.206
  334.250    6.167    0.465    0.161  116.804
  334.500    5.621    0.465    0.151  118.612
  334.750    5.517    0.475    0.196  122.234
  335.000    5.217    0.470    0.212  124.646
  335.250    5.026    0.465    0.197  129.477
  335.500    4.666    0.461    0.217  134.309
  335.750    4.413    0.478    0.199  130.067
  336.000    4.174    0.500    0.210  127.037
  336.250    3.804    0.509    0.218  131.265
  336.500    3.665    0.527    0.199  128.836
  336.750    3.467    0.533    0.211  127.017
  337.000    3.339    0.547    0.228  125.194
  337.250    3.338    0.556    0.233  122.769
  337.500    3.728    0.545    0.206  120.343
  337.750    4.164    0.541    0.238  116.705
  338.000    4.915    0.513    0.275  113.070
  338.250    6.363    0.476    0.290  107.618
  338.500    7.650    0.423    0.301  105.799
  338.750    8.865    0.436    0.276  110.024
  339.000   10.083    0.443    0.275  113.648
  339.250   10.269    0.447    0.286  109.408
  339.500   10.653    0.429    0.295  106.378
  339.750   10.846    0.423    0.306  105.764
  340.000   10.841    0.426    0.312  102.732
  340.250   10.839    0.447    0.317  100.309
  340.500   10.835    0.454    0.313   95.462
  340.750   11.237    0.468    0.294   89.405
  341.000   11.235    0.448    0.277   86.982
  341.250   10.239    0.433    0.262   92.417
  341.500    9.162    0.423    0.233  101.482
  341.750    8.507    0.413    0.142  109.338
  342.000    7.898    0.439    0.162  116.590
  342.250    7.471    0.459    0.203  123.840
  342.500    7.331    0.478    0.229  118.388
  342.750    8.186    0.450    0.257  114.755
  343.000    8.650    0.417    0.262  108.700
  343.250    9.659    0.407    0.267  108.088
  343.500    9.837    0.423    0.276  106.872
  343.750   10.394    0.446    0.280  103.233
  344.000   10.780    0.458    0.288  100.808
  344.250   10.977    0.432    0.289   97.777
  344.500   10.974    0.411    0.291   92.931
  344.750   10.769    0.406    0.277   93.531
  345.000   10.186    0.411    0.270  105.618
  345.250    9.457    0.428    0.255  111.660
  345.500    8.779    0.434    0.254  115.889
  345.750    8.617    0.429    0.259  120.720
  346.000    8.300    0.423    0.249  123.737
  346.250    8.147    0.417    0.241  123.729
  346.500    8.143    0.411    0.236  119.489
  346.750    8.447    0.423    0.251  111.620
  347.000    9.259    0.428    0.279  104.356
  347.250    9.784    0.415    0.299   94.066
  347.500   10.339    0.398    0.299   88.012
  347.750   11.333    0.390    0.296   86.190
  348.000   11.755    0.393    0.290   88.600
  348.250   11.752    0.401    0.282   89.806
  348.500   11.115    0.405    0.272   92.217
  348.750    9.946    0.415    0.261   98.863
  349.000    8.900    0.434    0.238  102.486
  349.250    7.673    0.450    0.218  108.526
  349.500    7.394    0.465    0.208  106.100
  349.750    7.255    0.472    0.229   95.207
  350.000    7.954    0.460    0.281   85.523
  350.250    8.405    0.448    0.295   84.307
  350.500    9.560    0.440    0.312   80.670
  350.750   10.102    0.433    0.323   77.638
  351.000   10.287    0.421    0.301   79.448
  351.250    9.910    0.417    0.275   87.301
  351.500    8.867    0.410    0.264   90.926
  351.750    7.934    0.425    0.270   94.547
  352.000    7.505    0.436    0.263  100.586
  352.250    7.096    0.448    0.258  103.605
  352.500    6.965    0.466    0.260  103.598
  352.750    6.835    0.478    0.249  101.776
  353.000    6.708    0.470    0.260  105.400
  353.250    6.705    0.462    0.251  110.230
  353.500    6.827    0.449    0.264  112.040
  353.750    6.953    0.443    0.275  114.452
  354.000    7.482    0.433    0.260  111.420
  354.250    7.620    0.427    0.277  105.364
  354.500    8.200    0.436    0.282  103.544
  354.750    8.505    0.443    0.260  100.513
  355.000    8.661    0.439    0.246   98.088
  355.250    8.821    0.427    0.250  100.499
  355.500    8.980    0.429    0.262  101.702
  355.750    9.315    0.446    0.276   99.277
  356.000    9.485    0.452    0.282   96.244
  356.250    9.483    0.449    0.270   96.838
  356.500    9.479    0.442    0.264   98.042
  356.750    8.965    0.437    0.250   99.246
  357.000    8.172    0.448    0.239  100.451
  357.250    7.587    0.455    0.229  106.493
  357.500    6.916    0.444    0.219  111.928
  357.750    6.420    0.424    0.221  111.317
  358.000    6.301    0.437    0.238  103.447
  358.250    6.657    0.454    0.247   99.207
