~VERSION INFORMATION
 VERS.                 2.0:   CWLS LOG ASCII STANDARD -VERSION 2.0
 WRAP.                  NO:   ONE LINE PER DEPTH STEP
~WELL INFORMATION BLOCK
#MNEM.UNIT           DATA                    DESCRIPTION OF MNEMONIC
#---------    -------------------            -------------------------------
# Generated from Intellog Unique Number	CW_70_72/WELL/3032
NULL.         -999.25                        : NULL_VALUE
WELL.         DECALTA ET AL SMITH 11-27      : Well_name    - WELL              
LOC .         11-27-070-01W5                 : Location     - LOCATION          
UWI .         00/11-27-070-01W5/0            : Uwi          - UNIQUE WELL ID    
ENTR.         JAYE                           : Entered      - ENTERED BY        
SRVC.         SCHLUMBERGER                   : Scn          - SERVICE COMPANY   
DATE.         7 FEB 78                       : Date         - LOG DATE          
STRT.M        384.048                        : top_depth    - START DEPTH       
STOP.M        634.048                        : bot_depth    - STOP DEPTH        
STEP.M        0.25                           : increment    - STEP LENGTH       
~CURVE INFORMATION BLOCK
#MNEM UNIT       ERCB CURVE CODE    CURVE DESCRIPTION
#-----------   ------------------   ----------------------------------
DEPT.M        00 001 00 00         : DEPTH        - DEPTH                       
ILD .OHMM     00 120 00 00         : RESD         - DEEP RESISTIVITY (DIL)      
CALI.MM       00 280 01 00         : CAL          - CALIPER                     
GR  .API      00 310 00 00         : GR           - GAMMA RAY                   
NPHI.V/V      00 330 00 00         : PHIN         - NEUTRON POROSITY (SANDSTONE)
DPHI.V/V      00 890 00 00         : PHID         - DENSITY POROSITY (SANDSTONE)
~PARAMETER INFORMATION       
#MNEM.UNIT           DATA             DESCRIPTION OF MNEMONIC
#---------         -----------     ------------------------------
GL  .M        559.918              : gl           - GROUND LEVEL ELEVATION      
EREF.M        562.966              : kb           - ELEVATION OF DEPTH REFERENCE
DATM.M        559.918              : datum        - DATUM ELEVATION             
TDD .M        642.214              : tdd          - TOTAL DEPTH DRILLER         
RUN .         ONE                  : Run          - RUN NUMBER                  
ENG .         GUNN                 : Engineer     - RECORDING ENGINEER          
WIT .         WALLGREN             : Witness      - WITNESSED BY                
BASE.         EDM                  : Branch       - HOME BASE OF LOGGING UNIT   
MUD .         GEL CHEM             : Mud_type     - MUD TYPE                    
MATR.         SANDSTONE            : Logunit      - NEUTRON MATRIX              
TMAX.C        -17.7778             : BHT          - MAXIMUM RECORDED TEMPERATURE
BHTD.M        641.604              : BHTDEP       - MAXIMUM RECORDED TEMPERATURE
RMT .C        15.5556              : MDTP         - TEMPERATURE OF MUD          
MUDD.KG/M     1152                 : MWT          - MUD DENSITY                 
NEUT.         1                    : NEUTRON      - NEUTRON TYPE                
RESI.         0                    : RESIST       - RESISTIVITY TYPE            
RM  .OHMM     2.61                 : RM           - RESISTIVITY OF MUD          
RMC .OHMM     0.25                 : RMC          - RESISTIVITY OF MUD CAKE     
RMF .OHMM     1.93                 : RMF          - RESISTIVITY OF MUD FILTRATE 
SUFT.C        -17.7778             : SUFT         - SURFACE TEMPERATURE         
~A  DEPTH     RESD      CAL       GR     PHIN     PHID
# ...
  493.548    2.827  153.863   91.733    0.449    0.265
  493.798    2.725  154.495   83.359    0.432    0.242
  494.048    2.592  154.811   79.266    0.431    0.230
  494.298    2.470  154.288   74.800    0.423    0.253
  494.548    2.350  153.869   74.615    0.425    0.253
  494.798    2.329  153.451   76.291    0.441    0.247
  495.048    2.364  153.558   76.912    0.443    0.240
  495.298    2.469  153.770   77.285    0.440    0.235
  495.548    2.607  153.666   77.844    0.433    0.230
  495.798    2.804  153.667   82.995    0.428    0.230
  496.048    2.945  153.984   86.841    0.422    0.213
  496.298    2.875  154.091   90.999    0.417    0.190
  496.548    2.601  154.513   89.635    0.427    0.202
  496.798    2.353  154.829   86.224    0.442    0.211
  497.048    2.160  154.831   82.627    0.449    0.218
  497.298    2.062  154.622   78.844    0.445    0.243
  497.548    2.036  154.414   75.991    0.436    0.254
  497.798    2.080  154.311   76.923    0.445    0.259
  498.048    2.143  153.997   82.010    0.454    0.269
  498.298    2.271  153.893   85.981    0.443    0.272
  498.548    2.444  153.685   89.519    0.426    0.264
  498.798    2.528  153.792   91.505    0.421    0.244
  499.048    2.487  154.213   91.567    0.428    0.230
  499.298    2.388  154.425   92.623    0.428    0.220
  499.548    2.371  154.637   91.756    0.413    0.215
  499.798    2.435  154.639   86.546    0.406    0.213
  500.048    2.509  154.850   80.219    0.423    0.224
  500.298    2.600  154.852   73.458    0.430    0.254
  500.548    2.834  154.854   71.226    0.424    0.255
  500.798    2.981  154.855   71.289    0.410    0.223
  501.048    3.219  154.226   69.367    0.399    0.210
  501.298    3.418  154.123   66.824    0.385    0.217
  501.548    3.307  154.335   64.468    0.377    0.207
  501.798    3.105  154.441   61.863    0.378    0.188
  502.048    2.899  154.233   60.313    0.372    0.173
  502.298    2.758  153.604   63.416    0.355    0.166
  502.548    2.589  152.135   64.844    0.375    0.208
  502.798    2.409  150.771   66.830    0.395    0.245
  503.048    2.283  149.933   72.600    0.405    0.262
  503.298    2.246  149.724   73.469    0.415    0.269
  503.548    2.250  149.831   73.657    0.419    0.268
  503.798    2.306  149.937   74.154    0.426    0.260
  504.048    2.477  150.044   75.520    0.432    0.256
  504.298    2.679  150.151   77.010    0.438    0.233
  504.548    2.920  150.362   77.010    0.438    0.222
  504.798    3.049  150.784   75.584    0.425    0.236
  505.048    3.268  151.311   72.546    0.410    0.193
  505.298    3.483  151.943   69.879    0.400    0.199
  505.548    3.678  152.995   68.267    0.383    0.195
  505.798    3.883  154.152   66.903    0.372    0.175
  506.048    3.936  155.099   65.726    0.360    0.163
  506.298    3.244  156.046   65.106    0.375    0.160
  506.548    3.080  156.678   65.603    0.369    0.164
  506.798    2.750  156.995   68.086    0.373    0.191
  507.048    2.501  157.101   71.064    0.405    0.238
  507.298    2.335  157.313   75.594    0.474    0.286
  507.548    2.398  156.789   79.565    0.501    0.312
  507.798    2.528  156.371   85.149    0.476    0.336
  508.048    2.644  155.427   91.540    0.465    0.262
  508.298    2.776  154.273   97.744    0.454    0.235
  508.548    2.948  154.170  102.026    0.443    0.207
  508.798    3.124  154.907  104.074    0.433    0.232
  509.048    3.226  156.169  104.261    0.417    0.215
  509.298    3.344  158.587  103.083    0.411    0.208
  509.548    3.407  160.479  102.774    0.428    0.198
  509.798    3.480  161.846  104.140    0.437    0.184
  510.048    3.507  162.478  105.815    0.413    0.179
  510.298    3.521  162.374  105.320    0.418    0.181
  510.548    3.522  161.956  103.150    0.428    0.186
  510.798    3.504  161.327  102.406    0.436    0.199
  511.048    3.492  159.648  102.655    0.436    0.201
  511.298    3.480  158.074  104.393    0.415    0.195
  511.548    3.462  159.757  108.427    0.399    0.174
  511.798    3.444  162.384  114.197    0.407    0.182
  512.048    3.394  163.962  115.563    0.415    0.192
  512.298    3.358  164.803  115.998    0.421    0.175
  512.548    3.365  164.805  114.014    0.426    0.171
  512.798    3.360  164.282  109.238    0.444    0.170
  513.048    3.360  162.287   97.204    0.430    0.169
  513.298    3.369  156.722   88.892    0.411    0.166
  513.548    3.401  152.626   90.940    0.403    0.164
  513.798    3.486  148.846   98.696    0.401    0.156
  514.048    3.540  152.104  104.714    0.404    0.187
  514.298    3.541  155.992  107.134    0.418    0.194
  514.548    3.510  162.087  103.289    0.434    0.172
  514.798    3.496  163.349  103.166    0.449    0.188
  515.048    3.396  162.720  106.393    0.430    0.194
  515.298    3.347  161.566  105.091    0.430    0.181
  515.548    3.287  158.837  104.782    0.437    0.169
  515.798    3.263  156.738  106.954    0.447    0.181
  516.048    3.270  155.164  106.645    0.454    0.176
  516.298    3.564  154.325  104.661    0.469    0.190
  516.548    3.973  154.326  100.815    0.457    0.205
  516.798    4.605  154.433   98.211    0.413    0.200
  517.048    5.171  154.014   90.954    0.392    0.209
  517.298    6.095  154.331   84.627    0.349    0.226
  517.548    6.730  156.119   77.680    0.324    0.186
  517.798    6.134  158.011   76.813    0.313    0.152
  518.048    5.823  156.437   77.310    0.329    0.144
  518.298    5.366  158.540   83.390    0.363    0.150
  518.548    4.686  161.903   90.339    0.388    0.158
  518.798    4.359  162.114   96.854    0.405    0.162
  519.048    4.108  159.700   96.172    0.419    0.170
  519.298    3.952  161.172   95.057    0.423    0.171
  519.548    3.953  162.014   98.407    0.409    0.164
  519.798    3.999  162.856  104.240    0.397    0.158
  520.048    4.145  163.908  106.474    0.418    0.156
  520.298    4.288  164.750  105.296    0.431    0.148
  520.548    4.361  165.803  100.955    0.431    0.140
  520.798    4.546  166.539  105.298    0.422    0.152
  521.048    4.659  167.171  109.704    0.419    0.164
  521.298    4.713  167.488  111.193    0.422    0.132
  521.548    4.732  167.384  111.194    0.425    0.138
  521.798    4.716  167.176  110.451    0.419    0.131
  522.048    4.631  167.283  109.149    0.406    0.118
  522.298    4.530  167.284  108.095    0.394    0.125
  522.548    4.358  166.971  109.399    0.388    0.138
  522.798    4.168  166.342  110.889    0.403    0.148
  523.048    3.849  165.503  108.222    0.414    0.163
  523.298    3.668  164.979  103.261    0.431    0.173
  523.548    3.528  163.511  100.098    0.433    0.172
  523.798    3.576  162.777   99.354    0.417    0.166
  524.048    3.624  163.514  103.015    0.405    0.160
  524.298    3.652  164.671  107.049    0.398    0.156
  524.548    3.423  164.882  110.958    0.395    0.155
  524.798    3.184  164.674  112.758    0.402    0.154
  525.048    2.891  164.360  106.679    0.411    0.160
  525.298    2.581  162.892   95.824    0.416    0.178
  525.548    2.370  159.952   87.512    0.422    0.221
  525.798    2.209  156.802   78.332    0.421    0.250
  526.048    2.193  153.652   70.765    0.420    0.279
  526.298    2.273  150.397   69.339    0.413    0.276
  526.548    2.450  149.139   68.347    0.403    0.261
  526.798    2.611  151.451   68.038    0.395    0.251
  527.048    2.762  153.764   67.915    0.416    0.247
  527.298    2.906  155.761   67.730    0.418    0.246
  527.548    2.967  157.549   67.483    0.414    0.247
  527.798    2.957  157.445   66.987    0.409    0.249
  528.048    2.871  156.186   66.368    0.408    0.253
  528.298    2.721  155.663   66.989    0.413    0.260
  528.548    2.617  155.244   68.913    0.424    0.264
  528.798    2.476  154.196   69.907    0.429    0.273
  529.048    2.342  151.886   71.024    0.434    0.280
  529.298    2.253  150.417   73.010    0.440    0.281
  529.548    2.204  153.780   74.562    0.446    0.280
  529.798    2.176  156.513   76.672    0.449    0.272
