~VERSION INFORMATION
 VERS.                 2.0:   CWLS LOG ASCII STANDARD -VERSION 2.0
 WRAP.                  NO:   ONE LINE PER DEPTH STEP
~WELL INFORMATION BLOCK
#MNEM.UNIT           DATA                    DESCRIPTION OF MNEMONIC
#---------    -------------------            -------------------------------
# Generated from Intellog Unique Number	CS_73_76/WELL/2208
WELL.         DOME PETROLEUM LIMITED         : Well_name    - WELL
LOC .         00/12-08-074-10W4/0            : Location     - LOCATION
UWI .         00/12-08-074-10W4/0            : Uwi          - UNIQUE WELL ID
ENTR.         SP                             : Entered      - ENTERED BY
SRVC.         SCHLUMBERGER                   : Scn          - SERVICE COMPANY
STRT.M        285                            : top_depth    - START DEPTH
STOP.M        515                            : bot_depth    - STOP DEPTH
STEP.M        0.25                           : increment    - STEP LENGTH
 NULL. -999.2500:NULL Value
~CURVE INFORMATION BLOCK
#MNEM UNIT       ERCB CURVE CODE    CURVE DESCRIPTION
#-----------   ------------------   ----------------------------------
DEPT.M        00 001 00 00         : DEPTH        - DEPTH
ILD .OHMM     00 120 00 00         : RESD         - DEEP RESISTIVITY (DIL)
DPHI.V/V      00 890 00 00         : PHID         - DENSITY POROSITY (LIMESTONE)
NPHI.V/V      00 330 00 00         : PHIN         - NEUTRON POROSITY (LIMESTONE)
GR  .API      00 310 00 00         : GR           - GAMMA RAY
~PARAMETER INFORMATION
#MNEM.UNIT           DATA             DESCRIPTION OF MNEMONIC
#---------         -----------     ------------------------------
GL  .M        658.95               : gl           - GROUND LEVEL ELEVATION
EREF.M        663                  : kb           - ELEVATION OF DEPTH REFERENCE
DATM.M        658.95               : datum        - DATUM ELEVATION
TDD .M        527                  : tdd          - TOTAL DEPTH DRILLER
RUN .         ONE                  : Run          - RUN NUMBER
ENG .         BILL                 : Engineer     - RECORDING ENGINEER
WIT .         JIM                  : Witness      - WITNESSED BY
MUD .         GEL                  : Mud_type     - MUD TYPE
MATR.         LIMESTONE            : Logunit      - NEUTRON MATRIX
TMAX.C        23                   : BHT          - MAXIMUM RECORDED TEMPERATURE
BHTD.M        527                  : BHTDEP       - MAXIMUM RECORDED TEMPERATURE
MATR.         1                    : LOGUNIT      - NEUTRON MATRIX
RMT .C        25                   : MDTP         - TEMPERATURE OF MUD
NEUT.         1                    : NEUTRON      - NEUTRON TYPE
RESI.         0                    : RESIST       - RESISTIVITY TYPE
RMC .OHMM     0.25                 : RMC          - RESISTIVITY OF MUD CAKE
RMF .OHMM     0.25                 : RMF          - RESISTIVITY OF MUD FILTRATE
SUFT.C        15                   : SUFT         - SURFACE TEMPERATURE
~A  DEPTH     RESD     PHID     PHIN       GR
# ...
  459.000   13.612    0.246    0.339   65.230
  459.250   15.246    0.239    0.349   62.764
  459.500   16.444    0.248    0.353   59.684
  459.750   17.735    0.256    0.341   54.141
  460.000   20.630    0.265    0.336   55.364
  460.250   22.251    0.265    0.349   55.973
  460.500   23.549    0.271    0.340   49.202
  460.750   27.395    0.276    0.334   46.120
  461.000   31.870    0.282    0.326   47.339
  461.250   37.076    0.278    0.330   49.794
  461.500   41.529    0.270    0.344   54.703
  461.750   43.951    0.272    0.351   58.999
  462.000   43.122    0.274    0.349   62.679
  462.250   37.059    0.276    0.340   66.356
  462.500   31.252    0.280    0.336   70.037
  462.750   24.433    0.274    0.351   73.104
  463.000   20.219    0.245    0.361   70.638
  463.250   17.708    0.238    0.366   66.943
  463.500   15.805    0.244    0.357   71.236
  463.750   15.507    0.248    0.365   75.531
  464.000   14.929    0.249    0.351   73.678
  464.250   14.648    0.253    0.349   72.444
  464.500   14.102    0.238    0.344   71.820
  464.750   13.836    0.218    0.340   74.884
  465.000   13.321    0.202    0.349   79.180
  465.250   13.070    0.218    0.354   82.862
  465.500   12.115    0.206    0.362   89.615
  465.750   11.445    0.191    0.359   93.913
  466.000   11.019    0.193    0.361   98.207
  466.250   10.410    0.201    0.367  100.044
  466.500   10.023    0.206    0.376   98.191
  466.750   10.213    0.205    0.375   91.420
  467.000   11.015    0.207    0.355   84.038
  467.250   12.573    0.225    0.342   70.504
  467.500   15.777    0.246    0.328   61.892
  467.750   17.342    0.273    0.324   51.433
  468.000   21.761    0.296    0.338   50.810
  468.250   25.799    0.315    0.355   55.103
  468.500   28.356    0.308    0.364   58.170
  468.750   29.447    0.296    0.352   60.621
  469.000   23.910    0.286    0.353   61.845
  469.250   18.342    0.272    0.358   61.222
  469.500   16.372    0.216    0.352   64.287
  469.750   14.612    0.210    0.338   63.663
  470.000   13.805    0.216    0.330   59.968
  470.250   13.041    0.236    0.320   58.117
  470.500   12.320    0.248    0.315   62.410
  470.750   11.861    0.224    0.333   67.319
  471.000   11.638    0.220    0.344   69.773
  471.250   11.204    0.211    0.341   74.068
  471.500   11.203    0.206    0.336   77.133
  471.750   11.415    0.227    0.346   78.356
  472.000   11.855    0.237    0.341   75.273
  472.250   13.791    0.234    0.335   71.574
  472.500   17.636    0.224    0.324   69.726
  472.750   20.132    0.234    0.321   62.956
  473.000   20.515    0.131    0.326   53.113
  473.250   19.017    0.147    0.317   48.799
  473.500   16.037    0.204    0.298   50.636
  473.750   14.587    0.245    0.319   56.162
  474.000   13.269    0.263    0.346   63.532
  474.250   12.069    0.262    0.363   81.965
  474.500   11.401    0.247    0.391   92.407
  474.750   10.771    0.225    0.414   96.089
  475.000    9.257    0.184    0.436   96.697
  475.250    7.517    0.192    0.460   88.696
  475.500    6.709    0.205    0.435   77.009
  475.750    6.836    0.272    0.369   67.164
  476.000    7.804    0.268    0.345   65.926
  476.250    9.609    0.268    0.335   64.690
  476.500   12.057    0.292    0.337   59.150
  476.750   13.764    0.313    0.329   52.380
  477.000   14.025    0.320    0.323   47.453
  477.250   11.606    0.315    0.315   45.603
  477.500    8.573    0.312    0.329   44.364
  477.750    6.961    0.308    0.334   45.588
  478.000    5.870    0.302    0.341   44.349
  478.250    5.141    0.320    0.339   43.727
  478.500    4.950    0.330    0.341   44.947
  478.750    4.676    0.347    0.349   43.095
  479.000    4.588    0.339    0.344   44.319
  479.250    4.587    0.282    0.331   50.457
  479.500    4.587    0.252    0.326   55.980
  479.750    4.763    0.234    0.321   60.275
  480.000    4.946    0.216    0.315   63.343
  480.250    5.137    0.239    0.330   61.491
  480.500    5.334    0.259    0.354   59.637
  480.750    5.645    0.282    0.365   59.632
  481.000    5.753    0.288    0.362   60.854
  481.250    5.538    0.292    0.351   59.001
  481.500    5.232    0.307    0.352   57.150
  481.750    5.133    0.306    0.344   57.142
  482.000    5.231    0.304    0.339   57.749
  482.250    5.330    0.295    0.348   59.584
  482.500    5.535    0.277    0.356   62.036
  482.750    5.858    0.264    0.359   67.561
  483.000    6.318    0.250    0.359   73.086
  483.250    6.686    0.239    0.355   78.608
  483.500    7.076    0.222    0.353   83.518
  483.750    7.348    0.210    0.348   87.199
  484.000    7.631    0.202    0.343   91.494
  484.250    8.076    0.195    0.353   94.561
  484.500    8.386    0.188    0.362   97.627
  484.750    8.385    0.175    0.361   97.619
  485.000    8.384    0.176    0.350   91.463
  485.250    8.543    0.178    0.344   81.618
  485.500    8.543    0.175    0.344   77.308
  485.750    8.871    0.169    0.334   75.456
  486.000    9.039    0.165    0.333   74.833
  486.250    9.211    0.174    0.332   75.442
  486.500    9.386    0.188    0.331   78.508
  486.750    9.385    0.193    0.338   80.959
  487.000    9.384    0.186    0.348   81.566
  487.250    9.384    0.185    0.359   81.557
  487.500    9.207    0.196    0.349   82.165
  487.750    9.206    0.202    0.343   84.001
  488.000    9.205    0.206    0.342   84.607
  488.250    9.558    0.198    0.343   81.526
  488.500    9.926    0.195    0.341   79.674
  488.750   10.505    0.204    0.342   79.667
  489.000   12.454    0.215    0.339   73.511
  489.250   14.217    0.227    0.336   58.134
  489.500   17.839    0.256    0.327   54.440
  489.750   23.693    0.283    0.325   55.045
  490.000   27.046    0.275    0.316   54.424
  490.250   29.169    0.288    0.318   46.425
  490.500   27.557    0.294    0.323   45.803
  490.750   20.744    0.288    0.328   57.473
  491.000   14.206    0.248    0.330   63.612
  491.250   12.208    0.227    0.326   67.907
  491.500   11.105    0.224    0.331   72.818
  491.750   10.101    0.226    0.332   75.884
  492.000    9.364    0.247    0.327   66.655
  492.250    8.846    0.272    0.327   60.500
  492.500    8.517    0.278    0.335   61.107
  492.750    8.045    0.262    0.341   67.244
  493.000    7.458    0.230    0.358   69.697
  493.250    6.784    0.223    0.351   71.532
  493.500    6.531    0.229    0.331   70.293
  493.750    5.941    0.236    0.340   68.445
  494.000    5.719    0.261    0.358   64.749
  494.250    5.612    0.258    0.357   73.344
  494.500    5.402    0.232    0.352   75.184
  494.750    5.301    0.241    0.346   69.026
  495.000    5.201    0.260    0.357   65.332
  495.250    5.201    0.272    0.355   61.636
  495.500    5.200    0.262    0.356   61.628
  495.750    5.298    0.251    0.371   65.309
  496.000    5.399    0.241    0.372   71.448
  496.250    5.399    0.235    0.376   81.889
  496.500    5.197    0.225    0.382   84.957
  496.750    4.818    0.219    0.388   84.334
  497.000    4.639    0.233    0.378   76.335
  497.250    4.219    0.257    0.368   59.729
  497.500    3.766    0.279    0.352   53.572
  497.750    3.298    0.287    0.362   49.261
  498.000    3.175    0.259    0.367   53.559
  498.250    3.057    0.289    0.355   45.559
  498.500    3.000    0.310    0.351   38.789
  498.750    2.943    0.341    0.344   38.167
  499.000    2.887    0.333    0.362   40.617
  499.250    2.887    0.320    0.357   38.763
  499.500    2.942    0.302    0.352   39.370
  499.750    2.887    0.283    0.339   41.209
  500.000    3.183    0.297    0.341   38.411
  500.250    3.185    0.294    0.351   37.743
  500.500    3.068    0.301    0.350   40.782
  500.750    2.845    0.309    0.341   41.353
  501.000    2.741    0.326    0.344   36.353
  501.250    2.692    0.342    0.350   33.820
  501.500    2.593    0.321    0.350   34.998
  501.750    2.594    0.301    0.350   39.914
  502.000    2.646    0.296    0.351   43.590
  502.250    2.699    0.313    0.336   42.918
