~VERSION INFORMATION
 VERS.                 2.0:   CWLS LOG ASCII STANDARD -VERSION 2.0
 WRAP.                  NO:   ONE LINE PER DEPTH STEP
~WELL INFORMATION BLOCK
#MNEM.UNIT           DATA                    DESCRIPTION OF MNEMONIC
#---------    -------------------            -------------------------------
# Generated from Intellog Unique Number	CW_73_75/WELL/3021
WELL.         SUNLITE CAEL MCMILLAN LK 11-02 : Well_name    - WELL
LOC .         00/11-02-074-19W4/0            : Location     - LOCATION
UWI .         00/11-02-074-19W4/0            : Uwi          - UNIQUE WELL ID
ENTR.         JJ                             : Entered      - ENTERED BY
SRVC.         SCHLUMBERGER                   : Scn          - SERVICE COMPANY
DATE.         16 FEB 72                      : Date         - LOG DATE
STRT.M        411.48                         : top_depth    - START DEPTH
STOP.M        539.48                         : bot_depth    - STOP DEPTH
STEP.M        0.25                           : increment    - STEP LENGTH
 NULL. -999.2500:NULL Value
~CURVE INFORMATION BLOCK
#MNEM UNIT       ERCB CURVE CODE    CURVE DESCRIPTION
#-----------   ------------------   ----------------------------------
DEPT.M        00 001 00 00         : DEPTH        - DEPTH
DELT.US/F     00 520 00 00         : DELT         - SONIC TRAVEL TIME
GR  .API      00 310 00 00         : GR           - GAMMA RAY
ILD .OHMM     00 120 00 00         : RESD         - DEEP RESISTIVITY (DIL)
~PARAMETER INFORMATION
#MNEM.UNIT           DATA             DESCRIPTION OF MNEMONIC
#---------         -----------     ------------------------------
GL  .M        619.658              : gl           - GROUND LEVEL ELEVATION
EREF.M        622.097              : kb           - ELEVATION OF DEPTH REFERENCE
DATM.M        619.658              : datum        - DATUM ELEVATION
TDD .M        548.64               : tdd          - TOTAL DEPTH DRILLER
RUN .         ONE                  : Run          - RUN NUMBER
ENG .         ANDERSON             : Engineer     - RECORDING ENGINEER
WIT .         THOMPSON             : Witness      - WITNESSED BY
BASE.         EDM                  : Branch       - HOME BASE OF LOGGING UNIT
MUD .         GEL                  : Mud_type     - MUD TYPE
MATR.         SANDSTONE            : Logunit      - NEUTRON MATRIX
TMAX.C        22.2222              : BHT          - MAXIMUM RECORDED TEMPERATURE
BHTD.M        548.03               : BHTDEP       - MAXIMUM RECORDED TEMPERATURE
RMT .C        15.5556              : MDTP         - TEMPERATURE OF MUD
MUDD.KG/M     1128                 : MWT          - MUD DENSITY
NEUT.         1                    : NEUTRON      - NEUTRON TYPE
RESI.         0                    : RESIST       - RESISTIVITY TYPE
RM  .OHMM     2.2                  : RM           - RESISTIVITY OF MUD
RMC .OHMM     0                    : RMC          - RESISTIVITY OF MUD CAKE
RMF .OHMM     1.9                  : RMF          - RESISTIVITY OF MUD FILTRATE
SUFT.C        5                    : SUFT         - SURFACE TEMPERATURE
~A  DEPTH     DELT       GR     RESD
  411.480  386.942   65.145    6.591
  411.730  390.015   67.885    6.392
  411.980  389.028   68.860    6.143
  412.230  388.042   64.057    5.936
  412.480  386.924   68.074    5.918
  412.730  387.116   73.550    5.942
  412.980  386.981   70.146    5.956
  413.230  387.238   65.769    5.957
  413.480  391.426   64.798    5.992
  413.730  396.072   62.792    6.094
  413.980  398.295   64.011    6.174
  414.230  395.343   71.434    6.279
  414.480  389.968   72.835    6.420
  414.730  385.509   73.567    6.566
  414.980  381.247   69.433    6.776
  415.230  377.968   64.265    6.927
  415.480  383.400   66.944    7.110
  415.730  389.683   71.325    7.139
  415.980  391.841   67.617    7.103
  416.230  394.588   69.627    6.990
  416.480  396.416   72.183    6.804
  416.730  396.347   75.166    6.635
  416.980  393.853   76.324    6.412
  417.230  391.753   76.204    6.219
  417.480  389.981   76.693    6.054
  417.730  391.352   77.182    5.936
  417.980  393.444   77.610    5.862
  418.230  392.457   74.814    5.822
  418.480  390.094   72.383    5.814
  418.730  385.898   76.339    5.870
  418.980  382.618   78.470    5.937
  419.230  379.929   78.290    6.026
  419.480  379.793   78.900    6.151
  419.730  381.623   83.525    6.232
  419.980  383.191   88.333    6.235
  420.230  380.959   90.281    6.170
  420.480  380.038   89.858    5.984
  420.730  382.719   89.495    5.889
  420.980  382.322   88.402    5.827
  421.230  377.274   88.100    5.703
  421.480  377.794   88.771    5.562
  421.730  381.392   92.362    5.316
  421.980  384.008   94.858    5.072
  422.230  381.121   93.826    4.901
  422.480  386.553   90.483    4.832
  422.730  391.134   87.444    4.896
  422.980  379.733   84.830    4.997
  423.230  373.636   83.799    5.271
  423.480  371.275   84.895    5.662
  423.730  369.502   88.182    6.005
  423.980  376.310   92.017    6.334
  424.230  383.903   93.296    6.464
  424.480  380.493   85.695    6.621
  424.730  381.274   79.188    6.870
  424.980  385.068   78.339    7.141
  425.230  387.619   79.497    7.546
  425.480  388.139   85.277    7.829
  425.730  386.889   91.849    7.677
  425.980  385.444   96.717    7.193
  426.230  384.065   95.259    6.850
  426.480  384.190   91.855    6.571
  426.730  385.366   95.750    6.327
  426.980  388.571  101.774    6.125
  427.230  390.728  106.034    6.005
  427.480  388.038  103.968    5.922
  427.730  383.842   98.557    5.924
  427.980  387.375   93.145    5.926
  428.230  392.021   95.824    5.874
  428.480  393.719  104.220    5.666
  428.730  393.649  104.101    5.465
  428.980  392.204  104.772    5.428
  429.230  388.204  105.686    5.450
  429.480  383.353   99.849    5.532
  429.730  376.144   94.255    5.636
  429.980  371.686   87.323    5.722
  430.230  375.284   82.946    5.840
  430.480  379.143   85.563    5.994
  430.730  379.467   90.736    6.129
  430.980  377.956   87.514    6.291
  431.230  376.314   89.524    6.397
  431.480  374.738  104.976    6.422
  431.730  372.113  112.034    6.495
  431.980  369.882  107.048    6.582
  432.230  366.014  101.880    6.596
  432.480  365.813  105.653    6.539
  432.730  372.293  107.298    6.447
  432.980  379.166   98.359    6.299
  433.230  374.576   95.380    6.098
  433.480  371.428  102.073    5.980
  433.730  372.733  104.874    5.927
  433.980  376.070   97.941    5.823
  434.230  375.410   92.530    5.793
  434.480  373.964   96.242    5.732
  434.730  373.305   99.469    5.621
  434.980  373.432   99.471    5.451
  435.230  375.590   96.675    5.355
  435.480  382.266   88.222    5.271
  435.730  384.882   85.122    5.273
  435.980  384.157   84.942    5.313
  436.230  383.693   82.936    5.394
  436.480  383.624   74.909    5.444
  436.730  384.667   70.897    5.271
  436.980  385.842   71.751    5.085
  437.230  390.816   71.084    4.895
  437.480  389.829   69.505    4.748
  437.730  388.580   67.195    4.647
  437.980  395.191   63.669    4.507
  438.230  392.632   62.151    4.363
  438.480  385.489   57.895    4.247
  438.730  377.362   56.924    4.060
  438.980  372.119   59.117    4.002
  439.230  370.673   61.186    3.982
  439.480  383.375   64.655    4.035
  439.730  390.904   67.273    4.156
  439.980  395.288   67.884    4.391
  440.230  387.030   67.399    4.581
  440.480  380.607   65.029    4.517
  440.730  375.690   63.084    4.544
  440.980  376.079   65.094    4.604
  441.230  382.428   68.138    4.691
  441.480  384.651   67.410    4.736
  441.730  385.170   67.168    4.737
  441.980  385.493   66.076    4.792
  442.230  388.961   64.740    4.802
  442.480  387.318   64.925    4.787
  442.730  384.366   65.535    4.771
  442.980  382.005   62.800    4.747
  443.230  387.568   65.904    4.749
  443.480  394.375   67.853    4.795
  443.730  390.703   68.950    4.831
  443.980  386.179   69.621    4.949
  444.230  386.175   69.623    5.098
  444.480  384.730   67.618    5.223
  444.730  380.926   63.545    5.360
  444.980  376.664   59.897    5.470
  445.230  371.354   60.325    5.645
  445.480  365.848   62.517    5.857
  445.730  355.888   67.263    6.033
  445.980  279.382   74.139    6.363
  446.230  309.376   71.039    7.063
  446.480  345.330   64.229    8.220
  446.730  354.823   59.669    9.225
  446.980  324.558   56.812   10.736
  447.230  230.039   55.050   12.204
  447.480  216.935   59.493   14.308
  447.730  209.530   58.218   16.261
  447.980  200.683   55.544   18.551
  448.230  193.539   54.633   19.318
  448.480  191.373   54.696   17.167
  448.730  191.303   56.036   14.574
  448.980  194.901   58.654   11.110
  449.230  213.957   63.948    8.674
  449.480  284.953   69.181    7.310
  449.730  394.987   68.636    6.413
  449.980  390.856   64.624    5.415
  450.230  383.451   61.828    5.000
  450.480  372.966   62.499    4.735
  450.730  371.717   63.718    4.576
  450.980  379.114   65.727    4.438
  451.230  384.612   68.406    4.352
  451.480  391.812   72.544    4.306
  451.730  390.825   72.120    4.324
  451.980  386.497   72.123    4.366
  452.230  384.464   73.341    4.423
  452.480  387.341   74.986    4.481
  452.730  381.573   78.394    4.633
  452.980  350.784   73.773    4.669
  453.230  373.900   62.766    4.679
  453.480  377.105   62.464    4.656
  453.730  379.327   65.933    4.615
  453.980  384.957   68.672    4.677
  454.230  382.398   70.986    4.670
  454.480  384.162   71.718    4.604
  454.730  388.284   68.071    4.565
  454.980  388.345   63.632    4.533
  455.230  384.411   66.189    4.543
  455.480  380.674   69.963    4.512
  455.730  387.022   66.863    4.505
  455.980  390.424   61.208    4.515
  456.230  384.131   62.792    4.477
  456.480  383.276   65.166    4.454
  456.730  386.940   65.411    4.455
  456.980  382.416   66.265    4.457
  457.230  380.774   68.457    4.459
  457.480  388.171   65.661    4.461
  457.730  395.895   70.773    4.463
  457.980  401.326   87.989    4.440
  458.230  403.484   95.959    4.410
  458.480  394.571  104.051    4.277
  458.730  390.245   97.728    4.036
  458.980  395.152   94.384    3.914
  459.230  402.222   91.832    3.728
  459.480  401.760   92.077    3.642
  459.730  404.637   97.249    3.623
  459.980  402.472  102.604    3.625
  460.230  400.895  105.039    3.714
  460.480  405.410  107.231    3.861
  460.730  403.834  113.620    3.983
  460.980  396.232  105.959    4.156
  461.230  392.559  101.520    4.320
  461.480  391.178   96.839    4.409
  461.730  388.554  100.186    4.508
  461.980  385.145  110.225    4.593
  462.230  378.983  113.755    4.612
  462.480  377.735  106.762    4.589
  462.730  378.058  102.628    4.624
  462.980  376.744   99.589    4.694
  463.230  373.006   96.367    4.809
  463.480  370.578   98.133    4.873
  463.730  369.264   98.196    4.964
  463.980  367.557   96.982    5.030
  464.230  369.058   98.079    5.115
  464.480  373.966   99.419    5.201
  464.730  378.351   93.764    5.290
  464.980  379.067   88.535    5.321
  465.230  372.905   90.728    5.284
  465.480  367.596   94.075    5.182
