~VERSION INFORMATION
 VERS.                 2.0:   CWLS LOG ASCII STANDARD -VERSION 2.0
 WRAP.                  NO:   ONE LINE PER DEPTH STEP
~WELL INFORMATION BLOCK
#MNEM.UNIT           DATA                    DESCRIPTION OF MNEMONIC
#---------    -------------------            -------------------------------
# Generated from Intellog Unique Number	CS_73_76/WELL/3239
WELL.         10-23-076-08W4                 : Well_name    - WELL
LOC .         00/10-23-076-08W4/0            : Location     - LOCATION
UWI .         00/10-23-076-08W4/0            : Uwi          - UNIQUE WELL ID
ENTR.         SP                             : Entered      - ENTERED BY
SRVC.         SCHLUMBERGER                   : Scn          - SERVICE COMPANY
STRT.M        204.216                        : top_depth    - START DEPTH
STOP.M        432.466                        : bot_depth    - STOP DEPTH
STEP.M        0.25                           : increment    - STEP LENGTH
 NULL. -999.2500:NULL Value
~CURVE INFORMATION BLOCK
#MNEM UNIT       ERCB CURVE CODE    CURVE DESCRIPTION
#-----------   ------------------   ----------------------------------
DEPT.M        00 001 00 00         : DEPTH        - DEPTH
GR  .API      00 310 00 00         : GR           - GAMMA RAY
DPHI.V/V      00 890 00 00         : PHID         - DENSITY POROSITY (SANDSTONE)
NPHI.V/V      00 330 00 00         : PHIN         - NEUTRON POROSITY (SANDSTONE)
ILD .OHMM     00 120 00 00         : RESD         - DEEP RESISTIVITY (DIL)
~PARAMETER INFORMATION
#MNEM.UNIT           DATA             DESCRIPTION OF MNEMONIC
#---------         -----------     ------------------------------
GL  .M        612.587              : gl           - GROUND LEVEL ELEVATION
EREF.M        616.427              : kb           - ELEVATION OF DEPTH REFERENCE
DATM.M        612.587              : datum        - DATUM ELEVATION
TDD .M        545.592              : tdd          - TOTAL DEPTH DRILLER
RUN .         ONE                  : Run          - RUN NUMBER
ENG .         BILL                 : Engineer     - RECORDING ENGINEER
WIT .         JIM                  : Witness      - WITNESSED BY
MUD .         GEL                  : Mud_type     - MUD TYPE
MATR.         SANDSTONE            : Logunit      - NEUTRON MATRIX
TMAX.C        60                   : BHT          - MAXIMUM RECORDED TEMPERATURE
BHTD.M        545.592              : BHTDEP       - MAXIMUM RECORDED TEMPERATURE
MATR.         1                    : LOGUNIT      - NEUTRON MATRIX
RMT .C        25                   : MDTP         - TEMPERATURE OF MUD
NEUT.         1                    : NEUTRON      - NEUTRON TYPE
RESI.         0                    : RESIST       - RESISTIVITY TYPE
RMC .OHMM     0.25                 : RMC          - RESISTIVITY OF MUD CAKE
RMF .OHMM     0.25                 : RMF          - RESISTIVITY OF MUD FILTRATE
SUFT.C        15                   : SUFT         - SURFACE TEMPERATURE
~A  DEPTH       GR     PHID     PHIN     RESD
# ...
  334.716   56.848    0.335    0.419    6.367
  334.966   57.866    0.326    0.407    6.662
  335.216   57.697    0.314    0.415    7.086
  335.466   55.136    0.290    0.418    7.351
  335.716   53.304    0.266    0.409    7.460
  335.966   50.077    0.242    0.400    7.414
  336.216   49.223    0.317    0.387    7.023
  336.466   49.414    0.335    0.349    7.017
  336.716   54.131    0.335    0.416    7.042
  336.966   56.021    0.345    0.438    7.044
  337.216   58.892    0.349    0.436    7.042
  337.466   60.941    0.350    0.436    7.033
  337.716   60.311    0.337    0.437    7.166
  337.966   58.007    0.328    0.439    7.085
  338.216   56.366    0.342    0.453    7.039
  338.466   55.410    0.351    0.452    7.034
  338.716   55.910    0.360    0.464    7.031
  338.966   57.104    0.359    0.466    7.027
  339.216   56.505    0.346    0.457    7.128
  339.466   56.459    0.332    0.447    7.325
  339.716   57.132    0.327    0.441    7.006
  339.966   56.048    0.326    0.453    6.906
  340.216   54.948    0.316    0.453    6.794
  340.466   55.888    0.309    0.452    6.890
  340.716   56.198    0.318    0.468    6.890
  340.966   55.452    0.329    0.472    6.894
  341.216   57.633    0.338    0.462    6.768
  341.466   59.077    0.341    0.462    6.887
  341.716   58.719    0.335    0.457    7.350
  341.966   58.230    0.321    0.445    8.059
  342.216   59.201    0.303    0.430    8.712
  342.466   60.223    0.285    0.436    8.743
  342.716   61.831    0.256    0.438    8.597
  342.966   61.685    0.223    0.418    8.316
  343.216   60.627    0.227    0.353    7.812
  343.466   59.057    0.292    0.381    7.535
  343.716   57.385    0.338    0.427    7.339
  343.966   55.807    0.335    0.426    7.263
  344.216   54.781    0.336    0.432    7.114
  344.466   54.780    0.346    0.440    7.129
  344.716   56.332    0.355    0.443    7.001
  344.966   56.340    0.361    0.443    6.992
  345.216   56.324    0.368    0.443    6.991
  345.466   56.809    0.351    0.444    6.876
  345.716   57.812    0.336    0.454    6.854
  345.966   58.809    0.332    0.458    6.844
  346.216   59.855    0.330    0.464    6.714
  346.466   59.985    0.327    0.458    6.689
  346.716   59.331    0.334    0.445    6.474
  346.966   58.276    0.341    0.437    6.391
  347.216   58.119    0.334    0.440    6.324
  347.466   58.098    0.335    0.441    6.237
  347.716   58.106    0.338    0.438    6.117
  347.966   58.185    0.340    0.438    5.990
  348.216   58.714    0.341    0.446    6.011
  348.466   58.983    0.338    0.460    5.888
  348.716   59.282    0.336    0.467    5.769
  348.966   58.777    0.334    0.459    5.867
  349.216   58.664    0.335    0.455    5.883
  349.466   58.636    0.338    0.451    5.884
  349.716   59.073    0.344    0.439    5.803
  349.966   59.208    0.352    0.444    5.773
  350.216   59.235    0.352    0.454    5.772
  350.466   58.235    0.347    0.462    5.654
  350.716   57.310    0.344    0.451    5.660
  350.966   57.904    0.341    0.444    5.660
  351.216   58.599    0.340    0.454    5.659
  351.466   59.411    0.341    0.468    5.659
  351.716   60.782    0.339    0.476    5.642
  351.966   62.508    0.330    0.463    5.696
  352.216   60.944    0.337    0.456    6.607
  352.466   60.234    0.336    0.454    6.372
  352.716   61.962    0.329    0.448    6.179
  352.966   65.267    0.324    0.440    5.750
  353.216   68.088    0.295    0.438    5.500
  353.466   70.678    0.274    0.446    5.418
  353.716   74.851    0.257    0.464    5.337
  353.966   76.548    0.250    0.472    5.383
  354.216   77.506    0.243    0.475    5.539
  354.466   79.003    0.239    0.477    5.628
  354.716   80.389    0.242    0.479    5.636
  354.966   81.722    0.248    0.480    5.640
  355.216   81.596    0.251    0.480    5.549
  355.466   81.426    0.256    0.474    5.501
  355.716   80.385    0.260    0.460    5.324
  355.966   79.491    0.259    0.452    5.330
  356.216   79.194    0.262    0.447    5.357
  356.466   79.140    0.251    0.448    5.422
  356.716   80.199    0.247    0.458    5.587
  356.966   80.444    0.242    0.462    5.734
  357.216   81.511    0.240    0.470    5.830
  357.466   82.869    0.257    0.478    5.834
  357.716   83.288    0.251    0.465    5.839
  357.966   81.788    0.259    0.453    5.740
  358.216   78.722    0.273    0.454    5.697
  358.466   77.149    0.286    0.459    5.398
  358.716   75.812    0.285    0.458    5.171
  358.966   78.457    0.281    0.452    4.866
  359.216   79.694    0.272    0.444    4.484
  359.466   80.495    0.247    0.434    4.180
  359.716   79.970    0.293    0.430    3.730
  359.966   78.445    0.296    0.447    3.285
  360.216   77.805    0.287    0.451    2.907
  360.466   77.033    0.309    0.511    2.577
  360.716   76.004    0.299    0.521    2.351
  360.966   75.975    0.323    0.546    2.202
  361.216   75.084    0.317    0.568    2.168
  361.466   72.930    0.303    0.578    2.194
  361.716   73.157    0.298    0.586    2.314
  361.966   73.522    0.288    0.580    2.381
  362.216   75.220    0.278    0.567    2.424
  362.466   76.721    0.274    0.557    2.423
  362.716   78.935    0.282    0.548    2.376
  362.966   79.606    0.290    0.551    2.328
  363.216   79.684    0.294    0.558    2.329
  363.466   80.136    0.294    0.543    2.367
  363.716   81.809    0.278    0.539    2.488
  363.966   83.439    0.267    0.558    2.622
  364.216   85.643    0.275    0.560    2.867
  364.466   83.627    0.281    0.554    3.285
  364.716   83.046    0.277    0.552    3.671
  364.966   81.859    0.233    0.542    4.153
  365.216   82.105    0.229    0.523    4.799
  365.466   82.478    0.251    0.500    5.489
  365.716   80.413    0.239    0.485    5.991
  365.966   78.192    0.231    0.470    6.138
  366.216   76.985    0.222    0.481    6.009
  366.466   77.232    0.202    0.463    5.719
  366.716   78.984    0.182    0.454    5.235
  366.966   80.436    0.156    0.449    5.007
  367.216   83.235    0.234    0.458    4.763
  367.466   83.648    0.224    0.469    4.428
  367.716   83.606    0.226    0.479    4.246
  367.966   84.433    0.232    0.486    4.015
  368.216   86.802    0.234    0.475    3.897
  368.466   89.210    0.230    0.478    3.649
  368.716   91.115    0.217    0.477    3.608
  368.966   89.706    0.217    0.483    3.490
  369.216   89.345    0.234    0.492    3.350
  369.466   88.118    0.237    0.506    3.168
  369.716   87.241    0.246    0.494    3.180
  369.966   87.903    0.245    0.480    3.078
  370.216   89.291    0.236    0.470    3.051
  370.466   89.911    0.238    0.486    3.002
  370.716   89.503    0.242    0.497    2.865
  370.966   86.936    0.241    0.499    2.723
  371.216   85.789    0.241    0.493    2.439
  371.466   83.157    0.236    0.505    2.220
  371.716   82.950    0.232    0.515    2.025
  371.966   86.486    0.234    0.495    2.119
  372.216   88.618    0.235    0.483    2.522
  372.466   89.559    0.233    0.501    2.983
  372.716   91.013    0.231    0.516    3.518
  372.966   89.349    0.221    0.522    3.628
  373.216   88.888    0.210    0.526    3.675
  373.466   90.568    0.227    0.530    3.637
  373.716   91.522    0.229    0.511    3.602
  373.966   91.530    0.226    0.507    3.716
  374.216   90.548    0.220    0.520    3.876
  374.466   88.841    0.227    0.532    4.552
  374.716   87.347    0.225    0.522    5.507
  374.966   85.597    0.221    0.520    7.116
  375.216   83.395    0.213    0.526    9.329
  375.466   77.576    0.155    0.522   12.926
  375.716   69.416    0.070    0.513   17.113
  375.966   52.594   -0.001    0.478   21.712
  376.216   49.379    0.060    0.274   26.884
  376.466   49.225    0.198    0.316   33.388
  376.716   49.221    0.293    0.346   39.572
  376.966   49.520    0.319    0.390   52.483
  377.216   49.858    0.316    0.398   59.099
  377.466   50.391    0.311    0.382   61.821
  377.716   51.261    0.314    0.377   61.491
  377.966   52.227    0.311    0.381   60.806
