~VERSION INFORMATION
 VERS.                 2.0:   CWLS LOG ASCII STANDARD -VERSION 2.0
 WRAP.                  NO:   ONE LINE PER DEPTH STEP
~WELL INFORMATION BLOCK
#MNEM.UNIT           DATA                    DESCRIPTION OF MNEMONIC
#---------    -------------------            -------------------------------
# Generated from Intellog Unique Number	CW_73_75/WELL/2741
WELL.         TRICENT ER AL MITSUE 10-17     : Well_name    - WELL
LOC .         00/10-17-073-04W5/0            : Location     - LOCATION
UWI .         00/10-17-073-04W5/0            : Uwi          - UNIQUE WELL ID
ENTR.         JAYE                           : Entered      - ENTERED BY
SRVC.         SCHLUMBERGER                   : Scn          - SERVICE COMPANY
DATE.         14 MAR 80                      : Date         - LOG DATE
STRT.M        365                            : top_depth    - START DEPTH
STOP.M        595                            : bot_depth    - STOP DEPTH
STEP.M        0.25                           : increment    - STEP LENGTH
 NULL. -999.2500:NULL Value
~CURVE INFORMATION BLOCK
#MNEM UNIT       ERCB CURVE CODE    CURVE DESCRIPTION
#-----------   ------------------   ----------------------------------
DEPT.M        00 001 00 00         : DEPTH        - DEPTH
DPHI.V/V      00 890 00 00         : PHID         - DENSITY POROSITY (SANDSTONE)
NPHI.V/V      00 330 00 00         : PHIN         - NEUTRON POROSITY (SANDSTONE)
GR  .API      00 310 00 00         : GR           - GAMMA RAY
CALI.MM       00 280 01 00         : CAL          - CALIPER
ILD .OHMM     00 120 00 00         : RESD         - DEEP RESISTIVITY (DIL)
~PARAMETER INFORMATION
#MNEM.UNIT           DATA             DESCRIPTION OF MNEMONIC
#---------         -----------     ------------------------------
GL  .M        580.4                : gl           - GROUND LEVEL ELEVATION
EREF.M        585                  : kb           - ELEVATION OF DEPTH REFERENCE
DATM.M        580.4                : datum        - DATUM ELEVATION
TDD .M        1650                 : tdd          - TOTAL DEPTH DRILLER
RUN .         ONE                  : Run          - RUN NUMBER
ENG .         HOOK                 : Engineer     - RECORDING ENGINEER
WIT .         ZBIOI                : Witness      - WITNESSED BY
BASE.         5720                 : Branch       - HOME BASE OF LOGGING UNIT
MUD .         GEL CHEM             : Mud_type     - MUD TYPE
MATR.         SANDSTONE            : Logunit      - NEUTRON MATRIX
TMAX.C        48                   : BHT          - MAXIMUM RECORDED TEMPERATURE
BHTD.M        1651                 : BHTDEP       - MAXIMUM RECORDED TEMPERATURE
RMT .C        20                   : MDTP         - TEMPERATURE OF MUD
MUDD.KG/M     1070                 : MWT          - MUD DENSITY
NEUT.         1                    : NEUTRON      - NEUTRON TYPE
RESI.         0                    : RESIST       - RESISTIVITY TYPE
RM  .OHMM     1.18                 : RM           - RESISTIVITY OF MUD
RMC .OHMM     0                    : RMC          - RESISTIVITY OF MUD CAKE
RMF .OHMM     0.616                : RMF          - RESISTIVITY OF MUD FILTRATE
SUFT.C        0                    : SUFT         - SURFACE TEMPERATURE
~A  DEPTH     PHID     PHIN       GR      CAL     RESD
# ...
  547.500    0.353    0.523   92.645  295.089    6.168
  547.750    0.451    0.519   88.903  287.924    5.702
  548.000    0.461    0.497   84.293  339.153    5.202
  548.250    0.350    0.470   83.647  377.797    4.694
  548.500    0.304    0.453   84.483  365.989    4.652
  548.750    0.144    0.367   85.448  333.957    4.941
  549.000    0.121    0.331   86.346  303.161    5.408
  549.250    0.100    0.290   87.866  276.495    5.906
  549.500    0.083    0.293   89.694  264.377    6.826
  549.750    0.091    0.321   90.220  263.607    7.739
  550.000    0.098    0.335   90.069  265.316    8.695
  550.250    0.105    0.356   89.979  264.960    9.137
  550.500    0.118    0.359   90.135  263.156    9.154
  550.750    0.152    0.379   89.116  262.385    8.884
  551.000    0.165    0.380   86.674  262.544    8.429
  551.250    0.171    0.366   85.406  264.047    7.795
  551.500    0.185    0.364   86.866  266.585    7.466
  551.750    0.183    0.387   87.272  267.765    7.166
  552.000    0.176    0.392   86.931  264.521    6.958
  552.250    0.177    0.392   87.026  261.996    6.906
  552.500    0.173    0.385   86.378  259.480    7.025
  552.750    0.174    0.387   84.245  258.914    7.239
  553.000    0.167    0.375   82.240  259.996    7.546
  553.250    0.151    0.361   82.150  263.770    7.822
  553.500    0.129    0.349   83.607  267.848    7.927
  553.750    0.140    0.377   86.236  272.654    7.783
  554.000    0.155    0.382   89.061  276.110    7.557
  554.250    0.169    0.369   91.193  278.329    7.376
  554.500    0.178    0.369   92.159  279.834    7.197
  554.750    0.169    0.375   89.965  276.176    7.001
  555.000    0.156    0.388   87.023  273.138    6.836
  555.250    0.155    0.403   85.263  274.230    6.707
  555.500    0.172    0.406   86.222  275.513    6.571
  555.750    0.167    0.388   87.742  277.222    6.380
  556.000    0.160    0.378   88.460  277.378    6.284
  556.250    0.178    0.373   87.871  276.200    6.092
  556.500    0.185    0.368   85.307  276.149    6.000
  556.750    0.173    0.392   82.491  278.479    6.001
  557.000    0.156    0.404   81.904  281.110    6.338
  557.250    0.184    0.379   84.229  284.775    6.794
  557.500    0.154    0.351   85.994  277.608    7.259
  557.750    0.137    0.370   84.170  277.259    7.608
  558.000    0.168    0.382   82.099  279.267    7.766
  558.250    0.200    0.399   83.374  281.186    7.725
  558.500    0.251    0.421   82.599  282.167    7.142
  558.750    0.339    0.543   77.557  288.102    6.265
  559.000    0.424    0.692   71.956  333.040    5.032
  559.250    0.462    0.716   63.136  356.935    4.012
  559.500    0.467    0.703   54.195  358.329    3.163
  559.750    0.468    0.694   48.346  238.077    2.526
  560.000    0.469    0.732   48.628  234.624    2.095
  560.250    0.469    0.709   50.703  241.493    1.721
  560.500    0.468    0.644   52.593  235.666    1.507
  560.750    0.467    0.609   54.671  230.150    1.393
  561.000    0.466    0.583   56.811  228.970    1.357
  561.250    0.464    0.564   58.266  230.675    1.396
  561.500    0.462    0.545   60.096  232.792    1.480
  561.750    0.457    0.518   61.553  235.943    1.608
  562.000    0.446    0.490   64.312  240.023    1.779
  562.250    0.431    0.453   68.986  243.594    2.237
  562.500    0.419    0.424   72.922  246.738    2.792
  562.750    0.405    0.406   73.882  254.535    4.800
  563.000    0.447    0.553   71.935  314.945    6.790
  563.250    0.453    0.603   69.743  296.122    6.002
  563.500    0.456    0.619   67.920  308.969    4.794
  563.750    0.457    0.572   66.280  362.781    4.415
  564.000    0.458    0.519   65.999  378.106    5.132
  564.250    0.458    0.505   71.729  389.310    5.490
  564.500    0.457    0.547   74.114  393.488    5.627
  564.750    0.457    0.572   72.601  348.869    5.639
  565.000    0.456    0.597   69.973  322.716    5.672
  565.250    0.456    0.618   67.840  305.344    5.042
  565.500    0.456    0.602   66.263  321.177    4.251
  565.750    0.453    0.576   69.207  337.742    3.997
  566.000    0.452    0.540   73.943  352.448    4.174
  566.250    0.453    0.555   74.103  364.681    4.052
  566.500    0.455    0.577   70.481  379.798    3.860
  566.750    0.456    0.621   66.739  362.211    3.712
  567.000    0.457    0.644   67.581  269.612    3.616
  567.250    0.457    0.611   66.625  326.932    3.631
  567.500    0.457    0.596   64.364  352.885    3.693
  567.750    0.458    0.584   64.522  355.210    3.743
  568.000    0.458    0.568   68.392  352.378    3.759
  568.250    0.458    0.548   73.876  358.012    3.809
  568.500    0.456    0.522   77.064  364.044    3.888
  568.750    0.454    0.478   80.132  373.386    4.084
  569.000    0.446    0.455   83.138  386.030    4.469
  569.250    0.425    0.534   83.477  263.410    5.341
  569.500    0.453    0.577   82.832  256.343    5.652
  569.750    0.453    0.533   86.331  368.555    5.051
  570.000    0.451    0.511   91.379  383.260    4.456
  570.250    0.444    0.483   93.517  391.056    4.559
  570.500    0.404    0.453   94.360  355.210    5.258
  570.750    0.385    0.436   95.817  343.397    6.133
  571.000    0.391    0.424   97.704  308.575    7.441
  571.250    0.378    0.463   95.631  256.631    8.329
  571.500    0.433    0.581   88.733  252.662    8.700
  571.750    0.443    0.559   89.446  357.547    8.287
  572.000    0.446    0.511   97.218  382.161    6.656
  572.250    0.442    0.489  108.952  395.319    4.383
  572.500    0.293    0.468  121.180  392.174    4.167
  572.750    0.265    0.446  139.723  363.858    4.183
  573.000    0.247    0.432  146.009  324.602    4.727
  573.250    0.220    0.417  118.866  197.440    6.102
  573.500    0.201    0.412  104.351  212.355    8.778
  573.750    0.221    0.432   81.603  219.836   11.588
  574.000    0.364    0.487   86.218  211.844   12.589
  574.250    0.410    0.493   94.670  227.996   12.332
  574.500    0.391    0.480  101.080  235.692   11.275
  574.750    0.341    0.466   77.217  255.557    9.090
  575.000    0.364    0.454   48.528  271.187    8.563
  575.250    0.352    0.437   38.717  259.484    9.339
  575.500    0.343    0.385   32.436  223.736   10.787
  575.750    0.331    0.368   33.645  207.593   14.895
  576.000    0.300    0.370   38.138  211.055   19.625
  576.250    0.303    0.371   43.681  220.605   23.906
  576.500    0.286    0.368   49.655  225.309   26.651
  576.750    0.279    0.366   57.861  226.699   25.630
  577.000    0.266    0.366   58.084  225.004   21.494
  577.250    0.252    0.372   47.526  238.982   17.232
  577.500    0.235    0.362   37.658  258.537   14.374
  577.750    0.268    0.343   30.760  255.197   14.266
  578.000    0.279    0.333   26.641  246.688   15.878
  578.250    0.269    0.325   25.869  239.825   18.523
  578.500    0.250    0.317   27.142  235.452   24.180
  578.750    0.226    0.294   28.041  234.056   28.460
  579.000    0.202    0.270   27.273  232.252   33.266
  579.250    0.185    0.255   26.808  231.796   37.093
  579.500    0.188    0.241   26.226  232.683   40.827
  579.750    0.172    0.226   25.945  237.995   43.687
  580.000    0.166    0.267   25.797  240.941   46.134
  580.250    0.190    0.287   26.138  242.238   46.663
  580.500    0.199    0.299   26.977  243.328   43.223
  580.750    0.198    0.321   27.936  243.999   38.633
  581.000    0.233    0.335   30.077  244.473   38.863
  581.250    0.248    0.330   32.772  245.653   40.352
  581.500    0.217    0.322   37.447  246.850   41.431
  581.750    0.198    0.321   41.756  248.970   37.310
  582.000    0.206    0.326   45.251  252.010   31.416
  582.250    0.195    0.345   50.608  257.635   26.841
  582.500    0.201    0.359   55.102  265.329   21.077
  582.750    0.209    0.343   49.564  267.756   15.709
  583.000    0.220    0.324   46.996  261.104   13.805
  583.250    0.223    0.309   47.030  266.938   13.528
  583.500    0.226    0.341   52.760  268.134   13.533
  583.750    0.253    0.367   61.150  262.717   13.209
