~VERSION INFORMATION
 VERS.                 2.0:   CWLS LOG ASCII STANDARD -VERSION 2.0
 WRAP.                  NO:   ONE LINE PER DEPTH STEP
~WELL INFORMATION BLOCK
#MNEM.UNIT           DATA                    DESCRIPTION OF MNEMONIC
#---------    -------------------            -------------------------------
# Generated from Intellog Unique Number	CS_73_76/WELL/2191
WELL.         HOUSTON OILS LIMITED           : Well_name    - WELL
LOC .         00/10-16-074-17W4/0            : Location     - LOCATION
UWI .         00/10-16-074-17W4/0            : Uwi          - UNIQUE WELL ID
ENTR.         SP                             : Entered      - ENTERED BY
SRVC.         SCHLUMBERGER                   : Scn          - SERVICE COMPANY
STRT.M        234.696                        : top_depth    - START DEPTH
STOP.M        426.446                        : bot_depth    - STOP DEPTH
STEP.M        0.25                           : increment    - STEP LENGTH
 NULL. -999.2500:NULL Value
~CURVE INFORMATION BLOCK
#MNEM UNIT       ERCB CURVE CODE    CURVE DESCRIPTION
#-----------   ------------------   ----------------------------------
DEPT.M        00 001 00 00         : DEPTH        - DEPTH
GR  .API      00 310 00 00         : GR           - GAMMA RAY
DPHI.V/V      00 890 00 00         : PHID         - DENSITY POROSITY (SANDSTONE)
NPHI.V/V      00 330 00 00         : PHIN         - NEUTRON POROSITY (SANDSTONE)
ILD .OHMM     00 120 00 00         : RESD         - DEEP RESISTIVITY (DIL)
~PARAMETER INFORMATION
#MNEM.UNIT           DATA             DESCRIPTION OF MNEMONIC
#---------         -----------     ------------------------------
GL  .M        575.767              : gl           - GROUND LEVEL ELEVATION
EREF.M        578.206              : kb           - ELEVATION OF DEPTH REFERENCE
DATM.M        575.767              : datum        - DATUM ELEVATION
TDD .M        429.768              : tdd          - TOTAL DEPTH DRILLER
RUN .         ONE                  : Run          - RUN NUMBER
ENG .         BILL                 : Engineer     - RECORDING ENGINEER
WIT .         JIM                  : Witness      - WITNESSED BY
MUD .         GEL                  : Mud_type     - MUD TYPE
MATR.         SANDSTONE            : Logunit      - NEUTRON MATRIX
TMAX.C        21.1111              : BHT          - MAXIMUM RECORDED TEMPERATURE
BHTD.M        429.768              : BHTDEP       - MAXIMUM RECORDED TEMPERATURE
MATR.         1                    : LOGUNIT      - NEUTRON MATRIX
RMT .C        25                   : MDTP         - TEMPERATURE OF MUD
NEUT.         1                    : NEUTRON      - NEUTRON TYPE
RESI.         0                    : RESIST       - RESISTIVITY TYPE
RMC .OHMM     0.25                 : RMC          - RESISTIVITY OF MUD CAKE
RMF .OHMM     0.25                 : RMF          - RESISTIVITY OF MUD FILTRATE
SUFT.C        15                   : SUFT         - SURFACE TEMPERATURE
~A  DEPTH       GR     PHID     PHIN     RESD
# ...
  278.196   48.874    0.274    0.486    8.965
  278.446   51.747    0.268    0.471    9.323
  278.696   52.308    0.283    0.450    9.585
  278.946   49.834    0.295    0.466    9.711
  279.196   46.891    0.288    0.454   10.042
  279.446   45.468    0.293    0.451   10.040
  279.696   45.129    0.295    0.463   10.043
  279.946   45.100    0.285    0.479   10.044
  280.196   45.069    0.296    0.474   10.044
  280.446   45.916    0.316    0.474   10.044
  280.696   50.097    0.316    0.472   10.045
  280.946   51.317    0.310    0.463   10.045
  281.196   52.385    0.306    0.453   10.045
  281.446   54.382    0.310    0.457   10.040
  281.696   56.329    0.314    0.480    9.978
  281.946   57.638    0.314    0.478    9.863
  282.196   55.002    0.328    0.472    9.734
  282.446   53.086    0.305    0.467    9.685
  282.696   51.705    0.288    0.471    9.680
  282.946   51.717    0.292    0.479    9.699
  283.196   51.791    0.309    0.493    9.486
  283.446   52.816    0.323    0.505    9.504
  283.696   53.743    0.329    0.486    9.503
  283.946   55.434    0.311    0.473    9.503
  284.196   55.900    0.318    0.458    9.504
  284.446   55.893    0.340    0.455    9.504
  284.696   55.895    0.337    0.481    9.504
  284.946   55.498    0.326    0.509    9.499
  285.196   54.556    0.345    0.540    9.447
  285.446   55.890    0.332    0.496    9.330
  285.696   56.214    0.322    0.479    9.330
  285.946   57.271    0.317    0.491    9.340
  286.196   57.723    0.337    0.511    9.169
  286.446   56.818    0.348    0.539    9.159
  286.696   55.135    0.333    0.546    9.132
  286.946   54.208    0.320    0.491    8.985
  287.196   53.199    0.326    0.557    8.990
  287.446   56.775    0.346    0.587    8.991
  287.696   58.202    0.331    0.515    8.992
  287.946   58.362    0.312    0.489    8.996
  288.196   57.048    0.321    0.484    8.997
  288.446   55.546    0.336    0.468    9.155
  288.696   53.905    0.344    0.503    9.356
  288.946   52.370    0.325    0.489    9.329
  289.196   51.387    0.309    0.471    9.523
  289.446   50.381    0.294    0.457    9.510
  289.696   49.895    0.273    0.477    9.508
  289.946   50.550    0.316    0.504    9.504
  290.196   51.257    0.334    0.501    9.485
  290.446   52.188    0.347    0.492    9.342
  290.696   52.573    0.358    0.498    9.143
  290.946   50.484    0.350    0.522    9.162
  291.196   49.475    0.342    0.533    9.164
  291.446   49.323    0.342    0.525    9.164
  291.696   49.959    0.333    0.525    9.164
  291.946   50.277    0.338    0.527    9.051
  292.196   51.161    0.342    0.513    9.000
  292.446   51.723    0.337    0.511    8.996
  292.696   51.790    0.339    0.533    8.996
  292.946   51.026    0.329    0.530    8.996
  293.196   50.054    0.344    0.503    8.996
  293.446   49.025    0.335    0.508    8.980
  293.696   48.751    0.323    0.497    9.176
  293.946   47.234    0.313    0.486    9.163
  294.196   46.229    0.303    0.536    9.166
  294.446   43.895    0.313    0.560    9.166
  294.696   42.205    0.319    0.534    9.166
  294.946   40.505    0.329    0.503    9.167
  295.196   39.825    0.339    0.486    9.167
  295.446   39.168    0.326    0.494    9.168
  295.696   39.218    0.316    0.513    9.176
  295.946   39.236    0.299    0.520    9.013
  296.196   39.558    0.313    0.542    9.003
  296.446   39.870    0.330    0.537    8.999
  296.696   40.997    0.335    0.532    9.000
  296.946   40.144    0.325    0.534    9.001
  297.196   39.210    0.318    0.532    9.003
  297.446   39.242    0.322    0.526    8.873
  297.696   39.225    0.328    0.540    8.840
  297.946   39.233    0.334    0.554    8.835
  298.196   38.529    0.326    0.563    8.726
  298.446   39.272    0.318    0.549    8.690
  298.696   39.787    0.326    0.551    8.514
  298.946   40.411    0.334    0.546    8.674
  299.196   41.078    0.333    0.538    8.852
  299.446   41.513    0.326    0.517    8.835
  299.696   42.000    0.323    0.502    8.832
  299.946   41.717    0.319    0.508    8.819
  300.196   42.266    0.325    0.549    8.668
  300.446   42.251    0.332    0.559    8.687
  300.696   42.252    0.329    0.565    8.509
  300.946   41.748    0.340    0.586    8.534
  301.196   42.328    0.357    0.486    8.342
  301.446   42.247    0.327    0.491    8.359
  301.696   42.243    0.294    0.505    8.360
  301.946   42.209    0.325    0.515    8.362
  302.196   42.836    0.346    0.510    8.352
  302.446   42.125    0.351    0.536    8.531
  302.696   42.920    0.341    0.512    8.516
  302.946   42.325    0.322    0.534    8.529
  303.196   42.004    0.331    0.557    8.344
  303.446   41.674    0.327    0.529    8.360
  303.696   41.620    0.317    0.510    8.361
  303.946   42.552    0.312    0.495    8.361
  304.196   42.866    0.325    0.509    8.361
  304.446   46.213    0.338    0.514    8.361
  304.696   46.975    0.330    0.509    8.362
  304.946   47.051    0.340    0.513    8.362
  305.196   46.987    0.345    0.510    8.362
  305.446   47.684    0.346    0.521    8.360
  305.696   48.148    0.343    0.521    8.373
  305.946   49.089    0.344    0.508    8.192
  306.196   50.772    0.335    0.521    8.204
  306.446   51.699    0.338    0.535    8.335
  306.696   52.615    0.342    0.564    8.359
  306.946   54.968    0.343    0.573    8.363
  307.196   57.394    0.339    0.553    8.368
  307.446   59.653    0.327    0.536    8.418
  307.696   61.394    0.333    0.534    8.520
  307.946   63.352    0.323    0.543    8.699
  308.196   67.329    0.317    0.544    8.718
  308.446   69.709    0.321    0.560    8.855
  308.696   68.961    0.326    0.581    8.676
  308.946   66.136    0.320    0.584    8.464
  309.196   67.827    0.302    0.575    8.084
  309.446   68.871    0.277    0.565    7.923
  309.696   69.069    0.248    0.542    8.547
  309.946   65.749    0.179    0.511    9.180
  310.196   60.604    0.137    0.438   10.263
  310.446   57.181    0.093    0.307   12.643
  310.696   55.474    0.060    0.261   15.482
  310.946   56.919    0.040    0.236   18.036
  311.196   57.829    0.044    0.250   19.983
  311.446   57.782    0.076    0.257   19.700
  311.696   58.581    0.075    0.264   16.501
  311.946   60.051    0.094    0.275   13.748
  312.196   62.985    0.147    0.370   11.387
  312.446   66.004    0.222    0.470   10.368
  312.696   71.483    0.274    0.518    9.278
  312.946   76.126    0.306    0.552    8.533
  313.196   77.598    0.301    0.568    8.044
  313.446   77.203    0.299    0.580    7.914
  313.696   76.504    0.304    0.588    7.962
  313.946   77.585    0.316    0.569    8.064
  314.196   78.281    0.325    0.559    7.746
  314.446   76.293    0.314    0.564    7.069
  314.696   74.100    0.305    0.570    6.458
  314.946   70.879    0.289    0.573    6.695
  315.196   68.343    0.286    0.550    7.271
  315.446   69.065    0.301    0.586    7.857
  315.696   70.898    0.305    0.554    8.111
  315.946   73.522    0.283    0.528    8.539
  316.196   75.949    0.290    0.513    8.672
  316.446   78.902    0.304    0.533    8.190
  316.696   81.840    0.287    0.547    7.476
  316.946   84.190    0.263    0.554    6.934
  317.196   86.127    0.235    0.563    6.639
  317.446   84.819    0.212    0.540    6.227
  317.696   85.928    0.197    0.563    6.040
  317.946   86.623    0.192    0.592    5.859
  318.196   87.740    0.200    0.594    5.674
  318.446   87.954    0.215    0.581    5.606
  318.696   89.652    0.204    0.562    5.681
  318.946   89.186    0.212    0.559    5.658
  319.196   86.540    0.225    0.573    5.777
  319.446   85.368    0.225    0.566    5.890
  319.696   85.668    0.229    0.540    5.871
  319.946   87.974    0.214    0.533    6.007
  320.196   87.786    0.203    0.539    5.995
  320.446   88.311    0.184    0.544    5.995
  320.696   89.840    0.178    0.553    5.993
  320.946   90.706    0.178    0.549    6.001
  321.196   92.386    0.196    0.538    5.908
  321.446   93.419    0.178    0.510    5.527
