~VERSION INFORMATION
 VERS.                 2.0:   CWLS LOG ASCII STANDARD -VERSION 2.0
 WRAP.                  NO:   ONE LINE PER DEPTH STEP
~WELL INFORMATION BLOCK
#MNEM.UNIT           DATA                    DESCRIPTION OF MNEMONIC
#---------    -------------------            -------------------------------
# Generated from Intellog Unique Number	CW_82_90/WELL/3447
WELL.         COSEKA RES.                    : Well_name    - WELL
LOC .         00/11-07-090-19W4/0            : Location     - LOCATION
UWI .         00/11-07-090-19W4/0            : Uwi          - UNIQUE WELL ID
ENTR.         MAX                            : Entered      - ENTERED BY
SRVC.         SCHLUMBERGER                   : Scn          - SERVICE COMPANY
STRT.M        160                            : top_depth    - START DEPTH
STOP.M        254                            : bot_depth    - STOP DEPTH
STEP.M        0.25                           : increment    - STEP LENGTH
 NULL. -999.2500:NULL Value
~CURVE INFORMATION BLOCK
#MNEM UNIT       ERCB CURVE CODE    CURVE DESCRIPTION
#-----------   ------------------   ----------------------------------
DEPT.M        00 001 00 00         : DEPTH        - DEPTH
NPHI.V/V      00 330 00 00         : PHIN         - NEUTRON POROSITY (SANDSTONE)
CALI.MM       00 280 01 00         : CAL          - CALIPER
DPHI.V/V      00 890 00 00         : PHID         - DENSITY POROSITY (SANDSTONE)
GR  .API      00 310 00 00         : GR           - GAMMA RAY
ILD .OHMM     00 120 00 00         : RESD         - DEEP RESISTIVITY (DIL)
~PARAMETER INFORMATION
#MNEM.UNIT           DATA             DESCRIPTION OF MNEMONIC
#---------         -----------     ------------------------------
GL  .M        518.6                : gl           - GROUND LEVEL ELEVATION
EREF.M        522.2                : kb           - ELEVATION OF DEPTH REFERENCE
DATM.M        522.2                : datum        - DATUM ELEVATION
TDD .M        257                  : tdd          - TOTAL DEPTH DRILLER
RUN .         ONE                  : Run          - RUN NUMBER
ENG .         BILL                 : Engineer     - RECORDING ENGINEER
WIT .         JIM                  : Witness      - WITNESSED BY
MUD .         GEL                  : Mud_type     - MUD TYPE
MATR.         SANDSTONE            : Logunit      - NEUTRON MATRIX
TMAX.C        17.5                 : BHT          - MAXIMUM RECORDED TEMPERATURE
BHTD.M        257                  : BHTDEP       - MAXIMUM RECORDED TEMPERATURE
MATR.         1                    : LOGUNIT      - NEUTRON MATRIX
RMT .C        16                   : MDTP         - TEMPERATURE OF MUD
NEUT.         1                    : NEUTRON      - NEUTRON TYPE
RESI.         0                    : RESIST       - RESISTIVITY TYPE
RMC .OHMM     6                    : RMC          - RESISTIVITY OF MUD CAKE
RMF .OHMM     4.6                  : RMF          - RESISTIVITY OF MUD FILTRATE
SUFT.C        1                    : SUFT         - SURFACE TEMPERATURE
~A  DEPTH     PHIN      CAL     PHID       GR     RESD
# ...
  233.000    0.393  179.275    0.239   59.048   33.759
  233.250    0.399  180.705    0.253   57.183   49.563
  233.500    0.419  183.111    0.271   55.318   59.436
  233.750    0.431  185.017    0.281   52.542   63.804
  234.000    0.420  186.422    0.287   49.172   66.682
  234.250    0.408  187.314    0.285   50.015   69.709
  234.500    0.437  187.729    0.282   49.948   74.185
  234.750    0.437  188.633    0.274   48.992   76.101
  235.000    0.418  189.525    0.201   49.835   69.900
  235.250    0.355  190.943    0.164   72.651   46.981
  235.500    0.372  191.847    0.161   85.838   36.242
  235.750    0.390  192.751    0.174   93.308   25.039
  236.000    0.384  193.642    0.178   98.965   16.074
  236.250    0.395  194.046    0.174  102.817    9.585
  236.500    0.416  194.950    0.170  106.977    6.683
  236.750    0.431  194.864    0.190  116.847    5.652
  237.000    0.454  194.265    0.191  118.893    5.005
  237.250    0.457  193.642    0.192  119.126    4.391
  237.500    0.482  193.557    0.203  119.977    3.782
  237.750    0.498  193.960    0.208  116.908    3.706
  238.000    0.458  193.850    0.204  109.017    4.569
  238.250    0.425  192.750    0.187  106.242    5.582
  238.500    0.397  192.664    0.158  102.270    9.758
  238.750    0.384  192.566    0.149   94.086   14.596
  239.000    0.372  192.456    0.217   89.204   18.495
  239.250    0.384  192.346    0.219   91.250   20.608
  239.500    0.403  191.247    0.197   89.686   21.937
  239.750    0.411  190.672    0.199   87.520   25.828
  240.000    0.396  189.561    0.222   84.443   30.132
  240.250    0.387  188.449    0.240   88.002   31.483
  240.500    0.395  186.860    0.228   93.358   29.461
  240.750    0.404  185.247    0.222   98.112   26.568
  241.000    0.394  184.148    0.224   94.442   28.023
  241.250    0.389  183.549    0.221   85.046   34.228
  241.500    0.368  181.948    0.225   79.871   35.763
  241.750    0.373  181.350    0.230   77.998   42.506
  242.000    0.420  180.739    0.231   76.735   45.642
  242.250    0.474  180.140    0.240   72.763   49.021
  242.500    0.457  179.553    0.254   69.980   50.764
  242.750    0.444  178.942    0.260   72.335   50.196
  243.000    0.451  177.855    0.256   74.983   41.675
  243.250    0.448  176.755    0.250   75.224   37.248
  243.500    0.431  174.140    0.238   80.588   32.685
  243.750    0.415  173.029    0.153   90.157   24.983
  244.000    0.387  171.941    0.121   93.414   19.096
  244.250    0.358  169.840    0.145   95.453   14.200
  244.500    0.359  168.239    0.179   98.109   10.178
  244.750    0.384  166.638    0.195  111.596    6.069
  245.000    0.417  163.510    0.217  108.227    4.390
  245.250    0.458  161.421    0.246   91.903   13.328
  245.500    0.425  159.820    0.267   81.906   18.684
  245.750    0.396  159.210    0.280   68.298   24.568
  246.000    0.368  159.124    0.254   62.213   30.016
  246.250    0.357  161.519    0.232   67.577   30.791
  246.500    0.364  161.922    0.230   75.641   26.038
  246.750    0.374  159.319    0.219   89.129   20.272
  247.000    0.376  159.722    0.219   89.362   17.621
  247.250    0.353  162.129    0.212   93.823   16.343
  247.500    0.346  163.534    0.213  100.993   14.874
  247.750    0.362  163.925    0.207  107.251   13.662
  248.000    0.380  164.340    0.176  116.226   13.763
  248.250    0.395  165.244    0.150  119.175   14.245
  248.500    0.388  166.649    0.191  117.302   15.164
  248.750    0.387  168.054    0.248  109.411   16.433
  249.000    0.383  168.946    0.319  109.043   16.253
  249.250    0.588  169.838    0.442  125.254   17.613
  249.500    0.583  170.754    0.388  129.715   19.625
  249.750    0.493  171.658    0.271  125.736   21.678
  250.000    0.399  172.575    0.227  117.544   23.928
  250.250    0.330  174.982    0.199  111.767   23.879
  250.500    0.320  179.380    0.105  100.266   20.193
  250.750    0.365  183.302    0.140   94.775   21.693
  251.000    0.389  182.190    0.177   96.829   24.847
  251.250    0.365  183.094    0.159  100.974   27.941
  251.500    0.361  186.002    0.173  102.132   28.655
  251.750    0.393  188.922    0.265   97.845   26.334
  252.000    0.415  188.323    0.287   95.679   21.669
  252.250    0.428  179.709    0.185   95.325   14.299
  252.500    0.415  176.594    0.173   94.965   13.255
  252.750    0.404  176.496    0.153   97.914   14.500
  253.000    0.403  175.897    0.140   97.553   15.294
  253.250    0.372  175.298    0.121   94.469   15.972
  253.500    0.357  178.194    0.090   93.205   16.393
  253.750    0.369  178.609    0.068   92.536   16.061
  254.000    0.379  176.508    0.102   92.484   13.961
