~VERSION INFORMATION
 VERS.                 2.0:   CWLS LOG ASCII STANDARD -VERSION 2.0
 WRAP.                  NO:   ONE LINE PER DEPTH STEP
~WELL INFORMATION BLOCK
#MNEM.UNIT           DATA                    DESCRIPTION OF MNEMONIC
#---------    -------------------            -------------------------------
# Generated from Intellog Unique Number	CW_82_90/WELL/829
WELL.         PACIFIC ISADORE 10-17          : Well_name    - WELL
LOC .         00/10-17-083-19W4/0            : Location     - LOCATION
UWI .         00/10-17-083-19W400            : Uwi          - UNIQUE WELL ID
ENTR.         J                              : Entered      - ENTERED BY
SRVC.         SCHLUMBERGER                   : Scn          - SERVICE COMPANY
DATE.         28 FEB 75                      : Date         - LOG DATE
STRT.M        192.024                        : top_depth    - START DEPTH
STOP.M        350.524                        : bot_depth    - STOP DEPTH
STEP.M        0.25                           : increment    - STEP LENGTH
 NULL. -999.2500:NULL Value
~CURVE INFORMATION BLOCK
#MNEM UNIT       ERCB CURVE CODE    CURVE DESCRIPTION
#-----------   ------------------   ----------------------------------
DEPT.M        00 001 00 00         : DEPTH        - DEPTH
CALI.MM       00 280 01 00         : CAL          - CALIPER
GR  .API      00 310 00 00         : GR           - GAMMA RAY
NPHI.V/V      00 330 00 00         : PHIN         - NEUTRON POROSITY (SANDSTONE)
DPHI.V/V      00 890 00 00         : PHID         - DENSITY POROSITY (SANDSTONE)
ILD .OHMM     00 120 00 00         : RESD         - DEEP RESISTIVITY (DIL)
~PARAMETER INFORMATION
#MNEM.UNIT           DATA             DESCRIPTION OF MNEMONIC
#---------         -----------     ------------------------------
GL  .M        586.74               : gl           - GROUND LEVEL ELEVATION
EREF.M        589.239              : kb           - ELEVATION OF DEPTH REFERENCE
DATM.M        586.74               : datum        - DATUM ELEVATION
TDD .M        426.72               : tdd          - TOTAL DEPTH DRILLER
RUN .         ONE                  : Run          - RUN NUMBER
ENG .         BERNISKY             : Engineer     - RECORDING ENGINEER
WIT .         ROSS                 : Witness      - WITNESSED BY
BASE.         EDMONTON             : Branch       - HOME BASE OF LOGGING UNIT
MUD .         GEL CHEM             : Mud_type     - MUD TYPE
MATR.         SANDSTONE            : Logunit      - NEUTRON MATRIX
TMAX.C        20.5556              : BHT          - MAXIMUM RECORDED TEMPERATURE
BHTD.M        426.72               : BHTDEP       - MAXIMUM RECORDED TEMPERATURE
RMT .C        12.2222              : MDTP         - TEMPERATURE OF MUD
MUDD.KG/M     1000                 : MWT          - MUD DENSITY
NEUT.         0                    : NEUTRON      - NEUTRON TYPE
RESI.         54                   : RESIST       - RESISTIVITY TYPE
RM  .OHMM     2.82                 : RM           - RESISTIVITY OF MUD
RMC .OHMM     0                    : RMC          - RESISTIVITY OF MUD CAKE
RMF .OHMM     2.45                 : RMF          - RESISTIVITY OF MUD FILTRATE
SUFT.C        -17.7778             : SUFT         - SURFACE TEMPERATURE
~A  DEPTH      CAL       GR     PHIN     PHID     RESD
# ...
  265.024  171.010   93.640    0.450    0.248   13.152
  265.274  171.744   93.336    0.448    0.243   13.720
  265.524  173.729   90.941    0.451    0.238   14.388
  265.774  173.006   85.655    0.426    0.238   14.981
  266.024  170.408   81.600    0.413    0.246   15.340
  266.274  166.561   79.451    0.435    0.256   15.707
  266.524  166.463   77.978    0.433    0.260   15.975
  266.774  165.637   76.444    0.432    0.256   15.614
  267.024  165.641   74.972    0.438    0.264   15.293
  267.274  165.023   73.746    0.444    0.262   14.952
  267.524  164.507   75.717    0.443    0.270   14.759
  267.774  164.721   78.549    0.445    0.267   14.406
  268.024  164.519   81.013    0.447    0.262   14.129
  268.274  165.150   82.984    0.445    0.250   13.489
  268.524  165.260   81.450    0.438    0.256   12.960
  268.774  165.683   78.809    0.443    0.264   12.256
  269.024  166.313   80.534    0.432    0.260   11.382
  269.274  167.257   83.429    0.427    0.250   11.069
  269.524  170.179   85.401    0.426    0.235   10.986
  269.774  171.955   87.187    0.483    0.217   11.153
  270.024  173.002   87.929    0.481    0.207   10.958
  270.274  171.237   84.550    0.480    0.271   10.513
  270.524  168.952   84.308    0.482    0.263    9.516
  270.774  170.520   84.557    0.490    0.252    8.612
  271.024  172.923   86.774    0.489    0.240    7.792
  271.274  175.011   89.422    0.491    0.244    7.109
  271.524  176.787   92.255    0.500    0.266    6.499
  271.774  178.146   94.042    0.525    0.278    6.530
  272.024  178.778   89.863    0.529    0.269    7.005
  272.274  177.742   85.684    0.535    0.261    8.144
  272.524  175.249   82.059    0.517    0.275    9.367
  272.774  171.505   77.512    0.484    0.283   10.490
  273.024  168.387   74.933    0.460    0.295   11.000
  273.274  167.143   72.537    0.446    0.298   11.220
  273.524  166.941   75.063    0.494    0.282   11.557
  273.774  167.676   76.726    0.507    0.276   11.928
  274.024  168.411   79.067    0.506    0.270   12.488
  274.274  169.041   76.488    0.499    0.264   13.370
  274.524  169.464   73.539    0.483    0.239   13.924
  274.774  169.783   69.668    0.457    0.207   13.399
  275.024  169.892   63.337    0.311    0.123   12.105
  275.274  169.899   67.276    0.363    0.096   11.558
  275.524  170.634   75.706    0.398    0.193   11.455
  275.774  171.785   84.257    0.459    0.236   11.482
  276.024  173.249   85.552    0.470    0.241   11.720
  276.274  174.399   85.556    0.480    0.234   12.400
  276.524  175.343   83.100    0.482    0.237   12.624
  276.774  175.557   82.611    0.481    0.236   12.799
  277.024  174.938   84.705    0.469    0.235   12.490
  277.274  175.569   86.000    0.456    0.234   12.123
  277.524  176.617   86.436    0.452    0.234   11.796
  277.774  177.768   86.500    0.447    0.233   11.449
  278.024  178.919   87.548    0.446    0.230   11.343
  278.274  180.592   89.889    0.457    0.221   11.200
  278.524  181.743   91.369    0.461    0.240   11.117
  278.774  181.540   93.094    0.463    0.246   11.390
  279.024  180.818   95.803    0.456    0.237   11.836
  279.274  180.719   93.408    0.451    0.239   12.870
  279.524  180.933   93.043    0.459    0.240   13.975
  279.774  181.148   93.046    0.459    0.235   15.293
  280.024  180.737   92.866    0.454    0.234   16.203
  280.274  179.493   92.008    0.441    0.229   16.732
  280.524  176.479   90.905    0.435    0.249   16.927
  280.774  172.007   89.863    0.437    0.248   17.010
  281.024  167.119   87.959    0.434    0.242   17.087
  281.274  165.563   86.918    0.429    0.257   17.330
  281.524  165.986   87.352    0.427    0.286   17.532
  281.774  166.719   84.341    0.455    0.279   17.608
  282.024  167.246   77.703    0.457    0.278   17.721
  282.274  167.148   78.506    0.443    0.271   17.714
  282.524  167.362   80.170    0.443    0.262   17.834
  282.774  167.889   81.281    0.456    0.248   17.823
  283.024  168.624   80.362    0.466    0.242   17.847
  283.274  169.254   77.290    0.471    0.250   18.013
  283.524  170.718   77.539    0.459    0.256   18.357
  283.774  172.286   79.695    0.447    0.246   18.849
  284.024  174.792   81.544    0.440    0.233   20.050
  284.274  176.256   83.269    0.438    0.219   21.494
  284.524  177.094   84.072    0.437    0.219   23.774
  284.774  177.621   81.678    0.434    0.220   26.989
  285.024  177.731   78.360    0.433    0.224   32.515
  285.274  176.799   76.518    0.435    0.245   39.932
  285.524  172.327   75.477    0.424    0.257   43.799
  285.774  170.459   75.910    0.405    0.247   43.840
  286.024  170.048   71.486    0.350    0.220   39.754
  286.274  170.055   68.476    0.271    0.080   33.752
  286.524  170.061   69.956    0.301    0.075   26.592
  286.774  169.754   72.296    0.336    0.092   24.138
  287.024  170.072   75.498    0.332    0.119   21.029
  287.274  170.182   78.022    0.329    0.143   19.192
  287.524  169.772   82.269    0.396    0.227   18.318
  287.774  169.777   84.733    0.437    0.245   18.409
  288.024  169.784   87.073    0.438    0.237   18.749
  288.274  169.477   88.552    0.439    0.232   18.937
  288.524  169.066   86.158    0.443    0.221   19.059
  288.774  168.760   84.070    0.448    0.221   19.116
  289.024  169.078   83.459    0.449    0.233   19.178
  289.274  169.500   84.385    0.450    0.226   19.137
  289.524  170.236   85.433    0.456    0.224   19.186
  289.774  170.763   86.667    0.461    0.238   19.275
  290.024  170.977   87.593    0.457    0.220   19.541
  290.274  170.982   88.273    0.450    0.210   19.705
  290.524  171.197   88.216    0.432    0.215   19.886
  290.774  171.306   85.267    0.427    0.228   20.154
  291.024  171.729   84.778    0.418    0.223   20.679
  291.274  172.047   84.414    0.416    0.230   20.846
  291.524  172.678   81.156    0.418    0.240   20.414
  291.774  173.517   82.083    0.422    0.238   20.192
  292.024  174.565   83.993    0.429    0.226   20.005
  292.274  175.820   87.010    0.443    0.219   19.825
  292.524  175.930   86.398    0.454    0.211   19.530
  292.774  175.936   83.757    0.460    0.224   19.482
  293.024  176.254   84.129    0.462    0.227   19.496
  293.274  176.781   85.978    0.462    0.227   19.336
  293.524  176.683   88.196    0.455    0.228   18.958
  293.774  176.793   89.306    0.447    0.229   18.228
  294.024  176.903   88.326    0.449    0.220   17.897
  294.274  176.805   85.931    0.440    0.208   17.806
  294.524  177.332   84.150    0.440    0.223   17.696
  294.774  177.545   83.786    0.445    0.231   17.549
  295.024  177.968   84.281    0.450    0.232   17.630
  295.274  178.390   86.191    0.464    0.228   17.613
  295.524  178.812   87.609    0.480    0.221   17.667
  295.774  179.548   90.010    0.483    0.212   17.761
  296.024  180.596   90.014    0.478    0.203   17.781
  296.274  181.226   88.296    0.476    0.197   17.408
  296.524  181.752   91.128    0.474    0.190   16.697
  296.774  182.800   91.193    0.463    0.226   16.322
  297.024  183.014   89.967    0.454    0.232   16.462
  297.274  183.332   90.892    0.448    0.226   16.907
  297.524  183.234   90.650    0.457    0.228   17.700
  297.774  183.344   87.025    0.449    0.234   18.729
  298.024  181.371   84.691    0.427    0.248   19.529
  298.274  176.378   82.789    0.436    0.256   20.378
  298.524  168.783   79.901    0.434    0.252   21.051
  298.774  168.059   78.183    0.426    0.244   21.586
  299.024  168.065   73.451    0.406    0.228   22.110
  299.274  167.758   71.487    0.407    0.206   22.509
  299.524  167.765   70.506    0.420    0.192   23.166
  299.774  167.563   70.694    0.453    0.234   25.272
  300.024  167.881   69.591    0.461    0.266   27.666
  300.274  167.886   68.487    0.457    0.261   32.884
  300.524  168.101   66.584    0.448    0.272   51.797
  300.774  168.210   64.865    0.415    0.261   68.707
  301.024  168.321   63.393    0.275    0.236   83.083
  301.274  168.327   58.661    0.214    0.097  105.243
