~VERSION INFORMATION
 VERS.                 2.0:   CWLS LOG ASCII STANDARD -VERSION 2.0
 WRAP.                  NO:   ONE LINE PER DEPTH STEP
~WELL INFORMATION BLOCK
#MNEM.UNIT           DATA                    DESCRIPTION OF MNEMONIC
#---------    -------------------            -------------------------------
# Generated from Intellog Unique Number	CN_91_93/WELL/2621
WELL.         PETRO-CANADA INC.              : Well_name    - WELL
LOC .         00/11-30-091-17W4/0            : Location     - LOCATION
UWI .         00/11-30-091-17W400            : Uwi          - UNIQUE WELL ID
ENTR.         JOETTE                         : Entered      - ENTERED BY
SRVC.         SCHLUMBERGER                   : Scn          - SERVICE COMPANY
DATE.         02/05/92                       : Date         - LOG DATE
STRT.M        75                             : top_depth    - START DEPTH
STOP.M        255                            : bot_depth    - STOP DEPTH
STEP.M        0.25                           : increment    - STEP LENGTH
 NULL. -999.2500:NULL Value
~CURVE INFORMATION BLOCK
#MNEM UNIT       ERCB CURVE CODE    CURVE DESCRIPTION
#-----------   ------------------   ----------------------------------
DEPT.M        00 001 00 00         : DEPTH        - DEPTH
GR  .API      00 310 00 00         : GR           - GAMMA RAY
CALI.MM       00 280 01 00         : CAL          - CALIPER
NPHI.V/V      00 330 00 00         : PHIN         - NEUTRON POROSITY (SANDSTONE)
DPHI.V/V      00 890 00 00         : PHID         - DENSITY POROSITY (SANDSTONE)
ILD .OHMM     00 120 00 00         : RESD         - DEEP RESISTIVITY (DIL)
~PARAMETER INFORMATION
#MNEM.UNIT           DATA             DESCRIPTION OF MNEMONIC
#---------         -----------     ------------------------------
GL  .M        513.2                : gl           - GROUND LEVEL ELEVATION
EREF.M        516.6                : kb           - ELEVATION OF DEPTH REFERENCE
DATM.M        516.6                : datum        - DATUM ELEVATION
TDD .M        260.5                : tdd          - TOTAL DEPTH DRILLER
RUN .         ONE                  : Run          - RUN NUMBER
ENG .         BILL                 : Engineer     - RECORDING ENGINEER
WIT .         JIM                  : Witness      - WITNESSED BY
MUD .         GEL                  : Mud_type     - MUD TYPE
MATR.         SANDSTONE            : Logunit      - NEUTRON MATRIX
TMAX.C        28                   : BHT          - MAXIMUM RECORDED TEMPERATURE
BHTD.M        260.5                : BHTDEP       - MAXIMUM RECORDED TEMPERATURE
RMT .C        8.33333              : MDTP         - TEMPERATURE OF MUD
MUDD.KG/M     1030                 : MWT          - MUD DENSITY
NEUT.         1                    : NEUTRON      - NEUTRON TYPE
RESI.         0                    : RESIST       - RESISTIVITY TYPE
RM  .OHMM     6.97                 : RM           - RESISTIVITY OF MUD
RMC .OHMM     6.97                 : RMC          - RESISTIVITY OF MUD CAKE
RMF .OHMM     6.97                 : RMF          - RESISTIVITY OF MUD FILTRATE
SUFT.C        4                    : SUFT         - SURFACE TEMPERATURE
~A  DEPTH       GR      CAL     PHIN     PHID     RESD
# ...
  184.500   93.252  164.973    0.437    0.251   35.083
  184.750   93.598  166.043    0.450    0.237   34.904
  185.000   93.638  166.620    0.454    0.230   34.461
  185.250   92.177  166.620    0.447    0.231   33.780
  185.500   91.620  165.809    0.439    0.228   33.360
  185.750   91.349  164.814    0.424    0.206   33.173
  186.000   87.782  165.884    0.437    0.183   33.242
  186.250   86.311  168.468    0.453    0.198   33.303
  186.500   83.341  169.547    0.463    0.206   33.372
  186.750   74.047  170.107    0.468    0.118   32.948
  187.000   76.496  170.684    0.447    0.063   32.297
  187.250   83.461  170.751    0.412    0.115   32.125
  187.500   94.345  170.826    0.414    0.212   32.191
  187.750   93.180  170.884    0.431    0.218   32.250
  188.000   87.500  170.959    0.444    0.212   32.086
  188.250   84.830  170.533    0.446    0.167   32.144
  188.500   87.886  170.089    0.433    0.131   31.981
  188.750   93.647  169.144    0.400    0.129   32.047
  189.000   97.611  167.714    0.410    0.191   32.106
  189.250   98.253  166.786    0.427    0.211   32.181
  189.500   98.895  165.840    0.429    0.224   32.239
  189.750   99.834  165.916    0.412    0.223   32.798
  190.000  101.379  165.472    0.399    0.220   33.607
  190.250  100.521  165.046    0.392    0.220   34.453
  190.500   98.754  165.614    0.399    0.218   35.032
  190.750   97.891  167.186    0.403    0.213   35.640
  191.000   99.437  168.265    0.394    0.189   36.248
  191.250   99.477  167.830    0.380    0.128   36.877
  191.500   99.818  168.390    0.353    0.144   37.497
  191.750   89.320  169.979    0.370    0.164   37.575
  192.000   77.618  170.539    0.394    0.154   37.097
  192.250   62.299  167.595    0.407    0.064   35.291
  192.500   66.253  166.157    0.317    0.005   33.814
  192.750   74.427  164.726    0.306    0.112   31.938
  193.000  108.800  165.295    0.351    0.171   30.383
  193.250  112.453  167.377    0.390    0.188   29.336
  193.500  111.595  170.455    0.394    0.213   28.956
  193.750   92.963  170.530    0.461    0.220   28.816
  194.000   86.078  169.083    0.526    0.206   28.647
  194.250   82.510  169.150    0.472    0.194   28.487
  194.500   86.168  169.727    0.451    0.029   28.335
  194.750   90.413  169.794    0.393    0.113   28.394
  195.000  100.093  169.359    0.401    0.200   28.460
  195.250  110.074  169.417    0.465    0.224   28.512
  195.500  113.129  169.484    0.468    0.228   29.006
  195.750  111.659  169.559    0.455    0.223   30.174
  196.000   66.829  168.622    0.439    0.226   32.811
  196.250   36.149  166.682    0.421    0.344   37.862
  196.500   18.124  166.247    0.101    0.382   55.034
  196.750   15.154  160.794    0.070    0.412   69.445
  197.000   13.989  160.367    0.067    0.410   89.606
  197.250   10.120  160.936    0.074    0.426  132.193
  197.500   11.365  161.019    0.079    0.426  179.719
  197.750   11.410  161.069    0.082    0.426  220.143
  198.000   11.445  160.634    0.088    0.422  217.404
  198.250   11.796  160.709    0.094    0.418  203.768
  198.500   12.729  161.278    0.104    0.413  158.537
  198.750   13.673  162.348    0.147    0.425  103.976
  199.000   12.207  162.925    0.175    0.416   72.367
  199.250   14.054  162.984    0.319    0.385   48.531
  199.500   11.384  162.549    0.331    0.348   44.485
  199.750   11.133  162.130    0.340    0.342   43.283
  200.000   13.432  158.827    0.338    0.342   18.581
  200.250   15.814  158.821    0.346    0.338   19.430
  200.500   17.004  159.309    0.353    0.338   20.130
  200.750   16.998  159.302    0.350    0.339   21.651
  201.000   16.995  158.796    0.348    0.339   23.498
  201.250   16.692  157.794    0.350    0.342   25.736
  201.500   16.986  157.786    0.346    0.344   27.680
  201.750   17.877  157.779    0.347    0.344   29.216
  202.000   18.170  158.269    0.369    0.348   29.163
  202.250   17.867  158.758    0.374    0.354   28.840
  202.500   17.861  159.246    0.369    0.350   29.602
  202.750   18.753  158.740    0.373    0.339   32.429
  203.000   19.046  157.736    0.386    0.342   36.184
  203.250   18.743  157.731    0.386    0.348   39.281
  203.500   18.439  158.221    0.386    0.352   45.502
  203.750   19.032  159.208    0.389    0.350   55.230
  204.000   20.819  159.201    0.392    0.350   78.522
  204.250   20.515  159.192    0.385    0.343  128.353
  204.500   19.018  159.185    0.360    0.337  154.280
  204.750   19.312  158.677    0.355    0.335  158.358
  205.000   20.203  158.671    0.361    0.341  149.523
  205.250   20.497  158.664    0.383    0.344  134.674
  205.500   19.297  158.655    0.393    0.347  128.349
  205.750   18.995  157.652    0.387    0.349  128.087
  206.000   22.871  157.644    0.382    0.350  132.700
  206.250   29.433  157.637    0.395    0.346  140.094
  206.500   30.025  157.132    0.391    0.340  170.005
  206.750   27.035  157.124    0.374    0.341  200.671
  207.000   23.747  157.116    0.355    0.337  211.804
  207.250   21.653  157.606    0.341    0.326  215.388
  207.500   21.350  157.598    0.340    0.321  214.850
  207.750   23.733  157.590    0.346    0.329  212.570
  208.000   22.832  157.582    0.353    0.331  200.620
  208.250   23.126  158.070    0.359    0.335  187.631
  208.500   24.912  158.063    0.358    0.344  169.074
  208.750   25.207  158.055    0.361    0.341  150.908
  209.000   25.799  158.046    0.362    0.335  137.254
  209.250   28.480  158.046    0.357    0.333  123.623
  209.500   34.446  157.532    0.364    0.334  116.753
  209.750   36.828  157.028    0.374    0.340  106.165
  210.000   36.226  157.021    0.375    0.345   97.439
  210.250   36.222  157.014    0.380    0.348   90.287
  210.500   37.709  157.502    0.397    0.349   84.442
  210.750   40.392  157.992    0.405    0.345   78.957
  211.000   43.074  157.985    0.427    0.340   73.845
  211.250   42.471  157.977    0.424    0.337   68.424
  211.500   42.467  157.968    0.407    0.334   61.643
  211.750   47.238  158.955    0.396    0.333   53.010
  212.000   49.323  158.946    0.399    0.342   48.214
  212.250   46.630  158.940    0.406    0.347   45.514
  212.500   46.329  158.436    0.404    0.347   43.772
  212.750   50.503  158.427    0.399    0.339   42.887
  213.000   54.379  158.418    0.413    0.328   43.209
  213.250   51.389  159.406    0.424    0.328   43.523
  213.500   47.204  159.895    0.418    0.332   43.454
  213.750   48.395  160.385    0.404    0.333   44.179
  214.000   50.777  160.874    0.412    0.319   42.886
  214.250   50.773  161.365    0.418    0.297   39.738
  214.500   51.663  162.353    0.392    0.228   34.500
  214.750   55.540  162.843    0.333    0.175   27.541
  215.000   64.490  161.341    0.331    0.204   21.985
  215.250   69.858  159.343    0.378    0.249   18.562
  215.500   73.137  159.336    0.405    0.262   15.665
  215.750   78.207  160.820    0.406    0.245   14.244
  216.000   83.873  161.807    0.389    0.237   12.955
  216.250   85.062  162.795    0.374    0.236   12.004
  216.500   82.073  163.284    0.381    0.243   11.441
  216.750   79.082  163.774    0.386    0.261   11.847
  217.000   77.287  163.766    0.389    0.273   12.627
  217.250   76.685  163.758    0.393    0.287   12.252
  217.500   79.666  165.243    0.405    0.284   11.247
  217.750   99.362  165.234    0.419    0.248   10.137
  218.000  104.133  162.739    0.424    0.215    9.133
  218.250   98.756  160.741    0.434    0.225    8.539
  218.500   88.303  160.237    0.445    0.258    8.765
  218.750   85.314  161.223    0.428    0.273    9.427
  219.000   80.832  161.216    0.405    0.276   10.519
  219.250   75.752  161.207    0.396    0.278   11.739
  219.500   77.539  160.701    0.391    0.286   13.351
  219.750   80.818  160.195    0.391    0.281   14.487
  220.000   87.678  159.193    0.398    0.260   14.732
  220.250   94.539  159.682    0.409    0.239   14.301
  220.500   90.056  160.172    0.409    0.233   13.757
  220.750   87.365  161.159    0.384    0.251   13.475
