~VERSION INFORMATION
 VERS.                 2.0:   CWLS LOG ASCII STANDARD -VERSION 2.0
 WRAP.                  NO:   ONE LINE PER DEPTH STEP
~WELL INFORMATION BLOCK
#MNEM.UNIT           DATA                    DESCRIPTION OF MNEMONIC
#---------    -------------------            -------------------------------
# Generated from Intellog Unique Number	CN_94_101/WELL/3721
WELL.         14-09-096-15W4                 : Well_name    - WELL
LOC .         00/14-09-096-15W4/0            : Location     - LOCATION
UWI .         00/14-09-096-15W400            : Uwi          - UNIQUE WELL ID
ENTR.         JOETTE                         : Entered      - ENTERED BY
SRVC.         SCHLUMBERGER                   : Scn          - SERVICE COMPANY
DATE.         08/10/92                       : Date         - LOG DATE
STRT.M        125                            : top_depth    - START DEPTH
STOP.M        335                            : bot_depth    - STOP DEPTH
STEP.M        0.25                           : increment    - STEP LENGTH
 NULL. -999.2500:NULL Value
~CURVE INFORMATION BLOCK
#MNEM UNIT       ERCB CURVE CODE    CURVE DESCRIPTION
#-----------   ------------------   ----------------------------------
DEPT.M        00 001 00 00         : DEPTH        - DEPTH
ILD .OHMM     00 120 00 00         : RESD         - DEEP RESISTIVITY (DIL)
GR  .API      00 310 00 00         : GR           - GAMMA RAY
NPHI.V/V      00 330 00 00         : PHIN         - NEUTRON POROSITY (SANDSTONE)
DPHI.V/V      00 890 00 00         : PHID         - DENSITY POROSITY (SANDSTONE)
~PARAMETER INFORMATION
#MNEM.UNIT           DATA             DESCRIPTION OF MNEMONIC
#---------         -----------     ------------------------------
GL  .M        587.8                : gl           - GROUND LEVEL ELEVATION
EREF.M        591.15               : kb           - ELEVATION OF DEPTH REFERENCE
DATM.M        591.15               : datum        - DATUM ELEVATION
TDD .M        293                  : tdd          - TOTAL DEPTH DRILLER
RUN .         ONE                  : Run          - RUN NUMBER
ENG .         BILL                 : Engineer     - RECORDING ENGINEER
WIT .         JIM                  : Witness      - WITNESSED BY
MUD .         GEL                  : Mud_type     - MUD TYPE
MATR.         SANDSTONE            : Logunit      - NEUTRON MATRIX
TMAX.C        40                   : BHT          - MAXIMUM RECORDED TEMPERATURE
BHTD.M        293                  : BHTDEP       - MAXIMUM RECORDED TEMPERATURE
RMT .C        13                   : MDTP         - TEMPERATURE OF MUD
MUDD.KG/M     1110                 : MWT          - MUD DENSITY
NEUT.         1                    : NEUTRON      - NEUTRON TYPE
RESI.         0                    : RESIST       - RESISTIVITY TYPE
RM  .OHMM     0.304                : RM           - RESISTIVITY OF MUD
RMC .OHMM     0.304                : RMC          - RESISTIVITY OF MUD CAKE
RMF .OHMM     0.614                : RMF          - RESISTIVITY OF MUD FILTRATE
SUFT.C        4                    : SUFT         - SURFACE TEMPERATURE
~A  DEPTH     RESD       GR     PHIN     PHID
# ...
  212.000    5.145   71.686    0.476    0.248
  212.250    5.448   68.657    0.466    0.266
  212.500    6.447   68.697    0.462    0.293
  212.750    7.214   71.862    0.469    0.284
  213.000    7.499   75.012    0.478    0.267
  213.250    8.083   80.640    0.489    0.253
  213.500    9.557   89.983    0.504    0.289
  213.750    9.401   98.721    0.519    0.288
  214.000    7.694   98.156    0.539    0.275
  214.250    5.850   98.856    0.561    0.265
  214.500    4.528  100.122    0.548    0.260
  214.750    3.845  101.414    0.548    0.255
  215.000    3.516   99.611    0.542    0.247
  215.250    3.862   95.962    0.514    0.248
  215.500    4.087   97.255    0.497    0.248
  215.750    4.491   98.534    0.499    0.239
  216.000    4.848  100.446    0.506    0.229
  216.250    4.853  102.358    0.504    0.228
  216.500    4.865  104.270    0.496    0.230
  216.750    4.877  105.576    0.490    0.235
  217.000    4.884  105.630    0.487    0.242
  217.250    4.893  104.446    0.486    0.245
  217.500    4.994  105.738    0.484    0.248
  217.750    5.096  108.270    0.479    0.252
  218.000    5.298  107.718    0.494    0.229
  218.250    5.305  105.281    0.513    0.210
  218.500    5.219   99.762    0.503    0.192
  218.750    4.431  101.054    0.505    0.225
  219.000    3.976  102.361    0.523    0.248
  219.250    3.911  101.795    0.522    0.244
  219.500    3.993  101.230    0.512    0.241
  219.750    4.073  103.156    0.515    0.251
  220.000    4.157  105.054    0.508    0.262
  220.250    4.244  105.095    0.512    0.263
  220.500    4.253   99.588    0.529    0.258
  220.750    4.183   97.165    0.512    0.261
  221.000    4.042   95.967    0.485    0.258
  221.250    4.046   94.163    0.477    0.252
  221.500    4.363   91.740    0.469    0.253
  221.750    4.797   88.712    0.474    0.260
  222.000    4.802   90.624    0.465    0.266
  222.250    4.811   92.522    0.481    0.274
  222.500    5.588   88.241    0.496    0.276
  222.750    5.396   83.368    0.482    0.281
  223.000    5.023   84.633    0.462    0.277
  223.250    4.674   88.417    0.438    0.274
  223.500    4.514   89.696    0.433    0.268
  223.750    4.872   91.608    0.464    0.259
  224.000    5.161   87.960    0.496    0.253
  224.250    5.360   83.665    0.523    0.250
  224.500    5.470   80.003    0.524    0.258
  224.750    4.908   76.355    0.514    0.269
  225.000    4.247   75.171    0.486    0.284
  225.250    4.496   75.211    0.471    0.297
  225.500    5.028   76.517    0.455    0.301
  225.750    5.626   76.572    0.463    0.296
  226.000    6.295   77.878    0.456    0.279
  226.250    7.046   81.634    0.472    0.247
  226.500    7.324   84.771    0.493    0.245
  226.750    7.205   92.270    0.511    0.244
  227.000    6.003   91.099    0.505    0.246
  227.250    5.489   88.676    0.495    0.243
  227.500    5.109   88.717    0.497    0.249
  227.750    4.934   93.725    0.499    0.256
  228.000    4.854   94.425    0.506    0.262
  228.250    5.046   93.833    0.515    0.260
  228.500    5.147   92.649    0.512    0.259
  228.750    5.355   92.716    0.509    0.258
  229.000    5.363   92.770    0.502    0.253
  229.250    5.376   92.192    0.482    0.245
  229.500    5.381   91.007    0.453    0.245
  229.750    5.394   87.978    0.464    0.250
  230.000    5.402   84.922    0.477    0.254
  230.250    5.413   81.287    0.476    0.244
  230.500    5.529   80.076    0.450    0.231
  230.750    5.543   80.749    0.450    0.203
  231.000    5.651   85.138    0.444    0.183
  231.250    6.210   90.147    0.454    0.204
  231.500    6.945   95.155    0.464    0.263
  231.750    6.468  101.416    0.478    0.260
  232.000    6.130  107.071    0.498    0.245
  232.250    5.110  108.955    0.513    0.241
  232.500    4.104  112.120    0.525    0.241
  232.750    4.112  106.586    0.536    0.232
  233.000    4.198  108.512    0.527    0.194
  233.250    4.284  109.805    0.522    0.174
  233.500    4.293  111.097    0.522    0.148
  233.750    4.303  111.771    0.508    0.153
  234.000    4.309  112.430    0.503    0.164
  234.250    4.320  115.608    0.512    0.199
  234.500    4.330  116.901    0.515    0.232
  234.750    4.335  117.560    0.506    0.238
  235.000    4.186  116.376    0.516    0.229
  235.250    4.045  116.444    0.524    0.225
  235.500    3.977  118.355    0.522    0.222
  235.750    3.842  118.423    0.512    0.216
  236.000    3.850  117.831    0.507    0.212
  236.250    3.929  116.646    0.515    0.197
  236.500    4.010  113.012    0.516    0.176
  236.750    4.090  111.800    0.509    0.196
  237.000    4.333  107.533    0.504    0.221
  237.250    4.585  108.206    0.487    0.233
  237.500    5.130  109.485    0.445    0.240
  237.750    5.740  112.016    0.444    0.236
  238.000    7.044  106.497    0.449    0.235
  238.250    8.487  101.597    0.426    0.229
  238.500    9.496  102.889    0.411    0.231
  238.750   10.054  104.801    0.418    0.233
  239.000   10.079  104.869    0.426    0.232
  239.250   10.089  104.923    0.436    0.233
  239.500    9.753  104.963    0.453    0.228
  239.750    9.414  106.256    0.474    0.230
  240.000    8.926  106.310    0.474    0.234
  240.250    8.616  104.506    0.461    0.233
  240.500    8.321   99.620    0.455    0.229
  240.750    8.036   96.564    0.449    0.230
  241.000    8.055   91.677    0.449    0.230
  241.250    8.067   88.621    0.455    0.230
  241.500    8.241   88.689    0.455    0.227
  241.750    8.249   89.981    0.456    0.222
  242.000    8.426   91.893    0.459    0.219
  242.250    8.439   93.199    0.449    0.233
  242.500    8.305   94.478    0.437    0.239
  242.750    8.170   96.404    0.424    0.234
  243.000    8.185   96.431    0.425    0.225
  243.250    8.350   92.783    0.418    0.214
  243.500    8.683   89.108    0.411    0.190
  243.750    9.026   85.459    0.415    0.190
  244.000    9.557   84.275    0.432    0.214
  244.250    9.571   84.948    0.448    0.240
  244.500    9.589   86.241    0.442    0.257
  244.750    9.261   85.676    0.436    0.256
  245.000    8.781   86.335    0.429    0.248
  245.250    8.642   88.867    0.415    0.239
  245.500    8.501   92.664    0.408    0.235
  245.750    8.362   95.181    0.419    0.235
  246.000    8.080   97.713    0.435    0.234
  246.250    8.087   94.684    0.442    0.232
  246.500    7.955   92.866    0.449    0.242
  246.750    8.123   96.017    0.441    0.253
  247.000    8.444  100.406    0.442    0.260
  247.250    8.777  104.176    0.448    0.268
  247.500    8.638  108.592    0.452    0.251
  247.750    8.489  109.279    0.455    0.239
  248.000    7.478  109.306    0.457    0.242
  248.250    7.090  106.896    0.454    0.248
  248.500    6.722  103.854    0.448    0.250
  248.750    6.739  100.179    0.446    0.249
  249.000    7.008   96.517    0.446    0.237
  249.250    7.278   92.842    0.442    0.222
  249.500    8.294   88.561    0.426    0.195
  249.750    9.457   84.280    0.396    0.153
  250.000   10.198   87.430    0.427    0.144
  250.250    5.365  102.361    0.486    0.203
  250.500    4.391  101.796    0.489    0.259
  250.750    3.940   98.134    0.483    0.248
  251.000    3.949   94.486    0.464    0.236
  251.250    3.883   93.301    0.464    0.251
  251.500    3.750   98.296    0.496    0.265
  251.750    3.557  103.305    0.527    0.271
  252.000    3.371  106.469    0.558    0.271
  252.250    3.254  105.271    0.550    0.258
  252.500    3.260  103.494    0.519    0.250
  252.750    2.719  103.521    0.504    0.247
  253.000    2.879  101.111    0.485    0.251
  253.250    3.105   99.294    0.467    0.253
  253.500    3.475   97.490    0.452    0.258
  253.750    3.816   99.402    0.458    0.256
  254.000    4.681   97.612    0.469    0.245
  254.250    5.534   97.680    0.465    0.239
  254.500    6.546  100.197    0.466    0.245
  254.750    7.191  103.981    0.476    0.248
  255.000    6.225  106.512    0.486    0.212
  255.250    6.117  103.456    0.452    0.190
