~VERSION INFORMATION
 VERS.                 2.0:   CWLS LOG ASCII STANDARD -VERSION 2.0
 WRAP.                  NO:   ONE LINE PER DEPTH STEP
~WELL INFORMATION BLOCK
#MNEM.UNIT           DATA                    DESCRIPTION OF MNEMONIC
#---------    -------------------            -------------------------------
# Generated from Intellog Unique Number	CS_71_72/WELL/887
WELL.         AMOCO AEC IPIATIK KIRBY        : Well_name    - WELL
LOC .         00/11-06-072-05W4/0            : Location     - LOCATION
UWI .         00/11-06-072-05W4/0            : Uwi          - UNIQUE WELL ID
ENTR.         SP                             : Entered      - ENTERED BY
SRVC.         SCHLUMBERGER                   : Scn          - SERVICE COMPANY
STRT.M        295                            : top_depth    - START DEPTH
STOP.M        535                            : bot_depth    - STOP DEPTH
STEP.M        0.25                           : increment    - STEP LENGTH
 NULL. -999.2500:NULL Value
~CURVE INFORMATION BLOCK
#MNEM UNIT       ERCB CURVE CODE    CURVE DESCRIPTION
#-----------   ------------------   ----------------------------------
DEPT.M        00 001 00 00         : DEPTH        - DEPTH
ILD .OHMM     00 120 00 00         : RESD         - DEEP RESISTIVITY (DIL)
DPHI.V/V      00 890 00 00         : PHID         - DENSITY POROSITY (LIMESTONE)
NPHI.V/V      00 330 00 00         : PHIN         - NEUTRON POROSITY (LIMESTONE)
GR  .API      00 310 00 00         : GR           - GAMMA RAY
~PARAMETER INFORMATION
#MNEM.UNIT           DATA             DESCRIPTION OF MNEMONIC
#---------         -----------     ------------------------------
GL  .M        668.3                : gl           - GROUND LEVEL ELEVATION
EREF.M        673.01               : kb           - ELEVATION OF DEPTH REFERENCE
DATM.M        668.3                : datum        - DATUM ELEVATION
TDD .M        562                  : tdd          - TOTAL DEPTH DRILLER
RUN .         ONE                  : Run          - RUN NUMBER
ENG .         BILL                 : Engineer     - RECORDING ENGINEER
WIT .         JIM                  : Witness      - WITNESSED BY
MUD .         GEL                  : Mud_type     - MUD TYPE
MATR.         LIMESTONE            : Logunit      - NEUTRON MATRIX
TMAX.C        20                   : BHT          - MAXIMUM RECORDED TEMPERATURE
BHTD.M        5622                 : BHTDEP       - MAXIMUM RECORDED TEMPERATURE
MATR.         1                    : LOGUNIT      - NEUTRON MATRIX
RMT .C        25                   : MDTP         - TEMPERATURE OF MUD
NEUT.         1                    : NEUTRON      - NEUTRON TYPE
RESI.         0                    : RESIST       - RESISTIVITY TYPE
RMC .OHMM     0.25                 : RMC          - RESISTIVITY OF MUD CAKE
RMF .OHMM     0.25                 : RMF          - RESISTIVITY OF MUD FILTRATE
SUFT.C        15                   : SUFT         - SURFACE TEMPERATURE
~A  DEPTH     RESD     PHID     PHIN       GR
# ...
  469.000   18.454    0.289    0.375   66.449
  469.250   21.030    0.301    0.387   63.435
  469.500   21.830    0.300    0.391   65.240
  469.750   23.087    0.301    0.394   65.239
  470.000   23.086    0.307    0.405   65.237
  470.250   21.828    0.290    0.376   64.634
  470.500   19.883    0.281    0.363   67.645
  470.750   18.110    0.263    0.370   72.462
  471.000   16.191    0.257    0.385   75.473
  471.250   13.944    0.245    0.379   79.688
  471.500   12.940    0.230    0.374   82.097
  471.750   12.235    0.238    0.375   85.107
  472.000   12.235    0.272    0.380   74.262
  472.250   12.939    0.289    0.387   69.442
  472.500   13.431    0.295    0.404   70.645
  472.750   15.023    0.279    0.387   71.849
  473.000   16.803    0.267    0.380   61.606
  473.250   18.795    0.269    0.368   56.183
  473.500   21.418    0.255    0.364   60.398
  473.750   22.233    0.247    0.360   68.228
  474.000   19.509    0.235    0.380   76.660
  474.250   16.491    0.239    0.388   79.069
  474.500   15.021    0.247    0.399   74.247
  474.750   13.429    0.247    0.393   71.837
  475.000   12.697    0.243    0.388   66.413
  475.250   12.462    0.260    0.370   62.797
  475.500   12.462    0.275    0.352   59.181
  475.750   12.935    0.269    0.337   55.566
  476.000   13.680    0.261    0.345   54.359
  476.250   13.680    0.277    0.351   56.165
  476.500   13.680    0.299    0.354   58.573
  476.750   13.178    0.324    0.386   59.174
  477.000   14.739    0.364    0.428   59.173
  477.250   16.797    0.353    0.510   54.954
  477.500   21.015    0.318    0.500   51.941
  477.750   48.683    0.312    0.442   47.722
  478.000   57.589    0.309    0.399   44.709
  478.250   66.864    0.305    0.382   42.901
  478.500   90.139    0.307    0.390   49.526
  478.750  102.721    0.318    0.397   56.753
  479.000   90.135    0.324    0.394   62.173
  479.250   77.628    0.313    0.399   62.172
  479.500   65.620    0.309    0.416   58.556
  479.750   58.665    0.307    0.407   59.157
  480.000   54.442    0.303    0.411   61.565
  480.250   51.475    0.296    0.415   60.961
  480.500   49.588    0.292    0.405   55.538
  480.750   48.670    0.300    0.396   52.524
  481.000   49.586    0.312    0.387   52.523
  481.250   50.519    0.319    0.376   54.328
  481.500   46.883    0.325    0.375   57.941
  481.750   43.508    0.300    0.381   60.349
  482.000   41.912    0.268    0.392   62.156
  482.250   40.375    0.241    0.397   64.564
  482.500   41.135   -0.004    0.311   64.562
  482.750   43.504   -0.009    0.244   57.332
  483.000   42.698    0.005    0.207   59.137
  483.250   37.467    0.063    0.291   65.763
  483.500   31.085    0.198    0.356   75.399
  483.750   26.277    0.225    0.391   78.410
  484.000   22.212    0.234    0.404   82.023
  484.250   18.429    0.223    0.399   83.829
  484.500   15.290    0.214    0.399   87.442
  484.750   12.925    0.210    0.385   90.453
  485.000   11.555    0.192    0.376   98.885
  485.250   10.525    0.172    0.382  107.919
  485.500    9.409    0.164    0.401  113.340
  485.750    9.586    0.172    0.422   79.001
  486.000   10.138    0.221    0.440   61.530
  486.250   11.340    0.250    0.388   54.902
  486.500   12.219    0.273    0.358   51.888
  486.750   14.726    0.276    0.341   47.670
  487.000   15.287    0.269    0.323   47.669
  487.250   16.471    0.272    0.319   53.088
  487.500   16.471    0.266    0.335   62.725
  487.750   14.725    0.250    0.340   66.941
  488.000   13.665    0.242    0.362   68.144
  488.250   14.185    0.251    0.369   58.505
  488.500   15.002    0.272    0.369   50.672
  488.750   15.572    0.278    0.352   49.466
  489.000   16.469    0.288    0.336   60.307
  489.250   17.095    0.270    0.324   68.137
  489.500   15.571    0.229    0.317   74.762
  489.750   12.919    0.208    0.318   82.592
  490.000   11.336    0.166    0.330   85.603
  490.250   10.134    0.142    0.346   75.963
  490.500   10.920    0.166    0.356   65.118
  490.750   13.409    0.236    0.364   53.670
  491.000   15.281    0.254    0.369   54.271
  491.250   16.776    0.249    0.358   60.896
  491.500   18.417    0.243    0.352   67.521
  491.750   19.477    0.229    0.357   72.339
  492.000   19.116    0.226    0.370   70.531
  492.250   17.090    0.229    0.375   65.710
  492.500   15.567    0.243    0.387   69.925
  492.750   13.917    0.257    0.385   75.948
  493.000   12.676    0.239    0.369   89.199
  493.250   11.546    0.158    0.351   89.800
  493.500   10.715    0.186    0.344   78.956
  493.750   10.131    0.216    0.347   70.520
  494.000    9.579    0.238    0.334   68.712
  494.250    9.228    0.197    0.318   75.939
  494.500    9.057    0.147    0.306   82.564
  494.750    8.725    0.123    0.313   89.791
  495.000    8.725    0.131    0.319   94.609
  495.250    8.889    0.143    0.324   92.198
  495.500    8.889    0.155    0.342   86.775
  495.750    8.724    0.171    0.376   91.593
  496.000    8.404    0.176    0.389  100.025
  496.250    7.946    0.154    0.383  103.638
  496.500    7.513    0.164    0.374   89.179
  496.750    7.374    0.175    0.364   84.358
  497.000    7.237    0.171    0.353   89.176
  497.250    7.103    0.155    0.351  100.018
  497.500    7.103    0.145    0.379  108.450
  497.750    7.512    0.148    0.393  107.846
  498.000    8.247    0.160    0.408  102.423
  498.250    8.722    0.171    0.414   96.397
  498.500    9.224    0.165    0.423   90.974
  498.750    9.939    0.137    0.386   85.551
  499.000   10.912    0.128    0.373   80.730
  499.250   11.326    0.153    0.370   78.320
  499.500   12.434    0.162    0.356   75.306
  499.750   12.907    0.097    0.334   71.088
  500.000   17.079    0.257    0.412   71.367
  500.250   18.065    0.293    0.434   73.172
  500.500   18.407    0.313    0.410   77.396
  500.750   16.155    0.290    0.404   82.832
  501.000   13.406    0.252    0.392  102.784
  501.250   11.334    0.204    0.393  136.040
  501.500   10.134    0.174    0.386  125.145
  501.750    9.061    0.154    0.392  116.670
  502.000    8.255    0.171    0.397  108.798
  502.250    7.806    0.178    0.384  111.812
  502.500    7.662    0.179    0.370  105.150
  502.750    7.664    0.168    0.365  102.118
  503.000    7.665    0.163    0.359  103.320
  503.250    7.666    0.161    0.364  103.310
  503.500    7.667    0.174    0.378   99.674
  503.750    7.668    0.184    0.373   95.432
  504.000    7.669    0.169    0.377   95.420
  504.250    7.528    0.166    0.376   99.044
  504.500    7.529    0.177    0.365  105.081
  504.750    7.390    0.172    0.361  105.075
  505.000    7.255    0.165    0.358  105.670
  505.250    7.121    0.166    0.370  109.895
  505.500    6.991    0.181    0.392  107.467
  505.750    6.992    0.192    0.402  104.436
  506.000    6.993    0.194    0.382  103.217
  506.250    6.994    0.182    0.376  105.024
  506.500    6.995    0.172    0.364  103.806
  506.750    6.995    0.166    0.374  104.401
  507.000    6.996    0.168    0.382  108.625
  507.250    6.997    0.176    0.397  113.454
  507.500    6.998    0.186    0.406  114.658
  507.750    6.870    0.194    0.389  113.439
  508.000    6.870    0.207    0.377  112.222
  508.250    6.619    0.204    0.386  113.422
  508.500    6.378    0.195    0.390  114.019
  508.750    6.031    0.196    0.395  107.962
  509.000    5.598    0.219    0.387   98.881
  509.250    5.294    0.246    0.375   90.405
  509.500    5.006    0.261    0.365   79.510
  509.750    4.646    0.249    0.358   74.059
  510.000    4.233    0.242    0.365   81.302
  510.250    4.078    0.229    0.370   83.716
  510.500    3.929    0.233    0.371   86.128
  510.750    4.004    0.222    0.371   80.677
  511.000    4.080    0.218    0.381   78.250
  511.250    4.080    0.239    0.386   82.474
  511.500    4.158    0.255    0.387   84.885
  511.750    4.081    0.282    0.392   80.039
  512.000    3.860    0.314    0.402   67.327
  512.250    3.789    0.301    0.383   61.271
