~VERSION INFORMATION
 VERS.                 2.0:   CWLS LOG ASCII STANDARD -VERSION 2.0
 WRAP.                  NO:   ONE LINE PER DEPTH STEP
~WELL INFORMATION BLOCK
#MNEM.UNIT           DATA                    DESCRIPTION OF MNEMONIC
#---------    -------------------            -------------------------------
# Generated from Intellog Unique Number	CW_73_75/WELL/1043
WELL.         ENSERCH ET AL MARTEN H 11-20   : Well_name    - WELL
LOC .         00/11-20-074-23W4/0            : Location     - LOCATION
UWI .         00/11-20-074-23W4/0            : Uwi          - UNIQUE WELL ID
ENTR.         JAYE                           : Entered      - ENTERED BY
SRVC.         SCHLUMBERGER                   : Scn          - SERVICE COMPANY
DATE.         3 MAR 76                       : Date         - LOG DATE
STRT.M        411.48                         : top_depth    - START DEPTH
STOP.M        624.73                         : bot_depth    - STOP DEPTH
STEP.M        0.25                           : increment    - STEP LENGTH
 NULL. -999.2500:NULL Value
~CURVE INFORMATION BLOCK
#MNEM UNIT       ERCB CURVE CODE    CURVE DESCRIPTION
#-----------   ------------------   ----------------------------------
DEPT.M        00 001 00 00         : DEPTH        - DEPTH
ILD .OHMM     00 120 00 00         : RESD         - DEEP RESISTIVITY (DIL)
DPHI.V/V      00 890 00 00         : PHID         - DENSITY POROSITY (SANDSTONE)
NPHI.V/V      00 330 00 00         : PHIN         - NEUTRON POROSITY (SANDSTONE)
GR  .API      00 310 00 00         : GR           - GAMMA RAY
CALI.MM       00 280 01 00         : CAL          - CALIPER
~PARAMETER INFORMATION
#MNEM.UNIT           DATA             DESCRIPTION OF MNEMONIC
#---------         -----------     ------------------------------
GL  .M        690.524              : gl           - GROUND LEVEL ELEVATION
EREF.M        694.03               : kb           - ELEVATION OF DEPTH REFERENCE
DATM.M        690.524              : datum        - DATUM ELEVATION
TDD .M        640.08               : tdd          - TOTAL DEPTH DRILLER
RUN .         ONE                  : Run          - RUN NUMBER
BASE.         EDM                  : Branch       - HOME BASE OF LOGGING UNIT
MUD .         GEL CHEM             : Mud_type     - MUD TYPE
MATR.         SANDSTONE            : Logunit      - NEUTRON MATRIX
TMAX.C        28.3333              : BHT          - MAXIMUM RECORDED TEMPERATURE
BHTD.M        640.69               : BHTDEP       - MAXIMUM RECORDED TEMPERATURE
RMT .C        13.8889              : MDTP         - TEMPERATURE OF MUD
MUDD.KG/M     0                    : MWT          - MUD DENSITY
NEUT.         1                    : NEUTRON      - NEUTRON TYPE
RESI.         0                    : RESIST       - RESISTIVITY TYPE
RM  .OHMM     2.7                  : RM           - RESISTIVITY OF MUD
RMC .OHMM     0                    : RMC          - RESISTIVITY OF MUD CAKE
RMF .OHMM     2.2                  : RMF          - RESISTIVITY OF MUD FILTRATE
SUFT.C        -17.7778             : SUFT         - SURFACE TEMPERATURE
~A  DEPTH     RESD     PHID     PHIN       GR      CAL
# ...
  484.480   12.729    0.257    0.447   91.774  145.199
  484.730   12.862    0.243    0.457   91.519  147.084
  484.980   12.958    0.228    0.446   91.265  149.852
  485.230   12.959    0.231    0.447   90.553  151.736
  485.480   12.901    0.234    0.463   87.498  151.855
  485.730   12.787    0.247    0.478   80.730  149.218
  485.980   12.506    0.251    0.483   68.881  145.920
  486.230   12.341    0.299    0.483   61.332  139.863
  486.480   12.088    0.324    0.475   55.410  139.102
  486.730   11.875    0.322    0.461   51.182  141.758
  486.980   11.752    0.305    0.462   50.276  143.202
  487.230   11.787    0.311    0.468   53.799  142.109
  487.480   11.999    0.319    0.455   52.373  140.904
  487.730   12.508    0.305    0.464   52.052  140.584
  487.980   13.692    0.295    0.439   53.426  141.806
  488.230   15.857    0.253    0.418   49.328  144.355
  488.480   22.236    0.216    0.266   45.231  146.680
  488.730   30.314    0.111    0.244   44.455  149.227
  488.980   33.730    0.090    0.242   43.419  150.449
  489.230   35.844    0.072    0.238   40.819  146.929
  489.480   39.354    0.083    0.233   38.089  144.512
  489.730   37.089    0.090    0.219   36.858  148.053
  489.980   25.188    0.119    0.204   35.235  148.063
  490.230   18.669    0.150    0.213   35.110  146.528
  490.480   15.036    0.178    0.231   35.833  144.552
  490.730   13.675    0.264    0.302   37.142  142.909
  490.980   12.567    0.328    0.463   38.319  142.476
  491.230   11.949    0.330    0.452   38.977  141.714
  491.480   11.481    0.323    0.431   38.787  139.849
  491.730   11.245    0.337    0.424   38.011  139.087
  491.980   11.047    0.329    0.433   39.059  139.096
  492.230   11.063    0.331    0.445   39.456  139.217
  492.480   11.163    0.317    0.439   38.094  140.329
  492.730   11.380    0.322    0.442   37.643  140.449
  492.980   11.516    0.307    0.465   39.799  139.687
  493.230   11.602    0.322    0.436   42.671  137.601
  493.480   11.602    0.315    0.426   45.542  134.082
  493.730   11.415    0.293    0.427   48.349  132.988
  493.980   11.180    0.305    0.446   50.308  132.557
  494.230   10.951    0.306    0.450   48.881  133.450
  494.480   10.774    0.313    0.429   48.171  135.444
  494.730   10.663    0.321    0.436   49.544  137.660
  494.980   10.600    0.314    0.448   52.416  139.214
  495.230   10.600    0.305    0.441   53.073  140.989
  495.480   10.727    0.312    0.426   52.102  141.439
  495.730   10.839    0.303    0.423   50.219  142.001
  495.980   10.888    0.301    0.435   49.834  142.453
  496.230   10.872    0.315    0.441   51.338  143.013
  496.480   10.856    0.313    0.435   54.209  143.354
  496.730   10.888    0.288    0.424   57.342  143.033
  496.980   10.937    0.287    0.419   61.320  141.609
  497.230   10.986    0.285    0.418   63.867  140.847
  497.480   11.002    0.299    0.422   65.045  141.078
  497.730   11.003    0.281    0.432   64.464  141.308
  497.980   11.085    0.292    0.423   60.301  141.317
  498.230   11.234    0.290    0.416   58.875  141.991
  498.480   11.453    0.297    0.409   58.034  142.660
  498.730   11.956    0.267    0.393   56.672  143.663
  498.980   13.049    0.220    0.388   55.765  144.887
  499.230   14.606    0.187    0.382   54.664  145.448
  499.480   16.156    0.164    0.321   58.057  146.229
  499.730   16.520    0.131    0.319   60.147  145.136
  499.980   16.301    0.202    0.422   60.348  142.498
  500.230   15.047    0.285    0.440   61.526  141.075
  500.480   13.344    0.294    0.442   64.528  140.423
  500.730   11.626    0.276    0.433   68.572  139.771
  500.980   11.203    0.271    0.431   75.222  139.891
  501.230   11.558    0.247    0.439   77.378  140.673
  501.480   12.048    0.232    0.471   77.904  141.456
  501.730   12.156    0.286    0.473   77.910  142.568
  501.980   11.853    0.298    0.457   77.785  143.791
  502.230   11.507    0.292    0.460   76.683  144.683
  502.480   11.338    0.307    0.470   77.667  144.693
  502.730   11.305    0.317    0.471   82.102  143.489
  502.980   11.491    0.302    0.459   82.824  142.286
  503.230   11.960    0.284    0.443   85.956  142.406
  503.480   12.505    0.262    0.438   90.717  144.401
  503.730   12.958    0.227    0.437   91.504  147.389
  503.980   13.328    0.216    0.441   89.165  150.376
  504.230   13.528    0.213    0.460   86.500  151.048
  504.480   13.270    0.197    0.450   87.027  150.175
  504.730   12.901    0.215    0.437   90.420  148.973
  504.980   12.712    0.248    0.456   89.123  147.658
  505.230   12.674    0.241    0.470   88.152  146.675
  505.480   12.807    0.233    0.465   91.023  146.906
  505.730   13.095    0.238    0.458   96.110  146.916
  505.980   13.291    0.250    0.435   97.027  147.257
  506.230   13.410    0.249    0.423   96.577  148.810
  506.480   13.351    0.244    0.421   94.759  150.806
  506.730   13.213    0.238    0.432   95.286  151.477
  506.980   13.038    0.235    0.444   98.939  151.157
  507.230   12.752    0.231    0.435   96.666  150.283
  507.480   12.733    0.226    0.448   93.545  153.050
  507.730   13.136    0.210    0.447   88.210  153.612
  507.980   13.734    0.248    0.454   77.794  145.019
  508.230   14.422    0.273    0.391   70.896  138.632
  508.480   14.747    0.250    0.369   75.787  141.951
  508.730   14.466    0.215    0.377   80.352  145.158
  508.980   14.402    0.247    0.425   80.358  140.095
  509.230   14.169    0.250    0.444   78.605  140.546
  509.480   13.858    0.252    0.435   80.955  144.637
  509.730   13.573    0.256    0.444   83.762  142.992
  509.980   13.434    0.265    0.453   84.354  141.678
  510.230   13.256    0.273    0.446   84.295  140.697
  510.480   13.119    0.274    0.436   82.086  140.265
  510.730   13.042    0.284    0.434   81.896  140.384
  510.980   12.927    0.273    0.436   85.419  140.616
  511.230   12.927    0.264    0.434   86.011  140.956
  511.480   12.966    0.251    0.429   85.561  141.517
  511.730   12.985    0.249    0.422   85.306  142.409
  511.980   12.985    0.222    0.425   86.029  144.625
  512.230   13.043    0.243    0.441   86.491  146.840
  512.480   13.102    0.255    0.437   85.910  148.836
  512.730   13.160    0.252    0.435   85.134  149.617
  512.980   13.200    0.234    0.429   84.619  148.745
  513.230   13.298    0.250    0.432   86.839  148.093
  513.480   13.378    0.250    0.424   90.883  147.661
  513.730   13.497    0.252    0.443   92.453  147.451
  513.980   13.618    0.261    0.440   91.091  147.350
  514.230   13.720    0.260    0.427   90.445  147.249
  514.480   13.781    0.229    0.442   92.079  147.481
  514.730   13.843    0.222    0.448   93.713  147.821
  514.980   13.782    0.194    0.442   94.891  149.154
  515.230   13.620    0.200    0.449   97.698  151.921
  515.480   13.499    0.225    0.439   97.704  154.909
  515.730   13.400    0.215    0.451   93.150  153.375
  515.980   13.321    0.230    0.450   91.202  149.304
  516.230   13.262    0.230    0.436   90.035  147.218
  516.480   13.242    0.241    0.424   88.217  145.353
  516.730   13.243    0.230    0.422   90.177  145.142
  516.980   13.184    0.230    0.436   88.099  145.704
  517.230   13.087    0.227    0.437   87.062  147.368
  517.480   12.649    0.230    0.428   85.179  148.921
  517.730   12.045    0.253    0.431   81.016  150.696
  517.980   11.590    0.285    0.447   67.865  149.934
  518.230   11.218    0.310    0.459   61.944  147.186
  518.480   11.004    0.322    0.458   58.823  144.880
  518.730   10.826    0.331    0.449   58.959  143.346
  518.980   10.714    0.315    0.438   64.762  144.128
  519.230   10.794    0.317    0.435   65.158  146.564
  519.480   11.353    0.301    0.437   61.778  147.235
  519.730   13.207    0.300    0.438   57.354  144.929
  519.980   16.326    0.291    0.433   53.517  144.167
  520.230   18.629    0.256    0.350   50.852  146.162
  520.480   21.897    0.189    0.327   49.230  148.929
  520.730   22.657    0.122    0.249   48.650  151.255
