~VERSION INFORMATION
 VERS.                 2.0:   CWLS LOG ASCII STANDARD -VERSION 2.0
 WRAP.                  NO:   ONE LINE PER DEPTH STEP
~WELL INFORMATION BLOCK
#MNEM.UNIT           DATA                    DESCRIPTION OF MNEMONIC
#---------    -------------------            -------------------------------
# Generated from Intellog Unique Number	CW_70_72/WELL/1037
NULL.         -999.25                        : NULL_VALUE
WELL.         SULPETRO SMITH 10-15           : Well_name    - WELL              
LOC .         10-15-071-26W4                 : Location     - LOCATION          
UWI .         00/10-15-071-26W4/0            : Uwi          - UNIQUE WELL ID    
ENTR.         JAYE                           : Entered      - ENTERED BY        
SRVC.         SCHLUMBERGER                   : Scn          - SERVICE COMPANY   
DATE.         24 FEB 72                      : Date         - LOG DATE          
STRT.M        426.11                         : top_depth    - START DEPTH       
STOP.M        685.86                         : bot_depth    - STOP DEPTH        
STEP.M        0.25                           : increment    - STEP LENGTH       
~CURVE INFORMATION BLOCK
#MNEM UNIT       ERCB CURVE CODE    CURVE DESCRIPTION
#-----------   ------------------   ----------------------------------
DEPT.M        00 001 00 00         : DEPTH        - DEPTH                       
DPHI.V/V      00 890 00 00         : PHID         - DENSITY POROSITY (SANDSTONE)
NPHI.V/V      00 330 00 00         : PHIN         - NEUTRON POROSITY (SANDSTONE)
GR  .API      00 310 00 00         : GR           - GAMMA RAY                   
CALI.MM       00 280 01 00         : CAL          - CALIPER                     
ILD .OHMM     00 120 00 00         : RESD         - DEEP RESISTIVITY (DIL)      
~PARAMETER INFORMATION       
#MNEM.UNIT           DATA             DESCRIPTION OF MNEMONIC
#---------         -----------     ------------------------------
GL  .M        617.22               : gl           - GROUND LEVEL ELEVATION      
EREF.M        620.573              : kb           - ELEVATION OF DEPTH REFERENCE
DATM.M        617.22               : datum        - DATUM ELEVATION             
TDD .M        701.04               : tdd          - TOTAL DEPTH DRILLER         
RUN .         ONE                  : Run          - RUN NUMBER                  
ENG .         ASHTON               : Engineer     - RECORDING ENGINEER          
WIT .         DRUMMOND             : Witness      - WITNESSED BY                
BASE.         LLOYD                : Branch       - HOME BASE OF LOGGING UNIT   
MUD .         CHEM GEL             : Mud_type     - MUD TYPE                    
MATR.         SANDSTONE            : Logunit      - NEUTRON MATRIX              
TMAX.C        26.6667              : BHT          - MAXIMUM RECORDED TEMPERATURE
BHTD.M        701.04               : BHTDEP       - MAXIMUM RECORDED TEMPERATURE
RMT .C        15.5556              : MDTP         - TEMPERATURE OF MUD          
MUDD.KG/M     1224                 : MWT          - MUD DENSITY                 
NEUT.         1                    : NEUTRON      - NEUTRON TYPE                
RESI.         0                    : RESIST       - RESISTIVITY TYPE            
RM  .OHMM     3.04                 : RM           - RESISTIVITY OF MUD          
RMC .OHMM     2.3                  : RMC          - RESISTIVITY OF MUD CAKE     
RMF .OHMM     2.66                 : RMF          - RESISTIVITY OF MUD FILTRATE 
SUFT.C        0                    : SUFT         - SURFACE TEMPERATURE         
~A  DEPTH     PHID     PHIN       GR      CAL     RESD
# ...
  608.610    0.034    0.336  109.333  187.767    5.041
  608.860    0.089    0.397  112.348  189.664    4.612
  609.110    0.153    0.365  103.345  191.670    5.115
  609.360    0.114    0.339  102.270  190.778    6.065
  609.610    0.085    0.318   95.886  187.100    6.327
  609.860    0.082    0.326   89.114  178.669    7.004
  610.110    0.070    0.315   89.143  181.611    6.711
  610.360    0.052    0.301   92.767  184.248    6.204
  610.610    0.105    0.344   97.991  180.665    6.022
  610.860    0.118    0.344  104.433  177.604    6.079
  611.110    0.133    0.323  106.112  177.337    6.390
  611.360    0.108    0.312  103.387  178.627    6.924
  611.610    0.099    0.331   99.807  184.253    7.633
  611.860    0.088    0.317   98.305  187.507    8.413
  612.110    0.072    0.300   97.472  188.379    7.834
  612.360    0.048    0.284  100.925  188.728    7.016
  612.610    0.041    0.275  104.006  189.289    6.270
  612.860    0.109    0.329  104.090  190.479    5.699
  613.110    0.106    0.345   89.329  192.386    5.255
  613.360    0.112    0.341   73.837  190.569    4.684
  613.610    0.161    0.299   59.198  186.057    3.676
  613.860    0.192    0.278   46.452  179.892    2.969
  614.110    0.228    0.313   41.469  173.216    2.478
  614.360    0.262    0.310   40.515  173.154    2.320
  614.610    0.264    0.301   40.537  175.574    2.178
  614.860    0.270    0.288   40.871  176.343    2.172
  615.110    0.266    0.279   40.407  176.184    2.276
  615.360    0.251    0.286   39.949  175.383    2.420
  615.610    0.229    0.294   40.769  174.503    2.509
  615.860    0.218    0.283   41.956  173.826    2.558
  616.110    0.212    0.272   41.305  173.559    2.535
  616.360    0.189    0.283   41.027  173.295    2.505
  616.610    0.209    0.284   41.480  173.238    2.498
  616.860    0.211    0.282   42.786  173.284    2.483
  617.110    0.219    0.282   44.651  173.425    2.461
  617.360    0.228    0.286   45.532  173.577    2.414
  617.610    0.236    0.286   43.237  173.830    2.352
  617.860    0.232    0.291   43.508  175.107    2.321
  618.110    0.238    0.302   44.571  175.867    2.354
  618.360    0.245    0.298   44.539  176.542    2.379
  618.610    0.243    0.288   42.669  177.204    2.468
  618.860    0.223    0.290   41.900  177.982    2.437
  619.110    0.249    0.289   41.618  179.267    2.478
  619.360    0.253    0.301   42.320  179.728    2.519
  619.610    0.239    0.299   43.991  179.871    2.504
  619.860    0.234    0.293   45.237  179.497    2.506
  620.110    0.244    0.300   45.514  179.025    2.507
  620.360    0.256    0.299   45.724  178.552    2.460
  620.610    0.251    0.292   46.177  178.396    2.422
  620.860    0.251    0.285   47.117  178.231    2.335
  621.110    0.251    0.283   49.530  177.657    2.392
  621.360    0.243    0.283   48.943  177.072    2.433
  621.610    0.225    0.282   47.135  177.534    2.466
  621.860    0.238    0.292   48.016  178.294    2.475
  622.110    0.233    0.316   49.446  178.556    2.469
  622.360    0.225    0.314   50.023  178.187    2.486
  622.610    0.238    0.299   50.354  176.365    2.550
  622.860    0.225    0.295   49.895  171.028    2.631
  623.110    0.215    0.289   49.184  167.138    2.712
  623.360    0.203    0.292   48.236  165.429    2.737
  623.610    0.204    0.282   45.571  168.264    2.746
  623.860    0.200    0.281   46.758  170.373    2.747
  624.110    0.200    0.296   49.351  171.145    2.748
  624.360    0.200    0.290   51.210  173.983    2.726
  624.610    0.220    0.283   50.260  177.232    2.687
  624.860    0.229    0.283   50.403  178.310    2.681
  625.110    0.238    0.288   51.168  178.669    2.674
  625.360    0.244    0.287   52.477  178.494    2.667
  625.610    0.237    0.292   53.785  178.230    2.668
  625.860    0.223    0.295   54.786  177.966    2.701
  626.110    0.215    0.302   55.672  177.909    2.742
  626.360    0.220    0.306   57.042  178.060    2.791
  626.610    0.209    0.303   58.524  178.313    2.824
  626.860    0.239    0.297   59.533  178.562    2.921
  627.110    0.216    0.291   60.414  178.502    3.009
  627.360    0.216    0.283   61.359  178.442    3.122
  627.610    0.209    0.277   62.974  178.181    3.338
  627.860    0.198    0.281   64.648  177.806    3.561
  628.110    0.192    0.289   65.961  177.220    3.849
  628.360    0.182    0.290   67.695  177.173    4.080
  628.610    0.179    0.286   71.450  178.144    4.471
  628.860    0.175    0.283   70.316  179.738    5.029
  629.110    0.157    0.272   68.080  180.411    5.547
  629.360    0.166    0.274   68.346  181.070    5.842
  629.610    0.181    0.262   69.783  181.520    5.589
  629.860    0.199    0.265   72.375  181.781    5.208
  630.110    0.167    0.274   72.769  181.920    4.995
  630.360    0.171    0.280   71.996  182.068    4.845
  630.610    0.194    0.286   71.904  182.104    4.695
  630.860    0.192    0.286   73.334  182.260    4.712
  631.110    0.171    0.280   75.682  182.397    4.841
  631.360    0.185    0.293   77.415  182.441    5.025
  631.610    0.166    0.286   74.879  182.588    5.273
  631.860    0.139    0.279   71.055  182.637    5.401
  632.110    0.135    0.277   69.003  182.484    5.346
  632.360    0.148    0.267   69.153  182.845    5.236
  632.610    0.154    0.260   70.827  183.396    5.150
  632.860    0.130    0.269   73.605  183.853    5.143
  633.110    0.134    0.278   76.073  183.800    5.176
  633.360    0.158    0.271   77.871  183.746    5.201
  633.610    0.152    0.266   80.466  183.579    5.266
  633.860    0.164    0.266   81.592  182.895    5.220
  634.110    0.165    0.268   81.190  182.832    5.086
  634.360    0.157    0.259   79.441  182.558    4.992
  634.610    0.160    0.267   79.162  182.507    5.032
  634.860    0.161    0.279   80.413  182.538    5.248
  635.110    0.169    0.274   81.046  182.601    5.655
  635.360    0.149    0.266   79.852  182.737    6.284
  635.610    0.116    0.260   77.489  182.791    6.866
  635.860    0.109    0.245   77.034  182.722    7.121
  636.110    0.097    0.234   77.121  182.779    6.860
  636.360    0.103    0.240   76.719  182.815    6.297
  636.610    0.134    0.251   77.170  182.973    5.726
  636.860    0.154    0.259   78.414  182.909    5.298
  637.110    0.145    0.267   79.669  183.054    5.188
  637.360    0.137    0.266   81.281  183.100    5.197
  637.610    0.149    0.264   82.650  183.457    5.325
  637.860    0.156    0.265   83.715  183.385    5.477
  638.110    0.153    0.274   84.722  183.439    5.590
  638.360    0.141    0.276   85.841  183.476    5.678
  638.610    0.131    0.276   86.668  183.422    5.831
  638.860    0.127    0.279   88.401  183.779    6.015
  639.110    0.132    0.286   91.120  184.438    6.262
  639.360    0.116    0.303   98.173  184.903    6.574
  639.610    0.140    0.318   95.507  185.348    7.020
  639.860    0.137    0.307   90.159  185.508    8.205
  640.110    0.132    0.289   82.971  185.449   10.909
  640.360    0.129    0.270   78.783  185.788   13.049
  640.610    0.115    0.245   72.513  186.040   16.285
  640.860    0.083    0.215   68.200  186.190   18.298
  641.110    0.052    0.171   65.295  186.346   18.442
  641.360    0.030    0.150   63.551  186.695   18.324
  641.610    0.044    0.135   70.724  186.957   16.982
  641.860    0.039    0.137   81.934  187.718   13.509
  642.110    0.039    0.155   92.039  188.282    9.536
  642.360    0.077    0.213   99.215  189.041    7.756
  642.610    0.113    0.277  100.588  189.303    7.169
  642.860    0.107    0.292   90.899  188.826   10.183
  643.110    0.075    0.280   81.882  187.521   12.991
  643.360    0.043    0.201   78.118  186.538   13.445
  643.610    0.029    0.166   84.862  185.852   11.324
  643.860    0.048    0.178   91.365  185.695    8.932
  644.110    0.131    0.220   99.340  186.251    7.216
  644.360    0.149    0.285  106.269  186.816    6.629
  644.610    0.158    0.302  111.674  187.687    6.559
  644.860    0.153    0.324  117.443  188.249    6.640
