~VERSION INFORMATION
 VERS.                 2.0:   CWLS LOG ASCII STANDARD -VERSION 2.0
 WRAP.                  NO:   ONE LINE PER DEPTH STEP
~WELL INFORMATION BLOCK
#MNEM.UNIT           DATA                    DESCRIPTION OF MNEMONIC
#---------    -------------------            -------------------------------
# Generated from Intellog Unique Number	CW_73_75/WELL/2996
WELL.         G & W ET AL SPUR               : Well_name    - WELL
LOC .         00/10-08-073-01W5/0            : Location     - LOCATION
UWI .         00/10-08-073-01W5/0            : Uwi          - UNIQUE WELL ID
ENTR.         CAMPBELL                       : Entered      - ENTERED BY
SRVC.         SCHLUMBERGER                   : Scn          - SERVICE COMPANY
DATE.         14 DEC 1988                    : Date         - LOG DATE
STRT.M        487                            : top_depth    - START DEPTH
STOP.M        635                            : bot_depth    - STOP DEPTH
STEP.M        0.25                           : increment    - STEP LENGTH
 NULL. -999.2500:NULL Value
~CURVE INFORMATION BLOCK
#MNEM UNIT       ERCB CURVE CODE    CURVE DESCRIPTION
#-----------   ------------------   ----------------------------------
DEPT.M        00 001 00 00         : DEPTH        - DEPTH
ILD .OHMM     00 120 00 00         : RESD         - DEEP RESISTIVITY (DIL)
DELT.US/F     00 520 00 00         : DELT         - SONIC TRAVEL TIME
NPHI.V/V      00 330 00 00         : PHIN         - NEUTRON POROSITY (SANDSTONE)
GR  .API      00 310 00 00         : GR           - GAMMA RAY
~PARAMETER INFORMATION
#MNEM.UNIT           DATA             DESCRIPTION OF MNEMONIC
#---------         -----------     ------------------------------
GL  .M        604.8                : gl           - GROUND LEVEL ELEVATION
EREF.M        608.2                : kb           - ELEVATION OF DEPTH REFERENCE
DATM.M        608.2                : datum        - DATUM ELEVATION
TDD .M        636                  : tdd          - TOTAL DEPTH DRILLER
RUN .         ONE                  : Run          - RUN NUMBER
ENG .         CARROLL              : Engineer     - RECORDING ENGINEER
WIT .         AMDREWS              : Witness      - WITNESSED BY
MUD .         GEL                  : Mud_type     - MUD TYPE
MATR.         SANDSTONE            : Logunit      - NEUTRON MATRIX
TMAX.C        29                   : BHT          - MAXIMUM RECORDED TEMPERATURE
BHTD.M        636                  : BHTDEP       - MAXIMUM RECORDED TEMPERATURE
RMT .C        17                   : MDTP         - TEMPERATURE OF MUD
MUDD.KG/M     1120                 : MWT          - MUD DENSITY
NEUT.         1                    : NEUTRON      - NEUTRON TYPE
RESI.         0                    : RESIST       - RESISTIVITY TYPE
RM  .OHMM     3.14                 : RM           - RESISTIVITY OF MUD
RMC .OHMM     0                    : RMC          - RESISTIVITY OF MUD CAKE
RMF .OHMM     2.78                 : RMF          - RESISTIVITY OF MUD FILTRATE
SUFT.C        -20                  : SUFT         - SURFACE TEMPERATURE
~A  DEPTH     RESD     DELT     PHIN       GR
# ...
  530.500    4.706  354.238    0.357   95.362
  530.750    4.422  360.149    0.365   96.808
  531.000    4.348  362.920    0.371   96.799
  531.250    4.434  362.557    0.364   98.244
  531.500    4.646  360.627    0.358   94.159
  531.750    4.867  357.134    0.371   89.490
  532.000    5.242  354.417    0.370   85.985
  532.250    5.491  351.312    0.355   79.860
  532.500    6.133  347.424    0.345   74.317
  532.750    7.036  341.182    0.322   73.433
  533.000    8.762  332.985    0.307   90.317
  533.250   11.109  327.530    0.312  107.201
  533.500   13.709  315.808    0.301   92.337
  533.750   13.978  266.088    0.243   64.659
  534.000   10.562  227.727    0.146   49.504
  534.250    6.901  211.697    0.141   49.493
  534.500    6.484  205.850    0.139   51.233
  534.750    6.260  201.570    0.181   59.379
  535.000    5.989  250.564    0.231   65.194
  535.250    5.732  287.415    0.304   70.719
  535.500    5.686  310.553    0.323   73.038
  535.750    5.746  329.387    0.333   75.651
  536.000    5.912  342.341    0.349   82.632
  536.250    6.083  342.373    0.325   90.196
  536.500    6.091  334.565    0.325   89.604
  536.750    5.990  323.234    0.327   83.478
  537.000    5.627  317.387    0.312   76.477
  537.250    5.336  310.757    0.303   77.343
  537.500    5.249  307.264    0.312   75.295
  537.750    5.254  314.343    0.318   72.956
  538.000    5.261  329.256    0.318   73.820
  538.250    5.315  339.864    0.317   77.596
  538.500    5.470  344.988    0.324   79.626
  538.750    5.576  346.976    0.330   81.654
  539.000    5.790  345.437    0.323   83.393
  539.250    5.904  339.195    0.314   80.763
  539.500    5.754  319.244    0.305   75.803
  539.750    5.606  302.430    0.309   73.463
  540.000    5.511  302.850    0.316   76.076
  540.250    5.468  322.467    0.331   79.559
  540.500    5.427  342.472    0.359   80.716
  540.750    5.427  350.338    0.340   80.707
  541.000    5.390  349.975    0.323   79.532
  541.250    5.252  343.349    0.317   79.815
  541.500    5.166  334.760    0.309   83.010
  541.750    5.125  330.868    0.312   87.077
  542.000    5.085  328.547    0.328   89.397
  542.250    5.000  331.317    0.354   89.678
  542.500    4.961  347.405    0.348   88.797
  542.750    4.922  350.962    0.345   88.786
  543.000    4.929  350.599    0.328   89.360
  543.250    4.935  352.198    0.327   89.933
  543.500    4.941  354.574    0.331   88.177
  543.750    4.948  354.994    0.322   84.091
  544.000    5.045  353.459    0.315   79.712
  544.250    5.097  353.484    0.327   86.401
  544.500    5.391  355.083    0.360   90.178
  544.750    5.910  356.686    0.364   83.762
  545.000    6.844  357.103    0.358   76.763
  545.250    7.997  357.128    0.360   74.132
  545.500    9.602  353.240    0.336   69.169
  545.750   10.338  339.167    0.320   67.705
  546.000    7.955  328.620    0.310   68.278
  546.250    6.065  327.474    0.306   69.725
  546.500    5.252  329.069    0.304   69.716
  546.750    4.891  325.181    0.300   73.201
  547.000    4.723  324.821    0.324   76.979
  547.250    4.685  339.339    0.338   81.921
  547.500    4.650  348.380    0.333   88.027
  547.750    4.654  355.463    0.338   93.260
  548.000    4.745  359.013    0.358   98.202
  548.250    4.927  362.175    0.367  102.852
  548.500    5.070  362.987    0.355   98.475
  548.750    5.171  356.749    0.349   92.931
  549.000    5.177  349.339    0.341   89.717
  549.250    5.137  345.839    0.355   87.380
  549.500    5.143  343.524    0.355   86.204
  549.750    5.149  341.591    0.331   84.737
  550.000    5.156  340.448    0.325   83.563
  550.250    5.210  340.477    0.325   84.429
  550.500    5.218  340.894    0.324   85.294
  550.750    5.224  340.534    0.325   85.867
  551.000    5.230  339.779    0.327   83.527
  551.250    5.285  338.241    0.323   80.312
  551.500    5.340  335.923    0.320   78.265
  551.750    5.347  333.990    0.313   79.131
  552.000    5.452  332.056    0.309   84.946
  552.250    5.660  328.560    0.308   87.559
  552.500    5.931  328.200    0.310   86.385
  552.750    6.215  330.579    0.308   82.881
  553.000    6.339  331.783    0.297   77.335
  553.250    6.289  322.411    0.291   75.289
  553.500    6.127  312.252    0.289   73.822
  553.750    5.810  306.013    0.281   72.648
  554.000    5.311  303.692    0.269   72.640
  554.250    5.222  300.982    0.277   80.494
  554.500    5.229  316.287    0.303   86.018
  554.750    5.236  329.633    0.326   89.795
  555.000    5.242  345.333    0.326   93.864
  555.250    5.250  346.932    0.326   89.485
  555.500    5.257  345.390    0.328   91.806
  555.750    5.265  345.031    0.329   92.669
  556.000    5.270  345.843    0.323   90.622
  556.250    5.229  344.301    0.327   89.740
  556.500    5.189  342.375    0.328   89.439
  556.750    5.149  340.445    0.318   89.721
  557.000    5.110  338.907    0.312   92.041
  557.250    5.115  342.461    0.322   94.071
  557.500    5.122  347.973    0.333   96.100
  557.750    5.175  352.702    0.326   99.294
  558.000    5.277  357.830    0.319  101.324
  558.250    5.379  357.858    0.319   99.275
  558.500    5.537  354.750    0.314   95.771
  558.750    5.646  349.295    0.326   95.763
  559.000    5.755  343.060    0.339   98.083
  559.250    6.031  346.222    0.334   99.529
  559.500    6.318  348.597    0.329   97.773
  559.750    6.621  350.200    0.323   97.473
  560.000    6.940  351.397    0.317   95.133
  560.250    7.138  349.470    0.306   89.882
  560.500    7.479  343.228    0.299   88.415
  560.750    8.055  333.073    0.298   92.192
  561.000    8.751  320.176    0.294   91.892
  561.250    9.595  315.899    0.299   89.844
  561.500   10.813  315.924    0.308   81.097
  561.750   12.185  315.565    0.314   75.553
  562.000   13.729  313.240    0.306   71.758
  562.250   13.872  303.084    0.272   67.962
  562.500   13.157  279.612    0.241   61.255
  562.750   12.585  252.218    0.198   53.673
  563.000   11.097  215.816    0.183   62.984
  563.250    9.783  236.999    0.197   70.837
  563.500    9.192  248.391    0.246   76.071
  563.750    8.717  256.645    0.282   76.936
  564.000    8.266  285.659    0.289   78.090
  564.250    8.053  305.279    0.273   81.285
  564.500    7.846  301.779    0.266   87.975
  564.750    7.856  294.757    0.267   94.373
  565.000    7.940  311.240    0.282   99.315
  565.250    8.169  316.361    0.303  102.510
  565.500    8.328  317.565    0.279   91.724
  565.750    8.416  303.492    0.263   88.803
  566.000    8.428  295.296    0.268   85.588
  566.250    8.515  304.725    0.259   80.628
  566.500    8.448  302.015    0.249   77.705
  566.750    8.157  298.515    0.265   83.522
  567.000    7.665  299.719    0.284   82.929
  567.250    7.007  308.756    0.287   81.755
  567.500    6.408  321.323    0.275   82.620
  567.750    6.131  315.868    0.291   86.397
  568.000    5.974  320.992    0.320   91.046
  568.250    6.035  328.459    0.338   90.164
  568.500    6.268  333.975    0.349   87.243
  568.750    6.391  332.832    0.344   84.612
  569.000    6.458  329.724    0.331   84.603
  569.250    6.525  326.622    0.323   85.467
  569.500    6.593  325.081    0.314   82.836
  569.750    6.600  323.154    0.303   83.117
  570.000    6.675  320.438    0.309   85.731
  570.250    6.740  319.686    0.316   88.341
  570.500    6.809  323.244    0.313   86.002
  570.750    6.880  324.832    0.307   86.868
  571.000    6.889  324.077    0.296   83.945
  571.250    6.961  318.231    0.293   83.644
  571.500    6.973  311.604    0.296   85.382
  571.750    6.979  315.550    0.298   85.665
  572.000    7.054  323.024    0.300   87.112
  572.250    7.128  326.966    0.302   89.142
  572.500    7.202  325.040    0.301   89.424
  572.750    7.275  323.113    0.307   87.958
  573.000    7.351  321.963    0.305   85.910
  573.250    7.361  321.212    0.302   89.978
  573.500    7.303  320.450    0.302   90.841
  573.750    7.312  320.878    0.302   89.957
