~VERSION INFORMATION
 VERS.                 2.0:   CWLS LOG ASCII STANDARD -VERSION 2.0
 WRAP.                  NO:   ONE LINE PER DEPTH STEP
~WELL INFORMATION BLOCK
#MNEM.UNIT           DATA                    DESCRIPTION OF MNEMONIC
#---------    -------------------            -------------------------------
# Generated from Intellog Unique Number	CW_73_75/WELL/2980
WELL.         PINNACLE ET AL MARTENH 15-24   : Well_name    - WELL
LOC .         00/15-24-074-02W5/0            : Location     - LOCATION
UWI .         00/15-24-074-02W5/0            : Uwi          - UNIQUE WELL ID
ENTR.         J                              : Entered      - ENTERED BY
SRVC.         SCHLUMBERGER                   : Scn          - SERVICE COMPANY
DATE.         20 JAN 89                      : Date         - LOG DATE
STRT.M        400                            : top_depth    - START DEPTH
STOP.M        615                            : bot_depth    - STOP DEPTH
STEP.M        0.25                           : increment    - STEP LENGTH
 NULL. -999.2500:NULL Value
~CURVE INFORMATION BLOCK
#MNEM UNIT       ERCB CURVE CODE    CURVE DESCRIPTION
#-----------   ------------------   ----------------------------------
DEPT.M        00 001 00 00         : DEPTH        - DEPTH
ILD .OHMM     00 120 00 00         : RESD         - DEEP RESISTIVITY (DIL)
CALI.MM       00 280 01 00         : CAL          - CALIPER
GR  .API      00 310 00 00         : GR           - GAMMA RAY
NPHI.V/V      00 330 00 00         : PHIN         - NEUTRON POROSITY (SANDSTONE)
DPHI.V/V      00 890 00 00         : PHID         - DENSITY POROSITY (SANDSTONE)
~PARAMETER INFORMATION
#MNEM.UNIT           DATA             DESCRIPTION OF MNEMONIC
#---------         -----------     ------------------------------
GL  .M        670.3                : gl           - GROUND LEVEL ELEVATION
EREF.M        673.7                : kb           - ELEVATION OF DEPTH REFERENCE
DATM.M        670.3                : datum        - DATUM ELEVATION
TDD .M        624.2                : tdd          - TOTAL DEPTH DRILLER
RUN .         ONE                  : Run          - RUN NUMBER
ENG .         ZACHYSTAL            : Engineer     - RECORDING ENGINEER
WIT .         COX                  : Witness      - WITNESSED BY
BASE.         SLAVE LAKE           : Branch       - HOME BASE OF LOGGING UNIT
MUD .         POLYMER              : Mud_type     - MUD TYPE
MATR.         SANDSTONE            : Logunit      - NEUTRON MATRIX
TMAX.C        36                   : BHT          - MAXIMUM RECORDED TEMPERATURE
BHTD.M        619.3                : BHTDEP       - MAXIMUM RECORDED TEMPERATURE
RMT .C        16                   : MDTP         - TEMPERATURE OF MUD
MUDD.KG/M     1045                 : MWT          - MUD DENSITY
NEUT.         1                    : NEUTRON      - NEUTRON TYPE
RESI.         0                    : RESIST       - RESISTIVITY TYPE
RM  .OHMM     7.4                  : RM           - RESISTIVITY OF MUD
RMC .OHMM     0.25                 : RMC          - RESISTIVITY OF MUD CAKE
RMF .OHMM     2.1                  : RMF          - RESISTIVITY OF MUD FILTRATE
SUFT.C        -17.7778             : SUFT         - SURFACE TEMPERATURE
~A  DEPTH     RESD      CAL       GR     PHIN     PHID
# ...
  473.000    5.086  200.132   62.248    0.422    0.266
  473.250    4.931  201.063   67.797    0.434    0.244
  473.500    4.693  202.094   72.250    0.441    0.233
  473.750    4.475  202.411   75.791    0.448    0.228
  474.000    4.267  202.834   78.174    0.459    0.215
  474.250    4.114  202.853   80.072    0.446    0.201
  474.500    4.010  202.662   78.924    0.413    0.201
  474.750    3.938  202.983   78.629    0.407    0.210
  475.000    3.946  203.708   79.369    0.407    0.210
  475.250    3.946  203.521   82.180    0.424    0.211
  475.500    3.962  203.743   84.989    0.434    0.216
  475.750    3.992  203.756   87.859    0.428    0.220
  476.000    4.000  204.076   86.408    0.413    0.219
  476.250    4.001  205.005   85.809    0.407    0.211
  476.500    3.994  206.441   88.376    0.423    0.195
  476.750    3.951  206.660   92.038    0.429    0.201
  477.000    3.930  202.109   96.613    0.436    0.222
  477.250    3.916  197.864   93.578    0.438    0.237
  477.500    3.932  198.695   83.116    0.428    0.237
  477.750    3.961  200.232   72.838    0.434    0.223
  478.000    4.028  200.855   72.055    0.446    0.224
  478.250    4.096  200.565   76.996    0.442    0.234
  478.500    4.150  198.653   82.120    0.428    0.239
  478.750    4.220  196.944   79.755    0.425    0.234
  479.000    4.299  195.946   76.234    0.406    0.227
  479.250    4.372  195.555   79.957    0.422    0.220
  479.500    4.397  195.673   79.357    0.447    0.225
  479.750    4.430  196.906   79.610    0.449    0.236
  480.000    4.447  198.342   81.811    0.436    0.216
  480.250    4.489  199.981   85.717    0.426    0.182
  480.500    4.523  203.345   84.388    0.427    0.179
  480.750    4.557  204.682   80.683    0.424    0.197
  481.000    4.609  204.696   77.832    0.413    0.216
  481.250    4.618  203.595   80.032    0.394    0.211
  481.500    4.611  202.700   81.138    0.404    0.202
  481.750    4.578  203.018   81.086    0.423    0.198
  482.000    4.512  203.135   80.487    0.438    0.199
  482.250    4.439  203.050   79.887    0.400    0.211
  482.500    4.351  202.865   80.446    0.408    0.215
  482.750    4.264  202.473   82.159    0.439    0.216
  483.000    4.188  201.981   83.204    0.454    0.224
  483.250    3.964  198.852   81.386    0.449    0.220
  483.500    3.979  196.027   72.995    0.449    0.239
  483.750    3.973  197.361   67.646    0.420    0.267
  484.000    4.010  201.131   67.048    0.407    0.280
  484.250    4.199  199.017   69.675    0.422    0.285
  484.500    4.414  194.365   70.597    0.430    0.289
  484.750    4.622  193.366   62.084    0.387    0.293
  485.000    4.823  193.382   57.710    0.396    0.277
  485.250    4.995  190.455   60.642    0.431    0.274
  485.500    5.089  190.978   61.991    0.447    0.285
  485.750    5.080  194.140   58.712    0.434    0.291
  486.000    5.007  194.562   57.139    0.430    0.294
  486.250    4.827  192.751   56.479    0.442    0.289
  486.500    4.646  191.042   56.732    0.450    0.283
  486.750    4.471  191.161   58.507    0.440    0.276
  487.000    4.294  191.276   57.481    0.425    0.276
  487.250    4.163  190.480   56.334    0.424    0.287
  487.500    4.073  190.597   55.553    0.417    0.289
  487.750    4.044  191.629   55.683    0.370    0.263
  488.000    4.045  194.788   55.815    0.332    0.221
  488.250    4.394  197.544   55.885    0.335    0.205
  488.500    4.765  195.734   56.260    0.355    0.227
  488.750    5.018  194.328   57.792    0.339    0.209
  489.000    5.226  192.619   61.758    0.391    0.191
  489.250    5.295  193.143   66.394    0.429    0.225
  489.500    5.276  194.478   71.213    0.450    0.259
  489.750    5.059  196.827   73.171    0.438    0.252
  490.000    4.753  199.988   70.806    0.425    0.236
  490.250    4.385  204.164   69.963    0.423    0.215
  490.500    4.008  206.412   75.635    0.434    0.215
  490.750    3.787  207.544   82.401    0.439    0.219
  491.000    3.698  207.053   81.741    0.418    0.220
  491.250    3.672  206.563   77.733    0.413    0.218
  491.500    3.686  206.476   79.325    0.424    0.212
  491.750    3.707  203.650   84.692    0.436    0.206
  492.000    3.728  200.014   87.501    0.442    0.205
  492.250    3.805  196.579   86.659    0.442    0.210
  492.500    3.877  194.464   89.164    0.436    0.223
  492.750    4.000  195.089   92.218    0.443    0.251
  493.000    4.220  196.424   83.217    0.458    0.243
  493.250    4.551  197.963   73.852    0.461    0.219
  493.500    4.828  199.803   68.991    0.451    0.196
  493.750    5.000  199.414   71.374    0.438    0.211
  494.000    5.141  198.009   70.775    0.432    0.245
  494.250    5.190  197.010   64.636    0.428    0.271
  494.500    5.239  196.316   63.123    0.441    0.277
  494.750    5.396  195.621   65.447    0.429    0.278
  495.000    5.640  195.028   62.838    0.428    0.277
  495.250    5.929  195.145   57.368    0.425    0.272
  495.500    6.266  195.567   57.500    0.422    0.270
  495.750    6.586  195.787   60.187    0.415    0.262
  496.000    6.821  195.497   62.449    0.409    0.265
  496.250    6.822  195.107   63.007    0.417    0.265
  496.500    6.700  195.123   63.929    0.430    0.256
  496.750    6.579  195.544   63.087    0.385    0.260
  497.000    6.484  198.098   61.027    0.365    0.254
  497.250    6.474  199.635   58.966    0.382    0.255
  497.500    6.404  200.770   55.444    0.402    0.266
  497.750    6.370  201.088   53.931    0.388    0.261
  498.000    6.336  201.611   56.560    0.375    0.259
  498.250    6.256  201.728   59.734    0.377    0.260
  498.500    6.076  201.137   64.005    0.383    0.263
  498.750    5.847  201.151   70.224    0.401    0.259
  499.000    5.721  201.167   71.634    0.423    0.257
  499.250    5.475  200.676   68.782    0.424    0.265
  499.500    5.230  199.979   68.122    0.396    0.267
  499.750    4.996  199.489   70.810    0.407    0.256
  500.000    4.799  198.997   69.785    0.421    0.254
  500.250    4.713  197.491   66.081    0.392    0.260
  500.500    4.801  195.376   63.412    0.330    0.264
  500.750    5.274  194.174   60.378    0.293    0.264
  501.000    6.167  195.407   57.221    0.225    0.227
  501.250    7.331  198.366   52.116    0.194    0.091
  501.500    8.525  199.803   48.412    0.181    0.032
  501.750    9.786  200.832   46.960    0.172    0.026
  502.000   11.443  200.646   46.117    0.170    0.031
  502.250   12.945  199.342   45.641    0.198    0.047
  502.500   13.935  196.314   45.772    0.270    0.087
  502.750   13.460  196.735   49.312    0.321    0.214
  503.000   11.473  196.853   56.261    0.389    0.262
  503.250    9.690  196.566   56.332    0.413    0.282
  503.500    8.155  196.277   55.672    0.422    0.285
  503.750    6.900  196.393   55.925    0.411    0.287
  504.000    6.204  196.409   55.021    0.410    0.294
  504.250    5.797  196.222   53.996    0.424    0.297
  504.500    5.724  196.137   55.284    0.433    0.296
  504.750    5.611  196.050   54.685    0.434    0.292
  505.000    5.530  195.864   53.598    0.412    0.286
  505.250    5.460  196.084   52.511    0.402    0.284
  505.500    5.401  196.199   51.548    0.411    0.296
  505.750    5.314  195.911   50.948    0.422    0.307
  506.000    5.228  195.521   51.078    0.416    0.314
  506.250    5.171  195.536   50.358    0.413    0.315
  506.500    5.116  195.349   49.577    0.405    0.313
  506.750    5.061  195.466   49.159    0.391    0.301
  507.000    5.232  193.352   48.438    0.380    0.283
  507.250    5.694  192.251   48.022    0.383    0.244
  507.500    6.085  196.732   52.171    0.400    0.245
  507.750    6.326  199.791   55.528    0.415    0.259
  508.000    6.362  201.026   55.781    0.424    0.269
  508.250    6.293  200.637   54.513    0.422    0.269
  508.500    6.045  199.940   51.843    0.410    0.269
  508.750    5.828  199.245   48.688    0.407    0.272
  509.000    5.578  198.449   50.829    0.405    0.277
  509.250    5.467  198.062   53.029    0.402    0.289
