~VERSION INFORMATION
 VERS.                 2.0:   CWLS LOG ASCII STANDARD -VERSION 2.0
 WRAP.                  NO:   ONE LINE PER DEPTH STEP
~WELL INFORMATION BLOCK
#MNEM.UNIT           DATA                    DESCRIPTION OF MNEMONIC
#---------    -------------------            -------------------------------
# Generated from Intellog Unique Number	CS_73_76/WELL/3265
WELL.         CHEVRON N CLYDE                : Well_name    - WELL
LOC .         00/11-21-075-11W4/0            : Location     - LOCATION
UWI .         00/11-21-075-11W4/0            : Uwi          - UNIQUE WELL ID
ENTR.         SP                             : Entered      - ENTERED BY
SRVC.         SCHLUMBERGER                   : Scn          - SERVICE COMPANY
STRT.M        274.32                         : top_depth    - START DEPTH
STOP.M        502.57                         : bot_depth    - STOP DEPTH
STEP.M        0.25                           : increment    - STEP LENGTH
 NULL. -999.2500:NULL Value
~CURVE INFORMATION BLOCK
#MNEM UNIT       ERCB CURVE CODE    CURVE DESCRIPTION
#-----------   ------------------   ----------------------------------
DEPT.M        00 001 00 00         : DEPTH        - DEPTH
GR  .API      00 310 00 00         : GR           - GAMMA RAY
DPHI.V/V      00 890 00 00         : PHID         - DENSITY POROSITY (SANDSTONE)
NPHI.V/V      00 330 00 00         : PHIN         - NEUTRON POROSITY (SANDSTONE)
ILD .OHMM     00 120 00 00         : RESD         - DEEP RESISTIVITY (DIL)
~PARAMETER INFORMATION
#MNEM.UNIT           DATA             DESCRIPTION OF MNEMONIC
#---------         -----------     ------------------------------
GL  .M        656.387              : gl           - GROUND LEVEL ELEVATION
EREF.M        660.502              : kb           - ELEVATION OF DEPTH REFERENCE
DATM.M        656.387              : datum        - DATUM ELEVATION
TDD .M        506.273              : tdd          - TOTAL DEPTH DRILLER
RUN .         ONE                  : Run          - RUN NUMBER
ENG .         BILL                 : Engineer     - RECORDING ENGINEER
WIT .         JIM                  : Witness      - WITNESSED BY
MUD .         GEL                  : Mud_type     - MUD TYPE
MATR.         SANDSTONE            : Logunit      - NEUTRON MATRIX
TMAX.C        20.7264              : BHT          - MAXIMUM RECORDED TEMPERATURE
BHTD.M        905                  : BHTDEP       - MAXIMUM RECORDED TEMPERATURE
MATR.         1                    : LOGUNIT      - NEUTRON MATRIX
RMT .C        25                   : MDTP         - TEMPERATURE OF MUD
NEUT.         1                    : NEUTRON      - NEUTRON TYPE
RESI.         0                    : RESIST       - RESISTIVITY TYPE
RMC .OHMM     0.25                 : RMC          - RESISTIVITY OF MUD CAKE
RMF .OHMM     0.25                 : RMF          - RESISTIVITY OF MUD FILTRATE
SUFT.C        15                   : SUFT         - SURFACE TEMPERATURE
~A  DEPTH       GR     PHID     PHIN     RESD
# ...
  448.320   86.556    0.195    0.573    3.046
  448.570   86.662    0.204    0.596    3.143
  448.820   88.346    0.205    0.528    3.239
  449.070   89.711    0.193    0.536    3.330
  449.320   90.933    0.183    0.557    3.495
  449.570   91.371    0.192    0.584    3.546
  449.820   90.932    0.204    0.612    3.522
  450.070   87.418    0.202    0.563    3.320
  450.320   84.070    0.177    0.532    3.079
  450.570   82.389    0.142    0.518    2.851
  450.820   84.919    0.162    0.554    2.638
  451.070   87.957    0.185    0.570    2.567
  451.320   89.797    0.203    0.576    2.501
  451.570   91.405    0.200    0.547    2.505
  451.820   91.721    0.202    0.564    2.452
  452.070   92.642    0.208    0.589    2.508
  452.320   92.600    0.223    0.588    2.548
  452.570   92.584    0.240    0.605    2.593
  452.820   92.482    0.224    0.627    2.713
  453.070   92.053    0.204    0.598    2.792
  453.320   90.089    0.211    0.548    2.920
  453.570   89.663    0.199    0.558    3.199
  453.820   91.232    0.186    0.575    3.489
  454.070   91.469    0.195    0.579    3.890
  454.320   90.121    0.189    0.544    4.209
  454.570   86.682    0.173    0.506    4.835
  454.820   84.709    0.167    0.502    5.212
  455.070   84.275    0.188    0.503    5.725
  455.320   76.321    0.205    0.468    6.143
  455.570   72.537    0.198    0.445    6.497
  455.820   72.163    0.168    0.454    6.408
  456.070   76.728    0.139    0.453    5.978
  456.320   80.427    0.067    0.458    5.694
  456.570   84.441    0.065    0.466    5.623
  456.820   88.206    0.119    0.491    5.662
  457.070   90.443    0.143    0.526    5.841
  457.320   92.555    0.162    0.550    6.195
  457.570   93.340    0.174    0.549    6.631
  457.820   93.284    0.189    0.513    7.424
  458.070   95.293    0.199    0.463    8.011
  458.320   97.274    0.193    0.437    8.688
  458.570   98.123    0.190    0.418    9.377
  458.820   93.501    0.177    0.418   10.575
  459.070   83.525    0.220    0.427   11.924
  459.320   74.685    0.242    0.400   13.469
  459.570   69.112    0.245    0.383   15.492
  459.820   65.851    0.256    0.381   17.804
  460.070   59.486    0.285    0.374   20.118
  460.320   55.151    0.340    0.384   21.427
  460.570   63.093    0.288    0.373   18.820
  460.820   69.892    0.252    0.364   16.286
  461.070   75.576    0.187    0.373   14.400
  461.320   81.300    0.160    0.404   12.621
  461.570   78.709    0.189    0.441   13.099
  461.820   70.590    0.225    0.423   14.535
  462.070   62.519    0.252    0.411   15.654
  462.320   59.914    0.283    0.396   17.159
  462.570   60.596    0.253    0.383   18.304
  462.820   64.097    0.241    0.394   18.868
  463.070   67.526    0.236    0.403   18.888
  463.320   65.440    0.239    0.403   18.873
  463.570   61.839    0.246    0.394   18.577
  463.820   60.585    0.250    0.399   18.194
  464.070   57.881    0.259    0.407   18.235
  464.320   57.354    0.239    0.401   19.670
  464.570   57.694    0.221    0.397   21.166
  464.820   61.490    0.243    0.435   23.528
  465.070   59.165    0.236    0.444   24.791
  465.320   52.356    0.224    0.428   24.925
  465.570   57.683    0.231    0.399   23.870
  465.820   61.308    0.232    0.420   18.425
  466.070   69.408    0.216    0.407   14.136
  466.320   72.557    0.188    0.390   10.071
  466.570   77.368    0.069    0.496    8.245
  466.820   82.115    0.041    0.540    6.821
  467.070   84.686    0.066    0.575    6.635
  467.320   88.082    0.100    0.598    7.954
  467.570   84.326    0.155    0.528    9.946
  467.820   72.674    0.200    0.459   12.220
  468.070   62.578    0.284    0.467   17.205
  468.320   59.189    0.293    0.449   21.761
  468.570   61.796    0.272    0.426   22.768
  468.820   64.208    0.257    0.417   22.165
  469.070   66.189    0.264    0.423   20.818
  469.320   67.561    0.243    0.426   20.207
  469.570   65.051    0.239    0.453   19.686
  469.820   64.163    0.254    0.502   21.544
  470.070   61.785    0.248    0.489   25.608
  470.320   55.388    0.264    0.508   34.360
  470.570   47.797    0.287    0.521   48.025
  470.820   42.986    0.297    0.496   70.573
  471.070   40.024    0.304    0.458   95.053
  471.320   41.822    0.311    0.434  100.171
  471.570   40.260    0.319    0.424  100.905
  471.820   38.889    0.313    0.431  104.179
  472.070   38.271    0.330    0.428  107.403
  472.320   39.655    0.326    0.431  110.796
  472.570   49.281    0.315    0.450   88.479
  472.820   56.466    0.312    0.445   42.310
  473.070   63.299    0.312    0.451   23.659
  473.320   70.249    0.305    0.423   14.880
  473.570   84.341    0.285    0.392   11.985
  473.820   96.953    0.204    0.358   10.113
  474.070  113.381    0.181    0.372    9.015
  474.320  118.644    0.171    0.401    8.349
  474.570  116.597    0.159    0.428    7.842
  474.820  115.846    0.183    0.439    7.611
  475.070  117.581    0.211    0.416    7.404
  475.320  119.952    0.223    0.404    7.292
  475.570  121.982    0.208    0.411    7.351
  475.820  122.256    0.183    0.416    7.435
  476.070  113.094    0.167    0.423    7.762
  476.320  103.988    0.199    0.449    8.544
  476.570   94.106    0.173    0.410    9.617
  476.820   82.784    0.147    0.371   10.400
  477.070   71.542    0.131    0.350   11.905
  477.320   74.135    0.176    0.350   12.845
  477.570   77.158    0.233    0.373   12.569
  477.820   74.939    0.240    0.385   12.163
  478.070   75.344    0.234    0.389   11.972
  478.320   76.086    0.219    0.379   11.722
  478.570   71.456    0.219    0.390   11.783
  478.820   66.030    0.222    0.389   12.365
  479.070   62.722    0.237    0.385   12.837
  479.320   60.457    0.223    0.389   13.357
  479.570   60.433    0.221    0.383   13.786
  479.820   62.393    0.228    0.378   13.769
  480.070   65.362    0.248    0.377   13.078
  480.320   68.722    0.252    0.363   12.453
  480.570   71.143    0.237    0.361   12.085
  480.820   72.475    0.240    0.382   11.941
  481.070   71.557    0.214    0.386   11.917
  481.320   69.782    0.200    0.387   12.174
  481.570   65.676    0.196    0.415   12.365
  481.820   62.313    0.209    0.439   12.384
  482.070   58.965    0.266    0.448   12.389
  482.320   60.370    0.259    0.435   12.406
  482.570   63.131    0.255    0.407   12.059
  482.820   67.903    0.217    0.402   11.702
  483.070   67.041    0.240    0.404   11.131
  483.320   62.347    0.251    0.401   11.151
  483.570   65.320    0.214    0.395   11.511
  483.820   67.664    0.226    0.399   11.512
  484.070   66.898    0.232    0.420   11.534
  484.320   67.618    0.220    0.405   11.132
  484.570   69.114    0.214    0.416   10.789
  484.820   68.375    0.213    0.434   11.745
  485.070   69.997    0.212    0.428   10.931
  485.320   71.094    0.210    0.419   10.980
  485.570   70.582    0.214    0.427   11.326
  485.820   66.436    0.241    0.406   11.670
  486.070   63.749    0.254    0.421   11.983
  486.320   67.336    0.240    0.422   11.724
  486.570   73.832    0.226    0.396   11.452
  486.820   84.842    0.204    0.381   10.615
  487.070   87.668    0.160    0.380    9.587
  487.320   78.522    0.169    0.407    9.783
  487.570   71.913    0.218    0.403   10.723
  487.820   65.333    0.278    0.391   14.133
  488.070   62.268    0.278    0.406   14.257
  488.320   64.162    0.257    0.411   13.726
  488.570   67.547    0.252    0.420   12.494
  488.820   70.654    0.199    0.422   11.391
  489.070   71.417    0.094    0.387   10.857
  489.320   71.648    0.043    0.365   11.604
  489.570   72.805    0.226    0.392   13.429
  489.820   73.845    0.253    0.413   15.938
  490.070   69.397    0.253    0.430   17.678
  490.320   62.951    0.285    0.439   19.062
  490.570   58.294    0.310    0.483   19.902
  490.820   60.544    0.318    0.454   17.802
  491.070   64.675    0.325    0.434   16.252
  491.320   71.212    0.305    0.426   14.830
  491.570   76.975    0.291    0.432   14.034
