~VERSION INFORMATION
 VERS.                 2.0:   CWLS LOG ASCII STANDARD -VERSION 2.0
 WRAP.                  NO:   ONE LINE PER DEPTH STEP
~WELL INFORMATION BLOCK
#MNEM.UNIT           DATA                    DESCRIPTION OF MNEMONIC
#---------    -------------------            -------------------------------
# Generated from Intellog Unique Number	CS_69_70/WELL/880
NULL.         -999.25                        : NULL_VALUE
WELL.         HUSKY OIL OPERATION LTD.       : Well_name    - WELL              
LOC .         00/10-33-070-06W4/0            : Location     - LOCATION          
UWI .         00/10-33-070-06W4/0            : Uwi          - UNIQUE WELL ID    
ENTR.         SP                             : Entered      - ENTERED BY        
SRVC.         SCHLUMBERGER                   : Scn          - SERVICE COMPANY   
STRT.M        275                            : top_depth    - START DEPTH       
STOP.M        500                            : bot_depth    - STOP DEPTH        
STEP.M        0.25                           : increment    - STEP LENGTH       
~CURVE INFORMATION BLOCK
#MNEM UNIT       ERCB CURVE CODE    CURVE DESCRIPTION
#-----------   ------------------   ----------------------------------
DEPT.M        00 001 00 00         : DEPTH        - DEPTH                       
ILD .OHMM     00 120 00 00         : RESD         - DEEP RESISTIVITY (DIL)      
DPHI.V/V      00 890 00 00         : PHID         - DENSITY POROSITY (LIMESTONE)
NPHI.V/V      00 330 00 00         : PHIN         - NEUTRON POROSITY (LIMESTONE)
GR  .API      00 310 00 00         : GR           - GAMMA RAY                   
~PARAMETER INFORMATION       
#MNEM.UNIT           DATA             DESCRIPTION OF MNEMONIC
#---------         -----------     ------------------------------
GL  .M        638.1                : gl           - GROUND LEVEL ELEVATION      
EREF.M        641.8                : kb           - ELEVATION OF DEPTH REFERENCE
DATM.M        638.1                : datum        - DATUM ELEVATION             
TDD .M        503                  : tdd          - TOTAL DEPTH DRILLER         
RUN .         ONE                  : Run          - RUN NUMBER                  
ENG .         BILL                 : Engineer     - RECORDING ENGINEER          
WIT .         JIM                  : Witness      - WITNESSED BY                
MUD .         GEL                  : Mud_type     - MUD TYPE                    
MATR.         LIMESTONE            : Logunit      - NEUTRON MATRIX              
TMAX.C        26                   : BHT          - MAXIMUM RECORDED TEMPERATURE
BHTD.M        503                  : BHTDEP       - MAXIMUM RECORDED TEMPERATURE
MATR.         1                    : LOGUNIT      - NEUTRON MATRIX              
RMT .C        25                   : MDTP         - TEMPERATURE OF MUD          
NEUT.         1                    : NEUTRON      - NEUTRON TYPE                
RESI.         0                    : RESIST       - RESISTIVITY TYPE            
RMC .OHMM     0.25                 : RMC          - RESISTIVITY OF MUD CAKE     
RMF .OHMM     0.25                 : RMF          - RESISTIVITY OF MUD FILTRATE 
SUFT.C        15                   : SUFT         - SURFACE TEMPERATURE         
~A  DEPTH     RESD     PHID     PHIN       GR
# ...
  318.500    8.243    0.281    0.432   67.602
  318.750    8.094    0.304    0.427   66.994
  319.000    7.947    0.319    0.420   71.806
  319.250    7.803    0.330    0.415   79.027
  319.500    7.662    0.276    0.406   86.250
  319.750    7.523    0.247    0.402   90.463
  320.000    7.251    0.227    0.394  101.299
  320.250    6.988    0.218    0.409  107.318
  320.500    6.861    0.232    0.420  108.516
  320.750    6.737    0.246    0.436  110.316
  321.000    6.615    0.259    0.443  113.323
  321.250    6.495    0.238    0.451  110.304
  321.500    6.378    0.230    0.444  106.683
  321.750    6.263    0.228    0.449  104.269
  322.000    6.265    0.229    0.465  101.853
  322.250    6.267    0.227    0.489  100.039
  322.500    6.269    0.235    0.489  100.033
  322.750    6.389    0.242    0.479   99.425
  323.000    6.634    0.244    0.468   97.609
  323.250    6.888    0.252    0.483   96.401
  323.500    7.152    0.270    0.485   90.970
  323.750    7.426    0.278    0.467   89.159
  324.000    7.855    0.272    0.454   85.537
  324.250    8.006    0.278    0.445   88.543
  324.500    8.159    0.283    0.431   93.958
  324.750    8.315    0.280    0.417   97.568
  325.000    8.318    0.270    0.414  100.574
  325.250    8.321    0.267    0.426   97.557
  325.500    8.171    0.266    0.413   91.524
  325.750    8.173    0.266    0.417   88.506
  326.000    8.025    0.264    0.425   85.488
  326.250    7.592    0.266    0.437   84.882
  326.500    7.317    0.263    0.407   84.874
  326.750    7.052    0.264    0.417   88.480
  327.000    7.054    0.267    0.433   89.079
  327.250    7.057    0.236    0.455   88.470
  327.500    7.059    0.244    0.482   83.644
  327.750    7.194    0.267    0.476   80.627
  328.000    7.332    0.300    0.468   76.404
  328.250    7.902    0.306    0.465   73.989
  328.500    8.360    0.286    0.449   78.197
  328.750    8.519    0.274    0.442   80.001
  329.000    8.682    0.291    0.444   84.209
  329.250    8.849    0.298    0.456   86.013
  329.500    9.018    0.306    0.473   81.789
  329.750    9.021    0.301    0.456   79.373
  330.000    9.024    0.297    0.449   79.968
  330.250    8.862    0.296    0.459   79.963
  330.500    8.541    0.285    0.472   79.355
  330.750    8.232    0.283    0.469   78.143
  331.000    8.082    0.274    0.452   76.329
  331.250    7.936    0.266    0.450   77.529
  331.500    7.648    0.252    0.441   77.523
  331.750    7.511    0.246    0.433   76.313
  332.000    7.512    0.232    0.450   79.918
  332.250    7.516    0.245    0.482   81.119
  332.500    7.518    0.251    0.490   81.714
  332.750    7.806    0.263    0.452   77.490
  333.000    8.106    0.260    0.433   75.076
  333.250    8.260    0.255    0.416   72.661
  333.500    8.578    0.257    0.415   68.435
  333.750    8.741    0.268    0.411   66.623
  334.000    9.076    0.275    0.409   63.605
  334.250    9.249    0.286    0.418   60.588
  334.500    9.427    0.299    0.436   55.159
  334.750    9.608    0.311    0.452   51.539
  335.000    9.433    0.290    0.435   55.751
  335.250    9.436    0.302    0.413   63.573
  335.500    9.266    0.312    0.398   66.581
  335.750    9.098    0.328    0.410   68.383
  336.000    8.933    0.333    0.420   64.160
  336.250    8.773    0.325    0.379   59.334
  336.500    8.614    0.320    0.365   65.350
  336.750    8.617    0.320    0.371   65.949
  337.000    8.619    0.333    0.382   62.327
  337.250    8.463    0.345    0.401   62.923
  337.500    8.467    0.351    0.416   65.930
  337.750    8.468    0.337    0.425   68.936
  338.000    8.472    0.329    0.426   71.942
  338.250    8.475    0.323    0.425   74.345
  338.500    8.477    0.316    0.426   76.143
  338.750    8.481    0.310    0.426   76.141
  339.000    8.643    0.310    0.427   68.302
  339.250    8.647    0.313    0.429   67.694
  339.500    8.649    0.302    0.412   71.905
  339.750    8.815    0.297    0.401   76.115
  340.000    8.818    0.294    0.408   75.504
  340.250    8.821    0.290    0.414   74.898
  340.500    8.824    0.294    0.420   74.288
  340.750    8.827    0.303    0.424   74.284
  341.000    8.668    0.308    0.429   77.890
  341.250    8.833    0.297    0.427   83.306
  341.500    8.673    0.244    0.427   88.120
  341.750    8.676    0.237    0.429   89.922
  342.000    8.680    0.237    0.440   89.915
  342.250    8.522    0.250    0.452   76.054
  342.500    8.369    0.277    0.458   64.602
  342.750    8.216    0.304    0.448   63.392
  343.000    8.220    0.311    0.461   62.181
  343.250    8.222    0.310    0.480   59.160
  343.500    8.538    0.319    0.460   56.746
  343.750    8.701    0.331    0.446   57.944
  344.000    8.867    0.340    0.432   61.550
  344.250    8.707    0.342    0.423   62.750
  344.500    8.392    0.341    0.436   63.950
  344.750    8.088    0.328    0.447   62.739
  345.000    8.091    0.330    0.469   62.128
  345.250    7.797    0.334    0.470   61.520
  345.500    6.976    0.338    0.453   60.912
  345.750    6.241    0.338    0.444   60.907
  346.000    5.583    0.334    0.437   62.709
  346.250    5.184    0.327    0.438   73.544
  346.500    4.637    0.321    0.463   79.562
  346.750    4.227    0.308    0.505   83.774
  347.000    4.228    0.296    0.542   81.357
  347.250    4.643    0.289    0.551   79.545
  347.500    5.291    0.293    0.506   75.923
  347.750    5.702    0.296    0.486   74.715
  348.000    6.498    0.296    0.451   72.900
  348.250    7.268    0.288    0.419   74.099
  348.500    8.131    0.278    0.398   81.319
  348.750    8.443    0.271    0.389   86.132
  349.000    8.604    0.266    0.403   89.138
  349.250    8.769    0.259    0.413   91.543
  349.500    8.773    0.257    0.402   92.740
  349.750    8.775    0.256    0.409   92.736
  350.000    8.777    0.248    0.413   93.331
  350.250    8.620    0.244    0.408   93.929
  350.500    8.621    0.242    0.415   94.524
  350.750    8.625    0.249    0.401   92.711
  351.000    8.628    0.261    0.404   90.295
  351.250    8.631    0.262    0.408   88.484
  351.500    8.633    0.264    0.397   86.068
  351.750    8.637    0.270    0.389   89.073
  352.000    8.641    0.262    0.402   90.874
  352.250    8.483    0.255    0.414   78.218
  352.500    8.331    0.243    0.420   66.766
  352.750    8.333    0.242    0.429   62.542
  353.000    8.031    0.259    0.441   65.549
  353.250    7.459    0.277    0.398   69.157
  353.500    7.187    0.290    0.411   70.959
  353.750    6.800    0.282    0.423   75.167
  354.000    6.553    0.264    0.430   81.788
  354.250    6.316    0.253    0.407   89.009
  354.500    5.975    0.248    0.409   93.222
  354.750    5.652    0.256    0.413   87.190
  355.000    5.447    0.259    0.434   84.173
  355.250    5.250    0.250    0.448   88.382
  355.500    4.967    0.245    0.460   90.183
  355.750    4.787    0.244    0.456   90.782
  356.000    4.529    0.236    0.446   87.764
  356.250    4.447    0.233    0.449   88.356
  356.500    4.366    0.237    0.458   90.159
  356.750    4.287    0.244    0.465   92.562
  357.000    4.132    0.248    0.463   92.558
  357.250    4.057    0.254    0.475   90.143
  357.500    3.984    0.261    0.490   93.147
  357.750    3.912    0.272    0.501   94.950
  358.000    3.913    0.271    0.499   91.929
  358.250    3.842    0.269    0.486   91.925
  358.500    3.843    0.262    0.477   94.329
  358.750    3.917    0.258    0.491   93.118
  359.000    3.918    0.250    0.501   95.519
  359.250    4.069    0.249    0.511   97.321
  359.500    4.224    0.249    0.521   94.905
  359.750    4.147    0.250    0.516   88.274
  360.000    4.470    0.252    0.503   77.424
  360.250    4.642    0.256    0.488   68.984
  360.500    4.819    0.271    0.467   61.748
  360.750    5.193    0.286    0.448   56.925
  361.000    5.702    0.295    0.435   60.533
  361.250    6.145    0.304    0.441   64.140
  361.500    6.500    0.314    0.442   65.340
  361.750    6.625    0.316    0.444   65.332
