~VERSION INFORMATION
 VERS.                 2.0:   CWLS LOG ASCII STANDARD -VERSION 2.0
 WRAP.                  NO:   ONE LINE PER DEPTH STEP
~WELL INFORMATION BLOCK
#MNEM.UNIT           DATA                    DESCRIPTION OF MNEMONIC
#---------    -------------------            -------------------------------
# Generated from Intellog Unique Number	CS_77_79/WELL/952
WELL.         PARAMOUNT RESOURCES LTD.       : Well_name    - WELL
LOC .         00/10-14-077-10W4/0            : Location     - LOCATION
UWI .         00/10-14-077-10W4/0            : Uwi          - UNIQUE WELL ID
ENTR.         SP                             : Entered      - ENTERED BY
SRVC.         SCHLUMBERGER                   : Scn          - SERVICE COMPANY
STRT.M        210.25                         : top_depth    - START DEPTH
STOP.M        440                            : bot_depth    - STOP DEPTH
STEP.M        0.25                           : increment    - STEP LENGTH
 NULL. -999.2500:NULL Value
~CURVE INFORMATION BLOCK
#MNEM UNIT       ERCB CURVE CODE    CURVE DESCRIPTION
#-----------   ------------------   ----------------------------------
DEPT.M        00 001 00 00         : DEPTH        - DEPTH
ILD .OHMM     00 120 00 00         : RESD         - DEEP RESISTIVITY (DIL)
DPHI.V/V      00 890 00 00         : PHID         - DENSITY POROSITY (LIMESTONE)
NPHI.V/V      00 330 00 00         : PHIN         - NEUTRON POROSITY (LIMESTONE)
GR  .API      00 310 00 00         : GR           - GAMMA RAY
~PARAMETER INFORMATION
#MNEM.UNIT           DATA             DESCRIPTION OF MNEMONIC
#---------         -----------     ------------------------------
GL  .M        632                  : gl           - GROUND LEVEL ELEVATION
EREF.M        635                  : kb           - ELEVATION OF DEPTH REFERENCE
DATM.M        632                  : datum        - DATUM ELEVATION
TDD .M        470                  : tdd          - TOTAL DEPTH DRILLER
RUN .         ONE                  : Run          - RUN NUMBER
ENG .         BILL                 : Engineer     - RECORDING ENGINEER
WIT .         JIM                  : Witness      - WITNESSED BY
MUD .         GEL                  : Mud_type     - MUD TYPE
MATR.         LIMESTONE            : Logunit      - NEUTRON MATRIX
TMAX.C        22                   : BHT          - MAXIMUM RECORDED TEMPERATURE
BHTD.M        470                  : BHTDEP       - MAXIMUM RECORDED TEMPERATURE
MATR.         1                    : LOGUNIT      - NEUTRON MATRIX
RMT .C        25                   : MDTP         - TEMPERATURE OF MUD
NEUT.         1                    : NEUTRON      - NEUTRON TYPE
RESI.         0                    : RESIST       - RESISTIVITY TYPE
RMC .OHMM     0.25                 : RMC          - RESISTIVITY OF MUD CAKE
RMF .OHMM     0.25                 : RMF          - RESISTIVITY OF MUD FILTRATE
SUFT.C        15                   : SUFT         - SURFACE TEMPERATURE
~A  DEPTH     RESD     PHID     PHIN       GR
# ...
  253.750   15.359    0.268    0.345   61.069
  254.000   15.359    0.286    0.355   59.244
  254.250   15.159    0.260    0.327   59.248
  254.500   14.959    0.247    0.317   61.691
  254.750   13.755    0.258    0.327   62.915
  255.000   12.751    0.251    0.332   65.966
  255.250   11.547    0.246    0.338   77.556
  255.500   10.543    0.222    0.391  101.952
  255.750    9.741    0.211    0.395   96.468
  256.000    9.540    0.218    0.383   92.203
  256.250    9.541    0.234    0.349   83.671
  256.500   10.345    0.241    0.319   78.186
  256.750   11.148    0.217    0.311   75.751
  257.000   12.555    0.211    0.305   79.414
  257.250   14.363    0.230    0.312   81.857
  257.500   15.166    0.245    0.328   78.202
  257.750   15.769    0.253    0.351   72.718
  258.000   15.569    0.226    0.348   77.601
  258.250   14.766    0.165    0.344   78.214
  258.500   14.365    0.197    0.360   82.487
  258.750   14.366    0.245    0.383   82.490
  259.000   14.567    0.253    0.375   73.348
  259.250   14.768    0.228    0.369   68.474
  259.500   14.970    0.236    0.368   71.527
  259.750   14.970    0.243    0.363   78.238
  260.000   14.971    0.219    0.360   83.120
  260.250   14.971    0.215    0.366   80.687
  260.500   14.771    0.223    0.385   80.079
  260.750   14.571    0.246    0.391   83.133
  261.000   14.170    0.265    0.400   85.575
  261.250   13.367    0.267    0.406   88.628
  261.500   12.565    0.248    0.420   87.412
  261.750   12.364    0.238    0.408   92.295
  262.000   12.767    0.250    0.401   86.811
  262.250   13.570    0.270    0.391   80.717
  262.500   14.575    0.283    0.364   77.672
  262.750   14.776    0.275    0.336   76.457
  263.000   14.978    0.273    0.340   75.853
  263.250   14.978    0.278    0.341   76.465
  263.500   14.778    0.246    0.330   80.738
  263.750   14.578    0.246    0.321   83.180
  264.000   14.177    0.239    0.332   86.843
  264.250   14.177    0.198    0.347   79.530
  264.500   14.379    0.207    0.393   77.094
  264.750   15.182    0.236    0.401   76.489
  265.000   16.388    0.249    0.387   61.858
  265.250   19.400    0.249    0.317   47.838
  265.500   21.208    0.252    0.301   43.572
  265.750   23.016    0.261    0.305   46.626
  266.000   24.221    0.258    0.315   39.923
  266.250   24.824    0.259    0.325   36.268
  266.500   25.026    0.267    0.332   33.223
  266.750   25.026    0.271    0.319   35.666
  267.000   24.826    0.271    0.325   41.157
  267.250   24.626    0.272    0.338   44.211
  267.500   24.626    0.279    0.341   44.214
  267.750   24.627    0.276    0.344   49.706
  268.000   24.828    0.271    0.311   50.320
  268.250   25.030    0.266    0.317   45.446
  268.500   25.231    0.266    0.316   47.891
  268.750   25.432    0.279    0.317   47.284
  269.000   25.834    0.288    0.325   44.849
  269.250   26.036    0.291    0.340   44.852
  269.500   26.237    0.291    0.341   41.807
  269.750   26.439    0.283    0.322   36.324
  270.000   26.640    0.279    0.307   38.767
  270.250   26.841    0.294    0.317   44.259
  270.500   27.244    0.299    0.314   44.872
  270.750   27.445    0.301    0.320   43.658
  271.000   27.646    0.302    0.330   45.491
  271.250   27.848    0.302    0.337   44.884
  271.500   27.848    0.299    0.347   48.548
  271.750   28.049    0.301    0.357   50.990
  272.000   28.050    0.307    0.351   49.776
  272.250   28.051    0.303    0.335   47.949
  272.500   28.051    0.295    0.324   47.344
  272.750   28.453    0.296    0.337   45.518
  273.000   28.454    0.302    0.353   44.302
  273.250   28.856    0.308    0.365   46.746
  273.500   29.057    0.311    0.357   49.798
  273.750   29.460    0.311    0.366   51.632
  274.000   29.862    0.313    0.353   49.198
  274.250   30.063    0.316    0.320   49.201
  274.500   30.265    0.320    0.330   51.034
  274.750   30.466    0.309    0.331   51.040
  275.000   30.667    0.309    0.331   50.433
  275.250   30.869    0.318    0.352   49.827
  275.500   31.070    0.319    0.370   47.392
  275.750   31.070    0.314    0.339   44.957
  276.000   31.272    0.311    0.340   45.571
  276.250   31.473    0.320    0.345   48.014
  276.500   31.474    0.329    0.353   51.066
  276.750   31.675    0.331    0.363   52.900
  277.000   31.676    0.326    0.361   51.684
  277.250   31.877    0.325    0.353   48.639
  277.500   31.878    0.323    0.363   48.033
  277.750   31.878    0.329    0.364   48.648
  278.000   31.879    0.332    0.360   49.871
  278.250   32.080    0.324    0.358   45.606
  278.500   32.081    0.323    0.357   49.269
  278.750   31.880    0.336    0.349   52.322
  279.000   31.078    0.337    0.370   48.058
  279.250   29.874    0.332    0.371   48.672
  279.500   29.472    0.326    0.354   51.115
  279.750   29.272    0.320    0.353   62.094
  280.000   29.273    0.323    0.377   72.464
  280.250   29.474    0.330    0.409   63.322
  280.500   29.675    0.343    0.428   64.545
  280.750   29.877    0.341    0.410   62.110
  281.000   30.078    0.337    0.376   56.017
  281.250   30.480    0.340    0.382   51.753
  281.500   30.481    0.353    0.388   51.146
  281.750   30.281    0.358    0.393   45.052
  282.000   30.281    0.353    0.377   44.448
  282.250   30.081    0.350    0.366   45.671
  282.500   30.081    0.356    0.380   50.553
  282.750   30.082    0.356    0.394   52.996
  283.000   30.082    0.356    0.403   52.390
  283.250   30.083    0.355    0.392   51.175
  283.500   29.883    0.350    0.377   45.082
  283.750   29.683    0.344    0.400   43.865
  284.000   29.683    0.339    0.413   43.869
  284.250   29.684    0.347    0.413   45.092
  284.500   29.483    0.354    0.415   44.486
  284.750   29.484    0.352    0.416   46.320
  285.000   29.284    0.350    0.409   52.421
  285.250   28.883    0.350    0.398   53.645
  285.500   28.883    0.355    0.399   50.600
  285.750   28.884    0.361    0.421   46.946
  286.000   28.884    0.358    0.428   43.901
  286.250   28.885    0.354    0.411   42.687
  286.500   28.886    0.354    0.436   45.128
  286.750   28.685    0.355    0.445   44.523
  287.000   28.686    0.355    0.431   44.527
  287.250   28.485    0.353    0.396   48.800
  287.500   28.285    0.353    0.387   50.023
  287.750   28.085    0.361    0.406   48.807
  288.000   28.085    0.359    0.407   52.470
  288.250   27.685    0.351    0.399   53.083
  288.500   27.484    0.345    0.405   51.868
  288.750   27.284    0.345    0.406   51.872
  289.000   26.883    0.350    0.393   54.925
  289.250   26.884    0.354    0.384   52.490
  289.500   26.683    0.355    0.379   50.055
  289.750   26.282    0.361    0.376   46.400
  290.000   26.082    0.356    0.401   43.965
  290.250   25.882    0.351    0.427   42.750
  290.500   25.681    0.353    0.401   43.973
  290.750   25.280    0.356    0.394   46.416
  291.000   24.879    0.361    0.424   51.298
  291.250   24.478    0.351    0.425   55.571
  291.500   24.077    0.353    0.417   53.747
  291.750   23.877    0.342    0.395   53.750
  292.000   23.476    0.337    0.399   53.144
  292.250   23.477    0.339    0.407   52.538
  292.500   23.076    0.350    0.395   48.883
  292.750   22.875    0.354    0.384   45.228
  293.000   22.675    0.351    0.379   48.282
  293.250   22.475    0.346    0.388   53.774
  293.500   22.275    0.345    0.411   54.387
  293.750   22.074    0.344    0.412   54.391
  294.000   21.874    0.339    0.414   51.955
  294.250   21.674    0.339    0.420   47.082
  294.500   21.474    0.338    0.413   44.646
  294.750   21.474    0.337    0.397   47.701
  295.000   21.274    0.342    0.374   50.143
  295.250   21.274    0.343    0.372   53.196
  295.500   21.074    0.338    0.385   51.980
  295.750   21.075    0.337    0.384   48.325
  296.000   21.075    0.343    0.389   50.159
  296.250   21.076    0.344    0.415   51.993
  296.500   21.076    0.341    0.425   51.386
  296.750   21.077    0.350    0.442   50.171
  297.000   21.078    0.350    0.394   44.077
