~VERSION INFORMATION
 VERS.                 2.0:   CWLS LOG ASCII STANDARD -VERSION 2.0
 WRAP.                  NO:   ONE LINE PER DEPTH STEP
~WELL INFORMATION BLOCK
#MNEM.UNIT           DATA                    DESCRIPTION OF MNEMONIC
#---------    -------------------            -------------------------------
# Generated from Intellog Unique Number	CS_73_76/WELL/834
WELL.         DOME ET AL KIRBY               : Well_name    - WELL
LOC .         00/10-29-073-05W4/0            : Location     - LOCATION
UWI .         00/10-29-073-05W4/0            : Uwi          - UNIQUE WELL ID
ENTR.         SP                             : Entered      - ENTERED BY
SRVC.         SCHLUMBERGER                   : Scn          - SERVICE COMPANY
STRT.M        270                            : top_depth    - START DEPTH
STOP.M        507                            : bot_depth    - STOP DEPTH
STEP.M        0.25                           : increment    - STEP LENGTH
 NULL. -999.2500:NULL Value
~CURVE INFORMATION BLOCK
#MNEM UNIT       ERCB CURVE CODE    CURVE DESCRIPTION
#-----------   ------------------   ----------------------------------
DEPT.M        00 001 00 00         : DEPTH        - DEPTH
ILD .OHMM     00 120 00 00         : RESD         - DEEP RESISTIVITY (DIL)
DPHI.V/V      00 890 00 00         : PHID         - DENSITY POROSITY (LIMESTONE)
NPHI.V/V      00 330 00 00         : PHIN         - NEUTRON POROSITY (LIMESTONE)
GR  .API      00 310 00 00         : GR           - GAMMA RAY
~PARAMETER INFORMATION
#MNEM.UNIT           DATA             DESCRIPTION OF MNEMONIC
#---------         -----------     ------------------------------
GL  .M        669.03               : gl           - GROUND LEVEL ELEVATION
EREF.M        672.93               : kb           - ELEVATION OF DEPTH REFERENCE
DATM.M        669.03               : datum        - DATUM ELEVATION
TDD .M        514.6                : tdd          - TOTAL DEPTH DRILLER
RUN .         ONE                  : Run          - RUN NUMBER
ENG .         BILL                 : Engineer     - RECORDING ENGINEER
WIT .         JIM                  : Witness      - WITNESSED BY
MUD .         GEL                  : Mud_type     - MUD TYPE
MATR.         LIMESTONE            : Logunit      - NEUTRON MATRIX
TMAX.C        20                   : BHT          - MAXIMUM RECORDED TEMPERATURE
BHTD.M        514.6                : BHTDEP       - MAXIMUM RECORDED TEMPERATURE
MATR.         1                    : LOGUNIT      - NEUTRON MATRIX
RMT .C        25                   : MDTP         - TEMPERATURE OF MUD
NEUT.         1                    : NEUTRON      - NEUTRON TYPE
RESI.         0                    : RESIST       - RESISTIVITY TYPE
RMC .OHMM     0.25                 : RMC          - RESISTIVITY OF MUD CAKE
RMF .OHMM     0.25                 : RMF          - RESISTIVITY OF MUD FILTRATE
SUFT.C        15                   : SUFT         - SURFACE TEMPERATURE
~A  DEPTH     RESD     PHID     PHIN       GR
# ...
  400.500    4.024    0.277    0.436   71.809
  400.750    3.951    0.271    0.443   71.810
  401.000    3.952    0.284    0.440   69.996
  401.250    3.953    0.292    0.437   69.393
  401.500    3.954    0.295    0.443   69.393
  401.750    3.955    0.265    0.458   71.813
  402.000    3.957    0.249    0.464   74.838
  402.250    3.957    0.221    0.475   79.073
  402.500    4.033    0.239    0.464   80.888
  402.750    3.960    0.238    0.460   81.494
  403.000    3.888    0.254    0.475   82.100
  403.250    3.479    0.280    0.502   82.101
  403.500    2.944    0.295    0.529   82.101
  403.750    2.539    0.298    0.555   81.498
  404.000    2.402    0.289    0.563   82.103
  404.250    2.402    0.274    0.550   84.523
  404.500    2.359    0.271    0.542   86.944
  404.750    2.316    0.277    0.534   88.154
  405.000    2.274    0.279    0.539   88.155
  405.250    2.275    0.286    0.539   90.575
  405.500    2.276    0.289    0.525   92.995
  405.750    2.276    0.284    0.520   96.625
  406.000    2.319    0.267    0.508   97.835
  406.250    2.364    0.256    0.506   99.046
  406.500    2.500    0.245    0.506   97.232
  406.750    2.744    0.234    0.478   89.975
  407.000    2.956    0.233    0.459   85.742
  407.250    3.305    0.251    0.442   82.114
  407.500    3.696    0.274    0.412   79.091
  407.750    4.133    0.360    0.374   77.277
  408.000    4.796    0.386    0.348   71.834
  408.250    5.670    0.400    0.271   68.206
  408.500    9.191    0.428    0.205   63.368
  408.750   13.329    0.421    0.173   60.950
  409.000   16.660    0.415    0.165   59.136
  409.250   20.824    0.429    0.178   57.927
  409.500   24.166    0.442    0.144   60.952
  409.750   27.528    0.421    0.133   63.373
  410.000   27.031    0.415    0.152   63.978
  410.250   24.641    0.409    0.162   63.979
  410.500   22.885    0.417    0.167   63.980
  410.750   22.468    0.424    0.156   62.771
  411.000   24.661    0.434    0.134   63.377
  411.250   27.068    0.452    0.115   61.563
  411.500   29.163    0.452    0.104   59.145
  411.750   30.842    0.439    0.112   60.355
  412.000   32.019    0.439    0.125   62.775
  412.250   32.629    0.445    0.134   64.591
  412.500   32.637    0.459    0.126   61.567
  412.750   31.457    0.472    0.125   57.334
  413.000   29.762    0.442    0.132   54.916
  413.250   27.639    0.432    0.154   54.312
  413.500   26.637    0.426    0.169   56.732
  413.750   25.674    0.422    0.176   59.152
  414.000   24.746    0.435    0.177   60.362
  414.250   23.410    0.444    0.171   61.573
  414.500   21.341    0.428    0.189   61.574
  414.750   19.455    0.410    0.225   60.970
  415.000   18.750    0.397    0.263   60.366
  415.250   18.756    0.383    0.283   59.762
  415.500   19.836    0.334    0.315   58.553
  415.750   21.372    0.334    0.442   59.159
  416.000   23.028    0.340    0.469   59.764
  416.250   24.811    0.330    0.475   59.765
  416.500   25.755    0.320    0.465   59.161
  416.750   26.245    0.312    0.453   57.952
  417.000   26.251    0.312    0.447   56.744
  417.250   24.838    0.320    0.411   56.140
  417.500   23.066    0.311    0.399   56.140
  417.750   21.823    0.307    0.422   56.141
  418.000   20.268    0.326    0.426   56.747
  418.250   19.898    0.322    0.420   56.748
  418.500   19.179    0.328    0.426   57.958
  418.750   18.832    0.330    0.434   59.169
  419.000   17.816    0.329    0.440   59.774
  419.250   15.944    0.319    0.440   57.356
  419.500   15.083    0.311    0.442   56.147
  419.750   14.269    0.319    0.445   56.148
  420.000   13.008    0.328    0.448   56.149
  420.250   12.307    0.335    0.446   57.359
  420.500   11.861    0.335    0.441   59.779
  420.750   12.088    0.332    0.445   60.990
  421.000   12.318    0.330    0.447   60.991
  421.250   12.786    0.318    0.450   59.178
  421.500   13.523    0.309    0.453   59.178
  421.750   14.302    0.331    0.453   59.179
  422.000   14.575    0.345    0.450   59.180
  422.250   14.578    0.339    0.448   59.181
  422.500   14.053    0.335    0.451   59.182
  422.750   14.056    0.326    0.456   59.787
  423.000   14.059    0.329    0.464   60.393
  423.250   14.062    0.328    0.460   60.394
  423.500   14.332    0.323    0.459   60.394
  423.750   14.877    0.324    0.459   59.791
  424.000   15.444    0.325    0.454   59.791
  424.250   16.034    0.319    0.445   59.187
  424.500   16.337    0.310    0.435   59.793
  424.750   16.961    0.303    0.430   59.794
  425.000   16.965    0.314    0.436   60.400
  425.250   16.352    0.330    0.443   59.796
  425.500   15.187    0.339    0.446   58.587
  425.750   14.910    0.346    0.454   57.378
  426.000   14.639    0.329    0.459   60.403
  426.250   15.199    0.314    0.465   62.218
  426.500   15.777    0.320    0.458   63.429
  426.750   16.686    0.337    0.447   64.034
  427.000   16.691    0.334    0.434   64.035
  427.250   16.087    0.326    0.433   59.802
  427.500   15.222    0.319    0.442   59.803
  427.750   15.224    0.306    0.443   61.619
  428.000   15.805    0.283    0.436   62.224
  428.250   17.347    0.242    0.367   62.225
  428.500   18.689    0.180    0.321   60.411
  428.750   19.766    0.126    0.279   57.993
  429.000   19.772    0.133    0.247   54.969
  429.250   19.057    0.299    0.302   54.970
  429.500   17.698    0.312    0.374   56.786
  429.750   17.058    0.291    0.411   57.996
  430.000   17.062    0.266    0.412   58.602
  430.250   17.386    0.247    0.385   57.998
  430.500   17.391    0.230    0.359   56.789
  430.750   16.152    0.204    0.345   53.766
  431.000   15.281    0.199    0.388   54.371
  431.250   13.674    0.299    0.418   56.187
  431.500   12.936    0.296    0.434   58.002
  431.750   11.576    0.285    0.410   59.212
  432.000   10.552    0.253    0.405   61.028
  432.250    9.098    0.300    0.428   61.633
  432.500    7.419    0.311    0.444   62.239
  432.750    5.939    0.318    0.453   61.635
  433.000    5.120    0.306    0.458   61.031
  433.250    4.334    0.308    0.452   61.637
  433.500    3.807    0.318    0.448   62.847
  433.750    3.535    0.327    0.447   63.453
  434.000    3.345    0.330    0.445   63.454
  434.250    3.346    0.334    0.440   61.035
  434.500    3.346    0.324    0.423   56.197
  434.750    3.812    0.314    0.414   53.779
  435.000    4.184    0.304    0.402   54.385
  435.250    4.856    0.283    0.388   56.200
  435.500    5.429    0.262    0.377   60.435
  435.750    6.071    0.235    0.371   64.065
  436.000    6.663    0.268    0.376   65.275
  436.250    6.665    0.277    0.373   70.115
  436.500    6.306    0.259    0.371   77.978
  436.750    6.308    0.247    0.383   82.818
  437.000    6.671    0.247    0.397   87.052
  437.250    7.599    0.250    0.411   89.473
  437.500    8.497    0.255    0.421   81.611
  437.750    9.502    0.253    0.383   75.563
  438.000   10.048    0.248    0.364   72.540
  438.250   11.030    0.247    0.353   74.355
  438.500   11.450    0.248    0.348   77.381
  438.750   11.886    0.266    0.355   77.986
  439.000   11.890    0.275    0.361   78.591
  439.250   11.675    0.272    0.374   77.383
  439.500   11.462    0.261    0.364   77.384
  439.750   11.255    0.239    0.349   76.175
  440.000   11.903    0.225    0.337   73.151
  440.250   16.026    0.227    0.328   65.894
  440.500   19.663    0.249    0.347   60.451
  440.750   23.245    0.273    0.364   51.380
  441.000   25.045    0.287    0.378   43.518
  441.250   21.999    0.304    0.372   44.728
  441.500   16.048    0.294    0.373   47.148
  441.750   11.281    0.278    0.355   47.754
  442.000    9.199    0.275    0.339   50.174
  442.250    7.095    0.264    0.330   59.853
  442.500    6.232    0.255    0.344   67.716
  442.750    5.374    0.242    0.355   76.185
  443.000    5.084    0.248    0.376   83.444
  443.250    4.810    0.267    0.365   91.912
  443.500    4.636    0.239    0.347   97.961
  443.750    4.637    0.200    0.345  102.196
