~VERSION INFORMATION
 VERS.                 2.0:   CWLS LOG ASCII STANDARD -VERSION 2.0
 WRAP.                  NO:   ONE LINE PER DEPTH STEP
~WELL INFORMATION BLOCK
#MNEM.UNIT           DATA                    DESCRIPTION OF MNEMONIC
#---------    -------------------            -------------------------------
# Generated from Intellog Unique Number	CW_70_72/WELL/1061
NULL.         -999.25                        : NULL_VALUE
WELL.         WINCAN ET AL GAMBLER 11-22     : Well_name    - WELL              
LOC .         11-22-071-21W4                 : Location     - LOCATION          
UWI .         00/11-22-071-21W4/0            : Uwi          - UNIQUE WELL ID    
ENTR.         JAYE                           : Entered      - ENTERED BY        
SRVC.         SCHLUMBERGER                   : Scn          - SERVICE COMPANY   
DATE.         19 MAR 83                      : Date         - LOG DATE          
STRT.M        335                            : top_depth    - START DEPTH       
STOP.M        518                            : bot_depth    - STOP DEPTH        
STEP.M        0.25                           : increment    - STEP LENGTH       
~CURVE INFORMATION BLOCK
#MNEM UNIT       ERCB CURVE CODE    CURVE DESCRIPTION
#-----------   ------------------   ----------------------------------
DEPT.M        00 001 00 00         : DEPTH        - DEPTH                       
DPHI.V/V      00 890 00 00         : PHID         - DENSITY POROSITY (SANDSTONE)
NPHI.V/V      00 330 00 00         : PHIN         - NEUTRON POROSITY (SANDSTONE)
GR  .API      00 310 00 00         : GR           - GAMMA RAY                   
CALI.MM       00 280 01 00         : CAL          - CALIPER                     
ILD .OHMM     00 120 00 00         : RESD         - DEEP RESISTIVITY (DIL)      
~PARAMETER INFORMATION       
#MNEM.UNIT           DATA             DESCRIPTION OF MNEMONIC
#---------         -----------     ------------------------------
GL  .M        600.05               : gl           - GROUND LEVEL ELEVATION      
EREF.M        603.25               : kb           - ELEVATION OF DEPTH REFERENCE
DATM.M        600.05               : datum        - DATUM ELEVATION             
TDD .M        518                  : tdd          - TOTAL DEPTH DRILLER         
RUN .         ONE                  : Run          - RUN NUMBER                  
ENG .         GAGGINO              : Engineer     - RECORDING ENGINEER          
WIT .         LYSZKIEWICZ          : Witness      - WITNESSED BY                
BASE.         EDM                  : Branch       - HOME BASE OF LOGGING UNIT   
MUD .         GEL CHEM             : Mud_type     - MUD TYPE                    
MATR.         SANDSTONE            : Logunit      - NEUTRON MATRIX              
TMAX.C        28.8                 : BHT          - MAXIMUM RECORDED TEMPERATURE
BHTD.M        517.7                : BHTDEP       - MAXIMUM RECORDED TEMPERATURE
RMT .C        16.6                 : MDTP         - TEMPERATURE OF MUD          
MUDD.KG/M     1240                 : MWT          - MUD DENSITY                 
NEUT.         1                    : NEUTRON      - NEUTRON TYPE                
RESI.         0                    : RESIST       - RESISTIVITY TYPE            
RM  .OHMM     4.02                 : RM           - RESISTIVITY OF MUD          
RMC .OHMM     0                    : RMC          - RESISTIVITY OF MUD CAKE     
RMF .OHMM     3.26                 : RMF          - RESISTIVITY OF MUD FILTRATE 
SUFT.C        0                    : SUFT         - SURFACE TEMPERATURE         
~A  DEPTH     PHID     PHIN       GR      CAL     RESD
# ...
  444.500    0.258    0.426   56.846  223.197    4.061
  444.750    0.254    0.449   56.485  224.473    4.073
  445.000    0.254    0.444   57.567  225.440    4.103
  445.250    0.249    0.429   58.649  225.883    4.109
  445.500    0.241    0.427   59.981  226.017    4.139
  445.750    0.251    0.442   61.313  226.037    4.167
  446.000    0.242    0.447   62.645  226.379    4.175
  446.250    0.239    0.435   64.479  226.613    4.187
  446.500    0.240    0.408   67.631  226.844    4.203
  446.750    0.233    0.415   70.531  226.870    4.225
  447.000    0.222    0.424   73.558  226.792    4.214
  447.250    0.212    0.443   78.089  226.815    4.182
  447.500    0.207    0.461   79.609  227.052    4.111
  447.750    0.202    0.436   78.495  227.072    3.986
  448.000    0.201    0.437   79.325  226.993    3.656
  448.250    0.197    0.459   81.098  227.020    3.296
  448.500    0.205    0.478   83.183  227.042    2.792
  448.750    0.227    0.481   85.895  227.067    2.517
  449.000    0.244    0.497   88.356  227.301    2.598
  449.250    0.246    0.521   89.187  227.432    2.858
  449.500    0.229    0.532   84.183  227.562    3.092
  449.750    0.210    0.512   81.437  227.588    3.289
  450.000    0.205    0.498   83.524  227.614    3.497
  450.250    0.201    0.458   85.357  227.529    3.797
  450.500    0.191    0.440   87.318  227.348    4.000
  450.750    0.185    0.434   87.833  227.267    4.239
  451.000    0.181    0.434   85.591  227.189    4.483
  451.250    0.174    0.439   82.280  227.318    4.732
  451.500    0.163    0.434   77.402  227.551    5.042
  451.750    0.131    0.411   76.225  227.053    5.362
  452.000    0.163    0.417   76.051  225.719    5.463
  452.250    0.193    0.412   76.694  223.755    5.441
  452.500    0.174    0.399   78.528  222.212    5.378
  452.750    0.187    0.406   81.807  221.193    5.365
  453.000    0.195    0.442   82.133  220.275    5.373
  453.250    0.200    0.459   82.273  219.571    5.432
  453.500    0.199    0.442   82.226  219.280    5.512
  453.750    0.192    0.422   78.163  218.784    5.615
  454.000    0.175    0.422   72.156  218.286    5.730
  454.250    0.161    0.429   71.607  218.312    5.791
  454.500    0.164    0.437   72.374  218.332    5.835
  454.750    0.185    0.448   73.895  218.357    5.799
  455.000    0.200    0.424   76.544  218.383    5.806
  455.250    0.194    0.392   79.946  218.198    5.775
  455.500    0.187    0.396   79.084  218.119    5.729
  455.750    0.179    0.410   74.770  218.147    5.673
  456.000    0.168    0.440   71.208  218.484    5.629
  456.250    0.160    0.441   72.039  218.612    5.626
  456.500    0.188    0.424   76.006  218.950    5.594
  456.750    0.203    0.413   80.915  219.083    5.568
  457.000    0.197    0.413   86.012  219.103    5.545
  457.250    0.189    0.402   87.281  219.339    5.524
  457.500    0.185    0.385   83.093  219.682    5.511
  457.750    0.183    0.400   80.409  219.808    5.480
  458.000    0.184    0.408   77.476  220.041    5.446
  458.250    0.188    0.410   76.236  220.171    5.411
  458.500    0.193    0.407   76.628  220.299    5.351
  458.750    0.188    0.408   77.520  220.430    5.327
  459.000    0.191    0.408   77.536  220.558    5.326
  459.250    0.192    0.405   75.543  220.272    5.354
  459.500    0.186    0.396   73.424  219.980    5.361
  459.750    0.195    0.386   73.253  219.380    5.330
  460.000    0.194    0.402   73.330  218.567    5.287
  460.250    0.213    0.431   74.161  218.070    5.216
  460.500    0.220    0.428   76.245  217.779    5.116
  460.750    0.203    0.433   81.215  217.491    4.816
  461.000    0.195    0.453   85.623  217.413    4.534
  461.250    0.199    0.446   86.515  217.228    4.348
  461.500    0.166    0.427   77.496  217.355    4.234
  461.750    0.152    0.405   68.101  217.172    4.322
  462.000    0.188    0.413   62.032  217.095    4.597
  462.250    0.229    0.428   59.976  217.121    4.879
  462.500    0.207    0.428   61.622  217.037    5.111
  462.750    0.198    0.400   63.457  216.958    5.365
  463.000    0.199    0.357   64.350  216.985    5.631
  463.250    0.210    0.378   64.050  217.218    5.888
  463.500    0.196    0.379   62.811  217.347    5.998
  463.750    0.180    0.350   62.136  217.373    5.940
  464.000    0.189    0.328   61.773  217.399    5.742
  464.250    0.194    0.338   62.855  217.424    5.663
  464.500    0.185    0.349   64.375  217.447    5.693
  464.750    0.159    0.354   56.862  217.890    6.310
  465.000    0.134    0.332   48.847  217.913    7.208
  465.250    0.071    0.236   47.921  217.730    8.341
  465.500    0.063    0.227   47.371  217.439    9.580
  465.750    0.062    0.227   43.873  217.259   11.046
  466.000    0.056    0.217   45.205  217.282   12.856
  466.250    0.073    0.192   48.108  217.623   12.493
  466.500    0.126    0.212   51.132  217.437   10.489
  466.750    0.152    0.257   55.350  217.462    8.771
  467.000    0.201    0.330   59.257  217.486    6.432
  467.250    0.253    0.388   60.023  217.509    5.074
  467.500    0.247    0.393   59.850  217.641    4.317
  467.750    0.238    0.398   56.916  217.666    4.155
  468.000    0.239    0.413   58.751  217.480    4.313
  468.250    0.238    0.428   60.961  217.508    4.622
  468.500    0.215    0.369   61.540  217.636    5.191
  468.750    0.174    0.331   55.658  217.763    5.786
  469.000    0.126    0.306   55.299  217.892    6.258
  469.250    0.138    0.318   57.006  217.711    6.495
  469.500    0.164    0.340   60.910  217.734    6.337
  469.750    0.221    0.355   64.439  217.757    6.067
  470.000    0.229    0.386   65.895  217.678    5.753
  470.250    0.224    0.394   64.091  217.807    5.385
  470.500    0.221    0.414   62.411  217.734    5.013
  470.750    0.229    0.406   63.243  217.859    4.763
  471.000    0.233    0.400   63.571  217.986    4.585
  471.250    0.231    0.404   62.207  218.120    4.432
  471.500    0.225    0.405   59.397  218.144    4.388
  471.750    0.214    0.388   56.842  217.956    4.380
  472.000    0.217    0.369   60.432  217.986    4.353
  472.250    0.225    0.380   62.894  218.006    4.327
  472.500    0.231    0.392   63.787  218.033    4.316
  472.750    0.228    0.406   64.052  217.953    4.300
  473.000    0.225    0.417   63.063  217.978    4.330
  473.250    0.231    0.416   60.571  218.001    4.369
  473.500    0.243    0.406   60.145  218.131    4.409
  473.750    0.244    0.398   60.599  218.368    4.441
  474.000    0.227    0.393   61.554  218.389    4.472
  474.250    0.210    0.389   63.455  218.521    4.539
  474.500    0.196    0.388   64.596  218.544    4.579
  474.750    0.210    0.390   66.116  216.792    4.621
  475.000    0.224    0.394   67.324  216.817    4.567
  475.250    0.233    0.406   63.575  217.261    4.448
  475.500    0.240    0.426   59.700  217.496    4.420
  475.750    0.251    0.395   55.510  217.832    4.579
  476.000    0.241    0.392   51.260  218.172    4.806
  476.250    0.202    0.385   48.327  218.406    5.378
  476.500    0.167    0.364   47.462  218.637    6.027
  476.750    0.146    0.324   48.294  219.082    7.096
  477.000    0.125    0.309   55.648  219.736    7.364
  477.250    0.140    0.315   65.638  220.177    7.238
  477.500    0.172    0.329   74.435  221.247    6.550
  477.750    0.180    0.344   84.488  222.846    5.498
  478.000    0.166    0.355   92.972  223.701    4.966
  478.250    0.159    0.375   98.446  224.458    4.910
  478.500    0.157    0.399   97.080  225.221    4.954
  478.750    0.159    0.382   91.699  225.558    5.045
  479.000    0.163    0.379   93.283  225.893    5.159
  479.250    0.153    0.395   96.058  226.025    5.244
  479.500    0.153    0.398   98.143  226.258    5.362
  479.750    0.156    0.398   97.029  226.393    5.481
  480.000    0.153    0.404   90.331  226.414    5.669
  480.250    0.139    0.407   84.888  226.227    5.839
  480.500    0.112    0.402   83.523  225.942    5.970
  480.750    0.128    0.391   86.047  225.441    6.058
