~VERSION INFORMATION
 VERS.                 2.0:   CWLS LOG ASCII STANDARD -VERSION 2.0
 WRAP.                  NO:   ONE LINE PER DEPTH STEP
~WELL INFORMATION BLOCK
#MNEM.UNIT           DATA                    DESCRIPTION OF MNEMONIC
#---------    -------------------            -------------------------------
# Generated from Intellog Unique Number	CW_70_72/WELL/1052
NULL.         -999.25                        : NULL_VALUE
WELL.         G.P.D. SMITH 11-03             : Well_name    - WELL              
LOC .         11-03-072-01W5                 : Location     - LOCATION          
UWI .         00/11-03-072-01W5/0            : Uwi          - UNIQUE WELL ID    
ENTR.         JAYE                           : Entered      - ENTERED BY        
SRVC.         SCHLUMBERGER                   : Scn          - SERVICE COMPANY   
DATE.         30 JULY 76                     : Date         - LOG DATE          
STRT.M        435.864                        : top_depth    - START DEPTH       
STOP.M        694.864                        : bot_depth    - STOP DEPTH        
STEP.M        0.25                           : increment    - STEP LENGTH       
~CURVE INFORMATION BLOCK
#MNEM UNIT       ERCB CURVE CODE    CURVE DESCRIPTION
#-----------   ------------------   ----------------------------------
DEPT.M        00 001 00 00         : DEPTH        - DEPTH                       
DPHI.V/V      00 890 00 00         : PHID         - DENSITY POROSITY (SANDSTONE)
NPHI.V/V      00 330 00 00         : PHIN         - NEUTRON POROSITY (SANDSTONE)
GR  .API      00 310 00 00         : GR           - GAMMA RAY                   
CALI.MM       00 280 01 00         : CAL          - CALIPER                     
ILD .OHMM     00 120 00 00         : RESD         - DEEP RESISTIVITY (DIL)      
~PARAMETER INFORMATION       
#MNEM.UNIT           DATA             DESCRIPTION OF MNEMONIC
#---------         -----------     ------------------------------
GL  .M        635.203              : gl           - GROUND LEVEL ELEVATION      
EREF.M        638.861              : kb           - ELEVATION OF DEPTH REFERENCE
DATM.M        635.203              : datum        - DATUM ELEVATION             
TDD .M        719.328              : tdd          - TOTAL DEPTH DRILLER         
RUN .         ONE                  : Run          - RUN NUMBER                  
BASE.         EDM                  : Branch       - HOME BASE OF LOGGING UNIT   
MUD .         GEL                  : Mud_type     - MUD TYPE                    
MATR.         SANDSTONE            : Logunit      - NEUTRON MATRIX              
TMAX.C        36.1111              : BHT          - MAXIMUM RECORDED TEMPERATURE
BHTD.M        719.938              : BHTDEP       - MAXIMUM RECORDED TEMPERATURE
RMT .C        15.5556              : MDTP         - TEMPERATURE OF MUD          
MUDD.KG/M     1164                 : MWT          - MUD DENSITY                 
NEUT.         1                    : NEUTRON      - NEUTRON TYPE                
RESI.         0                    : RESIST       - RESISTIVITY TYPE            
RM  .OHMM     5.56                 : RM           - RESISTIVITY OF MUD          
RMC .OHMM     0                    : RMC          - RESISTIVITY OF MUD CAKE     
RMF .OHMM     5.16                 : RMF          - RESISTIVITY OF MUD FILTRATE 
SUFT.C        0                    : SUFT         - SURFACE TEMPERATURE         
~A  DEPTH     PHID     PHIN       GR      CAL     RESD
# ...
  618.364    0.123    0.368   83.699  180.591    6.094
  618.614    0.118    0.344   86.684  179.774    6.072
  618.864    0.107    0.331   86.296  178.087    6.151
  619.114    0.089    0.321   81.819  176.721    6.310
  619.364    0.072    0.313   78.720  175.142    6.605
  619.614    0.051    0.303   75.161  173.882    7.357
  619.864    0.031    0.288   69.303  172.734    8.361
  620.114    0.018    0.289   69.989  172.133    9.245
  620.364   -0.001    0.321   75.121  172.171    9.928
  620.614    0.005    0.348   80.867  173.299    9.520
  620.864    0.095    0.389   84.312  175.829    8.333
  621.114    0.120    0.382   84.894  177.171    7.401
  621.364    0.125    0.370   82.412  176.566    6.430
  621.614    0.126    0.361   80.386  176.393    6.155
  621.864    0.125    0.358   78.514  176.655    6.315
  622.114    0.110    0.361   76.746  176.915    6.526
  622.364    0.095    0.363   74.925  176.738    6.819
  622.614    0.106    0.361   72.596  176.785    7.060
  622.864    0.119    0.356   70.112  176.719    7.323
  623.114    0.119    0.347   67.523  175.681    7.527
  623.364    0.103    0.333   59.977  173.014    7.653
  623.614    0.097    0.348   51.818  170.459    7.880
  623.864    0.138    0.357   44.273  168.451    8.309
  624.114    0.218    0.357   36.422  166.222    8.777
  624.364    0.257    0.352   30.357  158.477    9.705
  624.614    0.285    0.350   24.959  158.839   11.212
  624.864    0.269    0.349   24.419  158.450   11.975
  625.114    0.271    0.349   24.133  159.358   10.348
  625.364    0.269    0.358   24.000  160.594    7.941
  625.614    0.279    0.356   23.713  161.397    5.962
  625.864    0.269    0.351   24.860  161.437    4.660
  626.114    0.257    0.350   24.520  161.694    3.778
  626.364    0.253    0.354   23.876  161.531    3.235
  626.614    0.264    0.349   24.254  161.241    2.947
  626.864    0.263    0.346   24.684  160.642    2.735
  627.114    0.271    0.347   23.888  160.351    2.666
  627.364    0.271    0.345   23.394  160.180    2.613
  627.614    0.269    0.341   23.520  160.236    2.561
  627.864    0.263    0.335   23.950  160.164    2.529
  628.114    0.260    0.335   24.481  160.208    2.534
  628.364    0.265    0.337   25.267  159.922    2.539
  628.614    0.269    0.342   26.365  159.966    2.548
  628.864    0.278    0.349   26.891  159.577    2.553
  629.114    0.278    0.353   27.425  159.078    2.563
  629.364    0.253    0.351   27.699  158.793    2.577
  629.614    0.243    0.348   28.078  158.298    2.596
  629.864    0.254    0.350   28.762  158.020    2.634
  630.114    0.246    0.355   29.908  157.958    2.654
  630.364    0.247    0.363   32.023  157.894    2.693
  630.614    0.246    0.373   33.681  157.937    2.753
  630.864    0.251    0.373   34.365  157.978    2.799
  631.114    0.255    0.369   33.874  157.912    2.850
  631.364    0.243    0.364   33.691  157.752    2.893
  631.614    0.226    0.359   33.813  157.671    2.914
  631.864    0.218    0.355   34.446  157.609    2.935
  632.114    0.216    0.353   36.103  157.541    2.979
  632.364    0.210    0.351   37.607  157.364    3.034
  632.614    0.220    0.348   38.240  156.881    3.147
  632.864    0.212    0.334   38.364  156.487    3.288
  633.114    0.199    0.335   38.485  156.416    3.429
  633.364    0.210    0.342   39.581  156.453    3.525
  633.614    0.222    0.350   40.214  156.612    3.597
  633.864    0.215    0.357   40.132  156.771    3.623
  634.114    0.214    0.362   39.639  156.916    3.617
  634.364    0.204    0.363   38.331  157.060    3.597
  634.614    0.218    0.361   38.865  157.103    3.571
  634.864    0.239    0.358   40.723  157.153    3.526
  635.114    0.224    0.356   42.738  157.191    3.514
  635.364    0.229    0.354   43.678  157.131    3.520
  635.614    0.218    0.352   44.110  157.065    3.546
  635.864    0.207    0.350   44.436  157.217    3.573
  636.114    0.199    0.351   45.017  157.151    3.619
  636.364    0.178    0.359   45.399  157.087    3.672
  636.614    0.192    0.358   45.621  156.699    3.768
  636.864    0.201    0.355   45.999  156.632    3.796
  637.114    0.206    0.350   46.737  156.562    3.741
  637.364    0.190    0.347   47.115  156.606    3.748
  637.614    0.168    0.346   47.850  156.871    3.817
  637.864    0.151    0.347   49.557  157.235    3.902
  638.114    0.154    0.349   50.907  157.711    3.981
  638.364    0.192    0.355   51.745  158.191    4.070
  638.614    0.191    0.353   52.328  158.227    4.108
  638.864    0.186    0.351   52.552  157.952    4.078
  639.114    0.185    0.352   52.214  157.884    4.071
  639.364    0.188    0.350   51.521  157.609    4.071
  639.614    0.185    0.348   50.722  157.217    4.064
  639.864    0.183    0.346   50.539  157.044    4.042
  640.114    0.181    0.344   51.172  156.978    4.013
  640.364    0.178    0.343   52.726  157.020    3.999
  640.614    0.173    0.342   54.689  157.068    4.006
  640.864    0.180    0.342   56.242  157.101    4.021
  641.114    0.197    0.343   57.388  157.255    4.133
  641.364    0.183    0.342   57.664  157.307    4.209
  641.614    0.181    0.335   56.510  157.342    4.334
  641.864    0.187    0.332   52.082  157.387    4.480
  642.114    0.180    0.331   50.926  157.321    4.655
  642.364    0.179    0.326   52.890  157.372    4.917
  642.614    0.156    0.323   53.165  157.407    5.252
  642.864    0.144    0.317   51.092  157.556    5.589
  643.114    0.131    0.313   54.332  157.598    5.797
  643.364    0.108    0.318   60.792  157.426    5.915
  643.614    0.155    0.337   68.380  156.927    5.693
  643.864    0.162    0.353   72.131  156.755    5.519
  644.114    0.138    0.379   77.416  157.775    5.520
  644.364    0.174    0.389   84.031  161.167    5.560
  644.614    0.168    0.382   79.502  169.327    5.757
  644.864    0.159    0.369   72.979  166.447    6.093
  645.114    0.148    0.357   67.835  165.519    6.519
  645.364    0.149    0.343   61.416  166.970    6.912
  645.614    0.175    0.324   55.914  166.252    7.490
  645.864    0.181    0.310   50.568  163.699    8.252
  646.114    0.163    0.309   51.303  161.254    8.765
  646.364    0.148    0.316   55.670  162.270    9.447
  646.614    0.179    0.327   59.370  165.562   10.183
  646.864    0.164    0.324   56.886  167.662   10.543
  647.114    0.147    0.293   45.557  168.137   11.594
  647.364    0.118    0.275   37.552  166.561   13.541
  647.614    0.100    0.259   32.408  163.029   16.049
  647.864    0.110    0.287   31.919  164.047   19.160
  648.114    0.144    0.313   39.352  165.823   23.811
  648.364    0.197    0.345   48.931  164.135   25.852
  648.614    0.209    0.342   53.756  163.200   19.552
  648.864    0.223    0.340   58.531  163.136   14.653
  649.114    0.207    0.348   63.203  163.397   12.253
  649.364    0.192    0.360   65.884  163.555   10.588
  649.614    0.184    0.363   66.210  163.921    9.718
  649.864    0.156    0.347   62.960  164.175    9.018
  650.114    0.176    0.327   57.816  164.434    8.632
  650.364    0.176    0.317   53.338  164.478    8.554
  650.614    0.168    0.308   52.795  164.196    8.508
  650.864    0.143    0.303   55.324  164.130    8.431
  651.114    0.165    0.305   57.796  163.854    8.159
  651.364    0.173    0.315   61.393  163.570    7.853
  651.614    0.185    0.328   64.890  163.501    7.475
  651.864    0.184    0.336   67.314  163.551    7.181
  652.114    0.176    0.336   69.532  163.589    7.117
  652.364    0.157    0.322   72.058  164.499    7.222
  652.614    0.140    0.303   74.480  166.059    7.601
  652.864    0.101    0.278   69.901  166.751    8.223
  653.114    0.068    0.254   62.865  166.578    8.846
  653.364    0.013    0.284   56.802  166.406    9.728
  653.614    0.044    0.299   55.800  166.561   10.371
  653.864    0.065    0.313   63.693  167.030   10.935
  654.114    0.091    0.315   72.252  167.837   10.525
  654.364    0.107    0.311   77.997  168.420    9.928
  654.614    0.091    0.326   80.676  169.112    9.179
