~VERSION INFORMATION
 VERS.                 2.0:   CWLS LOG ASCII STANDARD -VERSION 2.0
 WRAP.                  NO:   ONE LINE PER DEPTH STEP
~WELL INFORMATION BLOCK
#MNEM.UNIT           DATA                    DESCRIPTION OF MNEMONIC
#---------    -------------------            -------------------------------
# Generated from Intellog Unique Number	CS_73_76/WELL/3248
WELL.         BOW VALLEY INDUSTRIES LTD.     : Well_name    - WELL
LOC .         00/10-30-075-12W4/0            : Location     - LOCATION
UWI .         00/10-30-075-12W4/0            : Uwi          - UNIQUE WELL ID
ENTR.         SP                             : Entered      - ENTERED BY
SRVC.         SCHLUMBERGER                   : Scn          - SERVICE COMPANY
STRT.M        320                            : top_depth    - START DEPTH
STOP.M        531                            : bot_depth    - STOP DEPTH
STEP.M        0.25                           : increment    - STEP LENGTH
 NULL. -999.2500:NULL Value
~CURVE INFORMATION BLOCK
#MNEM UNIT       ERCB CURVE CODE    CURVE DESCRIPTION
#-----------   ------------------   ----------------------------------
DEPT.M        00 001 00 00         : DEPTH        - DEPTH
ILD .OHMM     00 120 00 00         : RESD         - DEEP RESISTIVITY (DIL)
DPHI.V/V      00 890 00 00         : PHID         - DENSITY POROSITY (LIMESTONE)
NPHI.V/V      00 330 00 00         : PHIN         - NEUTRON POROSITY (LIMESTONE)
GR  .API      00 310 00 00         : GR           - GAMMA RAY
~PARAMETER INFORMATION
#MNEM.UNIT           DATA             DESCRIPTION OF MNEMONIC
#---------         -----------     ------------------------------
GL  .M        694.33               : gl           - GROUND LEVEL ELEVATION
EREF.M        697.68               : kb           - ELEVATION OF DEPTH REFERENCE
DATM.M        694.33               : datum        - DATUM ELEVATION
TDD .M        537                  : tdd          - TOTAL DEPTH DRILLER
RUN .         ONE                  : Run          - RUN NUMBER
ENG .         BILL                 : Engineer     - RECORDING ENGINEER
WIT .         JIM                  : Witness      - WITNESSED BY
MUD .         GEL                  : Mud_type     - MUD TYPE
MATR.         LIMESTONE            : Logunit      - NEUTRON MATRIX
TMAX.C        23.9                 : BHT          - MAXIMUM RECORDED TEMPERATURE
BHTD.M        537                  : BHTDEP       - MAXIMUM RECORDED TEMPERATURE
MATR.         1                    : LOGUNIT      - NEUTRON MATRIX
RMT .C        25                   : MDTP         - TEMPERATURE OF MUD
NEUT.         1                    : NEUTRON      - NEUTRON TYPE
RESI.         0                    : RESIST       - RESISTIVITY TYPE
RMC .OHMM     0.25                 : RMC          - RESISTIVITY OF MUD CAKE
RMF .OHMM     0.25                 : RMF          - RESISTIVITY OF MUD FILTRATE
SUFT.C        15                   : SUFT         - SURFACE TEMPERATURE
~A  DEPTH     RESD     PHID     PHIN       GR
  320.000    3.162    0.203    0.496  101.405
  320.250    3.406    0.203    0.504   99.570
  320.500    3.738    0.202    0.499  101.378
  320.750    3.808    0.218    0.502  103.191
  321.000    3.669    0.220    0.521  105.002
  321.250    3.344    0.215    0.540  104.383
  321.500    3.105    0.200    0.552  102.550
  321.750    2.830    0.200    0.549   98.286
  322.000    2.627    0.214    0.548   95.239
  322.250    2.883    0.194    0.542   92.192
  322.500    3.881    0.130    0.528   84.285
  322.750    3.671    0.021    0.474   78.809
  323.000    3.671    0.055    0.454   75.157
  323.250    3.954    0.107    0.489   86.073
  323.500    4.028    0.245    0.508   84.241
  323.750    4.588    0.351    0.523   72.084
  324.000    6.175    0.398    0.548   61.751
  324.250   10.386    0.417    0.579   46.559
  324.500   21.035    0.383    0.566   35.618
  324.750   21.430    0.355    0.408   32.570
  325.000   20.650    0.345    0.411   34.988
  325.250   18.134    0.363    0.426   37.402
  325.500   16.222    0.391    0.450   39.212
  325.750   15.344    0.371    0.484   40.417
  326.000   15.063    0.351    0.468   44.657
  326.250   14.786    0.328    0.437   48.896
  326.500   14.787    0.318    0.426   52.528
  326.750   14.787    0.313    0.422   51.908
  327.000   14.516    0.310    0.418   52.503
  327.250   14.517    0.309    0.413   55.527
  327.500   14.517    0.306    0.424   57.946
  327.750   14.518    0.324    0.421   62.183
  328.000   14.519    0.322    0.431   63.998
  328.250   14.252    0.310    0.438   63.985
  328.500   14.253    0.303    0.442   63.971
  328.750   14.253    0.320    0.431   65.781
  329.000   14.254    0.298    0.425   67.593
  329.250   14.255    0.309    0.431   70.012
  329.500   13.993    0.304    0.436   67.572
  329.750   13.483    0.286    0.440   66.345
  330.000   13.236    0.288    0.447   67.548
  330.250   12.754    0.300    0.445   70.573
  330.500   12.063    0.273    0.435   74.807
  330.750   11.410    0.257    0.431   76.622
  331.000   10.594    0.268    0.424   79.645
  331.250    9.655    0.253    0.411   85.707
  331.500    8.799    0.237    0.400   91.162
  331.750    7.872    0.222    0.408   99.649
  332.000    7.446    0.207    0.434  105.102
  332.250    7.174    0.193    0.447  106.307
  332.500    7.446    0.184    0.456  105.688
  332.750    7.873    0.191    0.467  103.247
  333.000    9.135    0.223    0.472   98.375
  333.250    9.658    0.247    0.476   91.076
  333.500   10.797    0.270    0.461   86.819
  333.750   11.416    0.299    0.450   80.128
  334.000   12.297    0.306    0.440   81.935
  334.250   12.528    0.302    0.434   84.962
  334.500   12.298    0.305    0.434   89.200
  334.750   12.072    0.303    0.443   92.226
  335.000   11.851    0.283    0.458   93.428
  335.250   11.633    0.270    0.468   93.419
  335.500   11.852    0.277    0.469   90.974
  335.750   12.766    0.264    0.455   86.106
  336.000   13.250    0.269    0.454   78.202
  336.250   13.752    0.277    0.359   69.084
  336.500   14.010    0.248    0.339   47.817
  336.750   14.273    0.208    0.343   46.593
  337.000   14.011    0.201    0.379   63.583
  337.250   13.754    0.224    0.408   72.681
  337.500   13.009    0.251    0.426   61.737
  337.750   11.638    0.266    0.408   56.261
  338.000   10.607    0.236    0.398   54.429
  338.250    9.667    0.263    0.388   59.274
  338.500    8.810    0.262    0.403   68.368
  338.750    7.736    0.229    0.417   72.611
  339.000    7.051    0.206    0.437   79.280
  339.250    7.455    0.206    0.444   90.197
  339.500    7.318    0.198    0.444   97.474
  339.750    6.922    0.199    0.444  106.570
  340.000    6.547    0.204    0.461  110.809
  340.250    5.749    0.177    0.471  113.223
  340.500    5.540    0.163    0.492  115.036
  340.750    5.240    0.181    0.511  117.454
  341.000    5.049    0.201    0.532  118.655
  341.250    4.688    0.158    0.540  116.821
  341.500    4.434    0.134    0.529  119.237
  341.750    4.117    0.166    0.516  121.051
  342.000    3.894    0.198    0.532  122.862
  342.250    3.683    0.181    0.541  120.422
  342.500    3.420    0.197    0.558  124.052
  342.750    3.234    0.209    0.568  124.035
  343.000    3.059    0.206    0.565  124.030
  343.250    3.003    0.193    0.549  125.231
  343.500    3.357    0.188    0.557  125.830
  343.750    4.043    0.184    0.577  122.172
  344.000    4.868    0.197    0.586  119.734
  344.250    6.083    0.231    0.550  111.219
  344.500    7.744    0.261    0.528  100.278
  344.750    9.859    0.272    0.504   97.838
  345.000   10.819    0.267    0.464  100.254
  345.250   11.439    0.263    0.459  101.455
  345.500   11.440    0.260    0.459  102.659
  345.750   11.230    0.260    0.447  102.652
  346.000   10.621    0.267    0.452  102.033
  346.250   10.235    0.272    0.470   99.588
  346.500   10.427    0.277    0.476   98.366
  346.750   10.623    0.271    0.481   95.317
  347.000   10.428    0.264    0.479   91.662
  347.250    9.682    0.260    0.469   85.575
  347.500    8.662    0.254    0.463   87.996
  347.750    7.749    0.241    0.461   97.088
  348.000    7.329    0.102    0.472  101.331
  348.250    6.805    0.088    0.478  106.177
  348.500    7.063    0.182    0.481  109.813
  348.750    8.043    0.219    0.484  112.836
  349.000    8.826    0.224    0.477  111.609
  349.250   10.052    0.236    0.452  107.346
  349.500   10.433    0.251    0.437  104.299
  349.750   10.629    0.238    0.422  101.251
  350.000   11.032    0.230    0.432  100.026
  350.250   11.032    0.253    0.440   96.978
  350.500   10.829    0.260    0.449   93.930
  350.750    9.870    0.270    0.446   90.276
  351.000    9.163    0.274    0.442   87.230
  351.250    8.667    0.254    0.445   96.326
  351.500    8.508    0.240    0.459  105.423
  351.750    8.508    0.222    0.466  112.699
  352.000    8.669    0.237    0.468  116.325
  352.250    8.669    0.242    0.441  116.924
  352.500    8.669    0.236    0.428  116.308
  352.750    8.997    0.227    0.439  114.475
  353.000   10.247    0.227    0.447  104.137
  353.250   10.835    0.235    0.460   95.018
  353.500   11.671    0.253    0.471   87.116
  353.750   12.113    0.269    0.464   75.566
  354.000   12.807    0.285    0.448   77.374
  354.250   10.637    0.288    0.443   82.221
  354.500    8.356    0.286    0.437   90.102
  354.750    7.338    0.275    0.444   97.376
  355.000    6.687    0.247    0.454  101.619
  355.250    6.095    0.222    0.453  105.251
  355.500    5.873    0.224    0.460  108.273
  355.750    6.445    0.220    0.468  106.442
  356.000    6.689    0.210    0.482   98.532
  356.250    7.340    0.200    0.488   94.883
  356.500    7.906    0.233    0.495   86.976
  356.750    8.516    0.266    0.500   79.072
  357.000    8.676    0.281    0.489   72.380
  357.250    8.676    0.271    0.479   77.835
  357.500    8.360    0.258    0.476   85.710
  357.750    7.762    0.245    0.469   89.950
  358.000    7.342    0.228    0.469   92.975
  358.250    7.075    0.222    0.480   95.395
  358.500    6.945    0.234    0.485   97.812
  358.750    6.692    0.246    0.496   99.624
  359.000    6.692    0.261    0.510  102.036
  359.250    6.692    0.244    0.508  104.456
  359.500    6.818    0.241    0.497  105.663
  359.750    6.946    0.255    0.484  107.474
  360.000    7.209    0.236    0.476  105.637
  360.250    7.345    0.225    0.474  103.808
  360.500    7.623    0.254    0.470  100.152
  360.750    7.912    0.259    0.464   94.673
  361.000    8.061    0.252    0.458   91.627
  361.250    8.212    0.255    0.443   89.795
  361.500    8.366    0.254    0.439   89.782
  361.750    9.353    0.265    0.468   86.126
  362.000   10.263    0.287    0.498   84.294
  362.250   11.055    0.292    0.502   83.675
  362.500   11.689    0.265    0.492   82.449
  362.750   11.474    0.241    0.506   79.397
  363.000    8.063    0.209    0.513   80.605
  363.250    6.697    0.159    0.370   87.876
