~VERSION INFORMATION
 VERS.                 2.0:   CWLS LOG ASCII STANDARD -VERSION 2.0
 WRAP.                  NO:   ONE LINE PER DEPTH STEP
~WELL INFORMATION BLOCK
#MNEM.UNIT           DATA                    DESCRIPTION OF MNEMONIC
#---------    -------------------            -------------------------------
# Generated from Intellog Unique Number	CS_77_79/WELL/1015
WELL.         H. B. LEISMER                  : Well_name    - WELL
LOC .         00/12-30-078-11W4/0            : Location     - LOCATION
UWI .         00/12-30-078-11W4/0            : Uwi          - UNIQUE WELL ID
ENTR.         JHS                            : Entered      - ENTERED BY
SRVC.         SCHLUMBERGER                   : Scn          - SERVICE COMPANY
STRT.M        245                            : top_depth    - START DEPTH
STOP.M        485                            : bot_depth    - STOP DEPTH
STEP.M        0.25                           : increment    - STEP LENGTH
 NULL. -999.2500:NULL Value
~CURVE INFORMATION BLOCK
#MNEM UNIT       ERCB CURVE CODE    CURVE DESCRIPTION
#-----------   ------------------   ----------------------------------
DEPT.M        00 001 00 00         : DEPTH        - DEPTH
DPHI.V/V      00 890 00 00         : PHID         - DENSITY POROSITY (LIMESTONE)
NPHI.V/V      00 330 00 00         : PHIN         - NEUTRON POROSITY (LIMESTONE)
GR  .API      00 310 00 00         : GR           - GAMMA RAY
ILD .OHMM     00 120 00 00         : RESD         - DEEP RESISTIVITY (DIL)
RHOB.KG/M3    00 350 00 00         : DENS         - BULK DENSITY
~PARAMETER INFORMATION
#MNEM.UNIT           DATA             DESCRIPTION OF MNEMONIC
#---------         -----------     ------------------------------
GL  .M        683                  : gl           - GROUND LEVEL ELEVATION
EREF.M        687.9                : kb           - ELEVATION OF DEPTH REFERENCE
DATM.M        687.9                : datum        - DATUM ELEVATION
TDD .M        488                  : tdd          - TOTAL DEPTH DRILLER
RUN .         ONE                  : Run          - RUN NUMBER
ENG .         BILL                 : Engineer     - RECORDING ENGINEER
WIT .         JIM                  : Witness      - WITNESSED BY
MUD .         GEL                  : Mud_type     - MUD TYPE
MATR.         LIMESTONE            : Logunit      - NEUTRON MATRIX
TMAX.C        27.8                 : BHT          - MAXIMUM RECORDED TEMPERATURE
BHTD.M        488                  : BHTDEP       - MAXIMUM RECORDED TEMPERATURE
MATR.         1                    : LOGUNIT      - NEUTRON MATRIX
RMT .C        25                   : MDTP         - TEMPERATURE OF MUD
NEUT.         1                    : NEUTRON      - NEUTRON TYPE
RESI.         0                    : RESIST       - RESISTIVITY TYPE
RMC .OHMM     0.25                 : RMC          - RESISTIVITY OF MUD CAKE
RMF .OHMM     0.25                 : RMF          - RESISTIVITY OF MUD FILTRATE
SUFT.C        15                   : SUFT         - SURFACE TEMPERATURE
~A  DEPTH     PHID     PHIN       GR     RESD     DENS
# ...
  391.000    0.197    0.451   64.264    6.814    0.000
  391.250    0.318    0.479   63.658    6.686    0.000
  391.500    0.330    0.506   64.909    6.560    0.000
  391.750    0.345    0.507   60.602    6.315    0.000
  392.000    0.343    0.492   56.912    6.196    0.000
  392.250    0.343    0.481   58.166    5.965    0.000
  392.500    0.352    0.491   56.327    5.852    0.000
  392.750    0.357    0.492   53.872    5.742    0.000
  393.000    0.353    0.489   52.033    5.634    0.000
  393.250    0.351    0.503   52.048    5.633    0.000
  393.500    0.347    0.502   55.768    5.633    0.000
  393.750    0.348    0.486   54.553    5.740    0.000
  394.000    0.357    0.474   53.949    6.076    0.000
  394.250    0.348    0.460   53.342    6.192    0.000
  394.500    0.338    0.459   53.361    6.432    0.000
  394.750    0.317    0.496   53.372    6.554    0.000
  395.000    0.307    0.527   54.008    6.554    0.000
  395.250    0.325    0.522   52.787    6.430    0.000
  395.500    0.339    0.506   54.034    6.309    0.000
  395.750    0.365    0.493   54.050    6.190    0.000
  396.000    0.366    0.485   53.447    6.073    0.000
  396.250    0.349    0.498   54.696    5.847    0.000
  396.500    0.348    0.498   59.032    5.847    0.000
  396.750    0.353    0.501   57.812    5.736    0.000
  397.000    0.365    0.504   54.126    5.628    0.000
  397.250    0.354    0.483   57.228    5.628    0.000
  397.500    0.356    0.466   60.328    5.627    0.000
  397.750    0.361    0.460   59.728    5.627    0.000
  398.000    0.359    0.450   59.122    5.734    0.000
  398.250    0.354    0.454   59.137    5.956    0.000
  398.500    0.353    0.484   59.774    6.070    0.000
  398.750    0.348    0.523   59.169    6.069    0.000
  399.000    0.340    0.500   59.803    5.955    0.000
  399.250    0.356    0.488   60.431    5.954    0.000
  399.500    0.344    0.489   60.446    6.068    0.000
  399.750    0.336    0.478   57.994    6.546    0.000
  400.000    0.182    0.344   49.182    9.690    0.000
  400.250    0.055    0.261   44.892   12.877    0.000
  400.500    0.016    0.159   39.990   16.480    0.000
  400.750    0.053    0.190   40.006   16.489    0.000
  401.000    0.097    0.249   45.550   12.190    0.000
  401.250    0.242    0.328   54.171    9.905    0.000
  401.500    0.316    0.428   57.877    8.203    0.000
  401.750    0.353    0.474   57.891    7.326    0.000
  402.000    0.348    0.474   56.678    6.421    0.000
  402.250    0.346    0.488   56.073    5.957    0.000
  402.500    0.349    0.492   57.932    5.849    0.000
  402.750    0.355    0.495   59.792    5.852    0.000
  403.000    0.340    0.489   59.190    5.968    0.000
  403.250    0.328    0.488   58.592    5.971    0.000
  403.500    0.318    0.499   59.834    5.863    0.000
  403.750    0.346    0.527   62.927    5.867    0.000
  404.000    0.349    0.491   64.781    5.870    0.000
  404.250    0.349    0.477   66.642    5.875    0.000
  404.500    0.341    0.474   66.655    5.878    0.000
  404.750    0.347    0.475   64.826    5.882    0.000
  405.000    0.334    0.475   62.998    5.885    0.000
  405.250    0.339    0.485   64.239    6.351    0.000
  405.500    0.323    0.490   63.639    7.975    0.000
  405.750    0.291    0.463   59.965    8.608    0.000
  406.000    0.147    0.288   56.291    8.292    0.000
  406.250    0.138    0.287   58.763    7.840    0.000
  406.500    0.262    0.412   65.541    7.137    0.000
  406.750    0.339    0.460   64.940    6.496    0.000
  407.000    0.342    0.475   60.036    6.027    0.000
  407.250    0.314    0.479   58.206    5.807    0.000
  407.500    0.308    0.486   58.222    5.701    0.000
  407.750    0.308    0.501   63.154    5.705    0.000
  408.000    0.316    0.499   66.861    5.709    0.000
  408.250    0.322    0.506   66.870    5.820    0.000
  408.500    0.333    0.498   67.500    5.824    0.000
  408.750    0.335    0.502   63.826    5.828    0.000
  409.000    0.325    0.485   65.070    5.942    0.000
  409.250    0.327    0.483   65.701    5.835    0.000
  409.500    0.322    0.466   63.871    5.621    0.000
  409.750    0.320    0.464   64.502    5.519    0.000
  410.000    0.328    0.451   67.586    5.419    0.000
  410.250    0.327    0.455   72.518    5.526    0.000
  410.500    0.352    0.500   74.381    5.635    0.000
  410.750    0.345    0.499   73.777    5.534    0.000
  411.000    0.300    0.491   73.177    5.432    0.000
  411.250    0.309    0.498   73.808    5.334    0.000
  411.500    0.321    0.486   75.664    5.337    0.000
  411.750    0.328    0.504   75.067    5.340    0.000
  412.000    0.306    0.517   71.391    5.550 2186.760
  412.250    0.299    0.514   64.642    5.878 2199.420
  412.500    0.275    0.483   59.738    6.344 2239.420
  412.750    0.264    0.477   60.367    6.592 2258.390
  413.000    0.244    0.494   65.303    6.473 2292.080
  413.250    0.247    0.499   70.848    6.355 2287.920
  413.500    0.284    0.494   75.165    6.123 2224.900
  413.750    0.281    0.480   76.411    6.012 2229.150
  414.000    0.268    0.475   75.194    6.015 2252.330
  414.250    0.260    0.493   72.753    6.134 2264.990
  414.500    0.274    0.502   74.612    6.256 2241.910
  414.750    0.260    0.483   74.624    6.379 2265.090
  415.000    0.258    0.488   73.411    6.383 2269.340
  415.250    0.240    0.486   72.806    6.386 2298.830
  415.500    0.266    0.470   73.439    6.271 2254.720
  415.750    0.280    0.470   72.839    6.274 2231.650
  416.000    0.258    0.481   73.466    6.161 2269.540
  416.250    0.254    0.495   72.865    6.164 2275.900
  416.500    0.265    0.484   72.267    6.168 2257.020
  416.750    0.246    0.478   75.355    6.290 2288.610
  417.000    0.269    0.465   77.830    6.662 2250.820
  417.250    0.254    0.457   79.070    7.056 2276.100
  417.500    0.251    0.462   79.702    7.332 2280.350
  417.750    0.235    0.470   77.256    7.335 2307.730
  418.000    0.213    0.473   74.812    7.480 2345.620
  418.250    0.195    0.454   78.514    7.486 2377.210
  418.500    0.236    0.471   82.216    7.350 2305.780
  418.750    0.249    0.487   85.919    7.354 2284.800
  419.000    0.254    0.471   85.937    7.220 2276.440
  419.250    0.254    0.450   85.334    6.955 2276.490
  419.500    0.244    0.439   83.505    6.576 2293.360
  419.750    0.223    0.459   84.133    6.217 2329.150
  420.000    0.250    0.451   82.305    5.877 2282.950
  420.250    0.241    0.440   79.245    5.556 2297.720
  420.500    0.236    0.440   78.648    5.353 2306.170
  420.750    0.232    0.459   80.503    4.966 2312.520
  421.000    0.247    0.471   80.515    4.352 2287.350
  421.250    0.237    0.476   82.381    3.743 2304.220
  421.500    0.235    0.487   79.932    2.767 2308.470
  421.750    0.272    0.504   77.486    2.335 2245.450
  422.000    0.297    0.530   78.735    2.166 2201.340
  422.250    0.295    0.572   78.743    2.048 2205.600
  422.500    0.288    0.579   78.145    2.011 2218.260
  422.750    0.299    0.533   76.314    2.012 2199.390
  423.000    0.289    0.551   73.872    2.052 2216.260
  423.250    0.292    0.571   72.655    2.132 2210.010
  423.500    0.280    0.580   73.289    2.258 2231.090
  423.750    0.278    0.581   75.761    2.679 2235.330
  424.000    0.281    0.548   78.848    3.119 2229.070
  424.250    0.282    0.541   81.320    3.631 2227.020
  424.500    0.275    0.527   80.104    4.148 2239.680
  424.750    0.257    0.499   77.044    4.649 2271.270
  425.000    0.244    0.473   76.444    5.311 2292.340
  425.250    0.247    0.484   82.608    6.067 2288.190
  425.500    0.236    0.494   83.236    6.548 2307.170
  425.750    0.224    0.479   78.332    6.552 2326.130
  426.000    0.199    0.447   74.662    5.965 2370.330
  426.250    0.167    0.432   76.517    5.429 2425.050
  426.500    0.202    0.438   81.452    4.329 2364.120
  426.750    0.216    0.458   83.306    3.940 2341.050
  427.000    0.232    0.492   84.550    4.018 2313.760
  427.250    0.238    0.468   83.338    4.505 2303.300
