~VERSION INFORMATION
 VERS.                 2.0:   CWLS LOG ASCII STANDARD -VERSION 2.0
 WRAP.                  NO:   ONE LINE PER DEPTH STEP
~WELL INFORMATION BLOCK
#MNEM.UNIT           DATA                    DESCRIPTION OF MNEMONIC
#---------    -------------------            -------------------------------
# Generated from Intellog Unique Number	CW_70_72/WELL/3036
NULL.         -999.25                        : NULL_VALUE
WELL.         MANNVILLE ET AL DECRENE 15-36  : Well_name    - WELL              
LOC .         15-36-070-02W5                 : Location     - LOCATION          
UWI .         00/15-36-070-02W5/0            : Uwi          - UNIQUE WELL ID    
ENTR.         JAYE                           : Entered      - ENTERED BY        
SRVC.         SCHLUMBERGER                   : Scn          - SERVICE COMPANY   
DATE.         2 MAR 84                       : Date         - LOG DATE          
STRT.M        400                            : top_depth    - START DEPTH       
STOP.M        630                            : bot_depth    - STOP DEPTH        
STEP.M        0.25                           : increment    - STEP LENGTH       
~CURVE INFORMATION BLOCK
#MNEM UNIT       ERCB CURVE CODE    CURVE DESCRIPTION
#-----------   ------------------   ----------------------------------
DEPT.M        00 001 00 00         : DEPTH        - DEPTH                       
ILD .OHMM     00 120 00 00         : RESD         - DEEP RESISTIVITY (DIL)      
CALI.MM       00 280 01 00         : CAL          - CALIPER                     
GR  .API      00 310 00 00         : GR           - GAMMA RAY                   
NPHI.V/V      00 330 00 00         : PHIN         - NEUTRON POROSITY (SANDSTONE)
DPHI.V/V      00 890 00 00         : PHID         - DENSITY POROSITY (SANDSTONE)
~PARAMETER INFORMATION       
#MNEM.UNIT           DATA             DESCRIPTION OF MNEMONIC
#---------         -----------     ------------------------------
GL  .M        591.5                : gl           - GROUND LEVEL ELEVATION      
EREF.M        595                  : kb           - ELEVATION OF DEPTH REFERENCE
DATM.M        591.5                : datum        - DATUM ELEVATION             
TDD .M        640                  : tdd          - TOTAL DEPTH DRILLER         
RUN .         ONE                  : Run          - RUN NUMBER                  
ENG .         PIERAOCL             : Engineer     - RECORDING ENGINEER          
WIT .         LYSZKIEWICZ          : Witness      - WITNESSED BY                
BASE.         EDM                  : Branch       - HOME BASE OF LOGGING UNIT   
MUD .         GEL CHEM             : Mud_type     - MUD TYPE                    
MATR.         SANDSTONE            : Logunit      - NEUTRON MATRIX              
TMAX.C        28                   : BHT          - MAXIMUM RECORDED TEMPERATURE
BHTD.M        641                  : BHTDEP       - MAXIMUM RECORDED TEMPERATURE
RMT .C        20                   : MDTP         - TEMPERATURE OF MUD          
MUDD.KG/M     1100                 : MWT          - MUD DENSITY                 
NEUT.         1                    : NEUTRON      - NEUTRON TYPE                
RESI.         0                    : RESIST       - RESISTIVITY TYPE            
RM  .OHMM     2.86                 : RM           - RESISTIVITY OF MUD          
RMC .OHMM     0.25                 : RMC          - RESISTIVITY OF MUD CAKE     
RMF .OHMM     4.03                 : RMF          - RESISTIVITY OF MUD FILTRATE 
SUFT.C        0                    : SUFT         - SURFACE TEMPERATURE         
~A  DEPTH     RESD      CAL       GR     PHIN     PHID
  400.000    2.006  186.915  105.232    0.510    0.221
  400.250    1.963  188.597   97.046    0.509    0.225
  400.500    1.927  190.482   92.465    0.510    0.192
  400.750    1.900  191.961   89.435    0.520    0.200
  401.000    1.869  193.024   92.744    0.530    0.206
  401.250    1.884  192.536   95.677    0.534    0.206
  401.500    1.917  192.033   98.675    0.513    0.211
  401.750    1.951  190.612   98.378    0.489    0.196
  402.000    2.016  188.568   98.333    0.474    0.189
  402.250    2.059  187.872  101.331    0.497    0.199
  402.500    2.136  188.100  102.276    0.506    0.209
  402.750    2.198  188.122  102.974    0.489    0.198
  403.000    2.258  188.574  101.623    0.526    0.190
  403.250    2.307  189.636   96.046    0.542    0.190
  403.500    2.339  189.966   93.145    0.517    0.195
  403.750    2.349  190.504  101.295    0.492    0.204
  404.000    2.337  190.844  106.342    0.494    0.205
  404.250    2.313  190.967  107.103    0.503    0.196
  404.500    2.340  191.623  105.194    0.503    0.186
  404.750    2.501  192.260  104.338    0.479    0.174
  405.000    2.550  193.221  103.360    0.479    0.166
  405.250    2.590  194.176  104.495    0.491    0.162
  405.500    2.592  194.821  107.117    0.501    0.170
  405.750    2.574  194.741  111.231    0.515    0.183
  406.000    2.467  193.012  109.073    0.504    0.187
  406.250    2.328  191.483  106.541    0.513    0.180
  406.500    2.316  189.847  108.047    0.513    0.187
  406.750    2.420  186.680  109.864    0.495    0.193
  407.000    2.445  187.414  109.507    0.496    0.192
  407.250    2.446  189.929  107.160    0.501    0.191
  407.500    2.429  191.503  105.623    0.492    0.196
  407.750    2.404  192.676  106.944    0.494    0.204
  408.000    2.428  192.382  110.374    0.508    0.211
  408.250    2.466  190.855  106.354    0.528    0.207
  408.500    2.538  188.290  103.883    0.504    0.201
  408.750    2.613  182.110  102.656    0.445    0.207
  409.000    2.664  179.542  101.117    0.451    0.206
  409.250    2.778  176.772   99.394    0.469    0.193
  409.500    2.870  175.662   92.016    0.473    0.185
  409.750    2.949  175.686   83.894    0.454    0.171
  410.000    2.857  176.847   82.668    0.475    0.167
  410.250    2.667  182.360   90.013    0.526    0.196
  410.500    2.517  184.767   94.624    0.560    0.254
  410.750    2.403  175.268   85.818    0.559    0.292
  411.000    2.329  170.429   77.760    0.398    0.252
  411.250    2.313  170.040   70.878    0.411    0.190
  411.500    2.354  169.449   77.913    0.433    0.227
  411.750    2.450  169.264   76.314    0.444    0.241
  412.000    2.560  169.494   72.166    0.445    0.244
  412.250    2.799  169.313   70.754    0.428    0.260
  412.500    3.117  169.130   68.656    0.408    0.248
  412.750    3.357  168.646   64.261    0.399    0.217
  413.000    3.608  168.357   57.567    0.389    0.177
  413.250    3.644  168.070   62.241    0.389    0.204
  413.500    3.492  168.407   73.624    0.423    0.222
  413.750    3.290  168.948   88.361    0.431    0.220
  414.000    3.076  169.904   84.713    0.415    0.204
  414.250    2.909  171.171   83.173    0.437    0.189
  414.500    2.814  172.647   85.611    0.467    0.206
  414.750    2.773  173.918   88.359    0.501    0.217
  415.000    2.775  174.459   94.525    0.437    0.203
  415.250    2.862  174.587  103.423    0.427    0.195
  415.500    2.990  173.574   98.221    0.425    0.200
  415.750    3.154  170.908   90.722    0.379    0.210
  416.000    3.415  168.452   86.885    0.378    0.226
  416.250    3.699  167.855   83.482    0.386    0.220
  416.500    3.930  167.359   79.275    0.393    0.234
  416.750    4.193  167.599   74.942    0.368    0.266
  417.000    4.583  167.723   71.231    0.337    0.290
  417.250    5.029  167.443   68.261    0.324    0.307
  417.500    5.406  167.359   64.921    0.315    0.305
  417.750    5.440  167.281   63.198    0.320    0.284
  418.000    5.153  167.512   68.619    0.351    0.254
  418.250    4.606  168.063   73.850    0.406    0.207
  418.500    4.063  168.292   79.084    0.433    0.209
  418.750    3.477  168.832   74.069    0.446    0.230
  419.000    3.270  168.967   72.218    0.431    0.246
  419.250    3.169  168.884   72.918    0.412    0.239
  419.500    3.159  168.805   70.079    0.414    0.242
  419.750    3.179  168.829   67.544    0.428    0.249
  420.000    3.278  167.523   69.298    0.426    0.236
  420.250    3.342  169.504   82.235    0.401    0.206
  420.500    3.572  169.941   86.784    0.396    0.196
  420.750    3.883  169.864   85.121    0.402    0.211
  421.000    4.065  171.028   87.871    0.413    0.199
  421.250    3.939  172.605   86.209    0.410    0.179
  421.500    3.468  171.184   76.284    0.412    0.207
  421.750    2.784  170.065   60.584    0.425    0.272
  422.000    2.290  168.954   42.274    0.409    0.307
  422.250    1.998  167.220   30.983    0.359    0.314
  422.500    1.729  165.694   22.674    0.342    0.315
  422.750    1.520  164.991   24.119    0.333    0.319
  423.000    1.464  165.228   24.881    0.332    0.325
  423.250    1.449  165.455   25.888    0.321    0.321
  423.500    1.522  166.310   42.241    0.312    0.278
  423.750    1.699  169.957   95.553    0.351    0.243
  424.000    1.950  174.022  113.893    0.418    0.161
  424.250    2.176  171.561  106.392    0.477    0.160
  424.500    2.461  168.481   92.431    0.437    0.212
  424.750    2.747  167.887   83.439    0.392    0.252
  425.000    3.003  168.844   67.180    0.358    0.249
  425.250    3.246  168.971   68.499    0.317    0.212
  425.500    3.508  170.138   89.138    0.343    0.174
  425.750    3.764  173.371   94.434    0.380    0.159
  426.000    3.977  174.226   85.566    0.358    0.175
  426.250    4.093  172.385   79.245    0.341    0.195
  426.500    4.096  170.341   77.768    0.336    0.187
  426.750    4.030  170.058   82.504    0.326    0.163
  427.000    3.995  171.219   89.850    0.311    0.147
  427.250    4.065  172.074   95.829    0.342    0.178
  427.500    4.199  171.066   88.390    0.347    0.194
  427.750    4.396  169.948   82.566    0.323    0.185
  428.000    4.416  168.216   81.089    0.299    0.161
  428.250    4.067  167.936   86.571    0.325    0.142
  428.500    3.560  167.643   70.498    0.371    0.193
  428.750    3.042  167.363   63.309    0.387    0.229
  429.000    2.718  167.076   67.795    0.353    0.252
  429.250    2.590  167.205   80.793    0.343    0.223
  429.500    2.671  167.951   97.393    0.374    0.206
  429.750    3.148  170.984  112.442    0.387    0.187
  430.000    4.023  175.457  115.252    0.387    0.154
  430.250    4.349  175.690  109.865    0.373    0.162
  430.500    4.175  173.438  107.952    0.346    0.174
  430.750    3.676  172.219  110.579    0.361    0.181
  431.000    3.128  173.696  114.132    0.488    0.177
  431.250    2.697  176.930  117.440    0.523    0.151
  431.500    2.335  180.478  121.312    0.518    0.173
  431.750    2.216  179.674  119.209    0.502    0.207
  432.000    2.181  177.420  102.640    0.477    0.212
  432.250    2.203  174.755   88.678    0.459    0.227
  432.500    2.258  171.778   79.066    0.469    0.265
  432.750    2.338  169.216   68.583    0.445    0.294
  433.000    2.420  167.895   62.260    0.419    0.269
  433.250    2.519  168.128   63.457    0.396    0.223
  433.500    2.617  169.187   71.983    0.380    0.179
  433.750    2.735  171.594   80.570    0.406    0.217
  434.000    2.809  172.552   75.990    0.431    0.257
  434.250    2.870  173.199   79.297    0.379    0.201
  434.500    2.954  174.255   86.827    0.388    0.212
  434.750    3.006  172.524   86.534    0.435    0.248
  435.000    3.048  169.130   81.020    0.419    0.238
  435.250    3.102  166.567   80.599    0.380    0.244
  435.500    3.175  165.456   79.993    0.397    0.258
  435.750    3.188  164.859   77.958    0.418    0.275
  436.000    3.043  164.891   74.742    0.430    0.278
  436.250    2.846  164.604   71.714    0.431    0.268
