~VERSION INFORMATION
 VERS.                 2.0:   CWLS LOG ASCII STANDARD -VERSION 2.0
 WRAP.                  NO:   ONE LINE PER DEPTH STEP
~WELL INFORMATION BLOCK
#MNEM.UNIT           DATA                    DESCRIPTION OF MNEMONIC
#---------    -------------------            -------------------------------
# Generated from Intellog Unique Number	CW_82_90/WELL/3457
WELL.         TEXACO WOODEN                  : Well_name    - WELL
LOC .         00/16-29-088-23W4/0            : Location     - LOCATION
UWI .         00/16-29-088-23W4/0            : Uwi          - UNIQUE WELL ID
ENTR.         MAX                            : Entered      - ENTERED BY
SRVC.         WESTERN ATLAS                  : Scn          - SERVICE COMPANY
STRT.M        95                             : top_depth    - START DEPTH
STOP.M        270                            : bot_depth    - STOP DEPTH
STEP.M        0.25                           : increment    - STEP LENGTH
 NULL. -999.2500:NULL Value
~CURVE INFORMATION BLOCK
#MNEM UNIT       ERCB CURVE CODE    CURVE DESCRIPTION
#-----------   ------------------   ----------------------------------
DEPT.M        00 001 00 00         : DEPTH        - DEPTH
GR  .API      00 310 00 00         : GR           - GAMMA RAY
CALI.MM       00 280 01 00         : CAL          - CALIPER
DPHI.V/V      00 890 00 00         : PHID         - DENSITY POROSITY (SANDSTONE)
NPHI.V/V      00 330 00 00         : PHIN         - NEUTRON POROSITY (SANDSTONE)
ILD .OHMM     00 120 00 00         : RESD         - DEEP RESISTIVITY (DIL)
~PARAMETER INFORMATION
#MNEM.UNIT           DATA             DESCRIPTION OF MNEMONIC
#---------         -----------     ------------------------------
GL  .M        503                  : gl           - GROUND LEVEL ELEVATION
EREF.M        506                  : kb           - ELEVATION OF DEPTH REFERENCE
DATM.M        503                  : datum        - DATUM ELEVATION
TDD .M        272                  : tdd          - TOTAL DEPTH DRILLER
RUN .         ONE                  : Run          - RUN NUMBER
ENG .         BILL                 : Engineer     - RECORDING ENGINEER
WIT .         JIM                  : Witness      - WITNESSED BY
MUD .         GEL                  : Mud_type     - MUD TYPE
MATR.         SANDSTONE            : Logunit      - NEUTRON MATRIX
TMAX.C        21                   : BHT          - MAXIMUM RECORDED TEMPERATURE
BHTD.M        272                  : BHTDEP       - MAXIMUM RECORDED TEMPERATURE
MATR.         1                    : LOGUNIT      - NEUTRON MATRIX
RMT .C        18                   : MDTP         - TEMPERATURE OF MUD
NEUT.         1                    : NEUTRON      - NEUTRON TYPE
RESI.         0                    : RESIST       - RESISTIVITY TYPE
RMC .OHMM     3                    : RMC          - RESISTIVITY OF MUD CAKE
RMF .OHMM     3.7                  : RMF          - RESISTIVITY OF MUD FILTRATE
SUFT.C        1                    : SUFT         - SURFACE TEMPERATURE
~A  DEPTH       GR      CAL     PHID     PHIN     RESD
# ...
  131.500  137.668  249.413    0.242    0.404    3.595
  131.750  134.044  249.337    0.250    0.406    3.591
  132.000  130.730  249.748    0.254    0.408    3.555
  132.250  126.213  250.149    0.259    0.408    3.584
  132.500  122.893  250.073    0.262    0.404    3.647
  132.750  119.567  250.494    0.266    0.398    3.745
  133.000  116.550  250.437    0.269    0.390    3.882
  133.250  112.325  249.855    0.271    0.388    4.024
  133.500  108.112  248.796    0.270    0.384    4.133
  133.750  104.196  248.205    0.265    0.378    4.323
  134.000  104.145  248.139    0.262    0.372    4.564
  134.250  106.779  248.063    0.258    0.362    4.908
  134.500  107.036  246.975    0.253    0.349    5.278
  134.750  104.604  245.917    0.246    0.345    5.782
  135.000  101.289  245.850    0.239    0.337    6.571
  135.250   96.772  247.263    0.232    0.327    7.749
  135.500   97.024  248.179    0.236    0.321    8.726
  135.750  104.713  247.588    0.266    0.361    8.557
  136.000  107.049  246.023    0.284    0.383    7.869
  136.250  112.963  240.003    0.274    0.389    6.130
  136.500  115.305  241.902    0.268    0.394    4.864
  136.750  120.916  243.820    0.266    0.405    4.310
  137.000  130.397  245.224    0.267    0.412    3.820
  137.250  134.817  245.644    0.268    0.416    3.385
  137.500  132.092  245.558    0.267    0.416    2.999
  137.750  132.636  245.482    0.266    0.410    2.941
  138.000  130.209  245.397    0.263    0.411    2.993
  138.250  126.888  244.844    0.257    0.429    3.074
  138.500  124.164  244.272    0.251    0.427    3.245
  138.750  121.725  244.186    0.245    0.416    3.555
  139.000  120.494  244.120    0.241    0.412    3.931
  139.250  119.561  244.540    0.238    0.403    4.037
  139.500  118.915  245.428    0.244    0.390    4.337
  139.750  118.571  245.867    0.265    0.376    4.540
  140.000  118.526  246.287    0.279    0.379    4.751
  140.250  118.778  247.700    0.278    0.389    5.015
  140.500  118.727  248.110    0.274    0.391    5.104
  140.750  118.687  251.012    0.269    0.386    5.145
  141.000  118.939  249.943    0.261    0.374    5.140
  141.250  119.477  246.871    0.250    0.362    5.278
  141.500  120.033  247.301    0.240    0.361    5.523
  141.750  120.875  247.731    0.240    0.363    5.672
  142.000  121.728  249.134    0.240    0.359    5.718
  142.250  122.873  251.033    0.240    0.368    5.660
  142.500  124.912  252.465    0.239    0.375    5.601
  142.750  127.242  255.852    0.239    0.373    5.596
  143.000  128.089  255.290    0.240    0.360    5.643
  143.250  127.151  252.723    0.240    0.352    5.637
  143.500  125.914  251.655    0.241    0.347    5.841
  143.750  124.678  251.570    0.242    0.351    6.112
  144.000  122.846  251.990    0.242    0.355    6.634
  144.250  121.610  251.427    0.242    0.361    7.003
  144.500  120.963  251.342    0.241    0.366    7.126
  144.750  122.400  254.748    0.240    0.372    7.119
  145.000  123.259  257.153    0.238    0.381    7.112
  145.250  123.506  255.589    0.238    0.391    6.846
  145.500  124.061  254.024    0.239    0.397    6.355
  145.750  124.903  254.435    0.239    0.400    5.684
  146.000  125.453  253.854    0.238    0.404    5.177
  146.250  126.879  251.297    0.239    0.410    4.717
  146.500  127.440  250.238    0.239    0.414    4.297
  146.750  128.288  249.160    0.239    0.414    3.988
  147.000  128.832  247.100    0.241    0.403    3.534
  147.250  129.988  247.033    0.243    0.402    3.340
  147.500  132.021  248.932    0.244    0.408    3.399
  147.750  133.767  249.333    0.245    0.413    3.364
  148.000  137.288  248.275    0.245    0.419    3.270
  148.250  140.523  246.224    0.245    0.416    3.119
  148.500  141.371  246.148    0.244    0.410    3.060
  148.750  139.528  247.541    0.240    0.409    2.972
  149.000  137.106  247.980    0.236    0.410    2.970
  149.250  136.768  248.401    0.233    0.414    3.022
  149.500  136.717  246.827    0.235    0.416    3.310
  149.750  136.071  245.253    0.241    0.413    3.560
  150.000  135.733  245.177    0.261    0.409    4.009
  150.250  135.390  245.110    0.272    0.412    4.514
  150.500  131.474  245.531    0.279    0.414    4.723
  150.750  125.463  245.941    0.280    0.414    4.546
  151.000  126.912  244.377    0.276    0.399    4.297
  151.250  130.736  245.770    0.243    0.383    4.177
  151.500  132.471  246.200    0.237    0.371    4.021
  151.750  133.324  246.124    0.239    0.362    3.944
  152.000  134.767  246.535    0.241    0.380    3.797
  152.250  135.615  246.964    0.242    0.387    3.724
  152.500  136.165  247.871    0.244    0.394    3.686
  152.750  135.220  248.311    0.249    0.392    3.716
  153.000  131.305  248.712    0.254    0.388    3.852
  153.250  123.817  249.151    0.258    0.386    4.067
  153.500  117.216  249.552    0.265    0.390    4.333
  153.750  110.919  248.474    0.271    0.391    4.575
  154.000  109.677  246.423    0.272    0.382    4.699
  154.250  112.608  246.825    0.267    0.388    4.694
  154.500  120.011  247.760    0.255    0.393    4.604
  154.750  121.751  247.684    0.241    0.388    4.515
  155.000  118.723  247.608    0.237    0.369    4.552
  155.250  117.779  248.028    0.237    0.382    4.805
  155.500  117.138  248.439    0.238    0.388    4.981
  155.750  116.205  248.372    0.251    0.388    5.116
  156.000  114.069  247.791    0.255    0.389    5.254
  156.250  111.642  247.209    0.248    0.392    5.446
  156.500  110.097  247.152    0.237    0.394    5.644
  156.750  110.057  247.563    0.236    0.388    5.691
  157.000  111.202  247.487    0.239    0.363    5.685
  157.250  112.347  247.907    0.246    0.363    5.679
  157.500  112.903  249.320    0.247    0.363    5.725
  157.750  114.936  250.723    0.246    0.368    5.826
  158.000  117.575  251.630    0.243    0.383    5.875
  158.250  124.669  252.050    0.241    0.393    5.502
  158.500  127.600  252.489    0.240    0.394    5.153
  158.750  131.132  252.909    0.241    0.393    4.609
  159.000  134.659  254.312    0.241    0.396    4.160
  159.250  137.299  255.715    0.241    0.413    3.933
  159.500  140.230  257.643    0.241    0.415    3.717
  159.750  140.179  261.031    0.241    0.402    3.546
  160.000  136.847  263.941    0.242    0.395    3.382
  160.250  136.515  266.337    0.242    0.393    3.257
  160.500  135.279  267.253    0.242    0.407    3.345
  160.750  132.245  266.681    0.241    0.419    3.564
  161.000  130.121  265.117    0.238    0.417    3.868
  161.250  125.908  262.560    0.236    0.415    4.277
  161.500  122.880  257.026    0.232    0.408    4.729
  161.750  123.727  249.489    0.225    0.396    5.325
  162.000  125.462  245.443    0.216    0.395    5.675
  162.250  124.821  244.862    0.196    0.399    5.774
  162.500  125.674  244.795    0.179    0.401    5.358
  162.750  130.094  244.223    0.185    0.402    4.534
  163.000  136.003  246.599    0.206    0.410    4.093
  163.250  142.810  247.039    0.224    0.456    3.594
  163.500  147.522  246.476    0.229    0.443    3.069
  163.750  148.661  246.391    0.238    0.441    2.796
  164.000  148.329  246.820    0.238    0.448    2.668
  164.250  146.189  248.214    0.236    0.444    2.593
  164.500  145.548  249.636    0.232    0.438    2.590
  164.750  146.103  251.535    0.229    0.434    2.635
  165.000  146.355  252.967    0.225    0.427    2.682
  165.250  146.310  254.875    0.225    0.418    2.779
  165.500  148.348  254.780    0.226    0.420    2.855
  165.750  148.886  253.206    0.229    0.417    3.014
  166.000  146.757  253.150    0.231    0.412    3.271
  166.250  144.038  252.577    0.236    0.413    3.550
  166.500  139.824  252.492    0.238    0.415    3.925
  166.750  135.611  250.927    0.239    0.415    4.339
  167.000  126.629  249.363    0.237    0.408    4.798
  167.250  122.101  249.268    0.233    0.390    5.453
  167.500  121.162  249.211    0.226    0.365    6.255
  167.750  118.443  249.631    0.218    0.360    7.174
