~VERSION INFORMATION
 VERS.                 2.0:   CWLS LOG ASCII STANDARD -VERSION 2.0
 WRAP.                  NO:   ONE LINE PER DEPTH STEP
~WELL INFORMATION BLOCK
#MNEM.UNIT           DATA                    DESCRIPTION OF MNEMONIC
#---------    -------------------            -------------------------------
# Generated from Intellog Unique Number	CX_WELLS/WELL/3301
WELL.         ANDERSON ET AL NEWBY           : Well_name    - WELL
LOC .         00/10-35-084-05W4/0            : Location     - LOCATION
UWI .         00/10-35-084-05W400            : Uwi          - UNIQUE WELL ID
ENTR.         T                              : Entered      - ENTERED BY
SRVC.         SCHLUMBERGER                   : Scn          - SERVICE COMPANY
STRT.M        80                             : top_depth    - START DEPTH
STOP.M        330                            : bot_depth    - STOP DEPTH
STEP.M        0.25                           : increment    - STEP LENGTH
 NULL. -999.2500:NULL Value
~CURVE INFORMATION BLOCK
#MNEM UNIT       ERCB CURVE CODE    CURVE DESCRIPTION
#-----------   ------------------   ----------------------------------
DEPT.M        00 001 00 00         : DEPTH        - DEPTH
GR  .API      00 310 00 00         : GR           - GAMMA RAY
NPHI.V/V      00 330 00 00         : PHIN         - NEUTRON POROSITY (SANDSTONE)
DPHI.V/V      00 890 00 00         : PHID         - DENSITY POROSITY (SANDSTONE)
ILD .OHMM     00 120 00 00         : RESD         - DEEP RESISTIVITY (DIL)
~PARAMETER INFORMATION
#MNEM.UNIT           DATA             DESCRIPTION OF MNEMONIC
#---------         -----------     ------------------------------
GL  .M        470                  : gl           - GROUND LEVEL ELEVATION
EREF.M        474                  : kb           - ELEVATION OF DEPTH REFERENCE
DATM.M        474                  : datum        - DATUM ELEVATION
TDD .M        345                  : tdd          - TOTAL DEPTH DRILLER
RUN .         ONE                  : Run          - RUN NUMBER
ENG .         BILL                 : Engineer     - RECORDING ENGINEER
WIT .         JIM                  : Witness      - WITNESSED BY
MUD .         GEL                  : Mud_type     - MUD TYPE
MATR.         SANDSTONE            : Logunit      - NEUTRON MATRIX
TMAX.C        21                   : BHT          - MAXIMUM RECORDED TEMPERATURE
BHTD.M        345                  : BHTDEP       - MAXIMUM RECORDED TEMPERATURE
MATR.         1                    : LOGUNIT      - NEUTRON MATRIX
RMT .C        20                   : MDTP         - TEMPERATURE OF MUD
NEUT.         1                    : NEUTRON      - NEUTRON TYPE
RESI.         4                    : RESIST       - RESISTIVITY TYPE
RMC .OHMM     3.3                  : RMC          - RESISTIVITY OF MUD CAKE
RMF .OHMM     3.3                  : RMF          - RESISTIVITY OF MUD FILTRATE
SUFT.C        4                    : SUFT         - SURFACE TEMPERATURE
~A  DEPTH       GR     PHIN     PHID     RESD
# ...
  123.500   49.554    0.153   -0.025   22.856
  123.750   47.756    0.142   -0.006   22.891
  124.000   49.032    0.154    0.020   19.350
  124.250   51.526    0.207    0.043   16.988
  124.500   58.960    0.307    0.264   13.078
  124.750   64.539    0.348    0.332    9.696
  125.000   68.285    0.383    0.334    7.897
  125.250   70.176    0.404    0.326    7.066
  125.500   72.066    0.425    0.324    6.563
  125.750   71.498    0.429    0.324    6.331
  126.000   70.327    0.429    0.325    6.219
  126.250   69.771    0.431    0.325    6.225
  126.500   69.794    0.437    0.323    6.118
  126.750   69.841    0.449    0.320    6.010
  127.000   69.285    0.443    0.318    6.021
  127.250   66.258    0.434    0.314    5.915
  127.500   63.846    0.432    0.314    5.925
  127.750   64.496    0.429    0.314    5.819
  128.000   72.545    0.428    0.317    5.826
  128.250   72.592    0.436    0.321    5.833
  128.500   69.577    0.446    0.324    5.844
  128.750   67.780    0.459    0.327    5.847
  129.000   67.212    0.421    0.331    5.746
  129.250   67.270    0.416    0.332    5.649
  129.500   67.305    0.419    0.325    5.446
  129.750   67.340    0.426    0.315    5.353
  130.000   67.387    0.437    0.311    5.358
  130.250   67.433    0.438    0.311    5.366
  130.500   65.648    0.436    0.311    5.372
  130.750   65.080    0.427    0.311    5.377
  131.000   65.741    0.423    0.312    5.486
  131.250   66.403    0.419    0.315    5.599
  131.500   67.690    0.418    0.311    5.605
  131.750   68.340    0.425    0.309    5.611
  132.000   65.928    0.431    0.306    5.617
  132.250   64.131    0.437    0.300    5.420
  132.500   66.045    0.446    0.296    5.425
  132.750   67.309    0.442    0.301    5.235
  133.000   68.609    0.436    0.305    5.241
  133.250   69.247    0.434    0.312    5.147
  133.500   69.293    0.431    0.312    4.967
  133.750   68.725    0.430    0.303    4.970
  134.000   68.157    0.429    0.296    4.795
  134.250   68.831    0.425    0.291    4.800
  134.500   69.480    0.431    0.292    4.807
  134.750   71.371    0.439    0.293    4.811
  135.000   72.032    0.435    0.293    4.817
  135.250   73.934    0.422    0.298    4.823
  135.500   76.463    0.428    0.299    4.651
  135.750   77.716    0.431    0.299    4.573
  136.000   78.992    0.437    0.300    4.576
  136.250   79.038    0.443    0.302    4.498
  136.500   77.879    0.443    0.300    4.502
  136.750   77.288    0.444    0.288    4.593
  137.000   79.190    0.446    0.278    4.598
  137.250   83.540    0.451    0.270    4.693
  137.500   90.347    0.454    0.267    4.881
  137.750   94.094    0.455    0.263    4.884
  138.000   94.743    0.460    0.258    4.983
  138.250   96.066    0.466    0.256    4.805
  138.500   96.716    0.473    0.254    4.635
  138.750   96.739    0.478    0.254    4.553
  139.000   97.412    0.479    0.255    4.561
  139.250   98.688    0.484    0.255    4.564
  139.500   99.976    0.486    0.259    4.489
  139.750  100.614    0.484    0.260    4.409
  140.000  101.901    0.478    0.261    4.331
  140.250  103.804    0.476    0.254    4.178
  140.500  104.453    0.478    0.260    3.955
  140.750  105.753    0.502    0.267    3.884
  141.000  107.005    0.533    0.276    3.747
  141.250  108.293    0.547    0.288    3.547
  141.500  109.581    0.556    0.293    3.419
  141.750  110.219    0.548    0.294    3.236
  142.000  111.506    0.538    0.290    3.179
  142.250  110.324    0.544    0.282    2.898
  142.500  109.141    0.550    0.275    2.794
  142.750  107.970    0.556    0.272    2.961
  143.000  108.017    0.555    0.270    3.078
  143.250  107.437    0.543    0.268    3.386
  143.500  106.267    0.536    0.265    3.653
  143.750  104.481    0.530    0.264    3.870
  144.000  103.275    0.524    0.268    4.420
  144.250  100.863    0.509    0.277    4.772
  144.500   99.066    0.482    0.273    4.957
  144.750   97.280    0.474    0.263    5.254
  145.000   96.086    0.474    0.264    5.565
  145.250   95.542    0.474    0.268    5.784
  145.500   94.962    0.468    0.267    6.362
  145.750   95.020    0.458    0.267    6.612
  146.000   95.067    0.464    0.268    7.274
  146.250   95.114    0.469    0.263    7.561
  146.500   95.160    0.473    0.258    7.575
  146.750   95.195    0.474    0.264    7.580
  147.000   94.627    0.473    0.284    7.738
  147.250   93.445    0.458    0.309    7.889
  147.500   92.889    0.414    0.326    8.356
  147.750   94.176    0.383    0.341    9.364
  148.000   95.452    0.344    0.346   10.898
  148.250   96.102    0.389    0.292   11.547
  148.500   97.378    0.418    0.250   10.725
  148.750   97.425    0.432    0.253    9.961
  149.000   98.098    0.427    0.254    9.083
  149.250   98.133    0.420    0.257    8.753
  149.500   98.794    0.416    0.261    8.601
  149.750  100.070    0.413    0.261    8.775
  150.000  101.381    0.414    0.261    8.788
  150.250  102.031    0.416    0.262    8.633
  150.500  102.692    0.416    0.267    8.485
  150.750  100.883    0.417    0.271    8.496
  151.000   97.254    0.423    0.279    8.353
  151.250   94.842    0.424    0.274    8.203
  151.500   97.974    0.421    0.269    8.062
  151.750   99.841    0.417    0.255    7.922
  152.000  103.587    0.418    0.241    7.784
  152.250  104.260    0.424    0.236    7.230
  152.500  103.089    0.431    0.236    6.713
  152.750  102.510    0.441    0.250    6.721
  153.000  101.930    0.453    0.254    6.732
  153.250  101.362    0.449    0.241    6.738
  153.500   99.565    0.448    0.242    6.623
  153.750   99.612    0.453    0.252    6.266
  154.000  100.273    0.478    0.258    5.605
  154.250  101.549    0.512    0.263    4.741
  154.500  104.078    0.518    0.256    4.402
  154.750  104.727    0.517    0.257    4.328
  155.000  106.003    0.511    0.263    4.499
  155.250  102.374    0.489    0.271    4.677
  155.500  101.806    0.449    0.276    5.048
  155.750  101.841    0.423    0.282    5.552
  156.000  101.888    0.406    0.274    6.105
  156.250   99.476    0.416    0.269    6.714
  156.500   95.835    0.431    0.269    7.112
  156.750   92.205    0.443    0.271    6.606
  157.000   93.469    0.455    0.275    5.587
  157.250   95.383    0.475    0.277    5.091
  157.500   97.900    0.503    0.282    4.305
  157.750   99.176    0.493    0.286    3.710
  158.000  100.441    0.457    0.283    3.931
  158.250  101.717    0.430    0.278    4.084
  158.500  101.763    0.409    0.268    4.578
  158.750  102.425    0.408    0.268    5.035
  159.000  102.483    0.401    0.289    5.751
  159.250  102.506    0.381    0.313    6.816
  159.500   98.251    0.318    0.329    8.710
  159.750   94.609    0.286    0.341    9.764
  160.000   92.812    0.282    0.324   10.342
  160.250   90.412    0.288    0.304   10.358
  160.500   88.626    0.307    0.275   10.175
  160.750   86.215    0.364    0.240   10.004
  161.000   83.176    0.351    0.072   10.200
  161.250   77.088    0.320    0.081   10.804
  161.500   72.809    0.285    0.205   11.882
  161.750   65.480    0.310    0.264   13.314
  162.000   63.683    0.340    0.269   10.642
  162.250   69.888    0.406    0.266    8.040
  162.500   74.852    0.442    0.273    6.800
  162.750   78.586    0.433    0.283    6.682
  163.000   78.633    0.423    0.291    6.690
  163.250   77.462    0.418    0.294    6.574
  163.500   76.894    0.413    0.288    6.584
  163.750   74.482    0.407    0.257    6.717
  164.000   75.758    0.402    0.218    6.853
  164.250   79.493    0.372    0.167    6.991
  164.500   83.227    0.382    0.143    7.270
  164.750   86.962    0.403    0.221    7.276
  165.000   91.323    0.422    0.242    7.148
  165.250   95.672    0.426    0.243    6.893
  165.500   98.804    0.430    0.244    6.647
  165.750   99.465    0.433    0.239    6.531
  166.000   99.500    0.436    0.237    6.419
  166.250   99.547    0.437    0.230    6.427
  166.500  100.231    0.438    0.232    6.435
  166.750  100.266    0.436    0.240    6.443
