~VERSION INFORMATION
 VERS.                 2.0:   CWLS LOG ASCII STANDARD -VERSION 2.0
 WRAP.                  NO:   ONE LINE PER DEPTH STEP
~WELL INFORMATION BLOCK
#MNEM.UNIT           DATA                    DESCRIPTION OF MNEMONIC
#---------    -------------------            -------------------------------
# Generated from Intellog Unique Number	CS_71_72/WELL/868
WELL.         PEX PHILLIPS AEC GRIST         : Well_name    - WELL
LOC .         00/10-23-072-07W4/0            : Location     - LOCATION
UWI .         00/10-23-072-07W4/0            : Uwi          - UNIQUE WELL ID
ENTR.         SP                             : Entered      - ENTERED BY
SRVC.         SCHLUMBERGER                   : Scn          - SERVICE COMPANY
STRT.M        320                            : top_depth    - START DEPTH
STOP.M        547                            : bot_depth    - STOP DEPTH
STEP.M        0.25                           : increment    - STEP LENGTH
 NULL. -999.2500:NULL Value
~CURVE INFORMATION BLOCK
#MNEM UNIT       ERCB CURVE CODE    CURVE DESCRIPTION
#-----------   ------------------   ----------------------------------
DEPT.M        00 001 00 00         : DEPTH        - DEPTH
ILD .OHMM     00 120 00 00         : RESD         - DEEP RESISTIVITY (DIL)
DPHI.V/V      00 890 00 00         : PHID         - DENSITY POROSITY (LIMESTONE)
NPHI.V/V      00 330 00 00         : PHIN         - NEUTRON POROSITY (LIMESTONE)
GR  .API      00 310 00 00         : GR           - GAMMA RAY
~PARAMETER INFORMATION
#MNEM.UNIT           DATA             DESCRIPTION OF MNEMONIC
#---------         -----------     ------------------------------
GL  .M        691.2                : gl           - GROUND LEVEL ELEVATION
EREF.M        694.7                : kb           - ELEVATION OF DEPTH REFERENCE
DATM.M        691.2                : datum        - DATUM ELEVATION
TDD .M        550                  : tdd          - TOTAL DEPTH DRILLER
RUN .         ONE                  : Run          - RUN NUMBER
ENG .         BILL                 : Engineer     - RECORDING ENGINEER
WIT .         JIM                  : Witness      - WITNESSED BY
MUD .         GEL                  : Mud_type     - MUD TYPE
MATR.         LIMESTONE            : Logunit      - NEUTRON MATRIX
TMAX.C        24                   : BHT          - MAXIMUM RECORDED TEMPERATURE
BHTD.M        550                  : BHTDEP       - MAXIMUM RECORDED TEMPERATURE
MATR.         1                    : LOGUNIT      - NEUTRON MATRIX
RMT .C        25                   : MDTP         - TEMPERATURE OF MUD
NEUT.         1                    : NEUTRON      - NEUTRON TYPE
RESI.         0                    : RESIST       - RESISTIVITY TYPE
RMC .OHMM     0.25                 : RMC          - RESISTIVITY OF MUD CAKE
RMF .OHMM     0.25                 : RMF          - RESISTIVITY OF MUD FILTRATE
SUFT.C        15                   : SUFT         - SURFACE TEMPERATURE
~A  DEPTH     RESD     PHID     PHIN       GR
# ...
  363.500   10.828    0.288    0.413   75.425
  363.750    9.864    0.270    0.412   82.749
  364.000    8.820    0.254    0.406   89.463
  364.250    8.497    0.224    0.408   87.030
  364.500    9.153    0.211    0.413   84.596
  364.750    9.499    0.264    0.420   81.554
  365.000   10.044    0.312    0.454   78.512
  365.250   10.231    0.332    0.436   76.080
  365.500   10.042    0.311    0.420   74.254
  365.750    9.319    0.293    0.424   78.528
  366.000    9.147    0.277    0.422   87.073
  366.250    8.489    0.255    0.418   91.345
  366.500    8.027    0.226    0.414   98.670
  366.750    7.733    0.209    0.436  102.333
  367.000    7.589    0.208    0.442  103.559
  367.250    7.449    0.214    0.441  104.174
  367.500    7.311    0.209    0.455  103.570
  367.750    7.447    0.215    0.465  102.966
  368.000    7.586    0.220    0.476   96.876
  368.250    7.727    0.221    0.480   91.397
  368.500    8.020    0.220    0.482   88.961
  368.750    8.323    0.219    0.477   87.746
  369.000    8.638    0.233    0.475   88.973
  369.250    9.479    0.253    0.482   92.637
  369.500   10.023    0.278    0.486   94.471
  369.750   10.797    0.286    0.478   92.648
  370.000   11.416    0.272    0.453   85.949
  370.250   11.848    0.270    0.437   83.515
  370.500   12.069    0.270    0.430   81.691
  370.750   11.845    0.266    0.422   83.525
  371.000   11.411    0.254    0.420   87.804
  371.250   11.199    0.252    0.427   89.029
  371.500   11.622    0.251    0.431   90.253
  371.750   11.840    0.235    0.418   91.479
  372.000   12.519    0.222    0.408   92.093
  372.250   14.259    0.219    0.442   90.877
  372.500   15.361    0.186    0.470   82.348
  372.750   17.497    0.039    0.460   71.987
  373.000   17.823    0.027    0.272   59.187
  373.250   17.493    0.160    0.236   57.366
  373.500   15.641    0.220    0.323   59.809
  373.750   14.791    0.273    0.396   62.254
  374.000   12.050    0.293    0.397   67.749
  374.250   10.190    0.266    0.402   75.072
  374.500    9.112    0.245    0.443   80.566
  374.750    8.148    0.220    0.468   84.840
  375.000    7.562    0.242    0.488   87.895
  375.250    7.561    0.254    0.478   89.121
  375.500    7.421    0.238    0.465   87.906
  375.750    7.420    0.220    0.478   91.571
  376.000    7.419    0.233    0.471   93.406
  376.250    7.700    0.252    0.465   84.877
  376.500    8.294    0.263    0.466   81.832
  376.750    9.448    0.280    0.479   75.132
  377.000   10.964    0.295    0.477   66.601
  377.250   12.032    0.308    0.445   60.509
  377.500   12.722    0.315    0.428   56.246
  377.750   13.452    0.321    0.424   51.984
  378.000   13.960    0.321    0.429   48.942
  378.250   13.959    0.310    0.437   50.776
  378.500   14.486    0.304    0.437   53.221
  378.750   14.484    0.296    0.428   54.447
  379.000   14.483    0.295    0.421   53.233
  379.250   14.482    0.301    0.428   53.240
  379.500   13.441    0.309    0.433   55.073
  379.750   12.244    0.315    0.418   61.180
  380.000   11.795    0.312    0.405   63.623
  380.250   11.363    0.303    0.398   67.899
  380.500   10.946    0.297    0.423   69.733
  380.750   10.945    0.292    0.446   71.568
  381.000   10.944    0.281    0.467   73.404
  381.250   11.149    0.269    0.481   74.629
  381.500   11.787    0.259    0.476   73.415
  381.750   12.008    0.270    0.458   69.763
  382.000   12.232    0.286    0.441   65.501
  382.250   12.461    0.299    0.423   63.068
  382.500   12.693    0.309    0.412   63.681
  382.750   12.692    0.303    0.396   66.737
  383.000   12.456    0.290    0.422   70.406
  383.250   12.454    0.276    0.441   71.020
  383.500   12.688    0.281    0.413   71.024
  383.750   12.452    0.280    0.406   71.639
  384.000   12.451    0.277    0.400   71.645
  384.250   12.219    0.274    0.406   71.042
  384.500   11.772    0.275    0.406   69.217
  384.750   11.131    0.291    0.397   68.006
  385.000   10.525    0.296    0.401   69.840
  385.250    9.952    0.288    0.405   75.945
  385.500    9.768    0.279    0.390   80.217
  385.750    9.950    0.265    0.385   83.882
  386.000   10.136    0.259    0.423   85.106
  386.250   10.519    0.300    0.480   79.626
  386.500   11.331    0.335    0.508   72.924
  386.750   12.206    0.345    0.487   65.613
  387.000   12.668    0.320    0.464   58.912
  387.250   13.146    0.317    0.455   54.040
  387.500   13.145    0.328    0.441   54.654
  387.750   13.143    0.333    0.438   55.879
  388.000   13.142    0.327    0.437   54.056
  388.250   12.898    0.323    0.431   54.672
  388.500   12.897    0.315    0.429   55.287
  388.750   12.895    0.307    0.437   55.296
  389.000   13.136    0.327    0.438   55.300
  389.250   13.381    0.332    0.433   53.478
  389.500   13.380    0.295    0.443   53.483
  389.750   12.889    0.284    0.441   54.707
  390.000   12.650    0.321    0.432   57.762
  390.250   12.649    0.336    0.430   57.768
  390.500   12.647    0.334    0.430   55.336
  390.750   12.645    0.330    0.432   52.901
  391.000   12.881    0.336    0.438   52.300
  391.250   12.880    0.333    0.430   52.305
  391.500   13.120    0.328    0.448   51.700
  391.750   13.366    0.330    0.453   51.095
  392.000   13.365    0.344    0.443   51.103
  392.250   13.364    0.348    0.436   51.109
  392.500   13.362    0.339    0.420   51.114
  392.750   12.872    0.335    0.414   52.341
  393.000   12.633    0.335    0.405   56.006
  393.250   12.170    0.353    0.415   58.450
  393.500   12.168    0.377    0.454   60.894
  393.750   12.167    0.393    0.494   62.732
  394.000   12.394    0.340    0.513   62.736
  394.250   12.393    0.319    0.487   61.521
  394.500   12.163    0.322    0.466   61.528
  394.750   11.501    0.318    0.455   62.754
  395.000   11.079    0.305    0.463   65.200
  395.250   10.873    0.290    0.473   67.645
  395.500   10.672    0.299    0.469   71.919
  395.750   10.670    0.311    0.462   74.975
  396.000   10.870    0.294    0.434   75.588
  396.250   10.869    0.282    0.428   71.327
  396.500   11.072    0.280    0.448   67.677
  396.750   11.070    0.280    0.445   66.462
  397.000   11.069    0.278    0.444   65.856
  397.250   10.663    0.275    0.445   65.861
  397.500   10.662    0.266    0.449   64.647
  397.750   10.465    0.252    0.462   66.483
  398.000    9.895    0.246    0.475   68.318
  398.250    9.014    0.256    0.469   71.983
  398.500    8.523    0.261    0.450   76.257
  398.750    8.059    0.269    0.439   79.311
  399.000    7.910    0.269    0.445   76.271
  399.250    7.620    0.262    0.440   76.885
  399.500    7.205    0.253    0.435   80.549
  399.750    6.687    0.250    0.453   84.823
  400.000    6.323    0.250    0.478   88.489
  400.250    5.761    0.243    0.498   90.934
  400.500    5.248    0.233    0.513   92.158
  400.750    4.871    0.222    0.520   92.774
  401.000    4.780    0.223    0.516   90.951
  401.250    4.780    0.233    0.516   86.691
  401.500    4.869    0.244    0.529   86.694
  401.750    4.960    0.242    0.520   87.919
  402.000    4.959    0.242    0.502   88.535
  402.250    5.052    0.240    0.486   86.713
  402.500    5.147    0.233    0.495   85.499
  402.750    5.242    0.235    0.538   84.894
  403.000    5.242    0.248    0.519   88.559
  403.250    5.241    0.254    0.501   91.004
  403.500    5.240    0.237    0.486   86.743
  403.750    5.144    0.231    0.486   86.140
  404.000    5.143    0.227    0.498   86.146
  404.250    5.239    0.224    0.497   86.150
  404.500    5.239    0.236    0.498   86.159
  404.750    5.436    0.241    0.499   85.553
  405.000    5.538    0.240    0.488   84.343
  405.250    5.642    0.237    0.483   83.128
  405.500    5.747    0.235    0.477   82.521
  405.750    6.190    0.236    0.491   78.868
  406.000    6.306    0.276    0.493   71.557
  406.250    6.793    0.310    0.474   59.368
  406.500    7.183    0.315    0.459   58.764
  406.750    7.594    0.310    0.451   61.209
