~VERSION INFORMATION
 VERS.                 2.0:   CWLS LOG ASCII STANDARD -VERSION 2.0
 WRAP.                  NO:   ONE LINE PER DEPTH STEP
~WELL INFORMATION BLOCK
#MNEM.UNIT           DATA                    DESCRIPTION OF MNEMONIC
#---------    -------------------            -------------------------------
# Generated from Intellog Unique Number	CW_70_72/WELL/1031
NULL.         -999.25                        : NULL_VALUE
WELL.         SUNCOR TOMATO 10-01            : Well_name    - WELL              
LOC .         10-01-072-24W4                 : Location     - LOCATION          
UWI .         00/10-01-072-24W4/0            : Uwi          - UNIQUE WELL ID    
ENTR.         JAYE                           : Entered      - ENTERED BY        
SRVC.         COMPUTALOG                     : Scn          - SERVICE COMPANY   
DATE.         3 MAR 80                       : Date         - LOG DATE          
STRT.M        435                            : top_depth    - START DEPTH       
STOP.M        645                            : bot_depth    - STOP DEPTH        
STEP.M        0.25                           : increment    - STEP LENGTH       
~CURVE INFORMATION BLOCK
#MNEM UNIT       ERCB CURVE CODE    CURVE DESCRIPTION
#-----------   ------------------   ----------------------------------
DEPT.M        00 001 00 00         : DEPTH        - DEPTH                       
DPHI.V/V      00 890 00 00         : PHID         - DENSITY POROSITY (SANDSTONE)
NPHI.V/V      00 330 00 00         : PHIN         - NEUTRON POROSITY (SANDSTONE)
GR  .API      00 310 00 00         : GR           - GAMMA RAY                   
CALI.MM       00 280 01 00         : CAL          - CALIPER                     
ILD .OHMM     00 120 00 00         : RESD         - DEEP RESISTIVITY (DIL)      
~PARAMETER INFORMATION       
#MNEM.UNIT           DATA             DESCRIPTION OF MNEMONIC
#---------         -----------     ------------------------------
GL  .M        670.96               : gl           - GROUND LEVEL ELEVATION      
EREF.M        674.31               : kb           - ELEVATION OF DEPTH REFERENCE
DATM.M        670.96               : datum        - DATUM ELEVATION             
TDD .M        662                  : tdd          - TOTAL DEPTH DRILLER         
RUN .         ONE                  : Run          - RUN NUMBER                  
ENG .         JESIOLOWSKI          : Engineer     - RECORDING ENGINEER          
WIT .         KOKOTOTLO            : Witness      - WITNESSED BY                
BASE.         EDM                  : Branch       - HOME BASE OF LOGGING UNIT   
MUD .         GEL CHEM             : Mud_type     - MUD TYPE                    
MATR.         SANDSTONE            : Logunit      - NEUTRON MATRIX              
TMAX.C        21                   : BHT          - MAXIMUM RECORDED TEMPERATURE
BHTD.M        662                  : BHTDEP       - MAXIMUM RECORDED TEMPERATURE
RMT .C        16.6                 : MDTP         - TEMPERATURE OF MUD          
MUDD.KG/M     1140                 : MWT          - MUD DENSITY                 
NEUT.         1                    : NEUTRON      - NEUTRON TYPE                
RESI.         0                    : RESIST       - RESISTIVITY TYPE            
RM  .OHMM     6                    : RM           - RESISTIVITY OF MUD          
RMC .OHMM     0                    : RMC          - RESISTIVITY OF MUD CAKE     
RMF .OHMM     5.8                  : RMF          - RESISTIVITY OF MUD FILTRATE 
SUFT.C        0                    : SUFT         - SURFACE TEMPERATURE         
~A  DEPTH     PHID     PHIN       GR      CAL     RESD
# ...
  471.500    0.257    0.343   90.284  145.695    3.584
  471.750    0.242    0.331   99.358  149.136    3.721
  472.000    0.227    0.336  109.115  152.884    3.856
  472.250    0.218    0.347  119.182  156.012    4.033
  472.500    0.213    0.355  117.089  159.554    4.162
  472.750    0.223    0.339  109.473  158.030    4.321
  473.000    0.228    0.319   99.252  152.577    4.460
  473.250    0.223    0.319  101.810  148.983    4.477
  473.500    0.214    0.323  127.513  148.600    4.410
  473.750    0.221    0.329  137.580  150.586    4.270
  474.000    0.246    0.337  134.245  154.852    4.113
  474.250    0.278    0.359  125.204  163.772    4.045
  474.500    0.304    0.396  116.904  170.519    4.013
  474.750    0.275    0.421  102.774  176.025    4.013
  475.000    0.220    0.420   93.111  174.503    4.029
  475.250    0.233    0.384  105.909  165.014    4.004
  475.500    0.252    0.385  113.989  158.422    4.027
  475.750    0.273    0.385  106.870  165.376    4.071
  476.000    0.184    0.360   95.221  166.748    4.165
  476.250    0.166    0.351  100.325  160.365    4.242
  476.500    0.186    0.339  100.154  155.736    4.346
  476.750    0.216    0.337   94.338  153.385    4.445
  477.000    0.248    0.330   89.019  152.376    4.470
  477.250    0.270    0.308   92.198  150.750    4.478
  477.500    0.257    0.319   94.198  148.912    4.460
  477.750    0.223    0.312   96.077  147.801    4.402
  478.000    0.200    0.283  107.322  147.415    4.345
  478.250    0.184    0.295  114.412  147.648    4.287
  478.500    0.178    0.311  109.526  149.120    4.231
  478.750    0.174    0.342  102.344  152.458    4.175
  479.000    0.167    0.369  106.269  156.204    4.128
  479.250    0.168    0.378  106.099  157.782    4.096
  479.500    0.186    0.386  101.957  153.362    4.050
  479.750    0.216    0.403   96.327  147.907    3.982
  480.000    0.240    0.400   93.054  144.834    3.864
  480.250    0.294    0.305   96.112  144.859    3.639
  480.500    0.334    0.320   95.691  147.469    3.518
  480.750    0.370    0.352   95.956  153.079    3.557
  481.000    0.314    0.439   97.585  152.072    3.686
  481.250    0.270    0.406   95.615  147.031    3.842
  481.500    0.269    0.416   85.082  144.167    4.002
  481.750    0.265    0.373   77.406  143.465    4.217
  482.000    0.239    0.329   76.676  143.804    4.476
  482.250    0.216    0.291   85.379  145.793    5.055
  482.500    0.160    0.245   84.961  147.685    5.829
  482.750    0.120    0.225   76.910  148.534    6.436
  483.000    0.120    0.270   92.746  149.391    6.508
  483.250    0.166    0.315  110.756  149.828    6.071
  483.500    0.188    0.357  120.885  150.473    5.487
  483.750    0.184    0.372  129.401  150.605    5.100
  484.000    0.172    0.372  122.530  150.836    4.857
  484.250    0.162    0.362  110.571  152.312    4.793
  484.500    0.164    0.353  102.024  155.957    4.849
  484.750    0.159    0.346  106.693  159.396    4.874
  485.000    0.147    0.348  106.151  161.597    4.855
  485.250    0.164    0.377  111.069  162.963    4.747
  485.500    0.171    0.398  115.551  164.231    4.640
  485.750    0.186    0.375  112.402  164.776    4.411
  486.000    0.241    0.391   99.699  164.490    4.161
  486.250    0.297    0.545   93.698  162.863    4.084
  486.500    0.362    0.559   92.285  159.995    4.130
  486.750    0.451    0.545   86.531  155.055    4.271
  487.000    0.496    0.592   79.040  150.117    4.392
  487.250    0.511    0.607   69.811  146.835    4.551
  487.500    0.351    0.331   62.939  143.764    4.636
  487.750    0.289    0.338   57.247  142.440    4.645
  488.000    0.294    0.316   52.735  141.640    4.481
  488.250    0.297    0.325   51.385  141.465    4.119
  488.500    0.298    0.370   49.228  141.492    3.908
  488.750    0.297    0.379   46.329  141.309    3.813
  489.000    0.295    0.347   45.599  141.435    3.785
  489.250    0.297    0.361   49.399  141.875    3.764
  489.500    0.300    0.372   54.690  142.419    3.756
  489.750    0.299    0.330   49.369  142.759    3.762
  490.000    0.297    0.305   50.998  142.991    3.783
  490.250    0.294    0.303   70.248  143.640    3.854
  490.500    0.271    0.348   87.450  143.976    3.970
  490.750    0.245    0.480   87.528  144.107    4.192
  491.000    0.253    0.521   72.034  144.132    4.360
  491.250    0.263    0.396   62.742  144.259    4.441
  491.500    0.261    0.352   60.462  144.187    4.500
  491.750    0.271    0.366   57.313  144.108    4.458
  492.000    0.278    0.377   53.918  144.030    4.301
  492.250    0.274    0.357   50.581  144.261    4.215
  492.500    0.271    0.325   46.812  144.905    4.151
  492.750    0.275    0.316   46.766  145.553    4.064
  493.000    0.282    0.347   52.118  146.097    3.967
  493.250    0.299    0.382   56.167  146.432    3.922
  493.500    0.306    0.378   52.584  146.880    3.863
  493.750    0.307    0.317   49.684  147.009    3.820
  494.000    0.306    0.343   50.257  147.446    3.770
  494.250    0.299    0.359   52.260  147.990    3.734
  494.500    0.292    0.344   52.895  148.218    3.693
  494.750    0.287    0.328   52.166  148.453    3.657
  495.000    0.291    0.334   50.757  148.274    3.603
  495.250    0.292    0.349   46.986  147.988    3.562
  495.500    0.291    0.372   48.181  147.499    3.535
  495.750    0.289    0.378   52.105  147.424    3.495
  496.000    0.283    0.315   51.004  147.653    3.475
  496.250    0.286    0.304   44.444  147.995    3.436
  496.500    0.293    0.341   45.824  148.121    3.411
  496.750    0.298    0.346   49.315  148.247    3.391
  497.000    0.294    0.352   56.342  148.280    3.365
  497.250    0.296    0.364   65.974  148.199    3.339
  497.500    0.307    0.344   59.971  148.019    3.321
  497.750    0.313    0.348   57.941  147.733    3.307
  498.000    0.322    0.339   58.142  145.279    3.289
  498.250    0.329    0.348   57.600  142.511    3.275
  498.500    0.336    0.375   54.574  142.020    3.258
  498.750    0.328    0.361   55.647  143.291    3.244
  499.000    0.319    0.360   58.329  145.179    3.232
  499.250    0.320    0.356   64.859  146.240    3.232
  499.500    0.327    0.340   65.807  146.989    3.237
  499.750    0.321    0.341   62.533  147.635    3.249
  500.000    0.308    0.361   56.221  147.867    3.267
  500.250    0.349    0.382   51.584  147.789    3.262
  500.500    0.406    0.489   51.537  147.711    3.254
  500.750    0.363    0.528   56.703  147.427    3.241
  501.000    0.334    0.367   61.558  147.145    3.205
  501.250    0.308    0.335   53.942  146.657    3.157
  501.500    0.301    0.336   55.013  146.373    3.127
  501.750    0.306    0.346   60.798  146.088    3.092
  502.000    0.315    0.363   56.161  145.499    3.069
  502.250    0.308    0.385   55.619  145.524    3.045
  502.500    0.300    0.404   58.735  145.343    3.033
  502.750    0.302    0.404   54.843  145.576    3.017
  503.000    0.304    0.353   52.315  145.700    3.021
  503.250    0.299    0.348   52.020  145.932    3.021
  503.500    0.290    0.359   55.512  146.062    3.015
  503.750    0.283    0.370   54.161  145.985    3.022
  504.000    0.280    0.393   51.201  146.114    3.026
  504.250    0.286    0.404   54.442  146.350    3.026
  504.500    0.293    0.332   51.790  145.652    3.032
  504.750    0.293    0.322   52.239  145.987    3.025
  505.000    0.278    0.347   50.086  145.806    3.025
  505.250    0.277    0.369   51.092  145.628    3.019
  505.500    0.282    0.378   48.814  145.965    3.001
  505.750    0.286    0.387   46.594  146.508    2.979
  506.000    0.287    0.396   47.912  146.225    2.957
  506.250    0.287    0.415   46.627  145.733    2.939
  506.500    0.290    0.382   44.407  144.830    2.912
  506.750    0.295    0.354   48.148  144.757    2.901
  507.000    0.297    0.376   46.797  144.265    2.890
  507.250    0.294    0.415   52.148  144.287    2.888
  507.500    0.291    0.398   57.687  144.108    2.878
  507.750    0.297    0.384   43.866  144.132    2.862
