~VERSION INFORMATION
 VERS.                 2.0:   CWLS LOG ASCII STANDARD -VERSION 2.0
 WRAP.                  NO:   ONE LINE PER DEPTH STEP
~WELL INFORMATION BLOCK
#MNEM.UNIT           DATA                    DESCRIPTION OF MNEMONIC
#---------    -------------------            -------------------------------
# Generated from Intellog Unique Number	CS_73_76/WELL/2197
WELL.         BOW VALLEY INDUSTRIES LTD.     : Well_name    - WELL
LOC .         00/11-06-074-13W4/0            : Location     - LOCATION
UWI .         00/11-06-074-13W4/0            : Uwi          - UNIQUE WELL ID
ENTR.         SP                             : Entered      - ENTERED BY
SRVC.         SCHLUMBERGER                   : Scn          - SERVICE COMPANY
STRT.M        340                            : top_depth    - START DEPTH
STOP.M        565                            : bot_depth    - STOP DEPTH
STEP.M        0.25                           : increment    - STEP LENGTH
 NULL. -999.2500:NULL Value
~CURVE INFORMATION BLOCK
#MNEM UNIT       ERCB CURVE CODE    CURVE DESCRIPTION
#-----------   ------------------   ----------------------------------
DEPT.M        00 001 00 00         : DEPTH        - DEPTH
GR  .API      00 310 00 00         : GR           - GAMMA RAY
DPHI.V/V      00 890 00 00         : PHID         - DENSITY POROSITY (LIMESTONE)
NPHI.V/V      00 330 00 00         : PHIN         - NEUTRON POROSITY (LIMESTONE)
ILD .OHMM     00 120 00 00         : RESD         - DEEP RESISTIVITY (DIL)
~PARAMETER INFORMATION
#MNEM.UNIT           DATA             DESCRIPTION OF MNEMONIC
#---------         -----------     ------------------------------
GL  .M        694.49               : gl           - GROUND LEVEL ELEVATION
EREF.M        697.84               : kb           - ELEVATION OF DEPTH REFERENCE
DATM.M        694.49               : datum        - DATUM ELEVATION
TDD .M        571                  : tdd          - TOTAL DEPTH DRILLER
RUN .         ONE                  : Run          - RUN NUMBER
ENG .         BILL                 : Engineer     - RECORDING ENGINEER
WIT .         JIM                  : Witness      - WITNESSED BY
MUD .         GEL                  : Mud_type     - MUD TYPE
MATR.         LIMESTONE            : Logunit      - NEUTRON MATRIX
TMAX.C        24                   : BHT          - MAXIMUM RECORDED TEMPERATURE
BHTD.M        571                  : BHTDEP       - MAXIMUM RECORDED TEMPERATURE
MATR.         1                    : LOGUNIT      - NEUTRON MATRIX
RMT .C        25                   : MDTP         - TEMPERATURE OF MUD
NEUT.         1                    : NEUTRON      - NEUTRON TYPE
RESI.         0                    : RESIST       - RESISTIVITY TYPE
RMC .OHMM     0.25                 : RMC          - RESISTIVITY OF MUD CAKE
RMF .OHMM     0.25                 : RMF          - RESISTIVITY OF MUD FILTRATE
SUFT.C        15                   : SUFT         - SURFACE TEMPERATURE
~A  DEPTH       GR     PHID     PHIN     RESD
# ...
  427.000   99.580    0.281    0.532    3.360
  427.250  101.403    0.271    0.566    3.297
  427.500  102.620    0.244    0.527    3.358
  427.750  103.838    0.226    0.507    3.421
  428.000  100.823    0.229    0.517    3.551
  428.250   97.204    0.240    0.535    3.357
  428.500   97.209    0.255    0.544    3.115
  428.750   98.427    0.270    0.549    2.945
  429.000   93.596    0.275    0.555    3.355
  429.250   85.740    0.296    0.576    3.968
  429.500   76.675    0.313    0.481    5.250
  429.750   70.030    0.327    0.448    6.446
  430.000   68.225    0.331    0.423    6.816
  430.250   71.259    0.335    0.420    6.689
  430.500   74.290    0.316    0.437    5.979
  430.750   77.320    0.309    0.449    4.868
  431.000   84.590    0.309    0.456    4.115
  431.250   87.620    0.299    0.461    3.678
  431.500   91.257    0.284    0.461    3.167
  431.750   94.894    0.275    0.480    2.627
  432.000  100.346    0.275    0.483    2.438
  432.250  105.193    0.302    0.558    2.484
  432.500  100.969    0.282    0.581    2.937
  432.750   94.326    0.273    0.570    3.744
  433.000   91.306    0.274    0.512    4.428
  433.250   84.661    0.271    0.485    5.539
  433.500   79.225    0.281    0.469    6.194
  433.750   74.394    0.293    0.451    6.550
  434.000   69.564    0.286    0.441    6.672
  434.250   66.546    0.269    0.443    6.670
  434.500   67.763    0.269    0.455    6.670
  434.750   69.588    0.303    0.446    6.669
  435.000   67.783    0.320    0.438    6.668
  435.250   67.186    0.323    0.428    6.544
  435.500   66.587    0.319    0.436    6.542
  435.750   68.409    0.337    0.450    6.541
  436.000   69.022    0.338    0.452    6.540
  436.250   68.429    0.342    0.445    6.539
  436.500   67.225    0.337    0.445    6.538
  436.750   66.626    0.331    0.438    6.537
  437.000   66.030    0.348    0.433    6.536
  437.250   64.224    0.356    0.456    6.535
  437.500   63.628    0.354    0.478    6.910
  437.750   64.240    0.366    0.493    7.873
  438.000   65.457    0.373    0.496    8.642
  438.250   66.678    0.368    0.461    9.847
  438.500   67.288    0.369    0.417   10.609
  438.750   68.508    0.376    0.424   11.011
  439.000   68.514    0.371    0.447   10.806
  439.250   69.129    0.366    0.462   10.215
  439.500   69.134    0.363    0.459    9.303
  439.750   68.540    0.361    0.462    8.473
  440.000   67.337    0.360    0.468    7.716
  440.250   66.739    0.357    0.470    7.294
  440.500   66.748    0.354    0.471    7.158
  440.750   67.964    0.345    0.462    7.025
  441.000   70.395    0.339    0.453    6.894
  441.250   71.613    0.344    0.446    6.766
  441.500   71.619    0.345    0.439    6.639
  441.750   72.231    0.344    0.432    6.515
  442.000   73.449    0.344    0.428    6.394
  442.250   74.667    0.352    0.446    6.274
  442.500   74.675    0.357    0.460    6.044
  442.750   76.499    0.361    0.479    5.931
  443.000   77.716    0.334    0.488    5.929
  443.250   78.328    0.316    0.481    5.929
  443.500   80.760    0.276    0.464    6.040
  443.750   81.975    0.256    0.449    6.152
  444.000   83.797    0.253    0.452    6.151
  444.250   85.015    0.240    0.463    6.266
  444.500   86.236    0.229    0.458    6.265
  444.750   86.240    0.243    0.449    6.264
  445.000   86.248    0.240    0.438    6.263
  445.250   86.255    0.248    0.429    6.262
  445.500   83.242    0.263    0.425    6.261
  445.750   81.434    0.274    0.441    6.260
  446.000   84.466    0.295    0.459    6.143
  446.250   89.314    0.308    0.458    6.028
  446.500   91.741    0.290    0.450    6.027
  446.750   92.353    0.266    0.450    5.915
  447.000   89.340    0.244    0.444    5.804
  447.250   89.950    0.234    0.437    5.804
  447.500   91.772    0.233    0.431    5.803
  447.750   92.387    0.250    0.450    5.802
  448.000   92.999    0.263    0.464    5.801
  448.250   94.821    0.252    0.475    5.693
  448.500   95.433    0.245    0.478    5.692
  448.750   94.232    0.261    0.468    5.691
  449.000   93.637    0.267    0.465    5.584
  449.250   93.040    0.280    0.472    5.583
  449.500   91.837    0.290    0.481    5.583
  449.750   90.635    0.280    0.476    5.687
  450.000   88.223    0.275    0.482    5.686
  450.250   89.441    0.269    0.477    5.685
  450.500   90.659    0.262    0.491    5.684
  450.750   91.877    0.252    0.494    5.683
  451.000   93.094    0.253    0.466    5.789
  451.250   91.892    0.280    0.467    5.897
  451.500   89.481    0.286    0.471    5.897
  451.750   88.885    0.285    0.473    6.006
  452.000   90.707    0.268    0.462    6.351
  452.250   89.505    0.257    0.434    6.470
  452.500   85.281    0.262    0.418    6.591
  452.750   83.473    0.251    0.421    6.840
  453.000   82.876    0.241    0.431    6.969
  453.250   82.885    0.233    0.438    7.099
  453.500   81.682    0.220    0.439    7.792
  453.750   79.271    0.191    0.422    8.552
  454.000   76.256    0.072    0.369    9.214
  454.250   75.657    0.064    0.275    9.744
  454.500   78.691    0.094    0.352    9.742
  454.750   82.932    0.139    0.401    8.547
  455.000   88.990    0.215    0.427    7.499
  455.250   89.604    0.257    0.455    6.958
  455.500   83.565    0.282    0.463    6.702
  455.750   82.359    0.298    0.455    6.577
  456.000   79.949    0.304    0.464    6.454
  456.250   82.376    0.313    0.472    6.574
  456.500   82.989    0.319    0.461    6.573
  456.750   82.996    0.315    0.452    6.573
  457.000   83.609    0.309    0.442    6.571
  457.250   84.828    0.299    0.432    6.570
  457.500   85.442    0.293    0.448    6.569
  457.750   86.055    0.297    0.455    6.568
  458.000   86.062    0.294    0.452    6.567
  458.250   86.069    0.289    0.447    6.444
  458.500   84.868    0.287    0.440    6.444
  458.750   84.271    0.289    0.447    6.442
  459.000   84.281    0.301    0.462    6.441
  459.250   84.892    0.297    0.468    6.440
  459.500   86.714    0.301    0.475    6.439
  459.750   88.537    0.305    0.468    6.438
  460.000   89.151    0.301    0.464    6.437
  460.250   89.765    0.294    0.458    6.436
  460.500   90.378    0.295    0.452    6.435
  460.750   90.990    0.294    0.462    6.315
  461.000   92.207    0.282    0.477    6.197
  461.250   95.239    0.289    0.474    5.437
  461.500   99.483    0.276    0.513    4.032
  461.750  101.909    0.267    0.536    3.047
  462.000  103.127    0.295    0.559    2.435
  462.250  101.925    0.301    0.576    2.218
  462.500  101.329    0.271    0.592    2.136
  462.750  103.755    0.300    0.593    2.301
  463.000  105.578    0.312    0.566    2.722
  463.250  104.983    0.284    0.550    2.825
  463.500  104.384    0.291    0.540    3.737
  463.750  103.788    0.268    0.498    4.338
  464.000  103.191    0.261    0.493    4.852
  464.250  102.594    0.276    0.493    5.227
  464.500  100.787    0.284    0.480    5.325
  464.750   98.983    0.271    0.464    5.324
  465.000   97.174    0.265    0.455    5.424
  465.250   97.786    0.261    0.463    5.422
  465.500  101.424    0.256    0.458    5.421
  465.750  101.432    0.255    0.453    5.421
  466.000   98.415    0.252    0.452    5.420
  466.250   92.375    0.250    0.447    5.419
  466.500   88.757    0.268    0.438    5.520
  466.750   90.577    0.286    0.446    5.519
  467.000   89.376    0.296    0.452    5.518
  467.250   85.756    0.284    0.439    5.621
  467.500   81.531    0.272    0.436    5.726
  467.750   80.326    0.290    0.438    5.943
  468.000   76.709    0.303    0.450    6.054
  468.250   74.900    0.317    0.454    6.522
  468.500   71.283    0.306    0.445    6.644
  468.750   71.285    0.263    0.410    7.430
  469.000   70.085    0.226    0.312    7.857
  469.250   76.143    0.119    0.279    7.711
  469.500   81.592    0.195    0.351    7.290
  469.750   88.859    0.235    0.413    6.639
  470.000   92.496    0.249    0.454    6.160
  470.250   87.666    0.225    0.465    6.045
