~VERSION INFORMATION
 VERS.                 2.0:   CWLS LOG ASCII STANDARD -VERSION 2.0
 WRAP.                  NO:   ONE LINE PER DEPTH STEP
~WELL INFORMATION BLOCK
#MNEM.UNIT           DATA                    DESCRIPTION OF MNEMONIC
#---------    -------------------            -------------------------------
# Generated from Intellog Unique Number	CS_69_70/WELL/879
WELL.         GULF CANADA LIMITED            : Well_name    - WELL
LOC .         00/10-34-069-15W4/0            : Location     - LOCATION
UWI .         00/10-34-069-15W4/0            : Uwi          - UNIQUE WELL ID
ENTR.         SP                             : Entered      - ENTERED BY
SRVC.         SCHLUMBERGER                   : Scn          - SERVICE COMPANY
STRT.M        250                            : top_depth    - START DEPTH
STOP.M        465                            : bot_depth    - STOP DEPTH
STEP.M        0.25                           : increment    - STEP LENGTH
 NULL. -999.2500:NULL Value
~CURVE INFORMATION BLOCK
#MNEM UNIT       ERCB CURVE CODE    CURVE DESCRIPTION
#-----------   ------------------   ----------------------------------
DEPT.M        00 001 00 00         : DEPTH        - DEPTH
ILD .OHMM     00 120 00 00         : RESD         - DEEP RESISTIVITY (DIL)
DPHI.V/V      00 890 00 00         : PHID         - DENSITY POROSITY (LIMESTONE)
NPHI.V/V      00 330 00 00         : PHIN         - NEUTRON POROSITY (LIMESTONE)
GR  .API      00 310 00 00         : GR           - GAMMA RAY
~PARAMETER INFORMATION
#MNEM.UNIT           DATA             DESCRIPTION OF MNEMONIC
#---------         -----------     ------------------------------
GL  .M        559.6                : gl           - GROUND LEVEL ELEVATION
EREF.M        563.41               : kb           - ELEVATION OF DEPTH REFERENCE
DATM.M        559.6                : datum        - DATUM ELEVATION
TDD .M        465                  : tdd          - TOTAL DEPTH DRILLER
RUN .         ONE                  : Run          - RUN NUMBER
ENG .         BILL                 : Engineer     - RECORDING ENGINEER
WIT .         JIM                  : Witness      - WITNESSED BY
MUD .         GEL                  : Mud_type     - MUD TYPE
MATR.         LIMESTONE            : Logunit      - NEUTRON MATRIX
TMAX.C        18                   : BHT          - MAXIMUM RECORDED TEMPERATURE
BHTD.M        465                  : BHTDEP       - MAXIMUM RECORDED TEMPERATURE
MATR.         1                    : LOGUNIT      - NEUTRON MATRIX
RMT .C        25                   : MDTP         - TEMPERATURE OF MUD
NEUT.         1                    : NEUTRON      - NEUTRON TYPE
RESI.         0                    : RESIST       - RESISTIVITY TYPE
RMC .OHMM     0.25                 : RMC          - RESISTIVITY OF MUD CAKE
RMF .OHMM     0.25                 : RMF          - RESISTIVITY OF MUD FILTRATE
SUFT.C        15                   : SUFT         - SURFACE TEMPERATURE
~A  DEPTH     RESD     PHID     PHIN       GR
# ...
  293.500    2.981    0.294    0.475   75.181
  293.750    3.044    0.284    0.482   75.290
  294.000    3.137    0.275    0.488   75.946
  294.250    3.275    0.283    0.475   75.933
  294.500    3.406    0.290    0.465   76.410
  294.750    3.596    0.146    0.461   77.492
  295.000    4.007    0.095    0.373   79.245
  295.250    4.607    0.061    0.310   79.904
  295.500    5.172    0.034    0.267   72.464
  295.750    5.719    0.031    0.245   66.731
  296.000    6.128    0.089    0.272   72.805
  296.250    6.245    0.152    0.340   80.160
  296.500    5.335    0.230    0.392   86.296
  296.750    4.566    0.236    0.434   90.362
  297.000    4.216    0.224    0.466   92.297
  297.250    4.171    0.214    0.476   91.675
  297.500    4.235    0.207    0.484   91.725
  297.750    4.300    0.221    0.485   92.808
  298.000    4.358    0.227    0.475   94.866
  298.250    4.425    0.217    0.469   99.600
  298.500    4.451    0.212    0.467  103.970
  298.750    4.419    0.215    0.472  106.334
  299.000    4.356    0.208    0.484  110.034
  299.250    4.245    0.200    0.499  114.769
  299.500    4.099    0.193    0.496  119.138
  299.750    3.951    0.191    0.485  121.807
  300.000    3.872    0.186    0.478  125.022
  300.250    3.874    0.179    0.474  127.383
  300.500    3.926    0.173    0.497  124.571
  300.750    4.031    0.166    0.512  127.541
  301.000    4.177    0.176    0.495  130.815
  301.250    4.402    0.193    0.479  130.255
  301.500    4.621    0.204    0.471  125.191
  301.750    4.807    0.210    0.474  119.214
  302.000    4.935    0.196    0.470  113.601
  302.250    5.001    0.195    0.465  109.997
  302.500    5.059    0.214    0.462  111.386
  302.750    5.051    0.231    0.462  113.015
  303.000    5.081    0.232    0.453  113.857
  303.250    5.178    0.228    0.448  112.201
  303.500    5.268    0.229    0.437  108.720
  303.750    5.259    0.220    0.423  106.087
  304.000    5.116    0.206    0.414  105.407
  304.250    4.664    0.214    0.420  104.905
  304.500    4.364    0.226    0.432  104.958
  304.750    4.214    0.236    0.447  110.423
  305.000    4.224    0.218    0.457  114.489
  305.250    4.288    0.206    0.467  117.643
  305.500    4.362    0.210    0.462  120.370
  305.750    4.462    0.223    0.453  113.600
  306.000    4.514    0.236    0.471  109.450
  306.250    4.549    0.245    0.470  106.758
  306.500    4.550    0.231    0.452  110.459
  306.750    4.560    0.224    0.438  114.402
  307.000    4.570    0.217    0.433  116.826
  307.250    4.709    0.212    0.439  118.945
  307.500    4.926    0.198    0.429  118.201
  307.750    5.038    0.186    0.413  116.547
  308.000    5.106    0.175    0.410  115.072
  308.250    5.014    0.177    0.434  118.710
  308.500    4.631    0.186    0.447  121.927
  308.750    4.221    0.169    0.450  125.446
  309.000    3.964    0.164    0.458  128.233
  309.250    3.835    0.168    0.473  124.568
  309.500    3.858    0.199    0.491  120.052
  309.750    3.867    0.214    0.499  116.023
  310.000    3.853    0.231    0.496  111.442
  310.250    3.819    0.227    0.490  108.816
  310.500    3.757    0.225    0.481  103.384
  310.750    3.682    0.217    0.476  100.574
  311.000    3.663    0.233    0.469   98.370
  311.250    3.671    0.248    0.476   96.834
  311.500    3.686    0.250    0.475   95.910
  311.750    3.687    0.250    0.471   96.263
  312.000    3.723    0.253    0.470   96.371
  312.250    3.837    0.256    0.464   94.838
  312.500    3.932    0.262    0.453   93.487
  312.750    3.970    0.275    0.439   92.806
  313.000    3.891    0.286    0.436   92.669
  313.250    3.722    0.282    0.440   92.720
  313.500    3.515    0.284    0.454   92.890
  313.750    3.277    0.294    0.469   92.329
  314.000    3.111    0.297    0.469   91.040
  314.250    3.050    0.297    0.462   89.504
  314.500    3.045    0.299    0.460   90.650
  314.750    3.074    0.300    0.457   92.099
  315.000    3.099    0.293    0.467   93.547
  315.250    3.117    0.285    0.481   92.806
  315.500    3.136    0.279    0.478   88.350
  315.750    3.154    0.284    0.485   86.207
  316.000    3.172    0.292    0.475   85.525
  316.250    3.215    0.283    0.466   85.938
  316.500    3.246    0.279    0.474   87.873
  316.750    3.278    0.275    0.505   88.045
  317.000    3.309    0.281    0.521   86.752
  317.250    3.360    0.293    0.506   86.012
  317.500    3.386    0.303    0.495   84.599
  317.750    3.413    0.289    0.490   83.915
  318.000    3.420    0.278    0.494   84.088
  318.250    3.346    0.285    0.491   85.171
  318.500    3.255    0.288    0.472   87.350
  318.750    3.173    0.304    0.458   88.556
  319.000    3.150    0.311    0.454   88.362
  319.250    3.169    0.304    0.464   89.322
  319.500    3.206    0.298    0.478   90.527
  319.750    3.273    0.295    0.484   93.192
  320.000    3.379    0.281    0.479   94.948
  320.250    3.502    0.268    0.485   97.552
  320.500    3.683    0.257    0.489  100.399
  320.750    3.831    0.249    0.496  102.699
  321.000    3.955    0.244    0.498  103.969
  321.250    4.068    0.235    0.482  105.052
  321.500    4.131    0.222    0.461  100.961
  321.750    4.202    0.225    0.448  100.827
  322.000    4.243    0.231    0.459  101.728
  322.250    4.268    0.233    0.472   99.098
  322.500    4.301    0.242    0.486   94.764
  322.750    4.319    0.256    0.490   92.072
  323.000    4.328    0.264    0.479   93.826
  323.250    4.322    0.253    0.468   99.047
  323.500    4.275    0.231    0.461  103.541
  323.750    4.136    0.205    0.472  108.275
  324.000    3.949    0.219    0.488  111.003
  324.250    3.764    0.230    0.502  108.982
  324.500    3.689    0.234    0.511  105.562
  324.750    3.643    0.219    0.517  105.429
  325.000    3.685    0.215    0.529  105.294
  325.250    3.919    0.211    0.525  104.857
  325.500    4.138    0.203    0.483  103.748
  325.750    4.336    0.196    0.467  105.745
  326.000    4.664    0.204    0.458  104.150
  326.250    5.007    0.222    0.451  102.676
  326.500    5.198    0.223    0.449  101.933
  326.750    5.346    0.216    0.445  101.374
  327.000    5.439    0.211    0.458  100.753
  327.250    5.460    0.205    0.453   98.853
  327.500    5.483    0.197    0.446   95.797
  327.750    5.536    0.199    0.442   93.594
  328.000    5.538    0.201    0.439   96.077
  328.250    5.550    0.206    0.452   99.596
  328.500    5.521    0.213    0.464  102.992
  328.750    5.482    0.216    0.466  104.502
  329.000    5.464    0.218    0.465  102.664
  329.250    5.445    0.224    0.466  101.799
  329.500    5.427    0.217    0.466  101.969
  329.750    5.408    0.205    0.456  103.660
  330.000    5.370    0.196    0.441  104.990
  330.250    5.322    0.200    0.434  101.020
  330.500    5.246    0.209    0.434   96.928
  330.750    5.179    0.222    0.451   96.065
  331.000    5.096    0.237    0.470   95.809
  331.250    5.022    0.239    0.472   95.615
  331.500    4.940    0.234    0.469   94.750
  331.750    4.870    0.225    0.469   94.068
  332.000    4.817    0.221    0.476   94.056
  332.250    4.791    0.220    0.479   96.783
  332.500    4.740    0.222    0.482   96.771
  332.750    4.654    0.220    0.488   93.412
  333.000    4.511    0.216    0.491   91.024
  333.250    4.405    0.217    0.494   90.221
  333.500    4.222    0.217    0.496   90.390
  333.750    3.965    0.215    0.496   90.075
  334.000    3.655    0.260    0.490   88.845
  334.250    3.351    0.272    0.492   86.519
  334.500    3.206    0.283    0.485   82.246
  334.750    3.130    0.297    0.484   79.739
  335.000    3.096    0.312    0.473   77.413
  335.250    3.097    0.313    0.463   76.489
  335.500    3.122    0.308    0.457   75.866
  335.750    3.123    0.303    0.465   75.002
  336.000    3.106    0.300    0.474   75.234
  336.250    3.062    0.300    0.483   75.831
  336.500    3.023    0.314    0.493   71.984
  336.750    2.963    0.321    0.505   68.137
