~VERSION INFORMATION
 VERS.                 2.0:   CWLS LOG ASCII STANDARD -VERSION 2.0
 WRAP.                  NO:   ONE LINE PER DEPTH STEP
~WELL INFORMATION BLOCK
#MNEM.UNIT           DATA                    DESCRIPTION OF MNEMONIC
#---------    -------------------            -------------------------------
# Generated from Intellog Unique Number	CS_71_72/WELL/894
WELL.         GERC ET AL WANDER              : Well_name    - WELL
LOC .         00/11-10-071-13W4/0            : Location     - LOCATION
UWI .         00/11-10-071-13W4/0            : Uwi          - UNIQUE WELL ID
ENTR.         SP                             : Entered      - ENTERED BY
SRVC.         SCHLUMBERGER                   : Scn          - SERVICE COMPANY
STRT.M        304.8                          : top_depth    - START DEPTH
STOP.M        539.3                          : bot_depth    - STOP DEPTH
STEP.M        0.25                           : increment    - STEP LENGTH
 NULL. -999.2500:NULL Value
~CURVE INFORMATION BLOCK
#MNEM UNIT       ERCB CURVE CODE    CURVE DESCRIPTION
#-----------   ------------------   ----------------------------------
DEPT.M        00 001 00 00         : DEPTH        - DEPTH
GR  .API      00 310 00 00         : GR           - GAMMA RAY
DPHI.V/V      00 890 00 00         : PHID         - DENSITY POROSITY (SANDSTONE)
NPHI.V/V      00 330 00 00         : PHIN         - NEUTRON POROSITY (SANDSTONE)
ILD .OHMM     00 120 00 00         : RESD         - DEEP RESISTIVITY (DIL)
~PARAMETER INFORMATION
#MNEM.UNIT           DATA             DESCRIPTION OF MNEMONIC
#---------         -----------     ------------------------------
GL  .M        630.326              : gl           - GROUND LEVEL ELEVATION
EREF.M        634.289              : kb           - ELEVATION OF DEPTH REFERENCE
DATM.M        630.326              : datum        - DATUM ELEVATION
TDD .M        545.592              : tdd          - TOTAL DEPTH DRILLER
RUN .         ONE                  : Run          - RUN NUMBER
ENG .         BILL                 : Engineer     - RECORDING ENGINEER
WIT .         JIM                  : Witness      - WITNESSED BY
MUD .         GEL                  : Mud_type     - MUD TYPE
MATR.         SANDSTONE            : Logunit      - NEUTRON MATRIX
TMAX.C        20                   : BHT          - MAXIMUM RECORDED TEMPERATURE
BHTD.M        545.592              : BHTDEP       - MAXIMUM RECORDED TEMPERATURE
MATR.         1                    : LOGUNIT      - NEUTRON MATRIX
RMT .C        25                   : MDTP         - TEMPERATURE OF MUD
NEUT.         1                    : NEUTRON      - NEUTRON TYPE
RESI.         0                    : RESIST       - RESISTIVITY TYPE
RMC .OHMM     0.25                 : RMC          - RESISTIVITY OF MUD CAKE
RMF .OHMM     0.25                 : RMF          - RESISTIVITY OF MUD FILTRATE
SUFT.C        15                   : SUFT         - SURFACE TEMPERATURE
~A  DEPTH       GR     PHID     PHIN     RESD
# ...
  391.800   53.518    0.326    0.358    6.159
  392.050   50.341    0.313    0.338    6.138
  392.300   47.375    0.314    0.349    6.101
  392.550   49.846    0.323    0.346    6.055
  392.800   52.032    0.317    0.348    5.995
  393.050   52.516    0.327    0.363    5.915
  393.300   52.297    0.327    0.369    5.899
  393.550   52.136    0.321    0.372    5.935
  393.800   52.106    0.315    0.361    6.033
  394.050   51.964    0.306    0.342    6.178
  394.300   50.791    0.294    0.329    6.288
  394.550   47.782    0.281    0.336    6.414
  394.800   47.573    0.280    0.320    6.474
  395.050   51.723    0.299    0.328    6.640
  395.300   53.416    0.297    0.319    6.703
  395.550   54.869    0.303    0.325    6.808
  395.800   57.275    0.300    0.337    6.877
  396.050   58.397    0.294    0.339    6.881
  396.300   57.380    0.290    0.341    6.866
  396.550   56.398    0.293    0.340    6.807
  396.800   56.684    0.287    0.348    6.775
  397.050   58.779    0.281    0.342    6.704
  397.300   60.850    0.274    0.348    6.579
  397.550   61.937    0.266    0.362    6.366
  397.800   63.313    0.263    0.368    6.000
  398.050   62.956    0.276    0.351    5.543
  398.300   61.603    0.269    0.353    5.018
  398.550   64.771    0.275    0.355    4.571
  398.800   69.223    0.281    0.358    4.143
  399.050   74.588    0.274    0.357    3.843
  399.300   75.047    0.260    0.381    3.699
  399.550   70.806    0.293    0.407    3.643
  399.800   67.802    0.316    0.431    3.709
  400.050   66.692    0.283    0.421    4.017
  400.300   69.615    0.268    0.413    4.189
  400.550   72.161    0.274    0.386    4.565
  400.800   65.488    0.285    0.355    4.949
  401.050   60.679    0.303    0.326    5.455
  401.300   56.529    0.314    0.331    5.735
  401.550   59.682    0.302    0.349    6.052
  401.800   60.005    0.295    0.379    6.194
  402.050   56.195    0.291    0.380    6.151
  402.300   53.506    0.292    0.378    5.982
  402.550   52.566    0.295    0.369    5.831
  402.800   57.132    0.305    0.359    5.786
  403.050   62.778    0.298    0.349    5.803
  403.300   64.524    0.304    0.363    5.835
  403.550   62.982    0.299    0.364    5.932
  403.800   61.890    0.289    0.353    6.012
  404.050   62.755    0.281    0.346    6.094
  404.300   62.617    0.278    0.352    6.173
  404.550   57.900    0.273    0.348    6.225
  404.800   56.293    0.296    0.348    6.263
  405.050   60.166    0.288    0.344    6.407
  405.300   57.205    0.276    0.323    6.737
  405.550   53.482    0.225    0.290    7.429
  405.800   53.932    0.146    0.206    8.829
  406.050   49.843    0.105    0.161   11.206
  406.300   45.646    0.069    0.142   13.856
  406.550   43.975    0.060    0.134   16.476
  406.800   42.856    0.051    0.129   18.682
  407.050   42.147    0.037    0.115   20.890
  407.300   40.699    0.016    0.099   23.087
  407.550   41.896    0.002    0.079   25.201
  407.800   43.965    0.010    0.077   25.584
  408.050   46.295    0.059    0.125   17.374
  408.300   49.458    0.117    0.166   12.325
  408.550   51.487    0.199    0.220    9.845
  408.800   52.806    0.242    0.295    8.326
  409.050   53.798    0.273    0.333    7.221
  409.300   54.564    0.299    0.325    6.599
  409.550   54.959    0.309    0.317    6.277
  409.800   56.830    0.312    0.329    5.900
  410.050   58.989    0.305    0.322    5.721
  410.300   60.541    0.308    0.345    5.709
  410.550   60.835    0.311    0.375    5.798
  410.800   60.102    0.301    0.385    5.902
  411.050   58.585    0.305    0.372    5.982
  411.300   58.784    0.304    0.355    6.090
  411.550   61.685    0.285    0.327    6.107
  411.800   65.711    0.263    0.309    6.007
  412.050   68.004    0.250    0.316    5.870
  412.300   69.323    0.242    0.342    5.557
  412.550   68.373    0.243    0.351    5.564
  412.800   68.504    0.249    0.344    5.633
  413.050   70.649    0.246    0.328    5.738
  413.300   72.343    0.239    0.328    5.912
  413.550   69.690    0.242    0.340    6.054
  413.800   68.556    0.239    0.352    6.195
  414.050   69.139    0.228    0.335    6.286
  414.300   70.574    0.218    0.319    6.440
  414.550   71.620    0.231    0.329    6.491
  414.800   72.432    0.220    0.344    6.506
  415.050   71.889    0.226    0.319    6.466
  415.300   70.493    0.236    0.315    6.426
  415.550   69.347    0.231    0.331    6.356
  415.800   68.755    0.224    0.324    6.303
  416.050   68.062    0.238    0.333    6.230
  416.300   67.439    0.242    0.349    6.166
  416.550   70.047    0.236    0.354    6.006
  416.800   72.841    0.242    0.375    5.815
  417.050   76.722    0.243    0.360    5.712
  417.300   78.654    0.218    0.350    5.691
  417.550   80.208    0.201    0.357    5.731
  417.800   77.780    0.203    0.342    5.754
  418.050   75.204    0.209    0.325    5.775
  418.300   73.733    0.218    0.313    5.737
  418.550   72.129    0.234    0.326    5.661
  418.800   70.840    0.237    0.339    5.607
  419.050   72.786    0.232    0.354    5.531
  419.300   73.154    0.236    0.350    5.451
  419.550   72.008    0.241    0.349    5.406
  419.800   71.934    0.250    0.360    5.411
  420.050   73.080    0.244    0.357    5.563
  420.300   75.104    0.234    0.346    6.250
  420.550   77.376    0.215    0.333    6.362
  420.800   78.652    0.188    0.323    6.407
  421.050   79.588    0.182    0.318    6.339
  421.300   78.559    0.186    0.312    6.148
  421.550   76.452    0.194    0.308    6.051
  421.800   77.827    0.210    0.308    5.959
  422.050   76.639    0.222    0.318    5.891
  422.300   74.030    0.230    0.332    5.791
  422.550   74.409    0.235    0.331    5.705
  422.800   76.405    0.237    0.345    5.647
  423.050   79.083    0.231    0.362    5.670
  423.300   81.450    0.224    0.353    5.696
  423.550   79.825    0.218    0.349    5.705
  423.800   77.783    0.217    0.354    5.690
  424.050   76.595    0.221    0.361    5.640
  424.300   76.530    0.215    0.349    5.622
  424.550   77.931    0.216    0.351    5.587
  424.800   80.410    0.219    0.346    5.565
  425.050   82.238    0.215    0.339    5.559
  425.300   83.416    0.205    0.334    5.521
  425.550   81.609    0.199    0.343    5.444
  425.800   77.571    0.199    0.351    5.453
  426.050   76.016    0.205    0.346    5.549
  426.300   77.724    0.209    0.351    5.696
  426.550   79.297    0.207    0.363    5.825
  426.800   80.808    0.199    0.351    5.858
  427.050   81.936    0.211    0.336    5.101
  427.300   82.249    0.224    0.328    4.233
  427.550   77.978    0.235    0.330    3.516
  427.800   73.844    0.226    0.334    2.907
  428.050   75.051    0.230    0.354    2.535
  428.300   77.180    0.287    0.377    2.244
  428.550   79.769    0.318    0.416    1.971
  428.800   82.570    0.330    0.444    1.811
  429.050   83.853    0.321    0.423    1.714
  429.300   84.126    0.308    0.418    1.673
  429.550   83.051    0.295    0.533    1.669
  429.800   82.407    0.283    0.509    1.956
  430.050   81.888    0.272    0.501    2.415
  430.300   80.244    0.261    0.480    2.757
  430.550   78.152    0.254    0.448    3.355
  430.800   76.156    0.250    0.423    3.822
  431.050   78.816    0.244    0.396    4.393
  431.300   80.784    0.239    0.361    4.675
  431.550   81.004    0.229    0.332    4.822
  431.800   80.809    0.216    0.334    4.845
  432.050   79.868    0.214    0.316    4.752
  432.300   78.971    0.224    0.334    4.636
  432.550   79.520    0.228    0.349    4.449
  432.800   80.238    0.240    0.341    4.378
  433.050   77.175    0.246    0.336    4.421
  433.300   74.171    0.252    0.335    4.525
  433.550   72.287    0.258    0.344    4.709
  433.800   72.414    0.256    0.341    5.043
  434.050   66.938    0.203    0.344    5.232
  434.300   62.437    0.138    0.265    5.454
  434.550   58.520    0.109    0.244    5.466
  434.800   60.671    0.135    0.218    5.406
  435.050   63.177    0.184    0.321    5.260
