~VERSION INFORMATION
 VERS.                 2.0:   CWLS LOG ASCII STANDARD -VERSION 2.0
 WRAP.                  NO:   ONE LINE PER DEPTH STEP
~WELL INFORMATION BLOCK
#MNEM.UNIT           DATA                    DESCRIPTION OF MNEMONIC
#---------    -------------------            -------------------------------
# Generated from Intellog Unique Number	CS_71_72/WELL/3326
WELL.         ALBERTA ENERGY CO.LTD.         : Well_name    - WELL
LOC .         00/10-32-072-03W4/0            : Location     - LOCATION
UWI .         00/10-33-067-11W4/0            : Uwi          - UNIQUE WELL ID
ENTR.         JOETTE                         : Entered      - ENTERED BY
SRVC.         SCHLUMBERGER                   : Scn          - SERVICE COMPANY
DATE.         05/13/92                       : Date         - LOG DATE
STRT.M        325                            : top_depth    - START DEPTH
STOP.M        560                            : bot_depth    - STOP DEPTH
STEP.M        0.25                           : increment    - STEP LENGTH
 NULL. -999.2500:NULL Value
~CURVE INFORMATION BLOCK
#MNEM UNIT       ERCB CURVE CODE    CURVE DESCRIPTION
#-----------   ------------------   ----------------------------------
DEPT.M        00 001 00 00         : DEPTH        - DEPTH
CALI.MM       00 280 01 00         : CAL          - CALIPER
GR  .API      00 310 00 00         : GR           - GAMMA RAY
NPHI.V/V      00 330 00 00         : PHIN         - NEUTRON POROSITY (SANDSTONE)
DPHI.V/V      00 890 00 00         : PHID         - DENSITY POROSITY (SANDSTONE)
ILD .OHMM     00 120 00 00         : RESD         - DEEP RESISTIVITY (DIL)
~PARAMETER INFORMATION
#MNEM.UNIT           DATA             DESCRIPTION OF MNEMONIC
#---------         -----------     ------------------------------
GL  .M        695.31               : gl           - GROUND LEVEL ELEVATION
EREF.M        698.91               : kb           - ELEVATION OF DEPTH REFERENCE
DATM.M        698.91               : datum        - DATUM ELEVATION
TDD .M        566                  : tdd          - TOTAL DEPTH DRILLER
RUN .         ONE                  : Run          - RUN NUMBER
ENG .         BILL                 : Engineer     - RECORDING ENGINEER
WIT .         JIM                  : Witness      - WITNESSED BY
MUD .         GEL                  : Mud_type     - MUD TYPE
MATR.         SANDSTONE            : Logunit      - NEUTRON MATRIX
TMAX.C        32                   : BHT          - MAXIMUM RECORDED TEMPERATURE
BHTD.M        566                  : BHTDEP       - MAXIMUM RECORDED TEMPERATURE
MATR.         1                    : LOGUNIT      - NEUTRON MATRIX
RMT .C        12                   : MDTP         - TEMPERATURE OF MUD
NEUT.         1                    : NEUTRON      - NEUTRON TYPE
RESI.         0                    : RESIST       - RESISTIVITY TYPE
RMC .OHMM     2.5                  : RMC          - RESISTIVITY OF MUD CAKE
RMF .OHMM     2.3                  : RMF          - RESISTIVITY OF MUD FILTRATE
SUFT.C        4                    : SUFT         - SURFACE TEMPERATURE
~A  DEPTH      CAL       GR     PHIN     PHID     RESD
# ...
  361.500  154.598   72.784    0.406    0.307   38.094
  361.750  154.704   59.628    0.405    0.317   33.482
  362.000  154.757   47.059    0.411    0.326   32.915
  362.250  154.811   44.110    0.407    0.325   32.957
  362.500  154.917   54.384    0.402    0.316   32.978
  362.750  154.953   61.643    0.401    0.309   33.020
  363.000  155.024   64.098    0.406    0.306   33.063
  363.250  155.130   61.149    0.415    0.312   33.116
  363.500  155.201   57.599    0.424    0.322   33.147
  363.750  155.290   58.867    0.427    0.325   33.190
  364.000  155.326   61.922    0.426    0.319   33.232
  364.250  155.397   64.978    0.421    0.301   33.902
  364.500  155.468   71.049    0.418    0.279   37.278
  364.750  154.738   73.490    0.418    0.277   41.735
  365.000  154.827   68.740    0.417    0.274   53.282
  365.250  154.880   51.367    0.407    0.326   47.697
  365.500  154.151   42.414    0.407    0.343   46.008
  365.750  153.439   32.861    0.408    0.350   48.721
  366.000  153.492   35.316    0.413    0.356   54.564
  366.250  153.563   37.170    0.412    0.347   63.432
  366.500  153.670   40.839    0.422    0.339   68.437
  366.750  153.741   46.897    0.428    0.345   66.035
  367.000  153.794   48.765    0.403    0.348   62.519
  367.250  153.901   39.185    0.384    0.347   59.190
  367.500  153.972   26.028    0.371    0.341   58.151
  367.750  153.224   23.680    0.370    0.343   59.322
  368.000  152.512   24.934    0.377    0.344   61.717
  368.250  152.566   24.387    0.389    0.344   59.493
  368.500  152.619   28.043    0.400    0.346   54.279
  368.750  152.708   28.710    0.402    0.349   51.372
  369.000  152.761   29.363    0.390    0.336   55.425
  369.250  153.650   34.220    0.394    0.337   62.092
  369.500  154.504   34.273    0.405    0.346   57.681
  369.750  155.411   31.325    0.410    0.347   58.861
  370.000  155.447   27.788    0.406    0.346   60.047
  370.250  155.553   26.628    0.395    0.343   55.798
  370.500  154.788   25.493    0.376    0.343   53.822
  370.750  154.094   24.933    0.378    0.345   59.163
  371.000  153.365   23.812    0.378    0.343   62.630
  371.250  153.418   23.838    0.377    0.335   52.033
  371.500  152.689   23.905    0.393    0.332   47.472
  371.750  152.760   25.172    0.392    0.334   49.341
  372.000  152.848   26.413    0.385    0.336   54.219
  372.250  152.902   28.255    0.388    0.342   58.497
  372.500  153.026   27.707    0.382    0.344   58.610
  372.750  153.079   23.571    0.370    0.347   59.771
  373.000  153.115   21.823    0.367    0.349   62.124
  373.250  153.186   21.289    0.367    0.347   64.570
  373.500  153.257   21.316    0.372    0.337   67.133
  373.750  153.328   21.970    0.375    0.335   69.775
  374.000  154.199   21.422    0.373    0.335   69.865
  374.250  154.270   19.674    0.365    0.340   68.660
  374.500  155.142   21.555    0.371    0.342   67.498
  374.750  155.213   23.397    0.397    0.346   66.314
  375.000  156.085   23.450    0.403    0.343   66.377
  375.250  156.992   22.916    0.393    0.338   65.275
  375.500  157.063   21.769    0.390    0.338   65.317
  375.750  157.134   21.221    0.379    0.337   65.421
  376.000  157.223   20.674    0.373    0.333   65.505
  376.250  157.276   21.928    0.372    0.332   65.568
  376.500  157.347   21.968    0.379    0.334   63.266
  376.750  157.418   22.635    0.387    0.339   55.588
  377.000  156.688   22.088    0.384    0.346   49.762
  377.250  155.959   20.340    0.375    0.344   43.723
  377.500  155.229   19.780    0.354    0.336   38.404
  377.750  154.518   18.632    0.354    0.335   26.473
  378.000  153.770   18.685    0.371    0.331   20.034
  378.250  153.824   25.957    0.406    0.291   15.738
  378.500  153.129   56.646    0.470    0.251   13.079
  378.750  153.165   70.509    0.479    0.235   12.379
  379.000  154.890   85.000    0.489    0.190   12.870
  379.250  155.744   85.640    0.503    0.220   14.413
  379.500  156.598   97.115    0.490    0.247   16.142
  379.750  156.687   98.983    0.482    0.258   17.750
  380.000  155.157   93.018    0.483    0.272   18.436
  380.250  152.826   87.054    0.478    0.283   18.460
  380.500  150.495   85.306    0.469    0.280   18.838
  380.750  148.965   91.977    0.461    0.272   19.224
  381.000  147.453   91.444    0.463    0.267   19.236
  381.250  147.506   89.695    0.456    0.256   18.916
  381.500  146.759   87.334    0.453    0.248   18.584
  381.750  146.865   84.985    0.468    0.237   16.339
  382.000  146.901   91.056    0.489    0.234   16.047
  382.250  146.972   92.911    0.495    0.239   16.993
  382.500  147.043   91.763    0.491    0.248   19.390
  382.750  147.150   86.399    0.485    0.256   20.927
  383.000  147.185   80.448    0.488    0.263   20.559
  383.250  147.274   78.700    0.495    0.271   21.778
  383.500  148.145   79.954    0.501    0.281   24.850
  383.750  149.017   76.405    0.492    0.284   27.821
  384.000  150.707   72.255    0.439    0.271   28.926
  384.250  151.561   68.706    0.329    0.249   25.407
  384.500  151.632   61.554    0.289    0.093   21.918
  384.750  151.703   58.605    0.259    0.082   19.984
  385.000  150.991   65.863    0.333    0.118   19.289
  385.250  150.244   71.921    0.418    0.156   19.301
  385.500  150.315   75.590    0.454    0.213   19.326
  385.750  150.386   75.643    0.472    0.298   17.964
  386.000  150.475   76.297    0.470    0.294   16.076
  386.250  150.528   79.953    0.459    0.287   16.102
  386.500  150.617   83.622    0.452    0.268   17.705
  386.750  151.488   81.274    0.454    0.263   19.829
  387.000  152.342   77.111    0.462    0.296   21.386
  387.250  152.413   67.557    0.474    0.316   24.403
  387.500  153.320   70.025    0.481    0.345   27.329
  387.750  153.409   71.880    0.485    0.350   31.194
  388.000  153.462   71.920    0.466    0.350   32.432
  388.250  153.551   70.772    0.463    0.348   30.705
  388.500  153.604   68.424    0.467    0.349   29.070
  388.750  153.658   67.290    0.467    0.355   28.041
  389.000  153.746   67.329    0.472    0.364   28.068
  389.250  153.800   67.383    0.486    0.362   28.651
  389.500  153.889   66.836    0.492    0.348   29.219
  389.750  153.960   65.688    0.478    0.344   29.798
  390.000  153.212   62.739    0.447    0.343   32.170
  390.250  153.301   57.989    0.438    0.332   32.191
  390.500  152.554   50.837    0.437    0.308   32.839
  390.750  151.059   45.500    0.442    0.314   33.501
  391.000  150.312   50.343    0.434    0.320   33.554
  391.250  149.565   58.202    0.432    0.319   32.965
  391.500  148.853   63.059    0.433    0.318   31.808
  391.750  148.924   70.331    0.436    0.320   31.250
  392.000  149.030   70.998    0.444    0.322   30.143
  392.250  149.066   69.837    0.454    0.327   28.019
  392.500  149.137   67.488    0.464    0.329   27.018
  392.750  149.243   66.341    0.450    0.326   23.300
  393.000  149.279   65.793    0.433    0.312   18.648
  393.250  150.951   73.666    0.465    0.311   13.600
  393.500  153.459   79.109    0.476    0.307   13.370
  393.750  155.114   83.379    0.492    0.294   13.378
  394.000  155.985   90.638    0.502    0.256   13.905
  394.250  155.256   93.106    0.513    0.229   15.577
  394.500  154.509   90.144    0.532    0.223   16.801
  394.750  153.014   80.590    0.545    0.268   21.053
  395.000  153.049   70.436    0.545    0.298   24.936
  395.250  152.320   70.489    0.538    0.333   29.535
  395.500  152.391   70.543    0.522    0.345   33.711
  395.750  152.497   70.009    0.494    0.345   33.765
  396.000  152.569   68.261    0.483    0.345   31.967
  396.250  152.622   65.899    0.483    0.341   32.008
  396.500  152.693   65.952    0.483    0.341   32.028
  396.750  152.782   64.217    0.480    0.341   32.079
  397.000  152.835   61.856    0.480    0.338   30.953
  397.250  152.906   64.911    0.480    0.341   28.763
  397.500  152.995   64.978    0.476    0.345   24.789
  397.750  153.066   63.216    0.471    0.350   21.781
