~VERSION INFORMATION
VERS.                2.00:   CWLS LOG ASCII STANDARD -VERSION 2.0
WRAP.                  NO:
~WELL INFORMATION BLOCK
#MNEM.UNIT           DATA                    DESCRIPTION OF MNEMONIC
#---------    -------------------            -------------------------------
# Generated from Intellog Unique Number	CC_80_83/WELL/2471
LOC .         00/10-22-083-08W4/0            : Location     - LOCATION
UWI .         00/10-22-083-08W4/0            : Uwi          - UNIQUE WELL ID
ENTR.         DW                             : Entered      - ENTERED BY
STRT.M             259.08:
STOP.M             511.83:
STEP.M               0.25:
NULL.             -999.25:
COMP.  :COMPANY
WELL.  ARC0 ET AL SURMONT:WELL
FLD.   :FIELD
LOC.   :LOCATION
CTRY.  :COUNTRY
PROV.  :PROVINCE
SRVC.  SCHLUMBERGER:SERVICE COMPANY
DATE.  :LOG DATE
UWI.   :UNIQUE WELL ID
~PARAMETER INFORMATION
#MNEM.UNIT           DATA             DESCRIPTION OF MNEMONIC
#---------         -----------     ------------------------------
GL  .M        732.13               : gl           - GROUND LEVEL ELEVATION
EREF.M        735.178              : kb           - ELEVATION OF DEPTH REFERENCE
DATM.M        735.178              : datum        - DATUM ELEVATION
TDD .M        515.722              : tdd          - TOTAL DEPTH DRILLER
RUN .         ONE                  : Run          - RUN NUMBER
ENG .         BILL                 : Engineer     - RECORDING ENGINEER
WIT .         JIM                  : Witness      - WITNESSED BY
MUD .         GEL                  : Mud_type     - MUD TYPE
MATR.         SANDSTONE            : Logunit      - NEUTRON MATRIX
TMAX.C        20                   : BHT          - MAXIMUM RECORDED TEMPERATURE
BHTD.M        515.722              : BHTDEP       - MAXIMUM RECORDED TEMPERATURE
MATR.         1                    : LOGUNIT      - NEUTRON MATRIX
RMT .C        25                   : MDTP         - TEMPERATURE OF MUD
NEUT.         1                    : NEUTRON      - NEUTRON TYPE
RESI.         0                    : RESIST       - RESISTIVITY TYPE
RMC .OHMM     0.25                 : RMC          - RESISTIVITY OF MUD CAKE
RMF .OHMM     0.25                 : RMF          - RESISTIVITY OF MUD FILTRATE
SUFT.C        15                   : SUFT         - SURFACE TEMPERATURE
~Curve Information Block
#MNEM UNIT       ERCB CURVE CODE    CURVE DESCRIPTION
#MNEM.UNIT         API CODE    Curve Description
#----------    ------------    --------------------
DEPT.M                     :   DEPTH
DPHI.V/V                   :   DPHI
DT  .us/m                  :   DT
GR  .API       00 310 00 00:   GR
ILD .Ohmm      00 120 00 00:   ILD
NPHI.V/V       00 330 00 00:   NPHI
RHOB.gm/c3                 :   RHOB
~A  Depth           DPHI          DT          GR         ILD        NPHI        RHOB
# ...
496.58              0.31     -999.25       50.56       22.44        0.29     -999.25
496.83              0.28     -999.25       52.36       22.43        0.29     -999.25
497.08              0.28     -999.25       51.63       22.76        0.28     -999.25
497.33              0.30     -999.25       48.78       23.14        0.28     -999.25
497.58              0.32     -999.25       46.24       23.52        0.30     -999.25
497.83              0.34     -999.25       45.56       23.82        0.30     -999.25
498.08              0.36     -999.25       46.35       23.70        0.29     -999.25
498.33              0.36     -999.25       48.35       22.63        0.29     -999.25
498.58              0.35     -999.25       52.37       20.04        0.28     -999.25
498.83              0.35     -999.25       55.73       18.07        0.27     -999.25
499.08              0.35     -999.25       60.90       16.14        0.26     -999.25
499.33              0.35     -999.25       69.26       14.10        0.25     -999.25
499.58              0.34     -999.25       76.56       13.39        0.26     -999.25
499.83              0.34     -999.25       79.54       12.96        0.27     -999.25
500.08              0.34     -999.25       78.26       12.72        0.28     -999.25
500.33              0.34     -999.25       77.97       12.53        0.28     -999.25
500.58              0.35     -999.25       79.26       12.36        0.28     -999.25
500.83              0.35     -999.25       75.19       12.46        0.28     -999.25
501.08              0.35     -999.25       64.12       13.08        0.27     -999.25
501.33              0.35     -999.25       60.48       13.94        0.27     -999.25
501.58              0.35     -999.25       56.87       14.70        0.27     -999.25
501.83              0.35     -999.25       58.23       15.28        0.27     -999.25
502.08              0.35     -999.25       62.61       15.71        0.27     -999.25
502.33              0.36     -999.25       59.65       15.90        0.28     -999.25
502.58              0.35     -999.25       56.65       15.68        0.27     -999.25
502.83              0.35     -999.25       53.36       15.21        0.27     -999.25
503.08              0.36     -999.25       51.93       14.72        0.28     -999.25
503.33              0.36     -999.25       51.48       13.60        0.27     -999.25
503.58              0.35     -999.25       50.49       11.93        0.28     -999.25
503.83              0.35     -999.25       55.48       10.90        0.29     -999.25
504.08              0.35     -999.25       73.31       10.08        0.30     -999.25
504.33              0.35     -999.25       76.01        9.31        0.30     -999.25
504.58              0.34     -999.25       71.14        8.64        0.30     -999.25
504.83              0.34     -999.25       70.97        7.92        0.31     -999.25
505.08              0.34     -999.25       73.21        7.08        0.32     -999.25
505.33              0.34     -999.25       83.52        6.36        0.34     -999.25
505.58              0.35     -999.25       99.99        5.49        0.39     -999.25
505.83              0.36     -999.25      103.40        5.12        0.44     -999.25
506.08              0.37     -999.25       98.27        5.20        0.45     -999.25
506.33              0.38     -999.25       93.66        5.27        0.45     -999.25
506.58              0.37     -999.25       87.63        5.45        0.44     -999.25
506.83              0.36     -999.25       94.15        5.99        0.36     -999.25
507.08              0.36     -999.25      104.79        6.51        0.25     -999.25
507.33              0.36     -999.25      107.45        7.50        0.21     -999.25
507.58              0.35     -999.25      111.28        8.56        0.21     -999.25
507.83              0.35     -999.25       97.05        8.79        0.23     -999.25
508.08              0.34     -999.25       30.24        8.52        0.24     -999.25
508.33              0.34     -999.25       14.76        8.12        0.25     -999.25
508.58              0.34     -999.25        7.96        7.80        0.26     -999.25
508.83              0.34     -999.25       -1.98        7.68        0.27     -999.25
509.08              0.34     -999.25        0.40        7.70        0.28     -999.25
509.33              0.34     -999.25       -0.00        7.85        0.27     -999.25
509.58              0.33     -999.25        0.00        8.63        0.25     -999.25
509.83              0.33     -999.25        0.00        9.27        0.22     -999.25
510.08              0.34     -999.25        0.32        9.85        0.19     -999.25
510.33           -999.25     -999.25        0.73       10.44        0.17     -999.25
510.58           -999.25     -999.25        0.66       10.91        0.17     -999.25
510.83           -999.25     -999.25        0.67       11.26        0.18     -999.25
511.08           -999.25     -999.25        0.61       11.30        0.18     -999.25
511.33           -999.25     -999.25        1.03       11.27        0.18     -999.25
511.58           -999.25     -999.25        1.34       11.28        0.18     -999.25
511.83           -999.25     -999.25        1.31       11.28        0.17     -999.25
