~VERSION INFORMATION
 VERS.                 2.0:   CWLS LOG ASCII STANDARD -VERSION 2.0
 WRAP.                  NO:   ONE LINE PER DEPTH STEP
~WELL INFORMATION BLOCK
#MNEM.UNIT           DATA                    DESCRIPTION OF MNEMONIC
#---------    -------------------            -------------------------------
# Generated from Intellog Unique Number	CS_73_76/WELL/3238
WELL.         10-20-075-18W4                 : Well_name    - WELL
LOC .         00/10-20-075-18W4/0            : Location     - LOCATION
UWI .         00/10-20-075-18W4/0            : Uwi          - UNIQUE WELL ID
ENTR.         SP                             : Entered      - ENTERED BY
SRVC.         SCHLUMBERGER                   : Scn          - SERVICE COMPANY
STRT.M        237.744                        : top_depth    - START DEPTH
STOP.M        441.744                        : bot_depth    - STOP DEPTH
STEP.M        0.25                           : increment    - STEP LENGTH
 NULL. -999.2500:NULL Value
~CURVE INFORMATION BLOCK
#MNEM UNIT       ERCB CURVE CODE    CURVE DESCRIPTION
#-----------   ------------------   ----------------------------------
DEPT.M        00 001 00 00         : DEPTH        - DEPTH
GR  .API      00 310 00 00         : GR           - GAMMA RAY
DPHI.V/V      00 890 00 00         : PHID         - DENSITY POROSITY (SANDSTONE)
NPHI.V/V      00 330 00 00         : PHIN         - NEUTRON POROSITY (SANDSTONE)
ILD .OHMM     00 120 00 00         : RESD         - DEEP RESISTIVITY (DIL)
~PARAMETER INFORMATION
#MNEM.UNIT           DATA             DESCRIPTION OF MNEMONIC
#---------         -----------     ------------------------------
GL  .M        580.644              : gl           - GROUND LEVEL ELEVATION
EREF.M        583.692              : kb           - ELEVATION OF DEPTH REFERENCE
DATM.M        580.644              : datum        - DATUM ELEVATION
TDD .M        448.056              : tdd          - TOTAL DEPTH DRILLER
RUN .         ONE                  : Run          - RUN NUMBER
ENG .         BILL                 : Engineer     - RECORDING ENGINEER
WIT .         JIM                  : Witness      - WITNESSED BY
MUD .         GEL                  : Mud_type     - MUD TYPE
MATR.         SANDSTONE            : Logunit      - NEUTRON MATRIX
TMAX.C        10.5556              : BHT          - MAXIMUM RECORDED TEMPERATURE
BHTD.M        448.056              : BHTDEP       - MAXIMUM RECORDED TEMPERATURE
MATR.         1                    : LOGUNIT      - NEUTRON MATRIX
RMT .C        25                   : MDTP         - TEMPERATURE OF MUD
NEUT.         1                    : NEUTRON      - NEUTRON TYPE
RESI.         0                    : RESIST       - RESISTIVITY TYPE
RMC .OHMM     0.25                 : RMC          - RESISTIVITY OF MUD CAKE
RMF .OHMM     0.25                 : RMF          - RESISTIVITY OF MUD FILTRATE
SUFT.C        15                   : SUFT         - SURFACE TEMPERATURE
~A  DEPTH       GR     PHID     PHIN     RESD
# ...
  324.744   50.550    0.305    0.467    9.318
  324.994   52.102    0.311    0.457    9.318
  325.244   54.398    0.318    0.450    9.320
  325.494   58.230    0.308    0.441    9.316
  325.744   61.633    0.302    0.447    9.255
  325.994   66.333    0.304    0.445    9.155
  326.244   71.765    0.305    0.442    9.154
  326.494   77.393    0.305    0.456    9.156
  326.744   80.975    0.308    0.463    9.157
  326.994   82.013    0.297    0.478    9.157
  327.244   78.094    0.283    0.492    9.154
  327.494   71.617    0.288    0.500    9.176
  327.744   77.014    0.294    0.500    8.718
  327.994   85.055    0.294    0.494    7.556
  328.244   90.882    0.277    0.489    7.285
  328.494   94.334    0.264    0.494    7.225
  328.744   73.035    0.251    0.476    8.308
  328.994   58.665    0.274    0.450    9.891
  329.244   52.874    0.286    0.428   10.820
  329.494   54.261    0.272    0.420   12.072
  329.744   57.810    0.226    0.372   13.033
  329.994   66.157    0.181    0.318   10.661
  330.244   73.530    0.126    0.353    8.768
  330.494   80.737    0.187    0.481    7.509
  330.744   86.749    0.217    0.486    7.054
  330.994   85.922    0.224    0.479    6.522
  331.244   84.757    0.235    0.469    6.255
  331.494   85.979    0.235    0.462    6.003
  331.744   87.008    0.213    0.464    5.724
  331.994   87.219    0.181    0.466    5.561
  332.244   87.577    0.177    0.462    5.398
  332.494   89.638    0.195    0.464    5.170
  332.744   90.750    0.206    0.468    4.995
  332.994   91.109    0.193    0.462    4.846
  333.244   92.472    0.196    0.461    4.749
  333.494   93.649    0.203    0.458    4.746
  333.744   94.121    0.205    0.479    4.925
  333.994   93.269    0.225    0.493    5.057
  334.244   90.829    0.237    0.503    5.550
  334.494   88.579    0.232    0.503    5.885
  334.744   84.506    0.227    0.504    6.198
  334.994   81.272    0.243    0.480    6.514
  335.244   81.444    0.221    0.482    6.698
  335.494   84.679    0.190    0.484    6.828
  335.744   86.985    0.195    0.473    6.740
  335.994   89.108    0.200    0.477    6.176
  336.244   88.016    0.205    0.504    5.053
  336.494   89.248    0.190    0.501    3.916
  336.744   90.189    0.193    0.496    3.333
  336.994   92.011    0.207    0.534    2.926
  337.244   95.608    0.215    0.570    2.672
  337.494   96.419    0.225    0.592    2.525
  337.744   96.321    0.237    0.554    2.633
  337.994   97.297    0.243    0.497    2.933
  338.244   97.671    0.228    0.504    3.210
  338.494   95.655    0.221    0.517    3.438
  338.744   91.270    0.229    0.529    3.704
  338.994   86.179    0.205    0.526    3.953
  339.244   86.296    0.233    0.530    4.120
  339.494   89.015    0.251    0.536    4.200
  339.744   89.346    0.227    0.538    4.332
  339.994   84.854    0.223    0.516    4.673
  340.244   79.621    0.239    0.508    5.078
  340.494   74.067    0.231    0.520    5.368
  340.744   70.172    0.231    0.528    5.787
  340.994   65.114    0.304    0.526    6.426
  341.244   62.361    0.323    0.497    6.661
  341.494   58.779    0.326    0.485    7.330
  341.744   57.350    0.307    0.469    7.642
  341.994   55.308    0.288    0.456    7.970
  342.244   53.296    0.274    0.465    8.149
  342.494   52.156    0.291    0.472    7.751
  342.744   51.769    0.318    0.484    7.684
  342.994   52.134    0.332    0.494    7.447
  343.244   52.382    0.325    0.488    7.408
  343.494   51.796    0.320    0.478    7.419
  343.744   52.838    0.316    0.469    7.331
  343.994   55.309    0.325    0.473    7.404
  344.244   53.980    0.333    0.479    7.513
  344.494   55.642    0.335    0.490    7.690
  344.744   56.538    0.325    0.496    7.846
  344.994   56.622    0.312    0.492    7.968
  345.244   55.068    0.302    0.491    8.142
  345.494   53.539    0.305    0.487    8.125
  345.744   53.974    0.322    0.488    8.024
  345.994   55.990    0.334    0.484    7.945
  346.244   55.907    0.326    0.471    7.840
  346.494   55.641    0.322    0.465    7.681
  346.744   54.709    0.309    0.459    7.695
  346.994   54.205    0.297    0.454    7.696
  347.244   54.158    0.306    0.468    7.684
  347.494   54.183    0.313    0.479    7.850
  347.744   54.690    0.305    0.480    7.838
  347.994   55.376    0.307    0.473    7.828
  348.244   55.307    0.314    0.466    7.990
  348.494   55.619    0.306    0.461    8.095
  348.744   57.336    0.303    0.476    8.177
  348.994   58.266    0.306    0.486    8.288
  349.244   57.911    0.316    0.475    8.196
  349.494   57.807    0.318    0.466    8.144
  349.744   58.761    0.314    0.462    8.140
  349.994   60.182    0.301    0.460    8.142
  350.244   60.147    0.302    0.464    8.144
  350.494   60.637    0.291    0.464    8.130
  350.744   61.549    0.285    0.450    8.307
  350.994   62.534    0.274    0.438    8.288
  351.244   63.639    0.264    0.451    8.037
  351.494   64.449    0.274    0.470    7.804
  351.744   65.409    0.280    0.485    7.573
  351.994   65.432    0.301    0.466    7.576
  352.244   64.492    0.291    0.456    7.569
  352.494   63.004    0.293    0.463    7.704
  352.744   65.162    0.311    0.469    7.937
  352.994   68.879    0.323    0.471    8.163
  353.244   72.840    0.314    0.480    8.152
  353.494   74.705    0.278    0.474    8.156
  353.744   74.978    0.269    0.468    8.162
  353.994   75.465    0.235    0.471    8.567
  354.244   75.793    0.224    0.474    8.672
  354.494   74.367    0.224    0.479    8.776
  354.744   77.044    0.234    0.470    8.691
  354.994   78.124    0.239    0.464    8.233
  355.244   78.476    0.230    0.459    8.163
  355.494   79.461    0.229    0.458    8.020
  355.744   80.461    0.233    0.466    7.878
  355.994   80.379    0.221    0.459    8.157
  356.244   78.738    0.211    0.456    8.210
  356.494   77.949    0.197    0.460    8.643
  356.744   80.578    0.191    0.449    8.745
  356.994   82.897    0.207    0.443    8.956
  357.244   84.519    0.208    0.438    8.937
  357.494   85.663    0.204    0.439    8.795
  357.744   85.439    0.197    0.453    8.622
  357.994   84.403    0.216    0.465    8.471
  358.244   84.460    0.236    0.457    8.224
  358.494   87.413    0.234    0.447    7.983
  358.744   91.993    0.224    0.442    7.742
  358.994   96.226    0.201    0.434    7.741
  359.244  100.230    0.182    0.444    7.739
  359.494  101.243    0.190    0.462    7.742
  359.744   96.239    0.188    0.446    7.798
  359.994   91.086    0.192    0.437    8.037
  360.244   85.594    0.200    0.449    8.030
  360.494   81.991    0.197    0.450    8.041
  360.744   80.808    0.191    0.441    7.876
  360.994   81.367    0.199    0.454    7.749
  361.244   81.112    0.193    0.463    7.548
  361.494   82.591    0.199    0.472    7.468
  361.744   85.205    0.200    0.474    7.294
  361.994   87.094    0.215    0.463    7.197
  362.244   89.042    0.216    0.453    6.733
  362.494   91.087    0.210    0.470    6.448
  362.744   91.503    0.207    0.478    6.300
  362.994   91.616    0.202    0.479    6.009
  363.244   89.844    0.199    0.480    5.955
  363.494   88.079    0.202    0.480    5.896
  363.744   91.190    0.207    0.478    5.898
  363.994   94.358    0.214    0.484    5.938
  364.244   94.492    0.211    0.485    6.007
  364.494   93.576    0.212    0.472    6.207
  364.744   92.003    0.204    0.466    6.260
  364.994   92.119    0.196    0.465    6.347
  365.244   92.159    0.196    0.474    6.347
  365.494   91.308    0.201    0.477    6.343
  365.744   89.138    0.199    0.485    6.446
  365.994   91.944    0.204    0.491    6.598
  366.244   94.079    0.215    0.495    6.602
  366.494   93.061    0.217    0.496    6.703
  366.744   90.068    0.207    0.486    6.850
  366.994   86.776    0.213    0.461    6.841
  367.244   89.215    0.220    0.463    6.954
  367.494   90.966    0.228    0.463    7.102
  367.744   90.915    0.231    0.457    7.091
  367.994   88.374    0.226    0.452    6.952
