~VERSION INFORMATION
 VERS.                 2.0:   CWLS LOG ASCII STANDARD -VERSION 2.0
 WRAP.                  NO:   ONE LINE PER DEPTH STEP
~WELL INFORMATION BLOCK
#MNEM.UNIT           DATA                    DESCRIPTION OF MNEMONIC
#---------    -------------------            -------------------------------
# Generated from Intellog Unique Number	CX_WELLS/WELL/3051
WELL.         MLC ET AL MCADAMS              : Well_name    - WELL
LOC .         00/10-16-082-14W4/0            : Location     - LOCATION
UWI .         00/10-16-082-14W400            : Uwi          - UNIQUE WELL ID
ENTR.         TIM                            : Entered      - ENTERED BY
SRVC.         SCHLUMBERGER                   : Scn          - SERVICE COMPANY
STRT.M        135                            : top_depth    - START DEPTH
STOP.M        350                            : bot_depth    - STOP DEPTH
STEP.M        0.25                           : increment    - STEP LENGTH
 NULL. -999.2500:NULL Value
~CURVE INFORMATION BLOCK
#MNEM UNIT       ERCB CURVE CODE    CURVE DESCRIPTION
#-----------   ------------------   ----------------------------------
DEPT.M        00 001 00 00         : DEPTH        - DEPTH
GR  .API      00 310 00 00         : GR           - GAMMA RAY
NPHI.V/V      00 330 00 00         : PHIN         - NEUTRON POROSITY (SANDSTONE)
DPHI.V/V      00 890 00 00         : PHID         - DENSITY POROSITY (SANDSTONE)
ILD .OHMM     00 120 00 00         : RESD         - DEEP RESISTIVITY (OTHER)
~PARAMETER INFORMATION
#MNEM.UNIT           DATA             DESCRIPTION OF MNEMONIC
#---------         -----------     ------------------------------
GL  .M        581                  : gl           - GROUND LEVEL ELEVATION
EREF.M        584.4                : kb           - ELEVATION OF DEPTH REFERENCE
DATM.M        584.4                : datum        - DATUM ELEVATION
TDD .M        254                  : tdd          - TOTAL DEPTH DRILLER
RUN .         ONE                  : Run          - RUN NUMBER
ENG .         BILL                 : Engineer     - RECORDING ENGINEER
WIT .         JIM                  : Witness      - WITNESSED BY
MUD .         GEL                  : Mud_type     - MUD TYPE
MATR.         SANDSTONE            : Logunit      - NEUTRON MATRIX
TMAX.C        25                   : BHT          - MAXIMUM RECORDED TEMPERATURE
BHTD.M        254                  : BHTDEP       - MAXIMUM RECORDED TEMPERATURE
MATR.         1                    : LOGUNIT      - NEUTRON MATRIX
RMT .C        21                   : MDTP         - TEMPERATURE OF MUD
NEUT.         1                    : NEUTRON      - NEUTRON TYPE
RESI.         4                    : RESIST       - RESISTIVITY TYPE
RMC .OHMM     3.2                  : RMC          - RESISTIVITY OF MUD CAKE
RMF .OHMM     5                    : RMF          - RESISTIVITY OF MUD FILTRATE
SUFT.C        2                    : SUFT         - SURFACE TEMPERATURE
~A  DEPTH       GR     PHIN     PHID     RESD
# ...
  222.000   68.950    0.424    0.326   14.389
  222.250   68.937    0.426    0.326   14.659
  222.500   68.305    0.429    0.328   14.936
  222.750   67.670    0.430    0.328   15.216
  223.000   67.047    0.436    0.326   15.504
  223.250   66.419    0.440    0.325   16.405
  223.500   66.406    0.440    0.320   17.035
  223.750   66.391    0.402    0.315   18.032
  224.000   64.529    0.328    0.182   19.083
  224.250   60.821    0.272    0.134   21.381
  224.500   54.643    0.236    0.062   24.416
  224.750   57.097    0.188    0.024   23.944
  225.000   65.716    0.198    0.052   21.356
  225.250   77.417    0.223    0.079   18.688
  225.500   87.268    0.276    0.144   15.447
  225.750   89.719    0.383    0.226   12.291
  226.000   89.090    0.422    0.244    9.596
  226.250   85.995    0.453    0.261    8.084
  226.500   79.818    0.448    0.277    7.073
  226.750   70.558    0.440    0.280    7.070
  227.000   64.997    0.406    0.255    7.921
  227.250   68.683    0.388    0.235    8.545
  227.500   72.987    0.387    0.243    9.573
  227.750   75.437    0.411    0.253    9.569
  228.000   73.572    0.414    0.275    9.387
  228.250   71.713    0.382    0.285    8.862
  228.500   69.852    0.372    0.297    8.368
  228.750   67.987    0.371    0.297    8.689
  229.000   67.361    0.379    0.290    9.552
  229.250   67.965    0.405    0.286   10.110
  229.500   69.186    0.416    0.286   10.300
  229.750   72.872    0.426    0.292   10.296
  230.000   75.326    0.426    0.295    9.908
  230.250   75.307    0.426    0.294    9.717
  230.500   74.681    0.428    0.287    9.531
  230.750   74.053    0.433    0.282    9.348
  231.000   75.270    0.436    0.275    9.169
  231.250   77.724    0.442    0.264    9.166
  231.500   80.177    0.444    0.266    8.655
  231.750   80.165    0.452    0.292    8.329
  232.000   77.690    0.459    0.297    8.815
  232.250   74.595    0.467    0.306    9.875
  232.500   72.117    0.467    0.315   10.254
  232.750   68.396    0.458    0.325   10.447
  233.000   67.773    0.447    0.331   10.644
  233.250   67.144    0.435    0.335   11.051
  233.500   67.132    0.425    0.333   11.048
  233.750   67.117    0.416    0.335   11.045
  234.000   67.721    0.412    0.335   11.039
  234.250   67.711    0.410    0.336   11.036
  234.500   68.316    0.421    0.338   11.033
  234.750   68.920    0.431    0.340   11.026
  235.000   69.521    0.442    0.342   11.023
  235.250   70.119    0.437    0.346   11.020
  235.500   70.109    0.431    0.345   11.014
  235.750   70.100    0.431    0.341   10.803
  236.000   69.468    0.438    0.335   10.800
  236.250   68.842    0.446    0.335   10.592
  236.500   68.213    0.460    0.337   10.389
  236.750   68.201    0.467    0.340    9.810
  237.000   68.802    0.461    0.337    9.262
  237.250   69.403    0.456    0.334    8.913
  237.500   69.388    0.460    0.332    8.911
  237.750   69.381    0.455    0.329    9.078
  238.000   69.366    0.437    0.327    9.073
  238.250   69.354    0.439    0.326    8.900
  238.500   69.341    0.447    0.325    8.244
  238.750   69.326    0.470    0.326    7.934
  239.000   69.320    0.477    0.328    7.636
  239.250   69.921    0.482    0.334    7.210
  239.500   69.911    0.484    0.342    7.072
  239.750   69.276    0.475    0.346    6.935
  240.000   69.267    0.468    0.342    6.933
  240.250   68.638    0.460    0.339    7.063
  240.500   68.620    0.454    0.335    7.618
  240.750   68.610    0.451    0.326    8.218
  241.000   70.444    0.445    0.315    8.534
  241.250   71.668    0.443    0.305    8.694
  241.500   73.508    0.440    0.292    8.690
  241.750   76.575    0.445    0.275    8.688
  242.000   79.645    0.450    0.268    8.359
  242.250   82.099    0.448    0.270    8.045
  242.500   83.936    0.446    0.270    7.891
  242.750   85.157    0.449    0.266    7.594
  243.000   85.141    0.453    0.259    7.170
  243.250   85.132    0.456    0.255    6.770
  243.500   85.117    0.464    0.246    6.515
  243.750   85.107    0.472    0.240    5.921
  244.000   85.089    0.474    0.235    5.699
  244.250   85.073    0.470    0.235    5.484
  244.500   85.067    0.465    0.239    5.178
  244.750   85.058    0.461    0.264    4.983
  245.000   85.045    0.459    0.270    4.887
  245.250   84.413    0.456    0.282    4.886
  245.500   82.552    0.450    0.295    4.978
  245.750   78.840    0.448    0.295    5.684
  246.000   75.129    0.443    0.289    6.490
  246.250   76.346    0.441    0.292    7.273
  246.500   79.420    0.438    0.297    8.149
  246.750   83.723    0.441    0.303    9.129
  247.000   83.710    0.447    0.310    9.301
  247.250   81.842    0.444    0.316    9.297
  247.500   80.600    0.439    0.318    9.295
  247.750   78.119    0.438    0.316    9.115
  248.000   76.876    0.438    0.310    9.114
  248.250   75.014    0.441    0.301    8.939
  248.500   73.769    0.448    0.292    8.766
  248.750   72.521    0.446    0.284    8.436
  249.000   72.511    0.446    0.285    8.118
  249.250   71.266    0.442    0.289    7.962
  249.500   70.634    0.444    0.297    8.588
  249.750   71.238    0.447    0.304    9.089
  250.000   73.075    0.447    0.307    9.438
  250.250   74.909    0.448    0.312    9.435
  250.500   74.897    0.451    0.314    9.432
  250.750   74.888    0.447    0.315    9.076
  251.000   76.108    0.445    0.300    8.569
  251.250   76.709    0.443    0.290    8.090
  251.500   77.317    0.445    0.288    7.787
  251.750   78.537    0.450    0.283    7.494
  252.000   80.374    0.453    0.273    7.075
  252.250   81.595    0.457    0.270    6.939
  252.500   82.199    0.461    0.268    6.677
  252.750   81.567    0.461    0.267    6.676
  253.000   79.089    0.456    0.266    6.548
  253.250   78.457    0.448    0.264    6.422
  253.500   78.447    0.448    0.263    6.419
  253.750   79.045    0.451    0.262    6.540
  254.000   79.036    0.453    0.259    6.921
  254.250   77.788    0.458    0.262    7.325
  254.500   77.165    0.460    0.269    8.052
  254.750   75.300    0.461    0.273    8.522
  255.000   75.288    0.462    0.267    8.848
  255.250   80.207    0.462    0.260    8.847
  255.500   84.507    0.461    0.257    8.677
  255.750   84.498    0.446    0.252    8.193
  256.000   83.866    0.429    0.246    7.884
  256.250   84.470    0.423    0.240    7.733
  256.500   85.691    0.434    0.239    7.584
  256.750   86.295    0.441    0.237    7.581
  257.000   85.669    0.448    0.236    7.578
  257.250   85.654    0.454    0.235    7.576
  257.500   85.641    0.461    0.233    7.572
  257.750   85.626    0.467    0.229    7.569
  258.000   86.846    0.467    0.225    7.567
  258.250   86.837    0.460    0.224    7.565
  258.500   87.441    0.453    0.225    7.562
  258.750   88.039    0.446    0.229    7.559
  259.000   88.033    0.439    0.234    7.557
  259.250   88.017    0.434    0.235    7.553
  259.500   88.002    0.432    0.236    7.407
  259.750   87.996    0.427    0.234    7.405
  260.000   87.984    0.433    0.229    7.403
  260.250   88.585    0.435    0.228    7.261
  260.500   89.802    0.443    0.228    7.121
  260.750   90.406    0.445    0.228    6.984
  261.000   90.394    0.450    0.229    6.850
  261.250   89.762    0.466    0.229    6.719
  261.500   89.139    0.452    0.234    6.466
  261.750   88.507    0.440    0.242    6.222
  262.000   88.498    0.445    0.259    5.987
  262.250   88.483    0.468    0.269    5.985
  262.500   88.467    0.480    0.276    5.983
  262.750   87.835    0.471    0.280    6.332
  263.000   87.212    0.446    0.277    6.830
  263.250   86.577    0.434    0.275    7.367
  263.500   85.951    0.417    0.276    7.650
  263.750   85.942    0.412    0.279    7.943
  264.000   85.310    0.437    0.280    8.093
  264.250   84.681    0.443    0.283    8.091
  264.500   84.672    0.451    0.283    8.087
  264.750   80.958    0.430    0.283    8.239
  265.000   79.096    0.416    0.278    8.555
  265.250   79.083    0.409    0.147    8.716
