~VERSION INFORMATION
 VERS.                 2.0:   CWLS LOG ASCII STANDARD -VERSION 2.0
 WRAP.                  NO:   ONE LINE PER DEPTH STEP
~WELL INFORMATION BLOCK
#MNEM.UNIT           DATA                    DESCRIPTION OF MNEMONIC
#---------    -------------------            -------------------------------
# Generated from Intellog Unique Number	CW_73_75/WELL/1034
WELL.         SUNDANCE MCMORAN MARTEN H 11-0 : Well_name    - WELL
LOC .         00/11-04-074-24W4/0            : Location     - LOCATION
UWI .         00/11-04-074-24W4/0            : Uwi          - UNIQUE WELL ID
ENTR.         JAYE                           : Entered      - ENTERED BY
SRVC.         SCHLUMBERGER                   : Scn          - SERVICE COMPANY
DATE.         2 FEB 73                       : Date         - LOG DATE
STRT.M        381                            : top_depth    - START DEPTH
STOP.M        597.5                          : bot_depth    - STOP DEPTH
STEP.M        0.25                           : increment    - STEP LENGTH
 NULL. -999.2500:NULL Value
~CURVE INFORMATION BLOCK
#MNEM UNIT       ERCB CURVE CODE    CURVE DESCRIPTION
#-----------   ------------------   ----------------------------------
DEPT.M        00 001 00 00         : DEPTH        - DEPTH
ILD .OHMM     00 120 00 00         : RESD         - DEEP RESISTIVITY (DIL)
DPHI.V/V      00 890 00 00         : PHID         - DENSITY POROSITY (SANDSTONE)
NPHI.V/V      00 330 00 00         : PHIN         - NEUTRON POROSITY (SANDSTONE)
CALI.MM       00 280 01 00         : CAL          - CALIPER
GR  .API      00 310 00 00         : GR           - GAMMA RAY
~PARAMETER INFORMATION
#MNEM.UNIT           DATA             DESCRIPTION OF MNEMONIC
#---------         -----------     ------------------------------
GL  .M        642.214              : gl           - GROUND LEVEL ELEVATION
EREF.M        644.5                : kb           - ELEVATION OF DEPTH REFERENCE
DATM.M        642.214              : datum        - DATUM ELEVATION
TDD .M        600.456              : tdd          - TOTAL DEPTH DRILLER
RUN .         ONE                  : Run          - RUN NUMBER
ENG .         DESROCHES            : Engineer     - RECORDING ENGINEER
WIT .         GREEN                : Witness      - WITNESSED BY
BASE.         RD                   : Branch       - HOME BASE OF LOGGING UNIT
MUD .         GEL CHEM             : Mud_type     - MUD TYPE
MATR.         SANDSTONE            : Logunit      - NEUTRON MATRIX
TMAX.C        26.1111              : BHT          - MAXIMUM RECORDED TEMPERATURE
BHTD.M        600.456              : BHTDEP       - MAXIMUM RECORDED TEMPERATURE
RMT .C        26.1111              : MDTP         - TEMPERATURE OF MUD
MUDD.KG/M     1104                 : MWT          - MUD DENSITY
NEUT.         1                    : NEUTRON      - NEUTRON TYPE
RESI.         0                    : RESIST       - RESISTIVITY TYPE
RM  .OHMM     4.6                  : RM           - RESISTIVITY OF MUD
RMC .OHMM     0                    : RMC          - RESISTIVITY OF MUD CAKE
RMF .OHMM     5.47                 : RMF          - RESISTIVITY OF MUD FILTRATE
SUFT.C        -17.7778             : SUFT         - SURFACE TEMPERATURE
~A  DEPTH     RESD     PHID     PHIN      CAL       GR
  381.000    2.404    0.183    0.453  188.245  104.342
  381.250    2.338    0.198    0.461  178.986  102.915
  381.500    2.144    0.205    0.467  171.264   99.560
  381.750    1.966    0.220    0.472  170.598   96.508
  382.000    1.881    0.213    0.472  173.398   94.362
  382.250    1.908    0.209    0.468  177.534   89.920
  382.500    2.181    0.223    0.464  186.274   84.998
  382.750    2.738    0.245    0.471  182.021   85.390
  383.000    3.745    0.289    0.476  175.426   73.035
  383.250    5.690    0.276    0.480  168.720   64.005
  383.500    6.327    0.277    0.478  158.949   59.685
  383.750    6.430    0.296    0.470  152.049   59.834
  384.000    5.886    0.305    0.469  148.003   61.852
  384.250    5.290    0.274    0.475  146.012   64.234
  384.500    4.959    0.257    0.481  145.232   65.468
  384.750    4.607    0.233    0.486  147.422   62.720
  385.000    4.390    0.266    0.488  152.686   62.565
  385.250    4.146    0.279    0.481  157.739   64.524
  385.500    4.047    0.288    0.474  160.338   68.295
  385.750    4.016    0.292    0.457  160.390   74.118
  386.000    4.008    0.270    0.457  159.007   79.759
  386.250    3.941    0.220    0.461  157.617   80.088
  386.500    3.721    0.264    0.472  157.154   79.572
  386.750    3.495    0.254    0.479  155.146   86.726
  387.000    3.247    0.239    0.489  153.259   91.885
  387.250    2.978    0.192    0.493  157.797   99.700
  387.500    2.890    0.193    0.475  162.852  108.843
  387.750    3.167    0.208    0.470  167.292  113.522
  388.000    3.762    0.192    0.474  168.058  113.245
  388.250    4.705    0.195    0.479  165.856  108.381
  388.500    5.960    0.214    0.481  161.714   79.727
  388.750    6.483    0.268    0.467  158.682   72.932
  389.000    6.386    0.288    0.455  155.971   62.755
  389.250    6.245    0.294    0.448  155.196   55.475
  389.500    5.930    0.283    0.453  155.138   59.488
  389.750    5.509    0.268    0.461  154.877   67.182
  390.000    5.136    0.251    0.465  154.629   74.877
  390.250    4.788    0.258    0.453  154.265   72.429
  390.500    4.589    0.247    0.453  153.596   71.977
  390.750    4.455    0.255    0.446  153.129   74.416
  391.000    4.199    0.231    0.440  152.553   76.797
  391.250    3.973    0.217    0.460  152.497   73.744
  391.500    3.718    0.243    0.464  152.347   69.969
  391.750    3.311    0.274    0.460  152.384   63.111
  392.000    3.346    0.246    0.465  152.537   65.252
  392.250    3.535    0.279    0.455  152.371   66.003
  392.500    3.720    0.308    0.459  151.599   58.483
  392.750    3.879    0.295    0.445  152.157   54.949
  393.000    4.089    0.255    0.419  152.813   54.068
  393.250    4.179    0.225    0.396  154.501   57.841
  393.500    4.240    0.205    0.382  155.461   65.417
  393.750    4.293    0.194    0.406  154.386   71.720
  394.000    4.355    0.233    0.442  147.680   69.392
  394.250    4.394    0.241    0.460  145.273   63.867
  394.500    4.384    0.201    0.431  146.033   62.745
  394.750    4.319    0.190    0.441  150.178   66.878
  395.000    4.286    0.230    0.452  154.202   72.281
  395.250    4.207    0.239    0.451  157.218   75.989
  395.500    4.129    0.213    0.447  157.769   81.571
  395.750    4.090    0.213    0.459  157.102   89.265
  396.000    4.111    0.225    0.452  157.047   92.855
  396.250    4.201    0.223    0.458  158.019   92.464
  396.500    4.349    0.200    0.464  161.636   91.159
  396.750    4.452    0.241    0.471  165.564   82.612
  397.000    4.508    0.246    0.470  158.765   73.762
  397.250    4.540    0.258    0.463  157.171   72.102
  397.500    4.581    0.273    0.463  157.010   72.548
  397.750    4.621    0.264    0.452  157.368   74.750
  398.000    4.671    0.216    0.442  158.228   78.217
  398.250    4.747    0.200    0.429  161.149   85.791
  398.500    4.923    0.188    0.446  163.537   95.665
  398.750    5.200    0.179    0.457  166.852   98.042
  399.000    5.584    0.176    0.447  160.969   90.703
  399.250    6.585    0.200    0.452  156.825   81.793
  399.500    7.390    0.234    0.432  154.720   73.186
  399.750    8.571    0.244    0.417  153.850   58.243
  400.000   10.817    0.223    0.401  153.991   55.429
  400.250   12.206    0.227    0.394  156.902   53.706
  400.500   12.474    0.227    0.407  162.774   58.441
  400.750   11.976    0.244    0.435  163.535   58.832
  401.000   11.541    0.254    0.422  161.743   57.649
  401.250   10.919    0.254    0.414  160.052   59.309
  401.500   10.541    0.254    0.437  158.670   62.232
  401.750   10.346    0.251    0.458  156.671   73.127
  402.000   10.230    0.248    0.459  154.671   76.537
  402.250   10.096    0.271    0.462  153.790   73.367
  402.500    9.837    0.283    0.453  152.717   68.742
  402.750    9.514    0.288    0.439  152.757   66.835
  403.000    8.919    0.283    0.431  155.975   68.552
  403.250    8.120    0.270    0.437  158.983   72.204
  403.500    6.983    0.242    0.428  158.934   76.879
  403.750    6.117    0.215    0.431  158.360   84.695
  404.000    5.651    0.240    0.437  158.097   88.768
  404.250    5.415    0.241    0.455  157.737   87.709
  404.500    5.276    0.209    0.455  155.121   90.995
  404.750    5.284    0.203    0.457  150.979   89.996
  405.000    5.018    0.231    0.453  153.273   86.040
  405.250    4.420    0.250    0.454  156.282   83.891
  405.500    3.885    0.272    0.459  157.148   85.911
  405.750    3.435    0.266    0.463  154.533   92.520
  406.000    3.020    0.229    0.461  156.634  101.302
  406.250    2.669    0.200    0.460  158.919  109.237
  406.500    2.503    0.170    0.461  162.342  108.604
  406.750    2.452    0.114    0.466  165.861  109.534
  407.000    2.469    0.143    0.466  167.542  112.581
  407.250    2.532    0.147    0.465  167.997  116.893
  407.500    2.546    0.122    0.458  170.905  117.405
  407.750    2.597    0.136    0.458  174.225  120.450
  408.000    2.683    0.160    0.463  178.357  123.677
  408.250    2.823    0.159    0.472  181.164  124.429
  408.500    2.999    0.181    0.473  179.378  125.725
  408.750    3.262    0.197    0.467  177.681  126.778
  409.000    3.641    0.199    0.462  174.758  126.501
  409.250    3.960    0.206    0.467  171.126  117.593
  409.500    4.091    0.192    0.472  170.865  113.031
  409.750    4.151    0.197    0.474  169.680  113.000
  410.000    4.218    0.167    0.464  169.936  115.563
  410.250    4.264    0.177    0.461  170.693  115.346
  410.500    4.262    0.180    0.463  170.739  109.456
  410.750    4.122    0.174    0.469  167.613  102.297
  411.000    4.091    0.235    0.474  161.734   90.189
  411.250    4.089    0.227    0.478  156.669   80.916
  411.500    4.126    0.198    0.479  153.847   75.146
  411.750    4.147    0.194    0.471  151.951   78.435
  412.000    4.169    0.234    0.464  153.017   84.562
  412.250    4.222    0.309    0.466  157.363   83.863
  412.500    4.136    0.291    0.471  158.323   78.636
  412.750    4.112    0.259    0.480  157.048   78.241
  413.000    4.058    0.263    0.477  156.065   75.551
  413.250    4.034    0.283    0.458  155.098   67.124
  413.500    4.040    0.297    0.465  154.930   59.123
  413.750    4.054    0.296    0.469  155.295   61.565
  414.000    4.090    0.251    0.467  155.435   65.575
  414.250    4.119    0.265    0.455  155.576   70.314
  414.500    4.178    0.273    0.452  155.929   69.799
  414.750    4.208    0.271    0.462  155.976   71.814
  415.000    4.269    0.296    0.469  155.509   73.111
  415.250    4.259    0.300    0.477  154.634   73.559
  415.500    4.204    0.311    0.484  154.989   75.158
  415.750    4.164    0.294    0.479  154.827   78.146
  416.000    4.170    0.305    0.471  154.261   78.835
  416.250    4.231    0.291    0.476  151.647   78.680
  416.500    4.284    0.289    0.473  143.007   80.396
  416.750    4.378    0.192    0.469  135.992   86.464
  417.000    4.400    0.100    0.477  134.914   88.422
  417.250    4.383    0.104    0.375  143.550   88.509
