~VERSION INFORMATION
 VERS.                 2.0:   CWLS LOG ASCII STANDARD -VERSION 2.0
 WRAP.                  NO:   ONE LINE PER DEPTH STEP
~WELL INFORMATION BLOCK
#MNEM.UNIT           DATA                    DESCRIPTION OF MNEMONIC
#---------    -------------------            -------------------------------
# Generated from Intellog Unique Number	CX_WELLS/WELL/3688
WELL.         HANGINGSTONE 11A-1             : Well_name    - WELL
LOC .         00/11-01-085-11W4/0            : Location     - LOCATION
UWI .         00/11-01-085-11W400            : Uwi          - UNIQUE WELL ID
ENTR.         T                              : Entered      - ENTERED BY
SRVC.         SCHLUMBERGER                   : Scn          - SERVICE COMPANY
STRT.M        100                            : top_depth    - START DEPTH
STOP.M        310                            : bot_depth    - STOP DEPTH
STEP.M        0.25                           : increment    - STEP LENGTH
 NULL. -999.2500:NULL Value
~CURVE INFORMATION BLOCK
#MNEM UNIT       ERCB CURVE CODE    CURVE DESCRIPTION
#-----------   ------------------   ----------------------------------
DEPT.M        00 001 00 00         : DEPTH        - DEPTH
GR  .API      00 310 00 00         : GR           - GAMMA RAY
NPHI.V/V      00 330 00 00         : PHIN         - NEUTRON POROSITY (SANDSTONE)
DPHI.V/V      00 890 00 00         : PHID         - DENSITY POROSITY (SANDSTONE)
ILD .OHMM     00 120 00 00         : RESD         - DEEP RESISTIVITY (OTHER)
~PARAMETER INFORMATION
#MNEM.UNIT           DATA             DESCRIPTION OF MNEMONIC
#---------         -----------     ------------------------------
GL  .M        554                  : gl           - GROUND LEVEL ELEVATION
EREF.M        556.6                : kb           - ELEVATION OF DEPTH REFERENCE
DATM.M        556.6                : datum        - DATUM ELEVATION
TDD .M        320                  : tdd          - TOTAL DEPTH DRILLER
RUN .         ONE                  : Run          - RUN NUMBER
ENG .         BILL                 : Engineer     - RECORDING ENGINEER
WIT .         JIM                  : Witness      - WITNESSED BY
MUD .         GEL                  : Mud_type     - MUD TYPE
MATR.         SANDSTONE            : Logunit      - NEUTRON MATRIX
TMAX.C        27                   : BHT          - MAXIMUM RECORDED TEMPERATURE
BHTD.M        320                  : BHTDEP       - MAXIMUM RECORDED TEMPERATURE
MATR.         1                    : LOGUNIT      - NEUTRON MATRIX
RMT .C        25                   : MDTP         - TEMPERATURE OF MUD
NEUT.         1                    : NEUTRON      - NEUTRON TYPE
RESI.         4.24                 : RESIST       - RESISTIVITY TYPE
RMC .OHMM     3.22                 : RMC          - RESISTIVITY OF MUD CAKE
RMF .OHMM     4.54                 : RMF          - RESISTIVITY OF MUD FILTRATE
SUFT.C        4                    : SUFT         - SURFACE TEMPERATURE
~A  DEPTH       GR     PHIN     PHID     RESD
# ...
  274.000   56.905    0.371    0.280   76.686
  274.250   55.691    0.381    0.288   76.837
  274.500   56.372    0.390    0.298   76.887
  274.750   58.329    0.402    0.305   75.538
  275.000   58.353    0.402    0.308   75.661
  275.250   58.415    0.397    0.310   75.710
  275.500   58.453    0.391    0.310   75.834
  275.750   59.133    0.381    0.311   77.415
  276.000   60.459    0.383    0.312   79.030
  276.250   59.245    0.392    0.315   79.133
  276.500   57.387    0.406    0.314   80.757
  276.750   54.291    0.406    0.316   82.468
  277.000   51.802    0.399    0.317   82.549
  277.250   49.969    0.389    0.317   81.100
  277.500   48.124    0.389    0.316   76.605
  277.750   46.911    0.387    0.314   64.454
  278.000   51.369    0.375    0.305   49.234
  278.250   64.681    0.361    0.295   32.208
  278.500   80.532    0.358    0.251   21.076
  278.750   91.950    0.372    0.231   17.394
  279.000  100.854    0.389    0.218   15.212
  279.250   98.377    0.399    0.210   14.659
  279.500   92.111    0.395    0.217   14.392
  279.750   94.686    0.370    0.221   14.411
  280.000   97.906    0.364    0.222   14.434
  280.250  101.101    0.367    0.227   14.449
  280.500  106.215    0.375    0.231   14.755
  280.750  103.095    0.383    0.234   14.769
  281.000   98.092    0.391    0.237   14.510
  281.250   91.826    0.392    0.240   14.246
  281.500   87.466    0.397    0.240   14.001
  281.750   87.516    0.398    0.236   13.742
  282.000   91.367    0.396    0.231   13.496
  282.250   93.931    0.396    0.225   13.255
  282.500   99.020    0.400    0.220   13.281
  282.750  104.122    0.402    0.216   13.294
  283.000  104.184    0.396    0.221   13.311
  283.250  102.327    0.387    0.223   13.589
  283.500   98.587    0.393    0.228   13.607
  283.750   94.228    0.396    0.237   13.620
  284.000   91.751    0.403    0.241   14.175
  284.250   90.525    0.418    0.249   15.335
  284.500   84.890    0.425    0.255   17.936
  284.750   78.624    0.419    0.266   20.161
  285.000   76.147    0.406    0.273   23.565
  285.250   76.209    0.401    0.278   26.506
  285.500   76.246    0.399    0.281   28.117
  285.750   78.203    0.401    0.269   28.722
  286.000   79.503    0.397    0.265   28.741
  286.250   82.711    0.401    0.260   26.637
  286.500   85.918    0.402    0.254   24.221
  286.750   88.494    0.401    0.248   21.611
  287.000   90.438    0.403    0.240   20.413
  287.250   91.763    0.405    0.235   19.658
  287.500   92.444    0.408    0.229   19.307
  287.750   93.757    0.413    0.225   20.101
  288.000   95.713    0.416    0.248   20.513
  288.250   95.119    0.417    0.274   21.759
  288.500   74.314    0.425    0.299   23.540
  288.750   64.890    0.432    0.318   25.466
  289.000   54.203    0.442    0.309   30.355
  289.250   46.030    0.427    0.286   35.479
  289.500   42.290    0.409    0.275   44.803
  289.750   40.445    0.418    0.312   55.493
  290.000   44.296    0.420    0.334   75.735
  290.250   48.135    0.418    0.333   90.247
  290.500   52.605    0.413    0.329  103.461
  290.750   53.931    0.412    0.329  118.610
  291.000   55.875    0.410    0.329  138.677
  291.250   54.661    0.405    0.329  153.002
  291.500   50.921    0.406    0.329  162.298
  291.750   47.800    0.411    0.326  172.271
  292.000   45.324    0.418    0.325  186.366
  292.250   44.110    0.423    0.326  205.483
  292.500   43.528    0.415    0.327  240.169
  292.750   42.327    0.412    0.329  270.151
  293.000   41.745    0.403    0.334  281.168
  293.250   41.794    0.405    0.339  265.757
  293.500   44.370    0.407    0.342  260.838
  293.750   45.051    0.406    0.341  246.541
  294.000   45.088    0.401    0.339  237.422
  294.250   45.150    0.400    0.339  224.482
  294.500   46.463    0.398    0.337  220.327
  294.750   47.775    0.401    0.338  212.246
  295.000   48.444    0.403    0.338  216.743
  295.250   50.388    0.404    0.340  225.583
  295.500   54.883    0.408    0.339  225.804
  295.750   58.710    0.410    0.339  221.769
  296.000   61.298    0.408    0.338  213.636
  296.250   59.441    0.397    0.334  194.267
  296.500   55.081    0.402    0.333  176.596
  296.750   51.973    0.407    0.329  180.338
  297.000   49.509    0.411    0.325  184.039
  297.250   47.639    0.406    0.322  195.220
  297.500   46.425    0.402    0.320  219.662
  297.750   49.013    0.399    0.322  233.008
  298.000   50.313    0.403    0.323  267.300
  298.250   51.007    0.405    0.325  283.448
  298.500   51.056    0.409    0.324  283.911
  298.750   49.855    0.414    0.324  268.349
  299.000   49.261    0.417    0.327  263.382
  299.250   48.035    0.420    0.328  279.658
  299.500   45.570    0.407    0.330  285.304
  299.750   44.344    0.398    0.333  297.036
  300.000   41.248    0.401    0.327  303.132
  300.250   39.403    0.406    0.325  303.627
  300.500   37.558    0.410    0.321  309.857
  300.750   39.502    0.413    0.320  304.520
  301.000   42.078    0.415    0.320  298.884
  301.250   44.022    0.408    0.321  287.922
  301.500   47.230    0.404    0.322  272.140
  301.750   51.068    0.402    0.324  247.306
  302.000   49.855    0.400    0.327  220.506
  302.250   48.010    0.401    0.329  208.488
  302.500   45.533    0.403    0.329  200.710
  302.750   43.675    0.407    0.324  186.016
  303.000   41.199    0.406    0.321  172.453
  303.250   41.892    0.394    0.322  156.766
  303.500   41.929    0.400    0.328  142.460
  303.750   41.359    0.407    0.332  122.204
  304.000   40.146    0.416    0.336  100.852
  304.250   39.564    0.427    0.338   74.090
  304.500   41.508    0.436    0.335   50.395
  304.750   42.821    0.432    0.323   37.758
  305.000   39.712    0.420    0.079   29.405
  305.250   35.328    0.328    0.048   28.889
  305.500   31.601    0.205    0.031   30.654
  305.750   29.743    0.135    0.017   34.469
  306.000   28.530    0.133    0.024   39.503
  306.250   27.328    0.133    0.031   48.929
  306.500   27.366    0.136    0.033   65.498
  306.750   26.784    0.142    0.035   72.240
  307.000   26.833    0.144    0.035   72.358
  307.250   26.895    0.147    0.033   71.042
  307.500   26.932    0.149    0.033   69.773
  307.750   27.613    0.150    0.036   67.236
  308.000   27.663    0.150    0.037   66.034
  308.250   27.712    0.149    0.034   66.099
  308.500   27.774    0.147    0.032   68.817
  308.750   27.823    0.145    0.029   71.624
  309.000   28.505    0.143    0.025   73.094
  309.250   28.554    0.143    0.025   74.667
  309.500   29.235    0.146    0.026   74.715
  309.750   29.285    0.148    0.029   72.022
  310.000   28.703    0.150    0.031   72.069
