~VERSION INFORMATION
 VERS.                 2.0:   CWLS LOG ASCII STANDARD -VERSION 2.0
 WRAP.                  NO:   ONE LINE PER DEPTH STEP
~WELL INFORMATION BLOCK
#MNEM.UNIT           DATA                    DESCRIPTION OF MNEMONIC
#---------    -------------------            -------------------------------
# Generated from Intellog Unique Number	CW_73_75/WELL/1054
WELL.         HOME UNIT MARTIN HILLS 16-21   : Well_name    - WELL
LOC .         00/16-21-074-24W4/0            : Location     - LOCATION
UWI .         00/16-21-074-24W4/0            : Uwi          - UNIQUE WELL ID
ENTR.         JAYE                           : Entered      - ENTERED BY
SRVC.         SCHLUMBERGER                   : Scn          - SERVICE COMPANY
DATE.         23 NOV 77                      : Date         - LOG DATE
STRT.M        374.904                        : top_depth    - START DEPTH
STOP.M        585.154                        : bot_depth    - STOP DEPTH
STEP.M        0.25                           : increment    - STEP LENGTH
 NULL. -999.2500:NULL Value
~CURVE INFORMATION BLOCK
#MNEM UNIT       ERCB CURVE CODE    CURVE DESCRIPTION
#-----------   ------------------   ----------------------------------
DEPT.M        00 001 00 00         : DEPTH        - DEPTH
ILD .OHMM     00 120 00 00         : RESD         - DEEP RESISTIVITY (DIL)
NPHI.V/V      00 330 00 00         : PHIN         - NEUTRON POROSITY (SANDSTONE)
DPHI.V/V      00 890 00 00         : PHID         - DENSITY POROSITY (SANDSTONE)
CALI.MM       00 280 01 00         : CAL          - CALIPER
GR  .API      00 310 00 00         : GR           - GAMMA RAY
~PARAMETER INFORMATION
#MNEM.UNIT           DATA             DESCRIPTION OF MNEMONIC
#---------         -----------     ------------------------------
GL  .M        649.224              : gl           - GROUND LEVEL ELEVATION
EREF.M        653.796              : kb           - ELEVATION OF DEPTH REFERENCE
DATM.M        649.224              : datum        - DATUM ELEVATION
TDD .M        585.216              : tdd          - TOTAL DEPTH DRILLER
RUN .         ONE                  : Run          - RUN NUMBER
BASE.         EDM                  : Branch       - HOME BASE OF LOGGING UNIT
MATR.         SANDSTONE            : Logunit      - NEUTRON MATRIX
TMAX.C        28.8889              : BHT          - MAXIMUM RECORDED TEMPERATURE
BHTD.M        585.826              : BHTDEP       - MAXIMUM RECORDED TEMPERATURE
RMT .C        13.8889              : MDTP         - TEMPERATURE OF MUD
MUDD.KG/M     0                    : MWT          - MUD DENSITY
NEUT.         1                    : NEUTRON      - NEUTRON TYPE
RESI.         0                    : RESIST       - RESISTIVITY TYPE
RM  .OHMM     6.22                 : RM           - RESISTIVITY OF MUD
RMC .OHMM     0                    : RMC          - RESISTIVITY OF MUD CAKE
RMF .OHMM     6.72                 : RMF          - RESISTIVITY OF MUD FILTRATE
SUFT.C        -17.7778             : SUFT         - SURFACE TEMPERATURE
~A  DEPTH     RESD     PHIN     PHID      CAL       GR
  374.904    1.404    0.478    0.186  191.645   93.726
  375.154    2.617    0.478    0.194  192.961   91.823
  375.404    2.564    0.474    0.207  193.536   92.228
  375.654    2.516    0.481    0.209  193.794   92.068
  375.904    2.488    0.490    0.199  193.948   91.598
  376.154    2.540    0.496    0.193  193.044   90.193
  376.404    2.692    0.497    0.206  184.867   88.666
  376.654    2.962    0.478    0.221  187.872   85.207
  376.904    3.553    0.353    0.222  190.976   81.499
  377.154    5.259    0.315    0.237  190.709   76.170
  377.404    8.595    0.298    0.229  188.753   63.868
  377.654   10.329    0.307    0.249  176.885   48.578
  377.904   10.081    0.333    0.277  168.287   45.929
  378.154    9.423    0.337    0.244  171.075   46.331
  378.404    8.759    0.352    0.228  170.281   49.287
  378.654    8.219    0.376    0.258  166.110   51.620
  378.904    8.533    0.380    0.298  165.426   52.706
  379.154    9.285    0.326    0.267  168.107   51.801
  379.404   10.102    0.307    0.218  171.948   48.839
  379.654    9.953    0.290    0.187  175.376   46.689
  379.904    9.251    0.290    0.190  174.788   45.784
  380.154    8.583    0.314    0.221  172.305   46.682
  380.404    8.068    0.343    0.250  170.771   48.084
  380.654    7.714    0.387    0.274  170.187   47.798
  380.904    7.430    0.418    0.281  169.499   47.516
  381.154    7.430    0.436    0.290  169.862   47.920
  381.404    7.431    0.443    0.301  170.964   48.195
  381.654    7.348    0.449    0.287  171.328   50.031
  381.904    7.171    0.445    0.298  168.638   50.121
  382.154    6.947    0.432    0.308  168.261   50.647
  382.404    6.592    0.413    0.296  171.372   52.670
  382.654    6.185    0.409    0.280  173.318   53.134
  382.904    5.957    0.413    0.275  173.997   52.726
  383.154    5.869    0.421    0.289  170.778   53.440
  383.404    5.771    0.433    0.304  171.140   54.030
  383.654    5.334    0.447    0.286  176.565   54.430
  383.904    4.515    0.440    0.307  180.729   55.271
  384.154    3.900    0.417    0.303  180.775   56.730
  384.404    3.558    0.399    0.284  178.609   59.501
  384.654    3.222    0.410    0.263  177.707   63.077
  384.904    3.023    0.448    0.251  178.811   76.681
  385.154    3.150    0.479    0.259  180.650   92.278
  385.404    3.454    0.494    0.238  182.385   98.408
  385.654    3.723    0.489    0.253  185.281   98.936
  385.904    3.801    0.465    0.231  187.861   95.602
  386.154    3.865    0.438    0.251  185.908   90.275
  386.404    3.931    0.416    0.244  180.997   84.511
  386.654    4.006    0.425    0.236  173.452   80.929
  386.904    4.136    0.444    0.235  171.079   79.712
  387.154    4.384    0.428    0.252  171.018   75.754
  387.404    4.611    0.369    0.231  172.336   71.797
  387.654    4.734    0.372    0.193  173.539   71.515
  387.904    4.569    0.375    0.206  176.230   74.157
  388.154    4.271    0.385    0.220  177.749   78.049
  388.404    4.053    0.418    0.226  176.744   80.256
  388.654    3.940    0.436    0.240  176.371   80.656
  388.904    4.030    0.418    0.256  179.580   78.070
  389.154    4.177    0.417    0.226  178.047   77.228
  389.404    4.494    0.445    0.222  181.156   81.057
  389.654    4.835    0.424    0.216  190.694   84.385
  389.904    5.001    0.397    0.266  189.686   75.320
  390.154    4.973    0.378    0.311  179.928   67.377
  390.404    4.863    0.397    0.277  171.753   56.819
  390.654    4.693    0.405    0.245  170.535   55.227
  390.904    4.546    0.405    0.229  172.277   57.873
  391.154    4.403    0.401    0.236  171.158   63.444
  391.404    4.305    0.401    0.253  169.412   73.250
  391.654    4.257    0.409    0.234  170.410   75.768
  391.904    4.314    0.421    0.242  174.571   80.468
  392.154    4.462    0.431    0.255  173.990   84.918
  392.404    4.668    0.443    0.218  175.410   83.950
  392.654    4.929    0.446    0.235  181.678   80.429
  392.904    5.137    0.424    0.251  186.996   72.361
  393.154    5.283    0.416    0.268  181.244   66.036
  393.404    5.333    0.418    0.271  175.493   61.270
  393.654    5.284    0.418    0.254  172.800   59.745
  393.904    5.255    0.415    0.272  172.007   60.270
  394.154    5.225    0.406    0.263  169.100   64.908
  394.404    5.245    0.405    0.217  169.148   75.397
  394.654    5.295    0.400    0.212  177.107   85.451
  394.904    5.426    0.392    0.216  178.210   92.144
  395.154    5.581    0.376    0.231  181.631   90.552
  395.404    5.882    0.357    0.229  182.738   80.619
  395.654    6.472    0.326    0.214  181.411   71.990
  395.904    7.367    0.285    0.243  178.718   63.361
  396.154    8.213    0.257    0.284  174.127   51.434
  396.404    8.385    0.233    0.308  170.271   42.867
  396.654    8.031    0.235    0.328  167.263   34.488
  396.904    6.913    0.243    0.337  166.890   28.787
  397.154    6.063    0.274    0.333  168.098   25.827
  397.404    5.248    0.316    0.317  168.780   25.109
  397.654    4.734    0.342    0.294  169.040   25.262
  397.904    4.629    0.355    0.290  169.086   26.286
  398.154    5.113    0.367    0.272  169.561   30.240
  398.404    6.167    0.379    0.271  169.502   35.809
  398.654    6.838    0.379    0.285  169.651   37.892
  398.904    6.994    0.341    0.280  169.912   36.863
  399.154    6.157    0.329    0.275  169.541   35.708
  399.404    5.522    0.340    0.262  169.800   38.665
  399.654    5.104    0.359    0.242  169.846   53.389
  399.904    4.718    0.379    0.226  170.210   61.576
  400.154    4.536    0.388    0.211  173.107   80.412
  400.404    4.419    0.388    0.198  176.317   83.614
  400.654    4.386    0.386    0.203  176.367   85.077
  400.904    4.436    0.378    0.215  172.721   83.489
  401.154    4.528    0.384    0.245  171.824   83.016
  401.404    4.649    0.382    0.224  173.244   84.227
  401.654    4.720    0.400    0.200  175.505   86.686
  401.904    4.606    0.432    0.211  179.663   90.263
  402.154    4.202    0.467    0.230  186.882   90.729
  402.404    3.755    0.486    0.220  185.141   91.755
  402.654    3.293    0.507    0.201  180.972   97.760
  402.904    2.971    0.528    0.172  184.496   98.412
  403.154    2.814    0.552    0.200  182.226  101.241
  403.404    2.751    0.543    0.210  188.604  110.425
  403.654    2.762    0.529    0.196  193.183  110.889
  403.904    2.767    0.510    0.171  187.328  107.493
  404.154    2.705    0.499    0.200  184.739  106.586
  404.404    2.680    0.516    0.216  185.840  109.792
  404.654    2.747    0.539    0.231  191.480  112.125
  404.904    2.933    0.541    0.255  190.052  112.651
  405.154    3.197    0.509    0.231  186.834  110.874
  405.404    3.472    0.448    0.210  185.611  107.476
  405.654    3.750    0.446    0.177  185.134  102.896
  405.904    3.997    0.440    0.196  187.609  100.184
  406.154    4.253    0.427    0.204  191.662  101.583
  406.404    4.374    0.442    0.220  191.816  104.539
  406.654    4.358    0.468    0.225  184.589  102.201
  406.904    4.366    0.492    0.224  186.640   97.061
  407.154    4.449    0.503    0.213  190.064   89.554
  407.404    4.585    0.469    0.257  188.845   83.543
  407.654    4.751    0.428    0.216  176.133   76.905
  407.904    4.924    0.420    0.200  172.808   74.070
  408.154    5.093    0.407    0.244  173.493   76.278
  408.404    5.338    0.416    0.242  174.063   82.844
  408.654    5.626    0.433    0.216  175.271   84.184
  408.904    6.075    0.454    0.256  177.958   82.156
  409.154    6.711    0.460    0.300  179.904   75.582
  409.404    8.019    0.439    0.301  174.995   65.211
  409.654    9.931    0.432    0.311  169.668   59.135
  409.904   12.913    0.435    0.319  172.146   54.931
  410.154   14.863    0.438    0.312  174.827   52.842
  410.404   15.577    0.424    0.318  174.875   52.433
  410.654   15.695    0.400    0.293  174.924   53.336
  410.904   15.090    0.400    0.311  175.391   53.922
  411.154   14.373    0.409    0.320  173.540   53.143
