~VERSION INFORMATION
 VERS.                 2.0:   CWLS LOG ASCII STANDARD -VERSION 2.0
 WRAP.                  NO:   ONE LINE PER DEPTH STEP
~WELL INFORMATION BLOCK
#MNEM.UNIT           DATA                    DESCRIPTION OF MNEMONIC
#---------    -------------------            -------------------------------
# Generated from Intellog Unique Number	CS_67_68/WELL/805
WELL.         TOTAL PETROLEUM (N.A.)         : Well_name    - WELL
LOC .         00/10-15-068-16W4/0            : Location     - LOCATION
UWI .         00/10-15-068-16W4/0            : Uwi          - UNIQUE WELL ID
ENTR.         SP                             : Entered      - ENTERED BY
SRVC.         SCHLUMBERGER                   : Scn          - SERVICE COMPANY
STRT.M        280                            : top_depth    - START DEPTH
STOP.M        490                            : bot_depth    - STOP DEPTH
STEP.M        0.25                           : increment    - STEP LENGTH
 NULL. -999.2500:NULL Value
~CURVE INFORMATION BLOCK
#MNEM UNIT       ERCB CURVE CODE    CURVE DESCRIPTION
#-----------   ------------------   ----------------------------------
DEPT.M        00 001 00 00         : DEPTH        - DEPTH
ILD .OHMM     00 120 00 00         : RESD         - DEEP RESISTIVITY (DIL)
DPHI.V/V      00 890 00 00         : PHID         - DENSITY POROSITY (LIMESTONE)
NPHI.V/V      00 330 00 00         : PHIN         - NEUTRON POROSITY (LIMESTONE)
GR  .API      00 310 00 00         : GR           - GAMMA RAY
~PARAMETER INFORMATION
#MNEM.UNIT           DATA             DESCRIPTION OF MNEMONIC
#---------         -----------     ------------------------------
GL  .M        547.15               : gl           - GROUND LEVEL ELEVATION
EREF.M        550                  : kb           - ELEVATION OF DEPTH REFERENCE
DATM.M        547.15               : datum        - DATUM ELEVATION
TDD .M        490                  : tdd          - TOTAL DEPTH DRILLER
RUN .         ONE                  : Run          - RUN NUMBER
ENG .         BILL                 : Engineer     - RECORDING ENGINEER
WIT .         JIM                  : Witness      - WITNESSED BY
MUD .         GEL                  : Mud_type     - MUD TYPE
MATR.         LIMESTONE            : Logunit      - NEUTRON MATRIX
TMAX.C        26                   : BHT          - MAXIMUM RECORDED TEMPERATURE
BHTD.M        490                  : BHTDEP       - MAXIMUM RECORDED TEMPERATURE
MATR.         1                    : LOGUNIT      - NEUTRON MATRIX
RMT .C        25                   : MDTP         - TEMPERATURE OF MUD
NEUT.         1                    : NEUTRON      - NEUTRON TYPE
RESI.         0                    : RESIST       - RESISTIVITY TYPE
RMC .OHMM     0.25                 : RMC          - RESISTIVITY OF MUD CAKE
RMF .OHMM     0.25                 : RMF          - RESISTIVITY OF MUD FILTRATE
SUFT.C        15                   : SUFT         - SURFACE TEMPERATURE
~A  DEPTH     RESD     PHID     PHIN       GR
# ...
  323.500    3.035    0.269    0.383   89.900
  323.750    3.007    0.247    0.382   94.244
  324.000    2.991    0.262    0.407   91.616
  324.250    2.986    0.283    0.422   84.281
  324.500    2.997    0.277    0.430   81.591
  324.750    3.020    0.268    0.430   81.532
  325.000    3.066    0.269    0.402   85.081
  325.250    3.112    0.262    0.372   88.996
  325.500    3.177    0.247    0.344   92.667
  325.750    3.220    0.241    0.344   94.809
  326.000    3.293    0.236    0.367   94.872
  326.250    3.368    0.246    0.379   92.978
  326.500    3.457    0.243    0.389   95.548
  326.750    3.516    0.249    0.402   96.590
  327.000    3.569    0.237    0.382   96.713
  327.250    3.678    0.226    0.369   97.755
  327.500    3.755    0.225    0.362   98.001
  327.750    3.840    0.219    0.356   97.269
  328.000    3.935    0.209    0.354   95.804
  328.250    4.047    0.193    0.378   95.561
  328.500    4.116    0.180    0.369   97.886
  328.750    4.163    0.188    0.361  100.884
  329.000    4.210    0.201    0.387  103.088
  329.250    4.234    0.204    0.404  104.007
  329.500    4.251    0.234    0.400  103.214
  329.750    4.259    0.262    0.377  107.312
  330.000    4.260    0.256    0.358  100.955
  330.250    4.245    0.242    0.367   96.004
  330.500    4.191    0.232    0.353   94.476
  330.750    4.106    0.209    0.354  100.043
  331.000    3.957    0.189    0.398  102.613
  331.250    3.791    0.168    0.393  105.733
  331.500    3.701    0.183    0.390  108.242
  331.750    3.640    0.198    0.418  110.507
  332.000    3.594    0.153    0.457  112.649
  332.250    3.594    0.216    0.506  111.122
  332.500    3.656    0.274    0.506  108.127
  332.750    3.795    0.289    0.441  110.269
  333.000    4.013    0.213    0.381  114.858
  333.250    4.221    0.195    0.389  117.183
  333.500    4.481    0.202    0.393  113.332
  333.750    4.721    0.193    0.372  112.356
  334.000    4.901    0.177    0.356  112.908
  334.250    4.957    0.173    0.377  113.093
  334.500    4.967    0.174    0.367  111.261
  334.750    4.968    0.146    0.350  107.838
  335.000    4.978    0.163    0.373  105.944
  335.250    4.951    0.189    0.386  107.903
  335.500    4.861    0.190    0.370  104.664
  335.750    4.772    0.174    0.353  105.216
  336.000    4.702    0.183    0.354  108.275
  336.250    4.530    0.232    0.340  104.180
  336.500    4.349    0.208    0.327   99.290
  336.750    4.167    0.180    0.321   98.496
  337.000    3.956    0.198    0.336   99.477
  337.250    3.826    0.194    0.350  101.191
  337.500    3.708    0.172    0.362   95.261
  337.750    3.468    0.211    0.389   89.026
  338.000    3.189    0.244    0.416   85.297
  338.250    2.901    0.267    0.408   80.897
  338.500    2.678    0.281    0.396   76.679
  338.750    2.538    0.282    0.383   75.274
  339.000    2.450    0.294    0.364   75.949
  339.250    2.409    0.293    0.384   76.440
  339.500    2.405    0.295    0.421   78.276
  339.750    2.433    0.291    0.463   78.156
  340.000    2.493    0.281    0.330   74.672
  340.250    2.588    0.250    0.309   81.339
  340.500    2.783    0.203    0.309   89.046
  340.750    3.021    0.187    0.328   98.098
  341.000    3.189    0.191    0.349  102.563
  341.250    3.220    0.197    0.372   98.285
  341.500    2.896    0.209    0.369   93.028
  341.750    2.673    0.298    0.351   77.498
  342.000    2.581    0.308    0.337   67.349
  342.250    2.553    0.285    0.332   64.048
  342.500    2.735    0.262    0.322   75.791
  342.750    3.241    0.238    0.312   84.904
  343.000    3.611    0.226    0.305   92.794
  343.250    3.927    0.218    0.307   98.972
  343.500    4.138    0.212    0.309  103.438
  343.750    4.376    0.200    0.325  105.396
  344.000    4.552    0.189    0.338  106.927
  344.250    4.664    0.181    0.350  105.339
  344.500    4.761    0.175    0.360  106.747
  344.750    4.833    0.184    0.376  108.767
  345.000    4.861    0.180    0.369  110.420
  345.250    4.817    0.170    0.374  111.461
  345.500    4.711    0.190    0.386  109.506
  345.750    4.642    0.210    0.371  104.860
  346.000    4.574    0.180    0.388  104.618
  346.250    4.592    0.165    0.419  110.184
  346.500    4.653    0.178    0.368  113.794
  346.750    4.706    0.168    0.331  110.983
  347.000    4.637    0.156    0.340  114.592
  347.250    4.402    0.176    0.357  117.102
  347.500    4.004    0.198    0.363  117.286
  347.750    3.528    0.211    0.381  100.166
  348.000    3.221    0.228    0.398   88.305
  348.250    3.098    0.249    0.409   80.480
  348.500    3.058    0.267    0.425   75.101
  348.750    3.081    0.274    0.441   71.984
  349.000    3.111    0.291    0.422   81.403
  349.250    3.152    0.265    0.380   92.840
  349.500    3.224    0.248    0.352   98.834
  349.750    3.372    0.231    0.350  102.749
  350.000    3.487    0.196    0.369  104.708
  350.250    3.533    0.160    0.397  105.138
  350.500    3.392    0.199    0.419  104.467
  350.750    3.226    0.244    0.435   98.537
  351.000    3.063    0.263    0.443   88.510
  351.250    2.973    0.282    0.423   85.700
  351.500    2.968    0.274    0.394   86.190
  351.750    2.996    0.267    0.369   83.074
  352.000    3.019    0.263    0.357   80.263
  352.250    3.042    0.263    0.352   81.671
  352.500    3.071    0.264    0.352   82.468
  352.750    3.089    0.251    0.364   80.146
  353.000    3.072    0.241    0.385   78.130
  353.250    3.010    0.232    0.408   78.070
  353.500    2.753    0.271    0.387   77.277
  353.750    2.648    0.290    0.412   78.135
  354.000    2.518    0.298    0.465   81.011
  354.250    2.510    0.307    0.466   83.398
  354.500    2.543    0.254    0.419   86.213
  354.750    2.645    0.236    0.346   89.027
  355.000    2.777    0.224    0.349   91.903
  355.250    2.850    0.205    0.384   95.879
  355.500    2.942    0.199    0.403   99.305
  355.750    3.112    0.203    0.414  102.365
  356.000    3.130    0.197    0.448  102.733
  356.250    3.027    0.236    0.469   96.192
  356.500    2.917    0.273    0.381   87.755
  356.750    2.774    0.300    0.364   80.297
  357.000    2.668    0.294    0.388   81.706
  357.250    2.663    0.286    0.403   83.909
  357.500    2.699    0.282    0.402   84.216
  357.750    2.786    0.281    0.378   82.689
  358.000    2.860    0.260    0.365   82.079
  358.250    2.980    0.247    0.390   83.977
  358.500    3.314    0.238    0.436   84.957
  358.750    3.770    0.250    0.470   85.693
  359.000    4.559    0.200    0.231   76.828
  359.250    5.670    0.023    0.139   69.798
  359.500    6.693    0.001    0.114   61.728
  359.750    7.989   -0.011    0.106   52.802
  360.000   11.859   -0.014    0.183   47.667
  360.250   13.288   -0.008    0.249   48.403
  360.500   10.051    0.200    0.279   53.663
  360.750    7.476    0.237    0.204   61.614
  361.000    5.739    0.065    0.164   69.015
  361.250    4.514    0.174    0.277   67.978
  361.500    3.993    0.286    0.364   73.299
  361.750    3.473    0.288    0.431   81.006
  362.000    3.159    0.272    0.427   84.921
  362.250    3.066    0.267    0.384   86.636
  362.500    3.055    0.277    0.382   86.148
  362.750    3.050    0.270    0.395   86.578
  363.000    3.114    0.270    0.404   86.580
  363.250    3.250    0.268    0.416   83.585
  363.500    3.548    0.256    0.431   80.285
  363.750    3.838    0.261    0.435   78.391
  364.000    4.244    0.188    0.354   77.721
  364.250    4.497    0.061    0.213   76.194
  364.500    4.756    0.036    0.185   69.591
  364.750    5.002    0.081    0.195   75.769
  365.000    5.174    0.187    0.288  101.698
  365.250    5.136    0.194    0.344   98.276
  365.500    4.663    0.204    0.363   92.897
  365.750    4.297    0.218    0.364   89.963
  366.000    4.148    0.230    0.369   90.026
  366.250    4.049    0.197    0.375   95.837
  366.500    4.042    0.179    0.381   98.468
  366.750    4.119    0.182    0.396   98.164
