~VERSION INFORMATION
 VERS.                 2.0:   CWLS LOG ASCII STANDARD -VERSION 2.0
 WRAP.                  NO:   ONE LINE PER DEPTH STEP
~WELL INFORMATION BLOCK
#MNEM.UNIT           DATA                    DESCRIPTION OF MNEMONIC
#---------    -------------------            -------------------------------
# Generated from Intellog Unique Number	CS_73_76/WELL/3278
WELL.         BOW VALLEY EXPLORATION         : Well_name    - WELL
LOC .         00/15-06-075-13W4/0            : Location     - LOCATION
UWI .         00/15-06-075-13W4/0            : Uwi          - UNIQUE WELL ID
ENTR.         SP                             : Entered      - ENTERED BY
SRVC.         SCHLUMBERGER                   : Scn          - SERVICE COMPANY
STRT.M        375                            : top_depth    - START DEPTH
STOP.M        615                            : bot_depth    - STOP DEPTH
STEP.M        0.25                           : increment    - STEP LENGTH
 NULL. -999.2500:NULL Value
~CURVE INFORMATION BLOCK
#MNEM UNIT       ERCB CURVE CODE    CURVE DESCRIPTION
#-----------   ------------------   ----------------------------------
DEPT.M        00 001 00 00         : DEPTH        - DEPTH
ILD .OHMM     00 120 00 00         : RESD         - DEEP RESISTIVITY (DIL)
DPHI.V/V      00 890 00 00         : PHID         - DENSITY POROSITY (LIMESTONE)
NPHI.V/V      00 330 00 00         : PHIN         - NEUTRON POROSITY (LIMESTONE)
GR  .API      00 310 00 00         : GR           - GAMMA RAY
~PARAMETER INFORMATION
#MNEM.UNIT           DATA             DESCRIPTION OF MNEMONIC
#---------         -----------     ------------------------------
GL  .M        742.4                : gl           - GROUND LEVEL ELEVATION
EREF.M        745.6                : kb           - ELEVATION OF DEPTH REFERENCE
DATM.M        742.4                : datum        - DATUM ELEVATION
TDD .M        636                  : tdd          - TOTAL DEPTH DRILLER
RUN .         ONE                  : Run          - RUN NUMBER
ENG .         BILL                 : Engineer     - RECORDING ENGINEER
WIT .         JIM                  : Witness      - WITNESSED BY
MUD .         GEL                  : Mud_type     - MUD TYPE
MATR.         LIMESTONE            : Logunit      - NEUTRON MATRIX
TMAX.C        14                   : BHT          - MAXIMUM RECORDED TEMPERATURE
BHTD.M        636                  : BHTDEP       - MAXIMUM RECORDED TEMPERATURE
MATR.         1                    : LOGUNIT      - NEUTRON MATRIX
RMT .C        25                   : MDTP         - TEMPERATURE OF MUD
NEUT.         1                    : NEUTRON      - NEUTRON TYPE
RESI.         0                    : RESIST       - RESISTIVITY TYPE
RMC .OHMM     0.25                 : RMC          - RESISTIVITY OF MUD CAKE
RMF .OHMM     0.25                 : RMF          - RESISTIVITY OF MUD FILTRATE
SUFT.C        15                   : SUFT         - SURFACE TEMPERATURE
~A  DEPTH     RESD     PHID     PHIN       GR
# ...
  549.000    4.361    0.211    0.394   90.972
  549.250    4.280    0.224    0.405   91.574
  549.500    4.122    0.218    0.412   92.174
  549.750    3.970    0.202    0.420   90.968
  550.000    4.372    0.190    0.442   88.314
  550.250    4.213    0.210    0.448   89.529
  550.500    3.912    0.215    0.467   92.562
  550.750    3.770    0.225    0.475   94.382
  551.000    3.567    0.238    0.485   96.203
  551.250    3.251    0.239    0.493   98.631
  551.500    3.133    0.221    0.501   96.824
  551.750    2.964    0.219    0.495   92.595
  552.000    3.022    0.239    0.487   88.368
  552.250    3.381    0.221    0.490   86.562
  552.500    3.855    0.211    0.469   84.753
  552.750    4.395    0.170    0.439   81.132
  553.000    5.012    0.140    0.415   79.322
  553.250    5.303    0.153    0.376   81.145
  553.500    5.305    0.197    0.409   84.175
  553.750    5.309    0.195    0.420   87.207
  554.000    5.311    0.178    0.412   84.190
  554.250    5.215    0.148    0.411   81.777
  554.500    5.317    0.127    0.410   79.969
  554.750    5.319    0.123    0.404   79.372
  555.000    5.524    0.132    0.417   76.354
  555.250    5.737    0.125    0.409   72.731
  555.500    6.070    0.111    0.391   68.505
  555.750    6.188    0.120    0.400   72.141
  556.000    5.964    0.163    0.407   78.197
  556.250    6.079    0.143    0.416   81.832
  556.500    6.198    0.099    0.351   76.396
  556.750    6.086    0.128    0.351   75.194
  557.000    5.865    0.184    0.389   79.434
  557.250    5.869    0.195    0.399   92.143
  557.500    5.872    0.185    0.407   87.916
  557.750    5.874    0.182    0.401   89.739
  558.000    5.769    0.162    0.412   90.348
  558.250    5.665    0.145    0.419   90.357
  558.500    5.563    0.173    0.428   87.942
  558.750    5.462    0.169    0.434   85.533
  559.000    5.365    0.123    0.409   86.747
  559.250    5.367    0.103    0.393   84.939
  559.500    5.472    0.151    0.407   88.575
  559.750    5.682    0.172    0.417   92.211
  560.000    5.901    0.200    0.424   87.381
  560.250    6.244    0.208    0.428   85.574
  560.500    6.732    0.191    0.415   84.974
  560.750    7.124    0.161    0.392   83.772
  561.000    7.261    0.185    0.376   90.432
  561.250    6.999    0.214    0.387   95.883
  561.500    6.497    0.209    0.393  101.333
  561.750    6.624    0.197    0.391  100.737
  562.000    6.752    0.195    0.372  101.349
  562.250    7.416    0.184    0.361  103.168
  562.500    9.111    0.176    0.387  103.175
  562.750   10.008    0.195    0.394  101.975
  563.000   10.789    0.198    0.394   97.746
  563.250   11.853    0.201    0.377   87.471
  563.500   12.309    0.198    0.362   80.219
  563.750   12.785    0.202    0.347   77.201
  564.000   13.276    0.216    0.350   79.023
  564.250   13.788    0.219    0.360   77.819
  564.500   14.321    0.238    0.365   71.779
  564.750   14.596    0.293    0.351   67.550
  565.000   14.878    0.265    0.331   69.373
  565.250   14.340    0.235    0.347   72.404
  565.500   14.085    0.216    0.350   74.829
  565.750   14.090    0.202    0.359   74.837
  566.000   14.634    0.203    0.361   73.638
  566.250   15.489    0.218    0.347   73.642
  566.500   16.082    0.226    0.341   71.833
  566.750   16.703    0.236    0.354   64.583
  567.000   17.026    0.265    0.372   59.144
  567.250   16.718    0.271    0.382   56.126
  567.500   15.816    0.266    0.380   59.766
  567.750   14.413    0.203    0.386   65.215
  568.000   12.892    0.174    0.369   79.133
  568.250   11.531    0.167    0.348   88.213
  568.500   10.315    0.153    0.338   93.059
  568.750    9.576    0.130    0.357   95.486
  569.000    9.231    0.144    0.378   90.049
  569.250    9.411    0.131    0.371   80.984
  569.500    9.593    0.151    0.363   77.359
  569.750    9.778    0.176    0.367   73.132
  570.000    9.967    0.193    0.340   70.722
  570.250    9.972    0.180    0.334   71.332
  570.500   10.164    0.153    0.331   74.364
  570.750    9.980    0.154    0.350   74.975
  571.000    9.985    0.174    0.368   70.145
  571.250   10.370    0.197    0.351   67.731
  571.500   10.571    0.214    0.335   65.320
  571.750   10.776    0.227    0.343   64.117
  572.000   11.618    0.234    0.338   64.123
  572.250   12.765    0.219    0.343   66.549
  572.500   13.505    0.210    0.338   68.370
  572.750   14.290    0.220    0.333   68.981
  573.000   14.838    0.233    0.344   67.779
  573.250   15.996    0.238    0.346   65.971
  573.500   18.242    0.193    0.332   63.558
  573.750   20.799    0.158    0.320   60.541
  574.000   23.715    0.140    0.305   58.733
  574.250   25.093    0.170    0.305   62.976
  574.500   26.058    0.191    0.329   67.215
  574.750   18.285    0.222    0.347   78.110
  575.000   11.907    0.245    0.356   89.610
  575.250   10.071    0.223    0.361   98.085
  575.500    9.527    0.200    0.363  101.115
  575.750    9.014    0.205    0.370  102.333
  576.000    8.850    0.199    0.368  101.735
  576.250    8.691    0.182    0.362  100.532
  576.500    8.376    0.165    0.356   97.516
  576.750    7.634    0.146    0.362   94.499
  577.000    7.222    0.120    0.362   92.084
  577.250    7.228    0.130    0.364   93.303
  577.500    7.231    0.148    0.367   96.941
  577.750    7.234    0.174    0.361   97.549
  578.000    7.373    0.155    0.364   99.370
  578.250    7.516    0.177    0.374   92.119
  578.500    7.660    0.220    0.384   85.474
  578.750    7.664    0.244    0.373   80.036
  579.000    7.116    0.263    0.380   75.202
  579.250    6.732    0.270    0.373   66.741
  579.500    6.251    0.272    0.359   64.329
  579.750    5.914    0.245    0.355   72.806
  580.000    5.916    0.244    0.364   77.047
  580.250    6.030    0.252    0.359   81.287
  580.500    6.749    0.228    0.351   87.948
  580.750    7.695    0.196    0.353   94.607
  581.000    8.452    0.176    0.356   94.615
  581.250    9.285    0.182    0.339   83.128
  581.500    9.463    0.184    0.329   71.643
  581.750    9.469    0.167    0.334   65.602
  582.000    9.128    0.198    0.344   61.374
  582.250    8.963    0.224    0.334   66.828
  582.500    8.638    0.233    0.328   69.859
  582.750    8.021    0.217    0.339   71.679
  583.000    7.875    0.200    0.348   74.103
  583.250    7.733    0.201    0.357   76.530
  583.500    7.739    0.184    0.348   75.327
  583.750    7.741    0.189    0.341   77.150
  584.000    8.039    0.184    0.350   81.393
  584.250    8.349    0.162    0.345   85.633
  584.500    8.511    0.172    0.347   89.266
  584.750    8.051    0.178    0.362   94.718
  585.000    7.618    0.160    0.370  100.774
  585.250    7.620    0.127    0.381  104.410
  585.500    8.064    0.156    0.389   98.973
  585.750    8.375    0.180    0.364   92.931
  586.000    8.537    0.201    0.369   88.100
  586.250    8.705    0.222    0.345   84.477
  586.500    8.708    0.228    0.326   92.347
  586.750    8.711    0.214    0.318   99.612
  587.000    8.714    0.193    0.330  102.644
  587.250    8.884    0.173    0.339   94.183
  587.500    8.888    0.208    0.355   83.302
  587.750    9.060    0.225    0.348   74.236
  588.000    9.237    0.233    0.326   69.403
  588.250    9.417    0.239    0.326   68.806
  588.500    9.419    0.237    0.325   73.049
  588.750    9.423    0.228    0.332   75.472
  589.000    9.428    0.223    0.324   82.135
  589.250    9.088    0.166    0.338   85.771
  589.500    9.094    0.173    0.355   87.590
  589.750    9.097    0.188    0.372   81.550
  590.000    9.273    0.197    0.387   77.323
  590.250    9.277    0.217    0.370   74.909
  590.500    9.457    0.228    0.354   74.311
  590.750    9.461    0.215    0.351   75.531
  591.000    9.645    0.203    0.347   77.351
  591.250    9.649    0.161    0.347   77.961
  591.500    9.654    0.172    0.353   75.549
  591.750    9.842    0.189    0.360   72.534
  592.000    9.848    0.197    0.365   71.933
  592.250    9.852    0.209    0.370   70.125
