~VERSION INFORMATION
 VERS.                 2.0:   CWLS LOG ASCII STANDARD -VERSION 2.0
 WRAP.                  NO:   ONE LINE PER DEPTH STEP
~WELL INFORMATION BLOCK
#MNEM.UNIT           DATA                    DESCRIPTION OF MNEMONIC
#---------    -------------------            -------------------------------
# Generated from Intellog Unique Number	CW_82_90/WELL/829
WELL.         PACIFIC ISADORE 10-17          : Well_name    - WELL
LOC .         00/10-17-083-19W4/0            : Location     - LOCATION
UWI .         00/10-17-083-19W400            : Uwi          - UNIQUE WELL ID
ENTR.         J                              : Entered      - ENTERED BY
SRVC.         SCHLUMBERGER                   : Scn          - SERVICE COMPANY
DATE.         28 FEB 75                      : Date         - LOG DATE
STRT.M        192.024                        : top_depth    - START DEPTH
STOP.M        350.524                        : bot_depth    - STOP DEPTH
STEP.M        0.25                           : increment    - STEP LENGTH
 NULL. -999.2500:NULL Value
~CURVE INFORMATION BLOCK
#MNEM UNIT       ERCB CURVE CODE    CURVE DESCRIPTION
#-----------   ------------------   ----------------------------------
DEPT.M        00 001 00 00         : DEPTH        - DEPTH
CALI.MM       00 280 01 00         : CAL          - CALIPER
GR  .API      00 310 00 00         : GR           - GAMMA RAY
NPHI.V/V      00 330 00 00         : PHIN         - NEUTRON POROSITY (SANDSTONE)
DPHI.V/V      00 890 00 00         : PHID         - DENSITY POROSITY (SANDSTONE)
ILD .OHMM     00 120 00 00         : RESD         - DEEP RESISTIVITY (DIL)
~PARAMETER INFORMATION
#MNEM.UNIT           DATA             DESCRIPTION OF MNEMONIC
#---------         -----------     ------------------------------
GL  .M        586.74               : gl           - GROUND LEVEL ELEVATION
EREF.M        589.239              : kb           - ELEVATION OF DEPTH REFERENCE
DATM.M        586.74               : datum        - DATUM ELEVATION
TDD .M        426.72               : tdd          - TOTAL DEPTH DRILLER
RUN .         ONE                  : Run          - RUN NUMBER
ENG .         BERNISKY             : Engineer     - RECORDING ENGINEER
WIT .         ROSS                 : Witness      - WITNESSED BY
BASE.         EDMONTON             : Branch       - HOME BASE OF LOGGING UNIT
MUD .         GEL CHEM             : Mud_type     - MUD TYPE
MATR.         SANDSTONE            : Logunit      - NEUTRON MATRIX
TMAX.C        20.5556              : BHT          - MAXIMUM RECORDED TEMPERATURE
BHTD.M        426.72               : BHTDEP       - MAXIMUM RECORDED TEMPERATURE
RMT .C        12.2222              : MDTP         - TEMPERATURE OF MUD
MUDD.KG/M     1000                 : MWT          - MUD DENSITY
NEUT.         0                    : NEUTRON      - NEUTRON TYPE
RESI.         54                   : RESIST       - RESISTIVITY TYPE
RM  .OHMM     2.82                 : RM           - RESISTIVITY OF MUD
RMC .OHMM     0                    : RMC          - RESISTIVITY OF MUD CAKE
RMF .OHMM     2.45                 : RMF          - RESISTIVITY OF MUD FILTRATE
SUFT.C        -17.7778             : SUFT         - SURFACE TEMPERATURE
~A  DEPTH      CAL       GR     PHIN     PHID     RESD
# ...
  301.524  168.021   54.605    0.153    0.018   94.569
  301.774  168.130   52.272    0.148    0.002   72.355
  302.024  168.137   50.738    0.158   -0.008   47.906
  302.274  167.829   53.632    0.183   -0.006   41.317
  302.524  167.939   56.587    0.218    0.002   36.625
  302.774  167.634   62.187    0.261    0.081   26.578
  303.024  167.639   67.541    0.373    0.176   22.756
  303.274  164.417   73.510    0.376    0.206   19.089
  303.524  166.089   78.864    0.396    0.188   17.163
  303.774  170.261   83.358    0.394    0.164   15.739
  304.024  173.286   86.498    0.399    0.193   15.235
  304.274  176.312   89.514    0.447    0.212   15.733
  304.524  180.276   90.502    0.454    0.206   16.512
  304.774  181.428   82.695    0.446    0.204   18.243
  305.024  180.600   74.519    0.447    0.221   21.758
  305.274  178.835   70.648    0.439    0.212   27.467
  305.524  177.071   66.223    0.299    0.198   26.579
  305.774  175.619   62.599    0.361    0.133   25.884
  306.024  175.625   69.674    0.388    0.139   24.490
  306.274  177.193   74.659    0.420    0.243   22.477
  306.524  179.073   78.107    0.426    0.240   20.547
  306.774  180.329   82.908    0.432    0.237   19.876
  307.024  181.793   86.539    0.436    0.242   19.213
  307.274  183.674   90.909    0.442    0.219   18.860
  307.524  184.929   94.910    0.449    0.210   18.479
  307.774  186.706   94.299    0.455    0.205   18.309
  308.024  187.856   94.733    0.468    0.206   18.064
  308.274  188.591   96.028    0.475    0.209   17.914
  308.524  189.535   94.248    0.476    0.218   17.786
  308.774  190.166   91.484    0.468    0.211   17.808
  309.024  190.379   90.995    0.447    0.201   17.834
  309.274  190.802   91.429    0.439    0.195   17.890
  309.524  191.641   92.540    0.445    0.203   17.983
  309.774  192.271   94.266    0.455    0.201   18.123
  310.024  193.423   93.469    0.451    0.202   18.332
  310.274  194.159   91.627    0.447    0.205   18.679
  310.524  194.997   91.632    0.450    0.200   18.961
  310.774  195.733   92.496    0.455    0.196   19.172
  311.024  196.259   93.853    0.449    0.195   19.576
  311.274  196.368   93.056    0.434    0.195   19.974
  311.524  196.374   91.092    0.422    0.201   20.376
  311.774  196.172   92.202    0.414    0.208   20.654
  312.024  195.762   93.928    0.409    0.219   20.456
  312.274  195.663   96.084    0.444    0.207   19.965
  312.524  195.565   98.240    0.451    0.183   19.148
  312.774  195.779   98.674    0.453    0.192   18.719
  313.024  196.410   96.895    0.452    0.210   18.364
  313.274  196.624   96.835    0.449    0.210   18.264
  313.524  196.839   98.561    0.446    0.207   18.387
  313.774  196.949  100.533    0.448    0.200   18.259
  314.024  197.371  101.704    0.450    0.196   18.140
  314.274  197.065  102.446    0.454    0.194   17.857
  314.524  197.070  102.327    0.460    0.201   17.397
  314.774  197.180  102.576    0.453    0.207   16.913
  315.024  197.291  102.088    0.433    0.205   16.274
  315.274  196.880  100.553    0.423    0.189   16.114
  315.524  196.782  100.188    0.429    0.202   16.159
  315.774  196.475  101.483    0.457    0.200   17.625
  316.024  194.919   98.288    0.446    0.191   20.488
  316.274  193.259   93.372    0.412    0.170   23.410
  316.524  192.639   89.625    0.380    0.147   28.369
  316.774  192.021   87.844    0.364    0.133   27.494
  317.024  191.924   85.941    0.373    0.176   22.342
  317.274  192.449   90.003    0.399    0.185   21.709
  317.524  193.601   95.112    0.439    0.196   21.162
  317.774  193.919   94.869    0.433    0.200   21.250
  318.024  192.051   92.351    0.424    0.207   21.918
  318.274  189.766   90.818    0.411    0.212   24.238
  318.524  187.376   89.775    0.406    0.216   26.032
  318.774  184.570   88.242    0.404    0.219   29.342
  319.024  182.077   84.370    0.386    0.216   33.360
  319.274  181.145   80.806    0.356    0.211   36.823
  319.524  179.902   74.967    0.318    0.165   46.336
  319.774  179.491   59.781    0.269    0.145   50.703
  320.024  179.497   52.342    0.233    0.072   63.292
  320.274  179.295   49.886    0.247    0.071   67.466
  320.524  179.196   51.119    0.245    0.102   73.495
  320.774  178.995   52.354    0.233    0.098   75.906
  321.024  178.687   52.541    0.210    0.080   76.763
  321.274  178.277   55.681    0.207    0.053   76.084
  321.524  178.282   58.268    0.225    0.060   71.993
  321.774  178.393   61.776    0.271    0.089   56.296
  322.024  178.399   66.392    0.319    0.114   47.900
  322.274  178.612   69.901    0.348    0.128   37.914
  322.524  178.619   75.379    0.374    0.165   33.608
  322.774  179.250   80.117    0.400    0.227   30.937
  323.024  179.776   79.752    0.413    0.232   29.376
  323.274  181.449   76.988    0.416    0.224   28.969
  323.524  182.183   75.394    0.391    0.199   28.625
  323.774  183.439   74.782    0.390    0.176   28.164
  324.024  184.590   74.723    0.397    0.201   27.720
  324.274  184.909   75.034    0.407    0.214   28.053
  324.524  185.956   75.037    0.406    0.222   28.267
  324.774  185.961   74.426    0.401    0.228   29.384
  325.024  185.865   72.831    0.389    0.212   30.505
  325.274  186.184   70.743    0.384    0.192   32.710
  325.524  186.293   70.685    0.388    0.170   33.319
  325.774  186.402   72.903    0.405    0.151   32.743
  326.024  186.408   75.489    0.393    0.201   31.836
  326.274  186.830   74.816    0.391    0.205   30.603
  326.524  187.149   77.034    0.412    0.206   29.605
  326.774  187.363   79.190    0.423    0.222   27.483
  327.024  187.473   80.853    0.421    0.230   25.514
  327.274  187.480   83.379    0.416    0.223   24.392
  327.524  187.486   84.796    0.429    0.225   23.414
  327.774  187.491   85.169    0.425    0.230   22.777
  328.024  188.018   83.697    0.421    0.232   22.549
  328.274  188.128   84.438    0.418    0.234   22.433
  328.524  187.925   84.257    0.420    0.231   22.291
  328.774  188.035   78.049    0.423    0.229   22.578
  329.024  188.145   78.360    0.420    0.224   22.475
  329.274  188.672   78.795    0.421    0.215   22.540
  329.524  189.096   77.691    0.429    0.202   22.537
  329.774  189.412   75.603    0.422    0.199   22.599
  330.024  190.565   75.975    0.417    0.202   23.032
  330.274  190.882   77.455    0.418    0.213   23.298
  330.524  190.368   80.779    0.421    0.210   23.559
  330.774  189.853   84.042    0.436    0.199   23.349
  331.024  189.130   85.645    0.447    0.197   22.053
  331.274  188.720   86.940    0.440    0.213   21.009
  331.524  188.621   88.665    0.433    0.220   20.154
  331.774  188.837   90.145    0.452    0.219   19.531
  332.024  188.739   89.963    0.448    0.209   19.328
  332.274  188.639   85.662    0.440    0.200   19.117
  332.524  188.436   86.221    0.439    0.189   19.053
  332.774  188.026   86.961    0.440    0.176   18.718
  333.024  187.617   88.748    0.428    0.177   17.957
  333.274  187.621   90.289    0.429    0.159   17.041
  333.524  187.628   93.060    0.451    0.141   15.640
  333.774  188.467   99.275    0.448    0.202   15.154
  334.024  189.307  101.923    0.441    0.191   15.198
  334.274  190.145  102.849    0.436    0.195   15.353
  334.524  191.713  102.114    0.447    0.190   15.691
  334.774  192.655   98.981    0.447    0.194   16.858
  335.024  194.015   96.894    0.445    0.187   18.421
  335.274  194.750   95.176    0.441    0.169   19.785
  335.524  195.590   92.657    0.435    0.154   23.447
  335.774  196.118   84.419    0.376    0.128   28.537
  336.024  196.956   74.829    0.330    0.100   34.879
  336.274  197.378   77.908    0.349    0.071   47.212
  336.524  197.800   83.323    0.362    0.113   54.179
  336.774  198.850   88.370    0.387    0.210   53.560
  337.024  199.376   88.066    0.399    0.199   48.218
  337.274  199.902   86.839    0.416    0.194   44.171
  337.524  200.220   85.489    0.423    0.195   46.082
  337.774  200.746   83.464    0.415    0.196   49.414
