~VERSION INFORMATION
 VERS.                 2.0:   CWLS LOG ASCII STANDARD -VERSION 2.0
 WRAP.                  NO:   ONE LINE PER DEPTH STEP
~WELL INFORMATION BLOCK
#MNEM.UNIT           DATA                    DESCRIPTION OF MNEMONIC
#---------    -------------------            -------------------------------
# Generated from Intellog Unique Number	CW_70_72/WELL/1055
NULL.         -999.25                        : NULL_VALUE
WELL.         NORCEN VICTOR 11-08            : Well_name    - WELL              
LOC .         11-08-072-01W5                 : Location     - LOCATION          
UWI .         00/11-08-072-01W5/0            : Uwi          - UNIQUE WELL ID    
ENTR.         JAYE                           : Entered      - ENTERED BY        
SRVC.         WESTERN ATLAS                  : Scn          - SERVICE COMPANY   
DATE.         11 MAR 81                      : Date         - LOG DATE          
STRT.M        424                            : top_depth    - START DEPTH       
STOP.M        673                            : bot_depth    - STOP DEPTH        
STEP.M        0.25                           : increment    - STEP LENGTH       
~CURVE INFORMATION BLOCK
#MNEM UNIT       ERCB CURVE CODE    CURVE DESCRIPTION
#-----------   ------------------   ----------------------------------
DEPT.M        00 001 00 00         : DEPTH        - DEPTH                       
DPHI.V/V      00 890 00 00         : PHID         - DENSITY POROSITY (SANDSTONE)
NPHI.V/V      00 330 00 00         : PHIN         - NEUTRON POROSITY (SANDSTONE)
GR  .API      00 310 00 00         : GR           - GAMMA RAY                   
CALI.MM       00 280 01 00         : CAL          - CALIPER                     
ILD .OHMM     00 120 00 00         : RESD         - DEEP RESISTIVITY (DIL)      
~PARAMETER INFORMATION       
#MNEM.UNIT           DATA             DESCRIPTION OF MNEMONIC
#---------         -----------     ------------------------------
GL  .M        610.84               : gl           - GROUND LEVEL ELEVATION      
EREF.M        615.4                : kb           - ELEVATION OF DEPTH REFERENCE
DATM.M        610.84               : datum        - DATUM ELEVATION             
TDD .M        685                  : tdd          - TOTAL DEPTH DRILLER         
RUN .         ONE                  : Run          - RUN NUMBER                  
BASE.         R.D.                 : Branch       - HOME BASE OF LOGGING UNIT   
MUD .         GEL CHEM             : Mud_type     - MUD TYPE                    
MATR.         SANDSTONE            : Logunit      - NEUTRON MATRIX              
TMAX.C        30                   : BHT          - MAXIMUM RECORDED TEMPERATURE
BHTD.M        685.4                : BHTDEP       - MAXIMUM RECORDED TEMPERATURE
RMT .C        5                    : MDTP         - TEMPERATURE OF MUD          
MUDD.KG/M     1110                 : MWT          - MUD DENSITY                 
NEUT.         1                    : NEUTRON      - NEUTRON TYPE                
RESI.         0                    : RESIST       - RESISTIVITY TYPE            
RM  .OHMM     7                    : RM           - RESISTIVITY OF MUD          
RMC .OHMM     3.5                  : RMC          - RESISTIVITY OF MUD CAKE     
RMF .OHMM     4.5                  : RMF          - RESISTIVITY OF MUD FILTRATE 
SUFT.C        0                    : SUFT         - SURFACE TEMPERATURE         
~A  DEPTH     PHID     PHIN       GR      CAL     RESD
# ...
  533.500   -0.005    0.177   64.361  210.687    8.199
  533.750   -0.006    0.190   65.958  210.396    6.364
  534.000   -0.009    0.203   68.377  210.103    4.848
  534.250   -0.010    0.219   71.176  209.817    3.575
  534.500    0.010    0.239   72.774  209.523    2.672
  534.750    0.120    0.266   73.422  209.132    2.146
  535.000    0.164    0.299   74.258  208.942    1.890
  535.250    0.235    0.350   76.550  208.757    1.806
  535.500    0.257    0.351   80.045  208.470    1.775
  535.750    0.256    0.345   84.549  208.289    1.778
  536.000    0.239    0.353   80.455  208.204    1.805
  536.250    0.217    0.350   77.308  208.126    1.835
  536.500    0.200    0.329   78.084  208.154    1.877
  536.750    0.185    0.317   78.922  208.072    1.930
  537.000    0.187    0.317   80.456  207.468    2.004
  537.250    0.224    0.339   80.218  207.072    2.050
  537.500    0.196    0.333   75.300  206.679    2.023
  537.750    0.175    0.323   73.545  206.490    1.943
  538.000    0.185    0.321   73.753  206.413    1.864
  538.250    0.226    0.339   73.959  206.331    1.781
  538.500    0.254    0.357   74.035  206.364    1.714
  538.750    0.265    0.366   74.241  206.387    1.682
  539.000    0.259    0.358   74.957  206.519    1.678
  539.250    0.251    0.364   75.287  206.651    1.694
  539.500    0.250    0.381   75.490  206.991    1.733
  539.750    0.245    0.371   75.505  207.121    1.755
  540.000    0.237    0.359   75.457  207.575    1.768
  540.250    0.239    0.352   75.980  207.702    1.795
  540.500    0.243    0.337   77.197  207.732    1.808
  540.750    0.254    0.348   78.730  207.858    1.842
  541.000    0.265    0.371   79.694  208.518    1.862
  541.250    0.257    0.362   80.029  209.281    1.865
  541.500    0.245    0.354   79.980  209.836    1.876
  541.750    0.239    0.348   79.425  209.971    1.925
  542.000    0.241    0.374   78.365  209.785    2.033
  542.250    0.245    0.362   76.613  209.492    2.247
  542.500    0.247    0.345   75.299  209.308    2.506
  542.750    0.189    0.351   73.163  209.129    2.861
  543.000    0.161    0.354   71.851  208.731    3.107
  543.250    0.137    0.332   73.384  208.440    2.567
  543.500    0.102    0.310   77.955  208.358    2.244
  543.750    0.178    0.331   80.498  208.382    2.038
  544.000    0.254    0.374   79.124  208.409    1.864
  544.250    0.254    0.395   79.394  208.227    1.764
  544.500    0.253    0.387   80.546  208.252    1.808
  544.750    0.265    0.376   82.334  208.385    1.888
  545.000    0.265    0.361   84.245  208.516    1.979
  545.250    0.232    0.349   87.930  208.646    2.066
  545.500    0.202    0.334   92.118  208.992    2.121
  545.750    0.178    0.351   85.938  209.124    2.165
  546.000    0.175    0.357   80.072  209.358    2.144
  546.250    0.190    0.352   77.811  209.489    2.080
  546.500    0.206    0.351   79.724  209.200    2.071
  546.750    0.216    0.356   81.638  209.122    2.098
  547.000    0.214    0.352   84.371  209.145    2.163
  547.250    0.202    0.342   88.370  208.858    2.220
  547.500    0.178    0.351   87.503  208.887    2.262
  547.750    0.176    0.367   87.201  208.907    2.291
  548.000    0.188    0.363   88.165  209.253    2.316
  548.250    0.203    0.360   89.572  209.380    2.347
  548.500    0.212    0.357   91.106  209.725    2.392
  548.750    0.200    0.355   91.817  209.751    2.418
  549.000    0.186    0.356   91.326  209.777    2.454
  549.250    0.167    0.354   89.064  209.801    2.486
  549.500    0.161    0.351   86.299  209.831    2.514
  549.750    0.174    0.344   86.505  209.962    2.528
  550.000    0.176    0.341   85.950  210.092    2.542
  550.250    0.175    0.344   82.238  210.014    2.561
  550.500    0.172    0.349   82.505  210.039    2.574
  550.750    0.175    0.356   84.547  210.276    2.593
  551.000    0.179    0.358   86.266  210.407    2.627
  551.250    0.177    0.360   87.928  210.436    2.636
  551.500    0.169    0.358   88.260  210.147    2.677
  551.750    0.159    0.353   88.402  209.960    2.695
  552.000    0.169    0.351   88.479  209.990    2.715
  552.250    0.166    0.354   89.256  210.117    2.736
  552.500    0.153    0.355   90.979  210.146    2.725
  552.750    0.140    0.354   92.891  210.168    2.729
  553.000    0.142    0.354   94.235  210.304    2.723
  553.250    0.170    0.356   93.175  210.645    2.723
  553.500    0.204    0.363   88.954  210.668    2.732
  553.750    0.203    0.377   88.845  210.801    2.731
  554.000    0.192    0.385   89.996  211.037    2.737
  554.250    0.187    0.379   94.314  211.381    2.757
  554.500    0.178    0.375   96.226  212.041    2.776
  554.750    0.164    0.366   96.369  212.804    2.803
  555.000    0.158    0.358   94.359  213.249    2.824
  555.250    0.161    0.350   90.770  213.275    2.828
  555.500    0.155    0.344   90.598  212.986    2.817
  555.750    0.165    0.361   86.249  212.485    2.815
  556.000    0.203    0.369   81.775  212.095    2.815
  556.250    0.208    0.358   82.488  211.908    2.819
  556.500    0.187    0.351   86.174  211.723    2.819
  556.750    0.171    0.337   88.272  211.958    2.834
  557.000    0.166    0.326   91.958  212.298    2.834
  557.250    0.161    0.321   94.057  212.645    2.844
  557.500    0.155    0.331   95.339  212.564    2.837
  557.750    0.147    0.339   94.470  212.696    2.847
  558.000    0.138    0.350   93.727  212.719    2.858
  558.250    0.163    0.359   93.807  213.171    2.858
  558.500    0.189    0.354   94.262  213.406    2.857
  558.750    0.206    0.346   94.974  213.750    2.877
  559.000    0.171    0.343   94.990  213.883    2.893
  559.250    0.124    0.343   92.286  214.117    2.925
  559.500    0.120    0.343   84.652  214.466    2.981
  559.750    0.146    0.335   79.481  214.593    3.101
  560.000    0.176    0.328   75.259  214.827    4.084
  560.250    0.208    0.313   73.946  215.068    5.370
  560.500    0.189    0.297   67.891  215.514    6.647
  560.750    0.063    0.272   64.366  215.855    7.921
  561.000    0.026    0.240   65.901  216.300    9.422
  561.250    0.022    0.227   68.572  216.750    6.963
  561.500    0.040    0.224   68.966  216.778    5.570
  561.750    0.053    0.242   69.929  217.118    4.524
  562.000    0.065    0.259   74.183  217.147    3.702
  562.250    0.108    0.287   79.890  217.170    3.076
  562.500    0.132    0.322   86.166  217.204    2.917
  562.750    0.148    0.342   87.067  217.227    3.193
  563.000    0.144    0.344   80.571  217.358    3.706
  563.250    0.153    0.340   78.118  217.484    4.095
  563.500    0.162    0.334   77.060  217.617    4.417
  563.750    0.165    0.334   77.205  217.541    4.646
  564.000    0.161    0.322   77.787  217.673    4.888
  564.250    0.123    0.308   78.182  217.485    5.065
  564.500    0.113    0.315   78.388  217.302    4.669
  564.750    0.126    0.335   78.971  216.905    3.792
  565.000    0.137    0.340   80.442  216.617    3.247
  565.250    0.148    0.341   82.987  216.747    3.109
  565.500    0.169    0.340   85.595  216.983    3.056
  565.750    0.180    0.348   85.231  217.329    3.037
  566.000    0.177    0.357   87.273  217.668    3.015
  566.250    0.168    0.369   89.374  218.119    3.013
  566.500    0.160    0.383   91.223  218.672    3.013
  566.750    0.158    0.388   90.609  218.909    3.023
  567.000    0.156    0.374   88.538  219.146    3.023
  567.250    0.146    0.358   87.477  219.274    3.022
  567.500    0.139    0.350   87.620  219.514    3.015
  567.750    0.147    0.349   89.278  219.643    3.022
  568.000    0.158    0.345   93.215  219.671    3.026
  568.250    0.153    0.352   98.922  219.801    3.025
  568.500    0.152    0.360   91.349  219.722    3.047
  568.750    0.160    0.362   86.748  219.435    3.058
  569.000    0.167    0.360   87.396  219.248    3.045
  569.250    0.175    0.360   92.218  219.066    3.045
  569.500    0.175    0.366   88.249  219.088    3.033
  569.750    0.169    0.373   87.192  218.904    3.003
