~VERSION INFORMATION
 VERS.                 2.0:   CWLS LOG ASCII STANDARD -VERSION 2.0
 WRAP.                  NO:   ONE LINE PER DEPTH STEP
~WELL INFORMATION BLOCK
#MNEM.UNIT           DATA                    DESCRIPTION OF MNEMONIC
#---------    -------------------            -------------------------------
# Generated from Intellog Unique Number	CS_73_76/WELL/812
WELL.         ARGO PETROLEUM CORPORATION     : Well_name    - WELL
LOC .         00/10-06-073-10W4/0            : Location     - LOCATION
UWI .         00/10-06-073-10W4/0            : Uwi          - UNIQUE WELL ID
ENTR.         SP                             : Entered      - ENTERED BY
SRVC.         SCHLUMBERGER                   : Scn          - SERVICE COMPANY
STRT.M        310.896                        : top_depth    - START DEPTH
STOP.M        527.646                        : bot_depth    - STOP DEPTH
STEP.M        0.25                           : increment    - STEP LENGTH
 NULL. -999.2500:NULL Value
~CURVE INFORMATION BLOCK
#MNEM UNIT       ERCB CURVE CODE    CURVE DESCRIPTION
#-----------   ------------------   ----------------------------------
DEPT.M        00 001 00 00         : DEPTH        - DEPTH
GR  .API      00 310 00 00         : GR           - GAMMA RAY
DPHI.V/V      00 890 00 00         : PHID         - DENSITY POROSITY (SANDSTONE)
NPHI.V/V      00 330 00 00         : PHIN         - NEUTRON POROSITY (SANDSTONE)
ILD .OHMM     00 120 00 00         : RESD         - DEEP RESISTIVITY (DIL)
~PARAMETER INFORMATION
#MNEM.UNIT           DATA             DESCRIPTION OF MNEMONIC
#---------         -----------     ------------------------------
GL  .M        661.721              : gl           - GROUND LEVEL ELEVATION
EREF.M        665.074              : kb           - ELEVATION OF DEPTH REFERENCE
DATM.M        661.721              : datum        - DATUM ELEVATION
TDD .M        530.657              : tdd          - TOTAL DEPTH DRILLER
RUN .         ONE                  : Run          - RUN NUMBER
ENG .         BILL                 : Engineer     - RECORDING ENGINEER
WIT .         JIM                  : Witness      - WITNESSED BY
MUD .         GEL                  : Mud_type     - MUD TYPE
MATR.         SANDSTONE            : Logunit      - NEUTRON MATRIX
TMAX.C        12.2222              : BHT          - MAXIMUM RECORDED TEMPERATURE
BHTD.M        530.657              : BHTDEP       - MAXIMUM RECORDED TEMPERATURE
MATR.         1                    : LOGUNIT      - NEUTRON MATRIX
RMT .C        25                   : MDTP         - TEMPERATURE OF MUD
NEUT.         1                    : NEUTRON      - NEUTRON TYPE
RESI.         0                    : RESIST       - RESISTIVITY TYPE
RMC .OHMM     0.25                 : RMC          - RESISTIVITY OF MUD CAKE
RMF .OHMM     0.25                 : RMF          - RESISTIVITY OF MUD FILTRATE
SUFT.C        15                   : SUFT         - SURFACE TEMPERATURE
~A  DEPTH       GR     PHID     PHIN     RESD
# ...
  484.896   80.303    0.254    0.371    9.260
  485.146   81.335    0.246    0.364    9.035
  485.396   81.123    0.225    0.361    9.221
  485.646   76.965    0.234    0.381    9.816
  485.896   74.358    0.251    0.394   10.239
  486.146   72.559    0.267    0.411   10.851
  486.396   72.727    0.295    0.407   11.425
  486.646   75.939    0.290    0.394   11.473
  486.896   81.715    0.250    0.384   11.561
  487.146   85.289    0.227    0.378   10.239
  487.396   88.703    0.214    0.372    9.491
  487.646   90.892    0.208    0.381    8.746
  487.896   92.132    0.200    0.390    8.497
  488.146   95.922    0.189    0.396    8.414
  488.396   93.534    0.200    0.407    8.425
  488.646   84.569    0.253    0.402    8.203
  488.896   79.994    0.261    0.359    8.111
  489.146   84.990    0.247    0.398    7.708
  489.396   92.465    0.251    0.432    7.381
  489.646   96.756    0.257    0.513    7.054
  489.896  101.297    0.254    0.528    6.546
  490.146  103.618    0.229    0.528    6.537
  490.396   91.168    0.190    0.514    6.849
  490.646   78.268    0.254    0.453    7.260
  490.896   66.416    0.279    0.380    7.545
  491.146   55.702    0.313    0.375    7.676
  491.396   62.305    0.303    0.364    7.622
  491.646   70.827    0.289    0.359    7.536
  491.896   80.297    0.276    0.368    6.962
  492.146   85.436    0.256    0.374    6.397
  492.396   86.505    0.241    0.381    5.979
  492.646   79.047    0.278    0.399    5.202
  492.896   75.234    0.305    0.411    4.612
  493.146   66.322    0.318    0.419    4.306
  493.396   63.822    0.311    0.416    3.967
  493.646   64.927    0.304    0.416    3.833
  493.896   65.981    0.300    0.408    3.902
  494.146   65.906    0.298    0.413    3.874
  494.396   64.870    0.289    0.403    3.829
  494.646   64.316    0.274    0.402    3.830
  494.896   64.877    0.269    0.403    3.848
  495.146   68.530    0.284    0.400    3.899
  495.396   70.165    0.300    0.395    3.899
  495.646   71.880    0.297    0.388    3.899
  495.896   73.219    0.293    0.393    3.893
  496.146   78.699    0.284    0.395    3.977
  496.396   81.060    0.273    0.400    3.972
  496.646   82.754    0.267    0.402    3.909
  496.896   80.954    0.270    0.399    3.892
  497.146   78.999    0.279    0.401    3.972
  497.396   76.406    0.288    0.404    3.964
  497.646   77.269    0.272    0.396    4.109
  497.896   79.712    0.256    0.391    4.508
  498.146   82.458    0.260    0.395    5.080
  498.396   89.663    0.248    0.390    5.402
  498.646   97.049    0.208    0.387    5.916
  498.896  103.849    0.182    0.387    6.289
  499.146  107.760    0.192    0.381    6.522
  499.396  111.759    0.204    0.390    6.620
  499.646  115.218    0.194    0.402    6.616
  499.896  117.797    0.201    0.398    6.615
  500.146  117.015    0.195    0.393    6.618
  500.396  112.354    0.197    0.394    6.655
  500.646  108.421    0.210    0.376    6.868
  500.896  100.026    0.200    0.364    7.214
  501.146   95.467    0.192    0.362    7.434
  501.396   96.363    0.196    0.377    7.513
  501.646   96.305    0.203    0.385    7.665
  501.896   97.057    0.195    0.388    7.652
  502.146   97.029    0.191    0.385    7.661
  502.396   95.784    0.194    0.380    7.513
  502.646   93.679    0.198    0.381    7.364
  502.896   91.565    0.205    0.386    7.390
  503.146   91.553    0.210    0.387    7.241
  503.396   90.783    0.198    0.385    7.106
  503.646   87.096    0.190    0.375    7.024
  503.896   85.319    0.199    0.368    6.800
  504.146   86.696    0.213    0.376    6.730
  504.396   91.884    0.207    0.387    6.527
  504.646   98.319    0.210    0.402    6.329
  504.896  103.080    0.213    0.413    6.257
  505.146  103.541    0.215    0.409    6.078
  505.396   97.236    0.216    0.398    5.920
  505.646   93.319    0.212    0.389    5.809
  505.896   90.842    0.211    0.387    6.012
  506.146   92.485    0.212    0.390    5.811
  506.396   95.048    0.215    0.389    5.725
  506.646   96.587    0.213    0.381    5.675
  506.896   97.859    0.215    0.377    5.495
  507.146  105.181    0.223    0.372    5.416
  507.396  115.588    0.219    0.371    5.192
  507.646  122.316    0.213    0.388    5.114
  507.896  119.091    0.210    0.397    5.066
  508.146  122.755    0.218    0.392    4.925
  508.396  122.557    0.211    0.394    4.851
  508.646  124.727    0.206    0.398    4.751
  508.896  125.220    0.212    0.394    4.648
  509.146  121.530    0.204    0.386    4.505
  509.396  119.001    0.199    0.380    4.467
  509.646  102.623    0.200    0.384    4.326
  509.896   96.911    0.214    0.405    4.268
  510.146   91.205    0.230    0.410    4.092
  510.396   83.227    0.250    0.393    4.028
  510.646   87.115    0.237    0.395    4.031
  510.896   82.426    0.240    0.395    4.039
  511.146   87.253    0.234    0.385    4.246
  511.396   91.022    0.224    0.395    4.372
  511.646   91.836    0.213    0.415    4.481
  511.896   89.586    0.207    0.421    4.124
  512.146   56.126    0.216    0.400    3.951
  512.396   72.162    0.246    0.388    3.879
  512.646   84.010    0.275    0.383    3.745
  512.896   89.181    0.274    0.393    3.815
  513.146   86.208    0.228    0.413    3.886
  513.396   82.635    0.228    0.412    4.011
  513.646   75.694    0.231    0.390    4.048
  513.896   77.179    0.224    0.375    4.098
  514.146   80.033    0.232    0.400    4.181
  514.396   78.644    0.231    0.406    4.179
  514.646   75.059    0.240    0.391    4.104
  514.896   66.571    0.248    0.395    3.903
  515.146   49.999    0.278    0.417    3.710
  515.396   41.956    0.313    0.403    3.212
  515.646   46.392    0.323    0.392    2.988
  515.896   51.812    0.303    0.391    2.784
  516.146   59.025    0.279    0.389    2.738
  516.396   68.073    0.257    0.379    2.734
  516.646   76.903    0.247    0.377    2.846
  516.896   85.361    0.224    0.382    3.758
  517.146   82.236    0.225    0.365    4.259
  517.396   80.463    0.223    0.361    4.485
  517.646   75.584    0.230    0.370    4.402
  517.896   71.877    0.261    0.369    4.305
  518.146   69.633    0.249    0.395    4.186
  518.396   66.230    0.236    0.414    3.974
  518.646   59.647    0.267    0.405    3.859
  518.896   51.925    0.274    0.397    3.630
  519.146   47.200    0.281    0.390    3.413
  519.396   43.561    0.292    0.404    3.281
  519.646   39.831    0.301    0.404    3.093
  519.896   37.259    0.309    0.412    2.850
  520.146   34.029    0.315    0.421    2.689
  520.396   30.085    0.325    0.423    2.579
  520.646   44.395    0.329    0.414    2.485
  520.896   54.157    0.321    0.403    2.452
  521.146   60.845    0.304    0.383    2.450
  521.396   71.942    0.296    0.388    2.515
  521.646   84.660    0.250    0.395    2.654
  521.896   90.247    0.229    0.401    3.072
  522.146   95.579    0.216    0.415    3.323
  522.396   94.644    0.210    0.426    3.828
  522.646   85.626    0.194    0.421    4.166
  522.896   55.590    0.202    0.385    4.240
  523.146   36.551    0.265    0.386    4.063
  523.396   45.443    0.308    0.410    3.783
  523.646   56.408    0.316    0.400    3.537
  523.896   85.105    0.294    0.397    3.262
  524.146   95.713    0.273    0.403    3.067
  524.396   96.657    0.308    0.403    2.896
  524.646   96.938    0.315    0.408    2.756
  524.896   97.202    0.326    0.417    2.617
  525.146   97.763    0.333    0.424    2.550
  525.396   97.964    0.336    0.426    2.504
  525.646   96.597    0.307    0.419    2.599
  525.896   96.680    0.275    0.430    3.125
  526.146   96.676    0.285    0.430    3.849
  526.396   96.678    0.262    0.416    4.644
  526.646   96.264    0.210    0.406    7.238
  526.896   95.950    0.108    0.387    9.775
  527.146   95.478    0.028    0.374   13.142
  527.396   95.834    0.028    0.390   20.589
  527.646   96.099    0.030    0.392   29.369
