~VERSION INFORMATION
 VERS.                 2.0:   CWLS LOG ASCII STANDARD -VERSION 2.0
 WRAP.                  NO:   ONE LINE PER DEPTH STEP
~WELL INFORMATION BLOCK
#MNEM.UNIT           DATA                    DESCRIPTION OF MNEMONIC
#---------    -------------------            -------------------------------
# Generated from Intellog Unique Number	CS_71_72/WELL/910
WELL.         PEX PHILLIPS AEC KIRBY         : Well_name    - WELL
LOC .         00/11-31-072-07W4/0            : Location     - LOCATION
UWI .         00/11-31-072-07W4/0            : Uwi          - UNIQUE WELL ID
ENTR.         SP                             : Entered      - ENTERED BY
SRVC.         SCHLUMBERGER                   : Scn          - SERVICE COMPANY
STRT.M        310                            : top_depth    - START DEPTH
STOP.M        530                            : bot_depth    - STOP DEPTH
STEP.M        0.25                           : increment    - STEP LENGTH
 NULL. -999.2500:NULL Value
~CURVE INFORMATION BLOCK
#MNEM UNIT       ERCB CURVE CODE    CURVE DESCRIPTION
#-----------   ------------------   ----------------------------------
DEPT.M        00 001 00 00         : DEPTH        - DEPTH
ILD .OHMM     00 120 00 00         : RESD         - DEEP RESISTIVITY (DIL)
DPHI.V/V      00 890 00 00         : PHID         - DENSITY POROSITY (LIMESTONE)
NPHI.V/V      00 330 00 00         : PHIN         - NEUTRON POROSITY (LIMESTONE)
GR  .API      00 310 00 00         : GR           - GAMMA RAY
~PARAMETER INFORMATION
#MNEM.UNIT           DATA             DESCRIPTION OF MNEMONIC
#---------         -----------     ------------------------------
GL  .M        682.8                : gl           - GROUND LEVEL ELEVATION
EREF.M        685.88               : kb           - ELEVATION OF DEPTH REFERENCE
DATM.M        682.8                : datum        - DATUM ELEVATION
TDD .M        536                  : tdd          - TOTAL DEPTH DRILLER
RUN .         ONE                  : Run          - RUN NUMBER
ENG .         BILL                 : Engineer     - RECORDING ENGINEER
WIT .         JIM                  : Witness      - WITNESSED BY
MUD .         GEL                  : Mud_type     - MUD TYPE
MATR.         LIMESTONE            : Logunit      - NEUTRON MATRIX
TMAX.C        26                   : BHT          - MAXIMUM RECORDED TEMPERATURE
BHTD.M        536                  : BHTDEP       - MAXIMUM RECORDED TEMPERATURE
MATR.         1                    : LOGUNIT      - NEUTRON MATRIX
RMT .C        25                   : MDTP         - TEMPERATURE OF MUD
NEUT.         1                    : NEUTRON      - NEUTRON TYPE
RESI.         0                    : RESIST       - RESISTIVITY TYPE
RMC .OHMM     0.25                 : RMC          - RESISTIVITY OF MUD CAKE
RMF .OHMM     0.25                 : RMF          - RESISTIVITY OF MUD FILTRATE
SUFT.C        15                   : SUFT         - SURFACE TEMPERATURE
~A  DEPTH     RESD     PHID     PHIN       GR
  310.000    3.919    0.226    0.420  106.531
  310.250    4.148    0.231    0.433  108.990
  310.500    4.308    0.224    0.440  111.451
  310.750    4.311    0.217    0.429  113.301
  311.000    4.312    0.206    0.418  113.310
  311.250    4.313    0.195    0.420  111.486
  311.500    4.397    0.184    0.418  110.882
  311.750    4.567    0.181    0.412  113.955
  312.000    4.568    0.172    0.418  111.524
  312.250    4.658    0.185    0.406  110.309
  312.500    4.659    0.197    0.414  114.604
  312.750    4.661    0.211    0.422  118.289
  313.000    4.663    0.208    0.437  117.075
  313.250    4.577    0.200    0.427  114.024
  313.500    4.495    0.206    0.424  114.035
  313.750    4.413    0.195    0.422  114.661
  314.000    4.414    0.196    0.418  114.056
  314.250    4.416    0.209    0.433  112.230
  314.500    4.587    0.200    0.440  106.121
  314.750    4.589    0.202    0.434  101.847
  315.000    4.341    0.208    0.430  100.631
  315.250    4.342    0.192    0.422  100.642
  315.500    4.425    0.180    0.412  104.939
  315.750    4.511    0.177    0.407  104.342
  316.000    4.774    0.219    0.414  106.188
  316.250    5.148    0.261    0.423  109.872
  316.500    5.657    0.545    0.412  116.618
  316.750    6.215    0.375    0.426  124.586
  317.000    6.958    0.383    0.396  135.005
  317.250    7.938    0.391    0.376  120.936
  317.500    9.227    0.354    0.328   92.784
  317.750   12.003    0.311    0.326   76.264
  318.000   15.613    0.284    0.320   65.867
  318.250   23.598    0.301    0.321   53.022
  318.500   32.476    0.308    0.323   46.909
  318.750   35.684    0.312    0.326   43.252
  319.000   38.479    0.303    0.330   41.423
  319.250   39.223    0.301    0.338   38.990
  319.500   38.513    0.311    0.343   43.282
  319.750   39.258    0.310    0.345   46.356
  320.000   40.019    0.303    0.348   46.369
  320.250   40.029    0.292    0.348   46.376
  320.500   40.808    0.289    0.346   45.169
  320.750   40.828    0.294    0.345   45.176
  321.000   40.080    0.296    0.340   45.183
  321.250   39.353    0.298    0.338   49.483
  321.500   37.212    0.307    0.338   56.228
  321.750   33.893    0.300    0.341   64.812
  322.000   29.184    0.296    0.351   72.784
  322.250   25.602    0.287    0.354   76.463
  322.500   21.637    0.264    0.351   83.212
  322.750   19.707    0.230    0.342   87.506
  323.000   17.615    0.211    0.350   93.028
  323.250   15.748    0.194    0.353   98.551
  323.500   14.615    0.207    0.355  102.848
  323.750   14.082    0.211    0.358  105.305
  324.000   15.185    0.210    0.356  102.257
  324.250   16.687    0.215    0.350   97.984
  324.500   17.994    0.266    0.345   93.098
  324.750   19.404    0.283    0.342   90.044
  325.000   19.413    0.276    0.342   86.995
  325.250   19.057    0.256    0.335   91.904
  325.500   18.364    0.228    0.332   96.202
  325.750   17.367    0.226    0.327   99.276
  326.000   16.119    0.237    0.321   94.388
  326.250   15.529    0.267    0.321   92.561
  326.500   14.412    0.289    0.326   95.022
  326.750   13.128    0.222    0.331   97.479
  327.000   13.133    0.113    0.332   95.654
  327.250   15.268    0.063    0.329   91.379
  327.500   16.462    0.045    0.321   82.821
  327.750   19.500    0.115    0.314   74.873
  328.000   20.633    0.181    0.309   68.761
  328.250   22.250    0.170    0.311   74.900
  328.500   24.450    0.191    0.314   77.360
  328.750   25.393    0.220    0.311   78.592
  329.000   25.884    0.225    0.312   72.478
  329.250   25.413    0.257    0.320   66.982
  329.500   24.033    0.276    0.328   66.377
  329.750   20.310    0.287    0.336   76.193
  330.000   17.162    0.296    0.341   79.874
  330.250   14.777    0.149    0.347   83.555
  330.500   12.486    0.111    0.360   92.145
  330.750   10.954    0.099    0.369   96.437
  331.000    9.256    0.099    0.374  101.343
  331.250    7.970    0.093    0.383  112.381
  331.500    7.124    0.133    0.393  117.287
  331.750    6.250    0.165    0.405  120.967
  332.000    5.587    0.178    0.412  126.488
  332.250    5.089    0.183    0.408  130.173
  332.500    4.812    0.173    0.411  126.512
  332.750    4.383    0.166    0.425  124.073
  333.000    3.919    0.153    0.430  125.922
  333.250    3.775    0.159    0.420  124.714
  333.500    3.570    0.198    0.416  124.723
  333.750    3.779    0.221    0.413  127.179
  334.000    4.310    0.244    0.403  124.131
  334.250    5.105    0.256    0.392  115.571
  334.500    6.161    0.205    0.376  105.787
  334.750    7.576    0.179    0.366   95.387
  335.000   10.042    0.220    0.357   94.176
  335.250   13.062    0.242    0.363   92.961
  335.500   18.663    0.262    0.366   85.624
  335.750   21.290    0.279    0.371   74.617
  336.000   23.840    0.292    0.366   67.893
  336.250   24.761    0.306    0.356   63.005
  336.500   25.713    0.314    0.351   74.040
  336.750   25.724    0.318    0.345   81.395
  337.000   26.223    0.309    0.341   89.977
  337.250   26.237    0.309    0.337   90.600
  337.500   26.245    0.325    0.333   94.903
  337.750   26.752    0.315    0.332   96.133
  338.000   27.268    0.326    0.341   90.021
  338.250   27.802    0.328    0.350   81.463
  338.500   28.335    0.318    0.355   75.965
  338.750   28.349    0.308    0.361   70.464
  339.000   28.360    0.303    0.362   61.903
  339.250   28.905    0.303    0.354   53.956
  339.500   28.927    0.298    0.341   49.072
  339.750   28.937    0.296    0.337   47.854
  340.000   28.947    0.310    0.332   53.378
  340.250   28.419    0.313    0.334   57.064
  340.500   28.427    0.316    0.331   58.907
  340.750   28.440    0.320    0.332   61.983
  341.000   27.922    0.311    0.346   63.828
  341.250   27.930    0.308    0.351   70.577
  341.500   27.427    0.322    0.353   78.547
  341.750   26.929    0.335    0.354   85.290
  342.000   26.939    0.338    0.364   94.485
  342.250   26.449    0.350    0.371  103.680
  342.500   25.967    0.355    0.362  111.652
  342.750   25.976    0.344    0.357  107.987
  343.000   25.503    0.336    0.353  108.003
  343.250   25.039    0.339    0.350  111.075
  343.500   23.683    0.344    0.352  112.307
  343.750   23.249    0.348    0.359  106.810
  344.000   21.580    0.336    0.363  100.697
  344.250   21.183    0.299    0.371   96.421
  344.500   20.032    0.268    0.382   95.821
  344.750   18.945    0.239    0.392   97.057
  345.000   18.256    0.226    0.392   99.520
  345.250   17.923    0.232    0.383   98.915
  345.500   18.269    0.254    0.374   90.356
  345.750   19.334    0.264    0.355   83.633
  346.000   20.855    0.192    0.342   76.297
  346.250   22.067    0.150    0.329   68.960
  346.500   22.493    0.165    0.321   62.236
  346.750   23.360    0.200    0.313   54.900
  347.000   23.819    0.248    0.317   51.239
  347.250   24.278    0.292    0.332   51.863
  347.500   24.285    0.307    0.340   54.324
  347.750   24.300    0.310    0.338   56.169
  348.000   24.306    0.307    0.336   54.343
  348.250   23.422    0.300    0.343   51.295
  348.500   22.565    0.287    0.347   50.087
  348.750   20.175    0.278    0.354   50.093
  349.000   19.076    0.279    0.356   55.614
  349.250   17.377    0.293    0.358   67.872
  349.500   16.433    0.285    0.358   76.452
  349.750   15.539    0.249    0.350   86.259
  350.000   15.255    0.252    0.342   96.066
  350.250   14.428    0.248    0.339  101.587
  350.500   13.903    0.227    0.337  106.498
  350.750   13.648    0.217    0.331  107.737
  351.000   13.399    0.202    0.329  107.747
  351.250   12.913    0.187    0.328  107.141
  351.500   12.680    0.173    0.346  110.219
  351.750   12.924    0.169    0.355  112.676
  352.000   12.928    0.163    0.378  115.135
  352.250   12.932    0.205    0.391  109.026
  352.500   12.462    0.259    0.381  103.525
  352.750   11.350    0.291    0.364   98.641
  353.000   10.147    0.261    0.357   98.648
  353.250    9.596    0.226    0.372  101.721
