~VERSION INFORMATION
 VERS.                 2.0:   CWLS LOG ASCII STANDARD -VERSION 2.0
 WRAP.                  NO:   ONE LINE PER DEPTH STEP
~WELL INFORMATION BLOCK
#MNEM.UNIT           DATA                    DESCRIPTION OF MNEMONIC
#---------    -------------------            -------------------------------
# Generated from Intellog Unique Number	CW_82_90/WELL/3446
WELL.         NUMAC LIEGE 11-4               : Well_name    - WELL
LOC .         00/11-04-088-21W4/0            : Location     - LOCATION
UWI .         00/11-04-088-21W4/0            : Uwi          - UNIQUE WELL ID
ENTR.         MAX                            : Entered      - ENTERED BY
SRVC.         WESTERN ATLAS                  : Scn          - SERVICE COMPANY
STRT.M        110                            : top_depth    - START DEPTH
STOP.M        321                            : bot_depth    - STOP DEPTH
STEP.M        0.25                           : increment    - STEP LENGTH
 NULL. -999.2500:NULL Value
~CURVE INFORMATION BLOCK
#MNEM UNIT       ERCB CURVE CODE    CURVE DESCRIPTION
#-----------   ------------------   ----------------------------------
DEPT.M        00 001 00 00         : DEPTH        - DEPTH
ILD .OHMM     00 120 00 00         : RESD         - DEEP RESISTIVITY (DIL)
NPHI.V/V      00 330 00 00         : PHIN         - NEUTRON POROSITY (SANDSTONE)
DPHI.V/V      00 890 00 00         : PHID         - DENSITY POROSITY (SANDSTONE)
CALI.MM       00 280 01 00         : CAL          - CALIPER
GR  .API      00 310 00 00         : GR           - GAMMA RAY
~PARAMETER INFORMATION
#MNEM.UNIT           DATA             DESCRIPTION OF MNEMONIC
#---------         -----------     ------------------------------
GL  .M        532.2                : gl           - GROUND LEVEL ELEVATION
EREF.M        535.2                : kb           - ELEVATION OF DEPTH REFERENCE
DATM.M        532.2                : datum        - DATUM ELEVATION
TDD .M        322.5                : tdd          - TOTAL DEPTH DRILLER
RUN .         ONE                  : Run          - RUN NUMBER
ENG .         BILL                 : Engineer     - RECORDING ENGINEER
WIT .         JIM                  : Witness      - WITNESSED BY
MUD .         GEL                  : Mud_type     - MUD TYPE
MATR.         SANDSTONE            : Logunit      - NEUTRON MATRIX
TMAX.C        18.8                 : BHT          - MAXIMUM RECORDED TEMPERATURE
BHTD.M        322.5                : BHTDEP       - MAXIMUM RECORDED TEMPERATURE
MATR.         1                    : LOGUNIT      - NEUTRON MATRIX
RMT .C        16                   : MDTP         - TEMPERATURE OF MUD
NEUT.         1                    : NEUTRON      - NEUTRON TYPE
RESI.         0                    : RESIST       - RESISTIVITY TYPE
RMC .OHMM     5                    : RMC          - RESISTIVITY OF MUD CAKE
RMF .OHMM     3                    : RMF          - RESISTIVITY OF MUD FILTRATE
SUFT.C        -5                   : SUFT         - SURFACE TEMPERATURE
~A  DEPTH     RESD     PHIN     PHID      CAL       GR
  110.000   38.656    0.390    0.395  269.198   43.686
  110.250   37.881    0.382    0.397  265.172   43.661
  110.500   37.831    0.351    0.420  261.634   46.038
  110.750   36.731    0.356    0.449  260.106   48.407
  111.000   36.337    0.340    0.449  259.071   49.883
  111.250   36.962    0.368    0.433  258.535   53.152
  111.500   31.814    0.386    0.400  257.990   60.012
  111.750   27.130    0.398    0.382  256.960   66.872
  112.000   24.002    0.382    0.359  255.431   71.338
  112.250   22.255    0.388    0.350  256.886   74.906
  112.500   19.515    0.407    0.349  258.345   79.372
  112.750   16.181    0.411    0.346  251.326   79.646
  113.000   14.321    0.428    0.341  250.785   80.824
  113.250   12.324    0.434    0.339  249.252   90.975
  113.500   11.639    0.407    0.345  247.225   94.543
  113.750   12.402    0.398    0.379  245.687   74.470
  114.000   16.514    0.383    0.383  242.154   40.933
  114.250   23.902    0.359    0.357  240.122   29.241
  114.500   29.277    0.325    0.347  241.087   23.229
  114.750   40.453    0.326    0.340  240.048   26.201
  115.000   50.950    0.320    0.332  240.011   30.664
  115.250   59.006    0.287    0.327  241.973   35.432
  115.500   61.728    0.274    0.316  246.419   41.993
  115.750   64.563    0.277    0.298  246.382   46.157
  116.000   62.117    0.280    0.279  245.851   51.526
  116.250   57.576    0.273    0.250  244.816   52.399
  116.500   53.376    0.268    0.264  245.767   46.990
  116.750   49.944    0.302    0.297  246.229   42.776
  117.000   47.168    0.330    0.316  246.695   43.654
  117.250   44.135    0.319    0.304  247.156   49.315
  117.500   41.274    0.299    0.270  246.616   47.200
  117.750   40.088    0.303    0.271  244.081   41.493
  118.000   39.659    0.313    0.261  242.058   32.791
  118.250   41.097    0.249    0.218  240.525   35.461
  118.500   34.723    0.205    0.196  239.989   47.408
  118.750   29.886    0.210    0.169  239.947   57.861
  119.000   24.558    0.232    0.175  239.910   67.414
  119.250   20.553    0.259    0.198  239.868   76.966
  119.500   17.855    0.314    0.281  239.822   82.031
  119.750   14.134    0.383    0.295  239.794   82.903
  120.000   11.614    0.351    0.307  238.764   81.086
  120.250   10.867    0.381    0.314  237.725   87.350
  120.500   10.950    0.406    0.315  237.184   90.020
  120.750   11.245    0.439    0.308  236.159   85.809
  121.000   11.434    0.441    0.308  235.614   78.004
  121.250   11.741    0.422    0.307  235.078   80.376
  121.500   11.941    0.406    0.304  234.542   83.044
  121.750   12.262    0.395    0.304  234.505   82.426
  122.000   12.473    0.403    0.307  235.968   85.695
  122.250   12.921    0.417    0.315  237.427   83.578
  122.500   13.392    0.412    0.324  238.387   80.863
  122.750   13.496    0.394    0.343  237.847   74.853
  123.000   13.231    0.401    0.440  237.814   69.439
  123.250   12.963    0.428    0.448  240.765   72.415
  123.500   12.829    0.429    0.448  241.217   73.589
  123.750   12.805    0.401    0.410  241.189   78.055
  124.000   12.910    0.424    0.359  241.651   81.923
  124.250   13.132    0.444    0.336  243.604   78.906
  124.500   13.235    0.409    0.326  244.569   89.359
  124.750   13.336    0.395    0.331  245.030   93.226
  125.000   13.565    0.399    0.324  245.990   86.023
  125.250   13.799    0.389    0.318  245.948   85.103
  125.500   13.778    0.383    0.327  245.417   83.884
  125.750   13.886    0.413    0.344  245.879   80.567
  126.000   14.125    0.411    0.365  247.333   80.841
  126.250   14.634    0.388    0.369  247.287   76.334
  126.500   14.752    0.342    0.352  247.259   74.214
  126.750   14.591    0.369    0.342  247.222   85.565
  127.000   14.041    0.374    0.328  247.180   87.338
  127.250   13.382    0.436    0.313  247.147   85.221
  127.500   12.992    0.435    0.317  247.105   84.295
  127.750   13.094    0.411    0.319  247.068   79.488
  128.000   13.319    0.427    0.316  247.036   80.364
  128.250   13.551    0.433    0.315  246.999   81.236
  128.500   13.913    0.409    0.309  246.952   80.014
  128.750   14.284    0.397    0.299  246.910   84.782
  129.000   15.079    0.388    0.302  247.381   89.850
  129.250   15.623    0.431    0.300  247.339   91.024
  129.500   15.895    0.405    0.298  247.801   83.521
  129.750   16.016    0.431    0.303  247.768   80.507
  130.000   15.992    0.422    0.307  247.731   85.870
  130.250   15.824    0.394    0.309  247.689   82.255
  130.500   15.945    0.388    0.316  248.649   84.925
  130.750   15.487    0.402    0.321  248.617   88.787
  131.000   15.315    0.435    0.322  248.072   88.771
  131.250   15.440    0.415    0.319  248.035   84.858
  131.500   15.847    0.401    0.315  247.503   77.951
  131.750   15.823    0.400    0.313  246.963   82.121
  132.000   15.653    0.385    0.315  244.437   84.791
  132.250   15.201    0.386    0.320  243.402   82.971
  132.500   14.764    0.350    0.324  240.872   82.051
  132.750   14.335    0.361    0.325  237.842   84.425
  133.000   14.313    0.409    0.325  239.292   88.589
  133.250   14.160    0.396    0.326  239.749   81.984
  133.500   14.011    0.440    0.322  238.719   79.568
  133.750   13.725    0.426    0.313  241.180   83.433
  134.000   13.457    0.408    0.312  241.138   87.303
  134.250   13.187    0.409    0.316  241.105   90.572
  134.500   13.046    0.415    0.316  240.062   90.550
  134.750   12.787    0.412    0.311  240.034   83.945
  135.000   12.770    0.402    0.308  239.997   81.825
  135.250   12.631    0.381    0.313  238.957   87.488
  135.500   12.614    0.394    0.315  238.920   90.156
  135.750   12.832    0.424    0.317  237.886   93.431
  136.000   13.297    0.408    0.314  237.345   83.831
  136.250   13.652    0.408    0.305  238.310   81.714
  136.500   13.624    0.414    0.305  239.266   86.778
  136.750   13.358    0.393    0.305  239.228   88.252
  137.000   13.215    0.408    0.305  239.690   84.639
  137.250   13.195    0.444    0.308  240.655   85.814
  137.500   13.299    0.438    0.313  241.112   87.287
  137.750   13.776    0.437    0.316  241.065   83.672
  138.000   14.411    0.401    0.316  240.539   84.547
  138.250   15.216    0.390    0.312  238.497   83.328
  138.500   16.361    0.400    0.320  238.470   76.723
  138.750   16.798    0.386    0.326  240.427   71.614
  139.000   16.776    0.369    0.324  242.380   73.683
  139.250   16.141    0.369    0.307  241.840   79.050
  139.500   14.963    0.398    0.314  241.313   88.004
  139.750   14.129    0.443    0.316  241.276   89.475
  140.000   14.108    0.412    0.314  243.233   87.062
  140.250   13.957    0.398    0.322  240.698   78.656
  140.500   13.680    0.412    0.327  241.160   77.436
  140.750   13.533    0.387    0.318  241.612   76.816
  141.000   13.513    0.367    0.307  240.577   73.203
  141.250   13.490    0.398    0.312  240.545   79.467
  141.500   13.595    0.394    0.309  244.003   86.327
  141.750   13.829    0.376    0.308  241.971   79.422
  142.000   14.068    0.371    0.315  241.925   79.694
  142.250   14.307    0.410    0.309  242.894   83.564
  142.500   14.286    0.410    0.299  245.849   90.127
  142.750   14.135    0.390    0.279  245.803   92.798
  143.000   14.114    0.390    0.279  245.766   84.990
  143.250   14.090    0.393    0.274  245.733   88.561
  143.500   14.069    0.375    0.280  244.694   86.445
  143.750   14.179    0.343    0.286  244.657   89.115
  144.000   14.161    0.348    0.293  244.620   92.085
  144.250   14.271    0.371    0.302  244.582   89.364
  144.500   14.514    0.372    0.309  246.041   85.159
  144.750   15.178    0.359    0.313  247.500   80.944
  145.000   15.728    0.389    0.318  246.466   76.132
  145.250   16.154    0.414    0.323  244.923   75.215
  145.500   15.542    0.435    0.328  243.898   77.284
  145.750   14.673    0.417    0.326  243.856   87.737
  146.000   14.252    0.405    0.314  244.322   91.904
  146.250   14.096    0.392    0.312  242.290   91.582
