~VERSION INFORMATION
 VERS.                 2.0:   CWLS LOG ASCII STANDARD -VERSION 2.0
 WRAP.                  NO:   ONE LINE PER DEPTH STEP
~WELL INFORMATION BLOCK
#MNEM.UNIT           DATA                    DESCRIPTION OF MNEMONIC
#---------    -------------------            -------------------------------
# Generated from Intellog Unique Number	CW_73_75/WELL/1037
WELL.         THOM-JEN CHERPETA 11-11        : Well_name    - WELL
LOC .         00/11-11-074-20W4/0            : Location     - LOCATION
UWI .         00/11-11-074-20W4/0            : Uwi          - UNIQUE WELL ID
ENTR.         JAYE                           : Entered      - ENTERED BY
SRVC.         COMPUTALOG                     : Scn          - SERVICE COMPANY
DATE.         5 MAR 85                       : Date         - LOG DATE
STRT.M        450                            : top_depth    - START DEPTH
STOP.M        675                            : bot_depth    - STOP DEPTH
STEP.M        0.25                           : increment    - STEP LENGTH
 NULL. -999.2500:NULL Value
~CURVE INFORMATION BLOCK
#MNEM UNIT       ERCB CURVE CODE    CURVE DESCRIPTION
#-----------   ------------------   ----------------------------------
DEPT.M        00 001 00 00         : DEPTH        - DEPTH
GR  .API      00 310 00 00         : GR           - GAMMA RAY
CALI.MM       00 280 01 00         : CAL          - CALIPER
NPHI.V/V      00 330 00 00         : PHIN         - NEUTRON POROSITY (SANDSTONE)
DPHI.V/V      00 890 00 00         : PHID         - DENSITY POROSITY (SANDSTONE)
ILD .OHMM     00 120 00 00         : RESD         - DEEP RESISTIVITY (DIL)
~PARAMETER INFORMATION
#MNEM.UNIT           DATA             DESCRIPTION OF MNEMONIC
#---------         -----------     ------------------------------
GL  .M        763.9                : gl           - GROUND LEVEL ELEVATION
EREF.M        767.6                : kb           - ELEVATION OF DEPTH REFERENCE
DATM.M        763.9                : datum        - DATUM ELEVATION
TDD .M        700                  : tdd          - TOTAL DEPTH DRILLER
RUN .         ONE                  : Run          - RUN NUMBER
ENG .         TEETZEL              : Engineer     - RECORDING ENGINEER
WIT .         GORMAN               : Witness      - WITNESSED BY
BASE.         EDMONTON             : Branch       - HOME BASE OF LOGGING UNIT
MUD .         GEL CHEM             : Mud_type     - MUD TYPE
MATR.         SANDSTONE            : Logunit      - NEUTRON MATRIX
TMAX.C        38                   : BHT          - MAXIMUM RECORDED TEMPERATURE
BHTD.M        698.7                : BHTDEP       - MAXIMUM RECORDED TEMPERATURE
RMT .C        38                   : MDTP         - TEMPERATURE OF MUD
MUDD.KG/M     1110                 : MWT          - MUD DENSITY
NEUT.         1                    : NEUTRON      - NEUTRON TYPE
RESI.         0                    : RESIST       - RESISTIVITY TYPE
RM  .OHMM     4.7                  : RM           - RESISTIVITY OF MUD
RMC .OHMM     0                    : RMC          - RESISTIVITY OF MUD CAKE
RMF .OHMM     3.7                  : RMF          - RESISTIVITY OF MUD FILTRATE
SUFT.C        0                    : SUFT         - SURFACE TEMPERATURE
~A  DEPTH       GR      CAL     PHIN     PHID     RESD
# ...
  559.500   61.243  147.504    0.418    0.295    4.421
  559.750   64.029  148.261    0.411    0.285    4.426
  560.000   68.390  149.769    0.422    0.283    4.438
  560.250   71.495  151.148    0.425    0.280    4.468
  560.500   69.118  152.122    0.410    0.275    4.490
  560.750   65.606  152.877    0.403    0.270    4.511
  561.000   63.104  153.227    0.392    0.272    4.516
  561.250   64.504  153.471    0.407    0.272    4.511
  561.500   65.656  153.395    0.424    0.270    4.533
  561.750   67.118  153.312    0.437    0.270    4.581
  562.000   68.709  152.818    0.422    0.272    4.620
  562.250   70.555  152.526    0.409    0.272    4.651
  562.500   67.233  152.242    0.374    0.271    4.674
  562.750   65.041  152.168    0.375    0.268    4.705
  563.000   65.755  151.987    0.430    0.265    4.736
  563.250   71.250  152.117    0.444    0.262    4.759
  563.500   76.053  152.671    0.427    0.261    4.764
  563.750   77.456  153.644    0.409    0.258    4.778
  564.000   77.528  154.825    0.379    0.250    4.764
  564.250   79.312  156.422    0.376    0.244    4.575
  564.500   84.621  159.916    0.420    0.243    4.269
  564.750   89.738  162.883    0.447    0.246    3.947
  565.000   93.531  164.278    0.488    0.248    3.635
  565.250   88.953  163.982    0.511    0.243    3.361
  565.500   83.109  162.124    0.490    0.238    3.377
  565.750   81.743  160.253    0.457    0.244    3.605
  566.000   80.558  158.508    0.427    0.252    3.892
  566.250   79.947  156.751    0.418    0.272    4.283
  566.500   78.390  155.202    0.418    0.270    4.581
  566.750   75.446  153.968    0.419    0.260    4.908
  567.000   75.655  153.161    0.419    0.250    5.152
  567.250   79.635  153.083    0.387    0.239    5.275
  567.500   82.801  154.474    0.382    0.219    5.301
  567.750   84.897  158.491    0.410    0.206    5.187
  568.000   88.126  162.505    0.434    0.198    5.075
  568.250   89.465  165.050    0.391    0.192    5.042
  568.500   89.418  164.661    0.383    0.191    5.028
  568.750   90.693  163.103    0.411    0.198    5.043
  569.000   86.933  161.769    0.440    0.205    5.038
  569.250   87.768  161.066    0.447    0.206    5.015
  569.500   91.814  162.562    0.448    0.204    4.944
  569.750   94.540  165.843    0.439    0.203    4.792
  570.000   92.542  165.868    0.410    0.203    4.645
  570.250   88.967  163.904    0.391    0.207    4.477
  570.500   88.355  166.243    0.428    0.208    4.274
  570.750   90.132  168.897    0.423    0.205    4.135
  571.000   94.679  168.504    0.416    0.202    4.178
  571.250   94.198  165.378    0.417    0.203    4.352
  571.500   88.856  163.413    0.421    0.207    4.620
  571.750   85.161  164.176    0.410    0.202    4.840
  572.000   81.775  167.139    0.397    0.194    5.012
  572.250   81.410  166.123    0.400    0.195    5.172
  572.500   83.132  160.266    0.388    0.209    5.286
  572.750   86.233  157.353    0.388    0.207    5.382
  573.000   89.084  156.543    0.394    0.209    5.449
  573.250   86.958  157.512    0.393    0.212    5.506
  573.500   85.591  158.697    0.391    0.211    5.573
  573.750   84.721  159.878    0.391    0.212    5.623
  574.000   85.058  160.529    0.401    0.214    5.681
  574.250   86.268  160.778    0.401    0.215    5.752
  574.500   85.782  161.121    0.400    0.215    5.780
  574.750   84.288  161.558    0.401    0.212    5.786
  575.000   84.808  161.589    0.385    0.207    5.737
  575.250   85.833  162.141    0.379    0.202    5.667
  575.500   89.056  162.176    0.418    0.206    5.619
  575.750   91.658  159.471    0.450    0.217    5.540
  576.000   93.817  159.709    0.464    0.227    5.463
  576.250   92.134  161.201    0.447    0.218    5.366
  576.500   88.427  164.063    0.384    0.208    5.300
  576.750   86.685  166.090    0.382    0.205    5.225
  577.000   82.674  165.273    0.384    0.204    5.191
  577.250   81.552  163.101    0.366    0.202    5.138
  577.500   85.225  159.766    0.360    0.206    5.085
  577.750   87.130  160.742    0.376    0.212    5.042
  578.000   86.956  165.593    0.362    0.224    4.990
  578.250   85.901  168.039    0.341    0.225    4.892
  578.500   82.457  167.959    0.333    0.216    4.778
  578.750   85.936  165.468    0.367    0.199    4.720
  579.000   90.234  161.399    0.392    0.182    4.716
  579.250   90.501  157.964    0.399    0.187    4.774
  579.500   84.665  154.948    0.392    0.222    4.870
  579.750   75.801  154.347    0.361    0.243    5.054
  580.000   66.623  154.368    0.339    0.244    5.145
  580.250   59.648  154.510    0.337    0.250    5.054
  580.500   53.425  154.943    0.355    0.268    4.655
  580.750   53.381  155.283    0.387    0.342    4.231
  581.000   53.461  155.407    0.407    0.354    3.911
  581.250   54.486  155.453    0.437    0.343    3.637
  581.500   54.504  155.587    0.466    0.328    3.400
  581.750   53.694  155.608    0.464    0.333    3.186
  582.000   53.213  155.849    0.458    0.344    3.381
  582.250   52.284  156.822    0.306    0.344    3.672
  582.500   50.914  158.108    0.208    0.288    4.063
  582.750   48.855  159.820    0.186    0.093    4.565
  583.000   42.256  160.265    0.195    0.129    5.198
  583.250   39.882  160.189    0.354    0.322    5.444
  583.500   39.079  159.796    0.412    0.439    5.338
  583.750   39.283  158.881    0.364    0.378    4.515
  584.000   41.754  156.384    0.359    0.272    4.042
  584.250   45.233  153.474    0.374    0.288    3.779
  584.500   46.825  152.551    0.355    0.322    3.622
  584.750   47.216  153.622    0.339    0.338    3.517
  585.000   46.736  154.818    0.360    0.331    3.494
  585.250   48.137  157.253    0.390    0.323    3.517
  585.500   48.968  158.337    0.406    0.315    3.568
  585.750   47.288  159.302    0.405    0.322    3.585
  586.000   44.787  159.860    0.400    0.319    3.568
  586.250   46.499  160.095    0.415    0.316    3.579
  586.500   49.606  160.336    0.422    0.316    3.575
  586.750   50.189  160.256    0.375    0.305    3.654
  587.000   43.529  160.077    0.240    0.146    3.968
  587.250   40.523  159.684    0.179    0.070    4.309
  587.500   39.406  159.608    0.143    0.046    5.134
  587.750   38.916  160.468    0.124    0.041    6.280
  588.000   39.061  161.024    0.123    0.042    7.669
  588.250   40.147  161.156    0.132    0.041   11.842
  588.500   42.053  161.288    0.147    0.037   12.125
  588.750   44.275  161.313    0.169    0.039   11.338
  589.000   47.184  161.235    0.183    0.054   10.520
  589.250   49.215  160.529    0.168    0.072   10.026
  589.500   49.800  158.464    0.162    0.094    9.501
  589.750   49.756  157.228    0.193    0.125    9.036
  590.000   50.150  156.419    0.312    0.267    8.480
  590.250   50.794  155.078    0.342    0.303    8.144
  590.500   51.191  153.525    0.400    0.300    7.513
  590.750   51.522  152.929    0.372    0.268    6.974
  591.000   50.910  152.015    0.347    0.226    6.255
  591.250   51.303  150.989    0.332    0.219    5.350
  591.500   53.522  150.482    0.360    0.257    4.938
  591.750   55.616  150.716    0.363    0.276    4.643
  592.000   56.137  152.117    0.366    0.293    4.535
  592.250   53.825  154.664    0.387    0.290    4.531
  592.500   54.467  158.055    0.367    0.264    4.683
  592.750   54.361  160.814    0.285    0.229    5.057
  593.000   52.677  162.308    0.262    0.165    5.502
  593.250   55.214  161.183    0.309    0.266    5.873
  593.500   56.486  158.371    0.344    0.276    5.946
  593.750   54.991  156.723    0.398    0.280    5.774
  594.000   54.822  155.702    0.411    0.285    5.440
  594.250   61.574  155.094    0.401    0.291    5.165
  594.500   62.602  155.022    0.395    0.287    4.969
  594.750   62.993  156.415    0.397    0.294    4.699
  595.000   63.515  154.233    0.389    0.301    4.402
  595.250   63.658  153.731    0.369    0.297    4.275
  595.500   61.969  153.867    0.371    0.290    4.183
  595.750   60.724  153.989    0.380    0.282    4.163
