~VERSION INFORMATION
 VERS.                 2.0:   CWLS LOG ASCII STANDARD -VERSION 2.0
 WRAP.                  NO:   ONE LINE PER DEPTH STEP
~WELL INFORMATION BLOCK
#MNEM.UNIT           DATA                    DESCRIPTION OF MNEMONIC
#---------    -------------------            -------------------------------
# Generated from Intellog Unique Number	CW_76_78/WELL/992
WELL.         GULF POC DROWNED 10-35         : Well_name    - WELL
LOC .         00/10-35-076-21W4/0            : Location     - LOCATION
UWI .         00/10-35-076-21W4/0            : Uwi          - UNIQUE WELL ID
ENTR.         JAYE                           : Entered      - ENTERED BY
SRVC.         SCHLUMBERGER                   : Scn          - SERVICE COMPANY
DATE.         26 FEB 77                      : Date         - LOG DATE
STRT.M        408.432                        : top_depth    - START DEPTH
STOP.M        597.432                        : bot_depth    - STOP DEPTH
STEP.M        0.25                           : increment    - STEP LENGTH
 NULL. -999.2500:NULL Value
~CURVE INFORMATION BLOCK
#MNEM UNIT       ERCB CURVE CODE    CURVE DESCRIPTION
#-----------   ------------------   ----------------------------------
DEPT.M        00 001 00 00         : DEPTH        - DEPTH
ILD .OHMM     00 120 00 00         : RESD         - DEEP RESISTIVITY (DIL)
NPHI.V/V      00 330 00 00         : PHIN         - NEUTRON POROSITY (SANDSTONE)
DPHI.V/V      00 890 00 00         : PHID         - DENSITY POROSITY (SANDSTONE)
GR  .API      00 310 00 00         : GR           - GAMMA RAY
CALI.MM       00 280 01 00         : CAL          - CALIPER
~PARAMETER INFORMATION
#MNEM.UNIT           DATA             DESCRIPTION OF MNEMONIC
#---------         -----------     ------------------------------
GL  .M        738.835              : gl           - GROUND LEVEL ELEVATION
EREF.M        742.188              : kb           - ELEVATION OF DEPTH REFERENCE
DATM.M        738.835              : datum        - DATUM ELEVATION
TDD .M        608.076              : tdd          - TOTAL DEPTH DRILLER
RUN .         ONE                  : Run          - RUN NUMBER
MATR.         SANDSTONE            : Logunit      - NEUTRON MATRIX
TMAX.C        26.1111              : BHT          - MAXIMUM RECORDED TEMPERATURE
BHTD.M        608.076              : BHTDEP       - MAXIMUM RECORDED TEMPERATURE
RMT .C        18.3333              : MDTP         - TEMPERATURE OF MUD
MUDD.KG/M     0                    : MWT          - MUD DENSITY
NEUT.         1                    : NEUTRON      - NEUTRON TYPE
RESI.         0                    : RESIST       - RESISTIVITY TYPE
RM  .OHMM     5.13                 : RM           - RESISTIVITY OF MUD
RMC .OHMM     0                    : RMC          - RESISTIVITY OF MUD CAKE
RMF .OHMM     5.09                 : RMF          - RESISTIVITY OF MUD FILTRATE
SUFT.C        -17.7778             : SUFT         - SURFACE TEMPERATURE
~A  DEPTH     RESD     PHIN     PHID       GR      CAL
# ...
  444.932    7.197    0.459    0.334   99.182  151.870
  445.182    7.044    0.461    0.330   97.910  151.479
  445.432    6.845    0.458    0.324   98.273  151.100
  445.682    6.748    0.449    0.324   99.618  151.711
  445.932    6.690    0.439    0.300  101.872  152.766
  446.182    6.731    0.426    0.292  107.527  153.376
  446.432    6.748    0.423    0.305  112.398  155.650
  446.682    6.739    0.452    0.286  117.795  158.594
  446.932    6.755    0.470    0.273  114.234  157.541
  447.182    6.759    0.490    0.300  106.365  154.176
  447.432    6.751    0.507    0.308  102.544  153.239
  447.682    6.693    0.461    0.290  104.931  154.191
  447.932    6.551    0.429    0.302  108.497  155.364
  448.182    6.342    0.415    0.304  105.982  155.524
  448.432    6.208    0.406    0.283  104.514  155.920
  448.682    6.076    0.412    0.294  109.974  156.196
  448.932    6.068    0.420    0.289  119.160  157.365
  449.182    6.094    0.423    0.267  127.755  158.085
  449.432    6.234    0.418    0.265  135.045  158.150
  449.682    6.518    0.410    0.249  139.983  159.755
  449.932    6.802    0.402    0.249  138.908  162.917
  450.182    6.983    0.396    0.264  123.063  165.076
  450.432    7.052    0.392    0.277  104.865  159.606
  450.682    7.043    0.410    0.291   90.590  155.353
  450.932    7.073    0.412    0.313   82.326  152.870
  451.182    7.090    0.405    0.331   73.670  150.936
  451.432    7.120    0.414    0.341   71.287  149.340
  451.682    7.164    0.429    0.342   71.324  147.956
  451.932    7.181    0.436    0.347   71.951  146.909
  452.182    7.238    0.440    0.339   72.900  146.751
  452.432    7.310    0.431    0.335   73.651  146.699
  452.682    7.327    0.419    0.321   72.052  147.428
  452.932    7.304    0.407    0.309   66.599  151.026
  453.182    7.269    0.388    0.320   63.562  154.409
  453.432    7.272    0.402    0.331   62.881  153.909
  453.682    7.264    0.415    0.336   63.439  149.435
  453.932    7.242    0.409    0.335   63.865  147.169
  454.182    7.232    0.402    0.333   64.099  150.225
  454.432    7.236    0.409    0.331   64.201  151.389
  454.682    7.213    0.425    0.331   62.999  152.665
  454.932    7.204    0.428    0.330   61.919  154.163
  455.182    7.248    0.428    0.334   60.057  155.110
  455.432    7.187    0.428    0.335   61.597  155.389
  455.682    7.072    0.426    0.330   65.422  155.123
  455.932    6.872    0.426    0.324   69.707  153.078
  456.182    6.520    0.426    0.336   71.899  150.700
  456.432    5.822    0.410    0.347   70.956  148.327
  456.682    4.843    0.402    0.350   68.636  146.838
  456.932    4.799    0.408    0.344   71.481  149.336
  457.182    3.867    0.422    0.359   76.552  153.714
  457.432    2.907    0.423    0.358   81.553  155.430
  457.682    2.475    0.431    0.329   88.517  156.153
  457.932    2.481    0.447    0.313   94.107  156.774
  458.182    2.662    0.481    0.277   95.450  157.053
  458.432    3.034    0.509    0.287   94.242  156.783
  458.682    3.560    0.510    0.309   98.333  155.841
  458.932    4.095    0.519    0.274  101.568  154.130
  459.182    4.941    0.536    0.259  105.656  156.516
  459.432    5.778    0.524    0.254  101.314  161.334
  459.682    6.198    0.494    0.265   92.331  162.731
  459.932    6.145    0.425    0.306   87.464  159.133
  460.182    5.949    0.418    0.321   81.031  153.555
  460.432    5.759    0.424    0.330   80.804  151.616
  460.682    5.731    0.431    0.346   83.457  152.457
  460.932    5.798    0.432    0.344   87.021  153.626
  461.182    6.051    0.435    0.326   90.195  155.006
  461.432    6.362    0.443    0.327   92.449  156.063
  461.682    6.652    0.458    0.325   96.667  157.902
  461.932    6.440    0.482    0.305   99.512  159.504
  462.182    5.966    0.470    0.296   90.924  159.234
  462.432    5.629    0.454    0.306   88.476  155.307
  462.682    5.459    0.449    0.324   93.738  150.947
  462.932    5.373    0.437    0.347   99.983  149.455
  463.182    5.298    0.441    0.316  104.460  148.741
  463.432    5.157    0.450    0.289  108.614  148.471
  463.682    4.920    0.463    0.268  112.570  148.529
  463.932    4.651    0.472    0.266  118.029  148.589
  464.182    4.437    0.485    0.275  119.441  148.981
  464.432    4.415    0.465    0.270  122.546  149.375
  464.682    4.549    0.453    0.209  132.385  156.294
  464.932    4.748    0.451    0.208  130.986  164.100
  465.182    4.946    0.463    0.219  128.474  168.701
  465.432    5.106    0.473    0.231  124.325  169.314
  465.682    5.397    0.481    0.231  118.153  170.704
  465.932    5.613    0.493    0.242  112.696  171.757
  466.182    5.699    0.478    0.266   83.256  168.497
  466.432    5.692    0.434    0.309   70.420  157.048
  466.682    5.685    0.411    0.321   73.135  151.247
  466.932    5.677    0.431    0.312   73.432  152.410
  467.182    5.660    0.446    0.327   69.218  155.680
  467.432    5.664    0.458    0.349   68.078  155.191
  467.682    5.667    0.445    0.368   70.403  152.264
  467.932    5.701    0.454    0.363   73.055  150.895
  468.182    5.747    0.459    0.345   72.890  150.837
  468.432    5.781    0.450    0.333   69.855  151.222
  468.682    5.817    0.452    0.327   70.483  151.287
  468.932    5.821    0.466    0.340   72.735  151.349
  469.182    5.834    0.466    0.337   73.035  151.196
  469.432    5.891    0.454    0.334   71.437  151.141
  469.682    6.004    0.447    0.346   72.058  150.868
  469.932    6.118    0.452    0.356   73.210  150.272
  470.182    6.305    0.478    0.355   71.543  149.771
  470.432    6.401    0.475    0.344   69.160  149.390
  470.682    6.464    0.466    0.340   73.119  149.669
  470.932    6.551    0.461    0.357   74.851  149.841
  471.182    6.603    0.449    0.359   74.625  150.669
  471.432    6.595    0.443    0.351   75.640  152.286
  471.682    6.515    0.470    0.339   76.919  153.898
  471.932    6.354    0.474    0.339   77.347  154.392
  472.182    6.207    0.458    0.343   73.788  153.791
  472.432    5.998    0.446    0.343   74.998  153.186
  472.682    5.712    0.445    0.333   78.563  152.249
  472.932    5.439    0.469    0.323   76.115  151.095
  473.182    5.236    0.479    0.323   78.244  149.605
  473.432    5.004    0.476    0.329   81.809  148.338
  473.682    4.748    0.471    0.330   83.219  147.400
  473.932    4.538    0.474    0.326   84.166  147.022
  474.182    4.305    0.476    0.309   85.968  147.521
  474.432    4.145    0.468    0.308   88.160  148.356
  474.682    4.072    0.464    0.301   89.893  147.981
  474.932    4.030    0.466    0.286   92.346  148.587
  475.182    4.024    0.481    0.285   92.578  150.207
  475.432    4.027    0.492    0.307   94.182  150.921
  475.682    4.015    0.502    0.298   97.749  152.432
  475.932    3.966    0.509    0.300   98.371  153.929
  476.182    3.932    0.485    0.314  100.170  156.971
  476.432    3.949    0.479    0.297  104.258  159.910
  476.682    4.009    0.494    0.284  109.981  161.072
  476.932    4.262    0.521    0.288  113.676  165.339
  477.182    4.821    0.546    0.316  114.299  175.578
  477.432    5.356    0.536    0.286  114.333  171.324
  477.682    5.499    0.500    0.277  116.330  163.194
  477.932    5.532    0.494    0.274  117.413  156.725
  478.182    5.475    0.499    0.267  117.382  163.096
  478.432    5.448    0.499    0.263  117.289  165.038
  478.682    5.411    0.501    0.249  114.711  164.442
  478.932    5.345    0.468    0.267  110.369  163.388
  479.182    5.232    0.451    0.265  107.590  163.346
  479.432    5.178    0.450    0.265  109.197  163.738
  479.682    5.199    0.468    0.274  111.583  164.343
  479.932    5.289    0.474    0.261  112.338  170.052
  480.182    5.490    0.466    0.249  109.301  171.219
  480.432    5.688    0.457    0.242  110.513  171.169
  480.682    5.904    0.465    0.239  116.627  171.558
  480.932    5.973    0.483    0.236  120.845  172.061
  481.182    5.999    0.474    0.220  121.406  171.462
