~VERSION INFORMATION
 VERS.                 2.0:   CWLS LOG ASCII STANDARD -VERSION 2.0
 WRAP.                  NO:   ONE LINE PER DEPTH STEP
~WELL INFORMATION BLOCK
#MNEM.UNIT           DATA                    DESCRIPTION OF MNEMONIC
#---------    -------------------            -------------------------------
# Generated from Intellog Unique Number	CS_73_76/WELL/811
WELL.         FOREST OIL CORPORATION         : Well_name    - WELL
LOC .         00/10-05-073-18W4/0            : Location     - LOCATION
UWI .         00/10-05-073-18W4/0            : Uwi          - UNIQUE WELL ID
ENTR.         SP                             : Entered      - ENTERED BY
SRVC.         SCHLUMBERGER                   : Scn          - SERVICE COMPANY
STRT.M        274.32                         : top_depth    - START DEPTH
STOP.M        496.57                         : bot_depth    - STOP DEPTH
STEP.M        0.25                           : increment    - STEP LENGTH
 NULL. -999.2500:NULL Value
~CURVE INFORMATION BLOCK
#MNEM UNIT       ERCB CURVE CODE    CURVE DESCRIPTION
#-----------   ------------------   ----------------------------------
DEPT.M        00 001 00 00         : DEPTH        - DEPTH
GR  .API      00 310 00 00         : GR           - GAMMA RAY
DPHI.V/V      00 890 00 00         : PHID         - DENSITY POROSITY (SANDSTONE)
NPHI.V/V      00 330 00 00         : PHIN         - NEUTRON POROSITY (SANDSTONE)
ILD .OHMM     00 120 00 00         : RESD         - DEEP RESISTIVITY (DIL)
~PARAMETER INFORMATION
#MNEM.UNIT           DATA             DESCRIPTION OF MNEMONIC
#---------         -----------     ------------------------------
GL  .M        594.543              : gl           - GROUND LEVEL ELEVATION
EREF.M        598.201              : kb           - ELEVATION OF DEPTH REFERENCE
DATM.M        594.543              : datum        - DATUM ELEVATION
TDD .M        520.903              : tdd          - TOTAL DEPTH DRILLER
RUN .         ONE                  : Run          - RUN NUMBER
ENG .         BILL                 : Engineer     - RECORDING ENGINEER
WIT .         JIM                  : Witness      - WITNESSED BY
MUD .         GEL                  : Mud_type     - MUD TYPE
MATR.         SANDSTONE            : Logunit      - NEUTRON MATRIX
TMAX.C        81.1111              : BHT          - MAXIMUM RECORDED TEMPERATURE
BHTD.M        520.903              : BHTDEP       - MAXIMUM RECORDED TEMPERATURE
MATR.         1                    : LOGUNIT      - NEUTRON MATRIX
RMT .C        25                   : MDTP         - TEMPERATURE OF MUD
NEUT.         1                    : NEUTRON      - NEUTRON TYPE
RESI.         0                    : RESIST       - RESISTIVITY TYPE
RMC .OHMM     0.25                 : RMC          - RESISTIVITY OF MUD CAKE
RMF .OHMM     0.25                 : RMF          - RESISTIVITY OF MUD FILTRATE
SUFT.C        15                   : SUFT         - SURFACE TEMPERATURE
~A  DEPTH       GR     PHID     PHIN     RESD
# ...
  317.820   61.320    0.321    0.456    8.437
  318.070   62.958    0.304    0.480    7.789
  318.320   65.619    0.292    0.483    6.680
  318.570   68.026    0.301    0.482    6.083
  318.820   67.645    0.306    0.493    5.242
  319.070   68.191    0.293    0.486    4.796
  319.320   74.686    0.274    0.485    4.386
  319.570   80.438    0.248    0.499    4.270
  319.820   86.190    0.221    0.514    4.493
  320.070   89.742    0.231    0.522    4.644
  320.320   82.942    0.254    0.508    4.921
  320.570   76.869    0.281    0.502    5.287
  320.820   71.238    0.299    0.512    5.434
  321.070   63.488    0.329    0.490    5.608
  321.320   56.952    0.344    0.475    5.711
  321.570   57.118    0.331    0.460    5.812
  321.820   61.407    0.312    0.456    5.761
  322.070   65.177    0.298    0.473    5.945
  322.320   66.828    0.287    0.484    6.225
  322.570   57.901    0.273    0.496    6.876
  322.820   50.805    0.264    0.482    7.489
  323.070   45.584    0.281    0.466    8.030
  323.320   42.834    0.314    0.442    8.449
  323.570   40.223    0.302    0.446    8.478
  323.820   39.883    0.295    0.441    8.214
  324.070   39.392    0.286    0.436    7.920
  324.320   40.501    0.301    0.439    7.445
  324.570   41.030    0.290    0.441    7.195
  324.820   41.693    0.304    0.431    7.016
  325.070   42.285    0.302    0.427    6.809
  325.320   42.694    0.293    0.417    6.723
  325.570   43.005    0.293    0.415    6.654
  325.820   44.102    0.304    0.422    6.554
  326.070   44.428    0.296    0.427    6.552
  326.320   45.551    0.304    0.438    6.549
  326.570   47.095    0.294    0.444    6.557
  326.820   48.592    0.310    0.444    6.415
  327.070   50.133    0.308    0.434    6.423
  327.320   49.112    0.301    0.426    6.422
  327.570   47.969    0.296    0.421    6.429
  327.820   45.970    0.301    0.418    6.297
  328.070   44.772    0.318    0.422    6.300
  328.320   44.774    0.320    0.439    6.295
  328.570   46.028    0.305    0.448    6.292
  328.820   47.019    0.308    0.441    6.293
  329.070   48.034    0.311    0.448    6.310
  329.320   49.020    0.314    0.439    6.402
  329.570   49.737    0.322    0.443    6.398
  329.820   49.644    0.327    0.448    6.395
  330.070   49.165    0.332    0.453    6.388
  330.320   48.440    0.331    0.444    6.325
  330.570   49.201    0.324    0.434    6.386
  330.820   51.112    0.336    0.431    6.258
  331.070   52.324    0.332    0.424    6.264
  331.320   54.001    0.323    0.424    6.263
  331.570   54.912    0.337    0.439    6.260
  331.820   55.420    0.348    0.459    6.264
  332.070   53.495    0.349    0.462    6.147
  332.320   50.850    0.338    0.453    6.145
  332.570   54.404    0.345    0.445    6.156
  332.820   57.866    0.354    0.446    6.250
  333.070   60.423    0.344    0.468    6.244
  333.320   60.567    0.346    0.477    6.241
  333.570   59.609    0.344    0.467    6.239
  333.820   58.172    0.333    0.459    6.236
  334.070   56.476    0.336    0.456    6.234
  334.320   54.242    0.348    0.475    6.228
  334.570   53.188    0.353    0.467    6.194
  334.820   51.811    0.349    0.461    6.112
  335.070   50.860    0.351    0.462    6.122
  335.320   49.986    0.348    0.472    5.986
  335.570   50.046    0.342    0.453    5.995
  335.820   50.012    0.338    0.445    5.995
  336.070   50.781    0.346    0.454    6.005
  336.320   51.770    0.354    0.469    6.102
  336.570   52.910    0.358    0.485    6.095
  336.820   56.373    0.352    0.471    6.092
  337.070   60.409    0.348    0.455    6.089
  337.320   64.116    0.340    0.452    6.077
  337.570   66.324    0.330    0.462    6.197
  337.820   66.791    0.330    0.476    6.191
  338.070   59.829    0.325    0.475    6.191
  338.320   54.084    0.313    0.470    6.188
  338.570   46.252    0.312    0.464    6.186
  338.820   45.552    0.336    0.451    6.183
  339.070   47.067    0.327    0.430    6.178
  339.320   49.099    0.341    0.422    6.123
  339.570   50.342    0.346    0.425    6.066
  339.820   51.055    0.352    0.429    6.058
  340.070   48.713    0.357    0.431    6.014
  340.320   47.881    0.341    0.443    5.948
  340.570   46.883    0.336    0.443    5.944
  340.820   46.915    0.345    0.444    5.944
  341.070   47.956    0.355    0.450    5.937
  341.320   50.060    0.341    0.450    5.984
  341.570   52.605    0.334    0.466    5.936
  341.820   54.541    0.334    0.471    5.937
  342.070   55.362    0.342    0.461    5.811
  342.320   53.914    0.343    0.468    5.815
  342.570   54.076    0.347    0.474    5.909
  342.820   53.315    0.345    0.481    5.919
  343.070   54.057    0.342    0.478    5.919
  343.320   54.954    0.337    0.471    5.906
  343.570   56.247    0.332    0.471    6.043
  343.820   57.659    0.336    0.485    5.910
  344.070   55.114    0.342    0.495    5.911
  344.320   52.626    0.338    0.487    5.906
  344.570   51.789    0.352    0.481    5.904
  344.820   51.114    0.345    0.474    5.901
  345.070   51.144    0.348    0.477    5.898
  345.320   51.713    0.347    0.483    5.896
  345.570   51.471    0.335    0.484    5.893
  345.820   51.181    0.336    0.492    5.890
  346.070   50.106    0.340    0.515    5.898
  346.320   49.880    0.348    0.512    5.769
  346.570   48.887    0.340    0.498    5.778
  346.820   49.462    0.332    0.491    5.698
  347.070   50.119    0.329    0.489    5.671
  347.320   50.697    0.333    0.481    5.666
  347.570   50.314    0.331    0.478    5.663
  347.820   50.149    0.340    0.478    5.660
  348.070   50.157    0.333    0.477    5.660
  348.320   50.512    0.336    0.474    5.714
  348.570   50.834    0.346    0.472    5.754
  348.820   51.874    0.345    0.474    5.763
  349.070   52.590    0.355    0.481    5.628
  349.320   53.255    0.346    0.485    5.756
  349.570   52.740    0.352    0.485    5.746
  349.820   52.663    0.357    0.477    5.736
  350.070   52.662    0.346    0.483    5.850
  350.320   53.680    0.341    0.488    5.847
  350.570   54.777    0.334    0.484    5.873
  350.820   56.847    0.330    0.480    5.950
  351.070   56.852    0.322    0.490    6.013
  351.320   56.812    0.315    0.512    6.049
  351.570   55.763    0.307    0.523    6.052
  351.820   55.742    0.305    0.513    6.106
  352.070   55.730    0.320    0.505    6.158
  352.320   56.272    0.338    0.489    6.062
  352.570   56.629    0.350    0.486    6.043
  352.820   57.015    0.343    0.488    6.037
  353.070   57.587    0.331    0.475    6.037
  353.320   58.443    0.324    0.473    6.069
  353.570   59.418    0.322    0.485    6.141
  353.820   60.328    0.322    0.500    6.142
  354.070   61.892    0.323    0.490    6.165
  354.320   62.916    0.323    0.482    6.242
  354.570   64.569    0.319    0.470    6.369
  354.820   66.260    0.313    0.453    6.357
  355.070   66.641    0.300    0.442    6.345
  355.320   67.394    0.266    0.406    6.533
  355.570   65.793    0.187    0.378    7.388
  355.820   59.313    0.053    0.317    8.150
  356.070   54.901    0.045    0.257    9.256
  356.320   58.452    0.087    0.300   10.017
  356.570   62.050    0.143    0.336   10.533
  356.820   65.939    0.183    0.387    9.180
  357.070   72.013    0.241    0.460    7.768
  357.320   76.383    0.208    0.489    6.746
  357.570   76.391    0.204    0.489    6.167
  357.820   76.354    0.204    0.495    6.002
  358.070   76.995    0.203    0.494    5.867
  358.320   77.627    0.220    0.488    5.872
  358.570   78.584    0.233    0.496    5.870
  358.820   79.681    0.228    0.493    5.858
  359.070   80.698    0.238    0.487    5.978
  359.320   81.310    0.229    0.491    5.969
  359.570   80.190    0.221    0.482    5.966
  359.820   79.487    0.228    0.468    5.965
  360.070   78.830    0.233    0.459    5.846
  360.320   79.937    0.232    0.457    5.850
  360.570   83.007    0.228    0.467    5.854
  360.820   84.656    0.230    0.474    5.730
  361.070   86.450    0.219    0.482    5.725
