~VERSION INFORMATION
 VERS.                 2.0:   CWLS LOG ASCII STANDARD -VERSION 2.0
 WRAP.                  NO:   ONE LINE PER DEPTH STEP
~WELL INFORMATION BLOCK
#MNEM.UNIT           DATA                    DESCRIPTION OF MNEMONIC
#---------    -------------------            -------------------------------
# Generated from Intellog Unique Number	CC_80_83/WELL/2404
NULL.         -999.25                        : NULL_VALUE
WELL.         AMOCO HOUSER                   : Well_name    - WELL              
LOC .         11-20-083-14W4                 : Location     - LOCATION          
UWI .         00/11-20-083-14W400            : Uwi          - UNIQUE WELL ID    
ENTR.         RJA                            : Entered      - ENTERED BY        
SRVC.         SCHLUMBERGER                   : Scn          - SERVICE COMPANY   
DATE.         12 MAR 77                      : Date         - LOG DATE
STRT.M        185.928                        : top_depth    - START DEPTH       
STOP.M        309.068                        : bot_depth    - STOP DEPTH        
STEP.M        0.305                          : increment    - STEP LENGTH       
~CURVE INFORMATION BLOCK
#MNEM UNIT       ERCB CURVE CODE    CURVE DESCRIPTION
#-----------   ------------------   ----------------------------------
DEPT.M        00 001 00 00         : DEPTH        - DEPTH                       
ILD .OHMM     00 120 00 00         : RESD         - DEEP RESISTIVITY (DIL)      
GR  .API      00 310 00 00         : GR           - GAMMA RAY                   
NPHI.V/V      00 330 00 00         : PHIN         - NEUTRON POROSITY (LIMESTONE)
DPHI.V/V      00 890 00 00         : PHID         - DENSITY POROSITY (LIMESTONE)
~PARAMETER INFORMATION       
#MNEM.UNIT           DATA             DESCRIPTION OF MNEMONIC
#---------         -----------     ------------------------------
GL  .M        551.078              : gl           - GROUND LEVEL ELEVATION      
EREF.M        554.736              : kb           - ELEVATION OF DEPTH REFERENCE
DATM.M        554.736              : datum        - DATUM ELEVATION             
TDD .M        310.896              : tdd          - TOTAL DEPTH DRILLER         
RUN .         ONE                  : Run          - RUN NUMBER                  
ENG .         BILL                 : Engineer     - RECORDING ENGINEER          
WIT .         JIM                  : Witness      - WITNESSED BY                
MUD .         GEL                  : Mud_type     - MUD TYPE                    
MATR.         LIMESTONE            : Logunit      - NEUTRON MATRIX              
TMAX.C        19.4444              : BHT          - MAXIMUM RECORDED TEMPERATURE
BHTD.M        310.896              : BHTDEP       - MAXIMUM RECORDED TEMPERATURE
MATR.         1                    : LOGUNIT      - NEUTRON MATRIX              
RMT .C        25                   : MDTP         - TEMPERATURE OF MUD          
NEUT.         1                    : NEUTRON      - NEUTRON TYPE                
RESI.         0                    : RESIST       - RESISTIVITY TYPE            
RMC .OHMM     0.25                 : RMC          - RESISTIVITY OF MUD CAKE     
RMF .OHMM     0.25                 : RMF          - RESISTIVITY OF MUD FILTRATE 
SUFT.C        4                    : SUFT         - SURFACE TEMPERATURE         
~A  DEPTH     RESD       GR     PHIN     PHID
  185.928   10.834   65.861    0.463    0.296
  186.233    9.161   64.653    0.458    0.301
  186.538    8.193   64.671    0.445    0.278
  186.842    7.059   65.902    0.455    0.248
  187.147    6.430   70.795    0.466    0.229
  187.452    6.193   76.297    0.495    0.249
  187.757    6.305   76.923    0.469    0.244
  188.062    6.915   78.157    0.461    0.231
  188.366    7.445   81.223    0.470    0.221
  188.671    7.869   81.846    0.479    0.252
  188.976    7.302   76.372    0.486    0.249
  189.281    6.529   72.732    0.465    0.258
  189.586    6.173   72.135    0.485    0.281
  189.890    5.835   74.589    0.455    0.256
  190.195    5.516   80.704    0.464    0.215
  190.500    5.618   81.936    0.471    0.225
  190.805    6.514   78.296    0.444    0.244
  191.109    7.415   71.602    0.450    0.237
  191.414    7.983   63.690    0.472    0.247
  191.719    7.138   60.653    0.483    0.279
  192.024    6.036   65.546    0.427    0.284
  192.329    5.298   72.269    0.450    0.231
  192.633    4.917   75.943    0.461    0.236
  192.938    4.915   74.739    0.475    0.263
  193.243    5.291   68.046    0.474    0.281
  193.548    6.023   63.794    0.468    0.268
  193.853    6.856   62.592    0.474    0.283
  194.157    8.563   60.166    0.464    0.230
  194.462    9.569   55.911    0.438    0.186
  194.767   10.495   56.535    0.419    0.213
  195.072   10.887   58.990    0.339    0.176
  195.377    9.733   56.569    0.264    0.063
  195.681    8.704   54.142    0.282    0.117
  195.986    7.499   60.255    0.464    0.272
  196.291    6.705   63.929    0.492    0.242
  196.596    6.339   63.943    0.480    0.216
  196.901    5.564   64.572    0.460    0.207
  197.205    5.163   70.073    0.455    0.293
  197.510    5.066   73.139    0.469    0.270
  197.815    5.255   73.152    0.493    0.240
  198.120    5.872   69.509    0.476    0.257
  198.425    6.809   65.863    0.469    0.273
  198.729    7.196   67.103    0.478    0.290
  199.034    7.327   65.284    0.476    0.310
  199.339    7.461   62.859    0.458    0.316
  199.644    7.458   65.313    0.461    0.289
  199.949    7.455   68.987    0.458    0.273
  200.253    7.314   69.006    0.466    0.279
  200.558    6.662   70.847    0.485    0.281
  200.863    6.068   72.081    0.493    0.308
  201.168    5.737   73.926    0.491    0.287
  201.473    5.424   75.160    0.477    0.234
  201.777    5.224   75.179    0.479    0.230
  202.082    4.939   78.239    0.493    0.225
  202.387    4.669   81.309    0.493    0.230
  202.692    4.667   80.712    0.497    0.236
  202.996    5.024   79.503    0.485    0.236
  203.301    5.614   74.644    0.489    0.256
  203.606    6.510   71.608    0.471    0.265
  203.911    7.140   71.621    0.443    0.279
  204.216    7.270   71.030    0.440    0.291
  204.520    7.002   66.775    0.456    0.265
  204.825    7.264   63.740    0.456    0.265
  205.130    8.423   59.489    0.467    0.257
  205.435    9.069   54.014    0.419    0.212
  205.740    8.898   51.591    0.465    0.287
  206.044    8.570   54.046    0.502    0.315
  206.349    8.254   55.888    0.478    0.303
  206.654    7.949   54.684    0.469    0.328
  206.959    7.656   54.092    0.476    0.321
  207.264    7.510   55.938    0.492    0.345
  207.568    8.087   55.949    0.486    0.367
  207.873    9.553   54.139    0.492    0.340
  208.178   10.874   52.320    0.500    0.309
  208.483   12.150   51.117    0.434    0.253
  208.788   13.081   49.911    0.356    0.160
  209.092   11.915   53.584    0.454    0.193
  209.397   10.655   57.868    0.476    0.301
  209.702    9.011   59.713    0.494    0.291
  210.007    8.362   59.730    0.505    0.311
  210.312    8.054   58.523    0.469    0.316
  210.616    7.902   59.758    0.441    0.305
  210.921    7.899   61.605    0.430    0.308
  211.226    7.895   60.405    0.435    0.309
  211.531    7.891   60.412    0.451    0.295
  211.836    7.886   62.872    0.478    0.296
  212.140    7.739   61.057    0.454    0.287
  212.445    7.736   60.458    0.456    0.290
  212.750    7.731   65.356    0.446    0.272
  213.055    7.728   65.978    0.437    0.292
  213.359    7.443   64.161    0.450    0.280
  213.664    7.036   66.007    0.474    0.278
  213.969    6.777   69.679    0.460    0.245
  214.274    6.649   74.576    0.440    0.231
  214.579    6.524   75.197    0.446    0.235
  214.883    6.521   74.604    0.458    0.259
  215.188    6.518   73.399    0.461    0.252
  215.493    6.637   72.194    0.428    0.249
  215.798    6.759   73.430    0.435    0.232
  216.103    6.755   75.884    0.458    0.253
  216.407    6.878   74.682    0.480    0.220
  216.712    6.876   73.477    0.452    0.193
  217.017    6.873   74.098    0.459    0.189
  217.322    6.869   75.942    0.481    0.215
  217.627    6.994   74.741    0.479    0.198
  217.931    7.122   76.582    0.484    0.244
  218.236    7.119   81.478    0.453    0.260
  218.541    6.986   82.101    0.419    0.228
  218.846    6.728   79.067    0.428    0.225
  219.151    6.360   78.472    0.456    0.232
  219.455    6.012   81.535    0.472    0.215
  219.760    5.791   80.942    0.458    0.221
  220.065    5.475   84.010    0.486    0.206
  220.370    5.372   84.630    0.478    0.228
  220.675    5.173   85.255    0.449    0.238
  220.979    5.171   80.394    0.481    0.210
  221.284    5.266   74.924    0.499    0.248
  221.589    5.884   72.495    0.487    0.277
  221.894    7.213   70.070    0.414    0.257
  222.199    8.522   66.429    0.377    0.273
  222.503   10.644   62.174    0.369    0.264
  222.808   14.319   59.141    0.340    0.201
  223.113   17.232   56.716    0.320    0.154
  223.418   18.552   54.296    0.208    0.000
  223.722   18.545   54.309    0.241    0.083
  224.027   15.684   61.034    0.318    0.140
  224.332   11.223   63.483    0.428    0.234
  224.637    8.976   65.328    0.456    0.270
  224.942    8.177   65.343    0.427    0.279
  225.246    7.729   67.188    0.429    0.261
  225.551    7.584   69.031    0.444    0.248
  225.856    7.441   69.659    0.438    0.202
  226.161    7.301   71.504    0.444    0.185
  226.466    7.298   70.298    0.444    0.218
  226.770    7.570   68.486    0.429    0.248
  227.075    7.852   69.108    0.439    0.266
  227.380    7.997   72.171    0.457    0.277
  227.685    8.144   76.456    0.419    0.272
  227.990    8.293   81.960    0.418    0.244
  228.294    7.987   78.318    0.424    0.241
  228.599    7.550   75.891    0.412    0.226
  228.904    7.408   74.076    0.417    0.226
  229.209    7.267   72.269    0.434    0.241
  229.514    7.264   72.279    0.456    0.248
  229.818    7.397   75.344    0.440    0.247
  230.123    7.533   79.016    0.419    0.227
  230.428    7.670   81.468    0.426    0.216
  230.733    7.667   82.702    0.464    0.226
  231.038    7.663   80.891    0.435    0.243
  231.342    7.660   76.029    0.415    0.253
  231.647    7.108   76.651    0.435    0.256
  231.952    6.475   78.496    0.442    0.242
  232.257    5.790   77.289    0.446    0.285
  232.562    4.988   80.353    0.455    0.240
  232.866    4.716   90.735    0.461    0.226
  233.171    4.984   88.920    0.470    0.235
  233.476    5.569   83.451    0.481    0.238
  233.781    6.956   83.462    0.473    0.216
  234.085    8.850   82.867    0.402    0.189
  234.390    8.847   89.591    0.391    0.167
  234.695    7.481   93.874    0.402    0.225
  235.000    6.326   95.111    0.447    0.223
  235.305    5.763   98.784    0.477    0.240
  235.609    5.551  102.455    0.440    0.212
  235.914    5.447  100.033    0.429    0.206
  236.219    5.442   96.998    0.420    0.203
  236.524    5.441   97.014    0.422    0.200
  236.829    5.541   98.248    0.449    0.191
  237.133    5.538   95.828    0.460    0.192
  237.438    6.188   95.838    0.469    0.207
  237.743    6.914   95.246    0.438    0.212
  238.048    8.476   90.382    0.410    0.190
  238.353   10.587   84.298    0.382    0.161
  238.657   11.613   83.706    0.378    0.139
