~VERSION INFORMATION
 VERS.                 2.0:   CWLS LOG ASCII STANDARD -VERSION 2.0
 WRAP.                  NO:   ONE LINE PER DEPTH STEP
~WELL INFORMATION BLOCK
#MNEM.UNIT           DATA                    DESCRIPTION OF MNEMONIC
#---------    -------------------            -------------------------------
# Generated from Intellog Unique Number	CS_77_79/WELL/929
WELL.         HOME OIL COMPANY LIMITED       : Well_name    - WELL
LOC .         00/10-04-077-07W4/0            : Location     - LOCATION
UWI .         00/10-04-077-07W4/0            : Uwi          - UNIQUE WELL ID
ENTR.         SP                             : Entered      - ENTERED BY
SRVC.         SCHLUMBERGER                   : Scn          - SERVICE COMPANY
STRT.M        140                            : top_depth    - START DEPTH
STOP.M        375                            : bot_depth    - STOP DEPTH
STEP.M        0.25                           : increment    - STEP LENGTH
 NULL. -999.2500:NULL Value
~CURVE INFORMATION BLOCK
#MNEM UNIT       ERCB CURVE CODE    CURVE DESCRIPTION
#-----------   ------------------   ----------------------------------
DEPT.M        00 001 00 00         : DEPTH        - DEPTH
DPHI.V/V      00 890 00 00         : PHID         - DENSITY POROSITY (LIMESTONE)
NPHI.V/V      00 330 00 00         : PHIN         - NEUTRON POROSITY (LIMESTONE)
GR  .API      00 310 00 00         : GR           - GAMMA RAY
ILD .OHMM     00 120 00 00         : RESD         - DEEP RESISTIVITY (DIL)
~PARAMETER INFORMATION
#MNEM.UNIT           DATA             DESCRIPTION OF MNEMONIC
#---------         -----------     ------------------------------
GL  .M        565.97               : gl           - GROUND LEVEL ELEVATION
EREF.M        569.42               : kb           - ELEVATION OF DEPTH REFERENCE
DATM.M        565.97               : datum        - DATUM ELEVATION
TDD .M        385                  : tdd          - TOTAL DEPTH DRILLER
RUN .         ONE                  : Run          - RUN NUMBER
ENG .         BILL                 : Engineer     - RECORDING ENGINEER
WIT .         JIM                  : Witness      - WITNESSED BY
MUD .         GEL                  : Mud_type     - MUD TYPE
MATR.         LIMESTONE            : Logunit      - NEUTRON MATRIX
TMAX.C        5                    : BHT          - MAXIMUM RECORDED TEMPERATURE
BHTD.M        385                  : BHTDEP       - MAXIMUM RECORDED TEMPERATURE
MATR.         1                    : LOGUNIT      - NEUTRON MATRIX
RMT .C        25                   : MDTP         - TEMPERATURE OF MUD
NEUT.         1                    : NEUTRON      - NEUTRON TYPE
RESI.         0                    : RESIST       - RESISTIVITY TYPE
RMC .OHMM     0.25                 : RMC          - RESISTIVITY OF MUD CAKE
RMF .OHMM     0.25                 : RMF          - RESISTIVITY OF MUD FILTRATE
SUFT.C        15                   : SUFT         - SURFACE TEMPERATURE
~A  DEPTH     PHID     PHIN       GR     RESD
# ...
  314.000    0.295    0.315   53.996   13.452
  314.250    0.264    0.329   66.103   12.962
  314.500    0.244    0.337   69.132   12.724
  314.750    0.230    0.335   73.978   12.261
  315.000    0.204    0.341   78.219   11.176
  315.250    0.187    0.359   81.250   10.378
  315.500    0.206    0.374   75.209    9.816
  315.750    0.222    0.384   68.563    9.459
  316.000    0.251    0.375   64.336    9.285
  316.250    0.259    0.374   60.109    9.284
  316.500    0.270    0.370   61.934    9.284
  316.750    0.265    0.366   63.150    9.457
  317.000    0.266    0.360   64.365    9.633
  317.250    0.260    0.361   65.581    9.633
  317.500    0.250    0.358   63.775    9.813
  317.750    0.247    0.359   61.365    9.996
  318.000    0.254    0.355   60.161    9.995
  318.250    0.251    0.351   60.167    9.995
  318.500    0.256    0.357   61.989   10.181
  318.750    0.256    0.354   66.835   10.181
  319.000    0.247    0.352   69.867   10.180
  319.250    0.245    0.364   68.059   10.370
  319.500    0.241    0.378   68.673   10.370
  319.750    0.229    0.390   68.075   10.369
  320.000    0.242    0.385   66.870   10.563
  320.250    0.263    0.381   62.645   10.760
  320.500    0.270    0.370   59.024   10.960
  320.750    0.265    0.364   57.818   11.373
  321.000    0.267    0.353   56.616   11.373
  321.250    0.255    0.349   54.809   11.801
  321.500    0.246    0.352   56.027   12.021
  321.750    0.243    0.362   59.058   12.021
  322.000    0.241    0.361   60.881   12.245
  322.250    0.252    0.373   60.886   12.473
  322.500    0.250    0.376   51.215   12.706
  322.750    0.265    0.364   43.359   13.185
  323.000    0.287    0.359   46.995   14.198
  323.250    0.295    0.374   48.214   16.162
  323.500    0.284    0.374   47.010   17.405
  323.750    0.305    0.356   48.833   19.449
  324.000    0.282    0.365   47.630   22.975
  324.250    0.266    0.370   43.403   24.741
  324.500    0.273    0.373   40.385   27.140
  324.750    0.286    0.371   42.211   28.689
  325.000    0.284    0.366   42.819   29.771
  325.250    0.292    0.348   45.245   29.770
  325.500    0.271    0.354   46.464   30.324
  325.750    0.259    0.373   41.027   30.890
  326.000    0.267    0.378   36.800   31.465
  326.250    0.286    0.368   41.042   32.053
  326.500    0.296    0.360   44.676   32.650
  326.750    0.298    0.360   49.523   32.649
  327.000    0.290    0.368   49.532   32.048
  327.250    0.286    0.381   48.327   30.315
  327.500    0.290    0.367   48.940   29.212
  327.750    0.290    0.365   49.551   28.675
  328.000    0.287    0.385   49.561   28.147
  328.250    0.292    0.381   49.566   28.146
  328.500    0.273    0.385   45.341   27.121
  328.750    0.272    0.393   42.326   26.134
  329.000    0.287    0.384   42.934   25.182
  329.250    0.295    0.362   45.967   24.719
  329.500    0.274    0.366   45.974   24.718
  329.750    0.279    0.373   45.376   25.179
  330.000    0.284    0.374   42.965   25.178
  330.250    0.286    0.375   41.762   24.715
  330.500    0.276    0.386   39.955   24.714
  330.750    0.256    0.391   38.146   25.645
  331.000    0.276    0.387   35.128   27.110
  331.250    0.284    0.389   32.716   33.854
  331.500    0.302    0.378   29.700   43.068
  331.750    0.312    0.366   35.757   49.943
  332.000    0.318    0.372   39.999   53.781
  332.250    0.302    0.378   41.817   48.122
  332.500    0.276    0.380   47.271   44.685
  332.750    0.284    0.386   50.303   39.250
  333.000    0.281    0.375   51.517   35.120
  333.250    0.273    0.376   48.500   33.843
  333.500    0.282    0.382   45.484   37.124
  333.750    0.294    0.368   47.910   39.243
  334.000    0.276    0.373   53.360   39.975
  334.250    0.283    0.367   60.022   35.770
  334.500    0.267    0.361   62.447   31.419
  334.750    0.264    0.371   64.272   25.157
  335.000    0.258    0.379   64.276   20.520
  335.250    0.250    0.371   61.866   18.704
  335.500    0.235    0.367   58.848   17.693
  335.750    0.259    0.386   54.623   17.049
  336.000    0.264    0.398   52.208   17.691
  336.250    0.263    0.405   49.192   19.407
  336.500    0.287    0.380   56.457   20.138
  336.750    0.269    0.368   63.117   19.767
  337.000    0.263    0.377   63.730   18.018
  337.250    0.260    0.389   59.503   17.044
  337.500    0.254    0.392   55.881   17.362
  337.750    0.251    0.380   52.865   17.685
  338.000    0.262    0.375   53.477   18.015
  338.250    0.274    0.380   54.693   18.351
  338.500    0.265    0.391   51.676   19.761
  338.750    0.274    0.399   45.634   20.506
  339.000    0.287    0.423   38.989   22.495
  339.250    0.311    0.433   34.760   27.576
  339.500    0.329    0.419   30.533   35.081
  339.750    0.335    0.397   30.541   48.059
  340.000    0.329    0.380   32.363   68.324
  340.250    0.319    0.389   37.210   72.224
  340.500    0.311    0.395   41.450   64.626
  340.750    0.300    0.382   45.691   56.765
  341.000    0.293    0.376   44.489   52.711
  341.250    0.301    0.383   40.870   47.165
  341.500    0.308    0.384   39.664   56.758
  341.750    0.320    0.382   40.882   64.612
  342.000    0.330    0.380   48.751   61.117
  342.250    0.295    0.384   57.227   39.917
  342.500    0.276    0.400   46.953   31.962
  342.750    0.270    0.417   41.517   22.480
  343.000    0.309    0.433   38.499   34.416
  343.250    0.337    0.433   36.087   50.774
  343.500    0.344    0.425   34.883   83.710
  343.750    0.338    0.411   36.100   98.888
  344.000    0.331    0.399   39.131   53.667
  344.250    0.333    0.394   45.791   40.649
  344.500    0.288    0.396   43.985   26.549
  344.750    0.297    0.414   40.968   30.222
  345.000    0.325    0.418   38.557   39.166
  345.250    0.337    0.411   39.772   39.164
  345.500    0.329    0.405   46.435   31.358
  345.750    0.300    0.400   51.279   26.543
  346.000    0.274    0.393   57.335   21.253
  346.250    0.258    0.378   57.342   19.735
  346.500    0.264    0.383   52.510   22.053
  346.750    0.294    0.383   47.678   28.579
  347.000    0.309    0.379   44.056   39.152
  347.250    0.297    0.385   41.645   42.948
  347.500    0.314    0.386   42.256   43.750
  347.750    0.315    0.394   48.917   29.652
  348.000    0.282    0.378   54.972   21.245
  348.250    0.247    0.380   62.238   15.796
  348.500    0.221    0.390   65.875   13.875
  348.750    0.230    0.425   55.599   15.795
  349.000    0.263    0.430   45.325   25.563
  349.250    0.289    0.417   40.492   45.386
  349.500    0.316    0.421   42.919   52.632
  349.750    0.315    0.400   45.950   54.615
  350.000    0.273    0.379   57.224   26.249
  350.250    0.247    0.394   63.243   22.205
  350.500    0.225    0.406   68.056   19.139
  350.750    0.254    0.398   55.400   19.113
  351.000    0.279    0.407   42.142   22.543
  351.250    0.306    0.418   33.100   31.990
  351.500    0.319    0.418   27.674   62.120
  351.750    0.331    0.421   26.462   98.431
  352.000    0.336    0.403   28.263  120.485
  352.250    0.312    0.371   30.064  131.997
  352.500    0.321    0.381   31.263   96.331
  352.750    0.334    0.382   32.463   62.923
  353.000    0.333    0.370   36.071   42.652
  353.250    0.295    0.358   43.895   34.150
  353.500    0.248    0.353   54.733   24.919
  353.750    0.230    0.344   60.751   21.087
  354.000    0.219    0.340   57.732   17.507
  354.250    0.224    0.357   55.920   16.552
  354.500    0.223    0.353   55.913   16.228
  354.750    0.212    0.355   55.908   16.515
  355.000    0.204    0.378   53.491   16.803
  355.250    0.229    0.393   51.679   17.738
  355.500    0.254    0.393   49.264   18.736
  355.750    0.259    0.371   52.871   21.689
  356.000    0.272    0.383   54.675   25.588
  356.250    0.298    0.398   43.223   35.635
  356.500    0.319    0.385   36.591   52.459
  356.750    0.333    0.385   34.175   77.215
  357.000    0.323    0.392   32.966   99.869
  357.250    0.327    0.383   32.358   87.653
