~VERSION INFORMATION
 VERS.                 2.0:   CWLS LOG ASCII STANDARD -VERSION 2.0
 WRAP.                  NO:   ONE LINE PER DEPTH STEP
~WELL INFORMATION BLOCK
#MNEM.UNIT           DATA                    DESCRIPTION OF MNEMONIC
#---------    -------------------            -------------------------------
# Generated from Intellog Unique Number	CW_73_75/WELL/201
WELL.         CDN-SUP ET AL DRIFTWOOD 10-18  : Well_name    - WELL
LOC .         00/10-18-074-03W5/0            : Location     - LOCATION
UWI .         00/10-18-074-03W5/0            : Uwi          - UNIQUE WELL ID
ENTR.         JJ                             : Entered      - ENTERED BY
SRVC.         SCHLUMBERGER                   : Scn          - SERVICE COMPANY
DATE.         2 APR 71                       : Date         - LOG DATE
STRT.M        573.024                        : top_depth    - START DEPTH
STOP.M        701.024                        : bot_depth    - STOP DEPTH
STEP.M        0.25                           : increment    - STEP LENGTH
 NULL. -999.2500:NULL Value
~CURVE INFORMATION BLOCK
#MNEM UNIT       ERCB CURVE CODE    CURVE DESCRIPTION
#-----------   ------------------   ----------------------------------
DEPT.M        00 001 00 00         : DEPTH        - DEPTH
DELT.US/F     00 520 00 00         : DELT         - SONIC TRAVEL TIME
GR  .API      00 310 00 00         : GR           - GAMMA RAY
CALI.MM       00 280 01 00         : CAL          - CALIPER
ILD .OHMM     00 120 00 00         : RESD         - DEEP RESISTIVITY (DIL)
~PARAMETER INFORMATION
#MNEM.UNIT           DATA             DESCRIPTION OF MNEMONIC
#---------         -----------     ------------------------------
GL  .M        732.739              : gl           - GROUND LEVEL ELEVATION
EREF.M        737.006              : kb           - ELEVATION OF DEPTH REFERENCE
DATM.M        732.739              : datum        - DATUM ELEVATION
TDD .M        1700.78              : tdd          - TOTAL DEPTH DRILLER
RUN .         ONE                  : Run          - RUN NUMBER
ENG .         TALBOT               : Engineer     - RECORDING ENGINEER
WIT .         STRATULATE & SMAILES : Witness      - WITNESSED BY
BASE.         EDM                  : Branch       - HOME BASE OF LOGGING UNIT
MUD .         GEL                  : Mud_type     - MUD TYPE
MATR.         SANDSTONE            : Logunit      - NEUTRON MATRIX
TMAX.C        38.8889              : BHT          - MAXIMUM RECORDED TEMPERATURE
BHTD.M        1697.13              : BHTDEP       - MAXIMUM RECORDED TEMPERATURE
RMT .C        21.6667              : MDTP         - TEMPERATURE OF MUD
MUDD.KG/M     1176                 : MWT          - MUD DENSITY
NEUT.         1                    : NEUTRON      - NEUTRON TYPE
RESI.         0                    : RESIST       - RESISTIVITY TYPE
RM  .OHMM     2.03                 : RM           - RESISTIVITY OF MUD
RMC .OHMM     0                    : RMC          - RESISTIVITY OF MUD CAKE
RMF .OHMM     4.57                 : RMF          - RESISTIVITY OF MUD FILTRATE
SUFT.C        5                    : SUFT         - SURFACE TEMPERATURE
~A  DEPTH     DELT       GR      CAL     RESD
# ...
  616.524  367.134   35.944  260.057    8.763
  616.774  362.845   34.943  260.802    8.692
  617.024  358.021   33.540  260.804    8.540
  617.274  354.536   31.536  260.382    8.343
  617.524  349.711   32.991  259.748    8.167
  617.774  346.093   35.900  259.008    7.978
  618.024  349.377   38.357  258.798    7.852
  618.274  355.207   39.761  258.589    7.758
  618.524  360.903   38.911  258.273    7.711
  618.774  358.491   36.105  258.169    7.792
  619.024  353.733   36.858  257.960    7.992
  619.274  350.718   39.115  257.856    8.228
  619.524  347.032   39.066  257.540    8.408
  619.774  348.238   35.658  257.224    8.200
  620.024  351.924   34.106  256.802    7.760
  620.274  348.440   33.605  255.107    7.329
  620.524  346.162   34.158  252.563    6.909
  620.774  345.827   35.563  251.823    6.454
  621.024  347.971   37.769  251.825    6.130
  621.274  354.940   38.923  252.571    5.867
  621.524  361.776   36.719  255.969    5.786
  621.774  371.760   38.374  261.594    5.912
  622.024  382.951   41.283  258.626    6.465
  622.274  376.250   39.480  252.156    6.934
  622.524  364.322   34.669  250.674    6.676
  622.774  353.936   36.875  250.676    6.353
  623.024  358.627   39.082  251.315    6.159
  623.274  353.467   39.534  252.166    6.029
  623.524  353.735   41.240  252.487    6.162
  623.774  366.735   40.088  252.596    6.476
  624.024  378.529   39.638  252.704    6.832
  624.274  383.421   41.093  252.813    6.490
  624.524  376.452   40.994  252.921    5.805
  624.774  367.406   39.090  253.242    5.068
  625.024  359.499   39.392  253.351    4.518
  625.274  356.149   39.744  253.565    4.282
  625.524  372.901   40.146  253.568    4.122
  625.774  378.128   42.804  253.252    4.308
  626.024  384.628   43.908  253.573    4.844
  626.274  391.397   42.857  261.745    5.634
  626.524  377.459   42.206  253.578    6.540
  626.774  374.108   41.456  248.063    7.341
  627.024  371.830   40.805  248.065    8.071
  627.274  372.902   43.012  248.068    8.611
  627.524  362.650   40.106  248.178    8.335
  627.774  359.969   39.656  248.604    7.236
  628.024  366.604   41.462  249.561    6.340
  628.274  372.099   42.365  249.881    5.557
  628.524  378.130   39.208  251.794    5.141
  628.774  385.099   38.808  254.130    4.820
  629.024  381.548   42.218  256.573    4.647
  629.274  372.233   46.279  259.228    4.508
  629.524  368.414   46.832  257.215    4.422
  629.774  374.780   45.079  255.626    4.391
  630.024  375.517   46.133  254.886    4.381
  630.274  366.672   48.440  256.798    4.367
  630.524  367.409   49.744  261.575    4.406
  630.774  374.981   51.299  264.336    4.460
  631.024  378.466   51.250  265.930    4.490
  631.274  367.610   49.597  266.675    4.546
  631.524  363.791   47.694  267.102    4.559
  631.774  367.008   46.592  267.423    4.591
  632.024  365.802   44.337  268.274    4.602
  632.274  365.668   42.684  269.337    4.608
  632.524  366.673   45.493  271.462    4.622
  632.774  368.482   48.652  274.223    4.626
  633.024  371.297   49.054  274.438    4.649
  633.274  374.112   45.045  271.363    4.645
  633.524  369.622   44.896  272.002    4.634
  633.774  362.586   46.551  275.824    4.631
  634.024  363.725   44.648  279.116    4.625
  634.274  367.612   43.245  281.983    4.640
  634.524  368.081   46.705  283.577    4.662
  634.774  366.674   51.167  279.972    4.702
  635.024  365.736   50.918  275.519    4.724
  635.274  366.942   45.756  278.067    4.820
  635.524  369.154   46.008  283.799    4.944
  635.774  372.304   49.017  290.274    5.081
  636.024  370.561   48.767  289.427    5.220
  636.274  366.273   48.167  288.582    5.437
  636.524  361.046   48.820  288.796    5.261
  636.774  356.222   45.813  288.374    4.807
  637.024  352.938   45.263  289.968    4.693
  637.274  358.835   47.019  293.472    4.400
  637.524  363.392   48.323  293.050    4.203
  637.774  365.738   48.825  292.098    3.994
  638.024  360.980   49.328  292.100    3.931
  638.274  360.109   49.580  291.784    3.941
  638.524  360.109   50.283  291.150    4.044
  638.774  359.975   50.585  290.728    4.148
  639.024  359.238   49.533  290.094    4.239
  639.274  357.764   47.279  288.611    4.389
  639.524  356.156   48.683  287.022    4.658
  639.774  354.883   51.391  285.327    4.830
  640.024  353.811   48.836  283.313    5.096
  640.274  352.873   45.328  279.814    5.336
  640.524  352.404   45.179  280.241    4.947
  640.774  351.265   44.579  276.849    4.526
  641.024  350.595   45.282  273.668    4.117
  641.274  350.662   47.489  268.366    3.868
  641.524  353.075   51.299  268.050    3.997
  641.774  364.869   54.759  268.371    4.371
  642.024  375.992   55.863  266.888    4.750
  642.274  367.884   51.904  264.556    5.609
  642.524  356.158   49.750  256.813    6.636
  642.774  348.183   48.949  250.450    7.404
  643.024  352.137   47.447  248.755    8.171
  643.274  350.596   44.741  246.954    8.867
  643.524  342.756   40.732  244.622    9.216
  643.774  334.581   34.668  244.094    8.593
  644.024  335.050   35.070  243.672    8.055
  644.274  343.762   36.525  243.357    7.399
  644.524  347.849   38.682  243.677    7.001
  644.774  349.994   38.833  243.679    6.588
  645.024  350.664   36.579  244.106    6.329
  645.274  350.865   34.926  244.427    6.148
  645.524  351.803   33.774  244.430    5.927
  645.774  353.546   32.572  244.963    5.684
  646.024  357.567   30.869  245.390    5.607
  646.274  361.788   30.419  246.028    5.632
  646.524  361.386   31.373  246.668    5.875
  646.774  358.237   32.176  247.095    6.376
  647.024  356.294   32.077  247.416    7.278
  647.274  356.093   34.184  247.418    8.184
  647.524  355.289   36.340  248.164    8.980
  647.774  346.511   37.644  248.802    9.802
  648.024  323.057   36.042  250.502    9.682
  648.274  248.475   32.734  251.354    8.359
  648.524  231.119   31.783  251.250    6.859
  648.774  253.300   33.589  250.191    5.758
  649.024  275.011   38.603  246.374    5.337
  649.274  320.310   41.461  245.422    5.126
  649.524  345.238   42.064  248.077    4.953
  649.774  363.935   41.914  250.201    4.903
  650.024  359.311   43.319  250.946    4.871
  650.274  355.223   42.969  250.737    4.785
  650.524  360.986   40.865  251.376    4.623
  650.774  371.105   39.162  252.864    4.270
  651.024  380.353   39.715  253.928    3.921
  651.274  382.497   42.322  255.097    3.649
  651.524  379.080   46.935  257.009    3.440
  651.774  375.528   50.846  260.407    3.190
  652.024  374.523   55.158  270.913    3.063
  652.274  374.188   54.658  274.948    2.993
  652.524  377.606   53.156  276.754    3.064
  652.774  378.678   53.006  277.499    3.227
  653.024  377.807   52.105  278.562    3.501
  653.274  381.426   50.553  279.095    3.982
  653.524  381.292   49.100  279.310    4.545
  653.774  373.251   46.896  279.312    5.366
  654.024  359.983   40.381  278.890    5.629
  654.274  368.427   35.670  278.469    5.239
  654.524  314.349   32.112  278.259    4.976
  654.774  295.586   38.529  278.686    4.647
  655.024  309.860   41.488  280.598    4.316
  655.274  334.386   39.083  283.783    4.185
  655.524  346.582   40.388  285.908    4.168
  655.774  358.577   44.449  287.395    4.195
  656.024  357.438   46.104  288.565    4.238
  656.274  355.026   48.411  289.735    4.438
  656.524  352.345   49.465  290.374    4.744
  656.774  351.273   45.707  291.013    5.167
  657.024  351.809   41.999  291.546    5.702
  657.274  351.609   40.295  290.063    6.210
  657.524  353.217   41.800  285.291    6.652
  657.774  358.712   42.303  279.670    6.810
  658.024  364.475   42.705  277.975    6.641
  658.274  369.903   42.756  277.765    6.180
  658.524  373.723   41.605  277.874    5.623
  658.774  374.460   41.706  277.983    5.241
  659.024  373.656   42.459  278.091    4.715
  659.274  371.110   42.260  279.685    4.313
  659.524  367.759   44.065  284.250    4.053
  659.774  364.677   47.325  288.815    3.982
