~VERSION INFORMATION
 VERS.                 2.0:   CWLS LOG ASCII STANDARD -VERSION 2.0
 WRAP.                  NO:   ONE LINE PER DEPTH STEP
~WELL INFORMATION BLOCK
#MNEM.UNIT           DATA                    DESCRIPTION OF MNEMONIC
#---------    -------------------            -------------------------------
# Generated from Intellog Unique Number	CC_80_83/WELL/2396
NULL.         -999.25                        : NULL_VALUE
WELL.         BVX ET AL WATCHUSK             : Well_name    - WELL
LOC .         11-11-081-03W4                 : Location     - LOCATION          
UWI .         00/11-11-081-03W400            : Uwi          - UNIQUE WELL ID    
ENTR.         DW                             : Entered      - ENTERED BY        
SRVC.         SCHLUMBERGER                   : Scn          - SERVICE COMPANY   
DATE.         13 MAR 78                      : Date         - LOG DATE
STRT.M        106.68                         : top_depth    - START DEPTH       
STOP.M        313.944                        : bot_depth    - STOP DEPTH        
STEP.M        0.305                          : increment    - STEP LENGTH       
~CURVE INFORMATION BLOCK
#MNEM UNIT       ERCB CURVE CODE    CURVE DESCRIPTION
#-----------   ------------------   ----------------------------------
DEPT.M        00 001 00 00         : DEPTH        - DEPTH                       
ILD .OHMM     00 120 00 00         : RESD         - DEEP RESISTIVITY (DIL)      
GR  .API      00 310 00 00         : GR           - GAMMA RAY                   
NPHI.V/V      00 330 00 00         : PHIN         - NEUTRON POROSITY (LIMESTONE)
DPHI.V/V      00 890 00 00         : PHID         - DENSITY POROSITY (LIMESTONE)
~PARAMETER INFORMATION       
#MNEM.UNIT           DATA             DESCRIPTION OF MNEMONIC
#---------         -----------     ------------------------------
GL  .M        464.82               : gl           - GROUND LEVEL ELEVATION      
EREF.M        467.868              : kb           - ELEVATION OF DEPTH REFERENCE
DATM.M        467.868              : datum        - DATUM ELEVATION             
TDD .M        324.307              : tdd          - TOTAL DEPTH DRILLER         
RUN .         ONE                  : Run          - RUN NUMBER                  
ENG .         BILL                 : Engineer     - RECORDING ENGINEER          
WIT .         JIM                  : Witness      - WITNESSED BY                
MUD .         GEL                  : Mud_type     - MUD TYPE                    
MATR.         LIMESTONE            : Logunit      - NEUTRON MATRIX              
TMAX.C        21.1111              : BHT          - MAXIMUM RECORDED TEMPERATURE
BHTD.M        324.307              : BHTDEP       - MAXIMUM RECORDED TEMPERATURE
MATR.         1                    : LOGUNIT      - NEUTRON MATRIX              
RMT .C        25                   : MDTP         - TEMPERATURE OF MUD          
NEUT.         1                    : NEUTRON      - NEUTRON TYPE                
RESI.         0                    : RESIST       - RESISTIVITY TYPE            
RMC .OHMM     0.25                 : RMC          - RESISTIVITY OF MUD CAKE     
RMF .OHMM     0.25                 : RMF          - RESISTIVITY OF MUD FILTRATE 
SUFT.C        15                   : SUFT         - SURFACE TEMPERATURE         
~A  DEPTH     RESD       GR     PHIN     PHID
# ...
  159.715   10.148   62.898    0.472    0.299
  160.020    9.955   64.749    0.450    0.294
  160.324    9.398   68.444    0.448    0.291
  160.629    9.396   66.610    0.453    0.289
  160.934    9.573   65.386    0.447    0.296
  161.239    9.939   66.009    0.431    0.308
  161.544   10.513   67.863    0.446    0.302
  161.848   10.710   69.100    0.427    0.294
  162.153   10.706   73.410    0.420    0.288
  162.458   10.702   72.804    0.430    0.288
  162.763   10.497   69.125    0.440    0.295
  163.067   10.493   66.059    0.422    0.299
  163.372   10.488   62.379    0.421    0.300
  163.677   10.484   59.928    0.420    0.300
  163.982   11.094   60.554    0.414    0.299
  164.287   11.089   63.632    0.422    0.299
  164.591   11.085   67.329    0.431    0.294
  164.896   11.080   69.795    0.438    0.292
  165.201   11.076   70.417    0.456    0.295
  165.506   11.072   69.197    0.469    0.302
  165.811   11.069   66.746    0.474    0.303
  166.115   10.855   61.840    0.455    0.299
  166.420   10.852   61.231    0.441    0.289
  166.725   10.443   64.926    0.436    0.274
  167.030   10.243   67.395    0.438    0.274
  167.335   10.240   66.787    0.447    0.293
  167.639   10.432   65.568    0.454    0.298
  167.944   10.627   66.189    0.455    0.296
  168.249   10.623   66.196    0.438    0.299
  168.554   10.619   66.820    0.427    0.306
  168.859   10.816   69.901    0.429    0.294
  169.163   10.610   71.141    0.427    0.291
  169.468   10.405   68.691    0.439    0.301
  169.773   10.402   68.082    0.447    0.312
  170.078   10.204   70.549    0.422    0.312
  170.383   10.197   71.173    0.434    0.298
  170.687   10.389   73.024    0.388    0.288
  170.992   10.583   74.876    0.407    0.269
  171.297   10.580   72.428    0.423    0.283
  171.602   10.577   70.590    0.438    0.291
  171.907   10.772   68.139    0.450    0.290
  172.211   10.975   65.075    0.453    0.293
  172.516   11.182   62.624    0.437    0.294
  172.821   11.177   60.788    0.427    0.293
  173.126   11.170   62.640    0.423    0.293
  173.430   11.167   69.409    0.424    0.296
  173.735   11.163   71.262    0.430    0.302
  174.040   11.159   70.656    0.445    0.299
  174.345   11.155   70.048    0.428    0.291
  174.650   10.940   70.670    0.427    0.288
  174.954   10.732   70.680    0.428    0.284
  175.259   10.526   70.072    0.434    0.283
  175.564   10.130   68.238    0.438    0.286
  175.869    9.567   68.244    0.441    0.289
  176.174    9.208   70.711    0.445    0.291
  176.478    9.559   69.490    0.443    0.284
  176.783    9.923   63.968    0.446    0.291
  177.088   10.110   62.747    0.462    0.297
  177.393   10.299   63.983    0.446    0.300
  177.698   10.492   64.606    0.429    0.296
  178.002   10.487   65.228    0.418    0.297
  178.307   10.484   70.155    0.419    0.303
  178.612   10.478   70.777    0.413    0.305
  178.917   10.278   67.712    0.396    0.303
  179.222   10.083   67.106    0.399    0.302
  179.526    9.521   70.801    0.415    0.301
  179.831    8.657   69.580    0.424    0.296
  180.136    7.724   67.129    0.430    0.291
  180.441    7.158   69.596    0.435    0.280
  180.746    6.888   75.136    0.445    0.270
  181.050    6.755   88.666    0.458    0.270
  181.355    6.627   92.362    0.474    0.259
  181.660    6.258   86.838    0.488    0.249
  181.965    6.024   82.544    0.520    0.208
  182.270    6.373   79.481    0.525    0.234
  182.574    6.742   78.873    0.486    0.226
  182.879    7.001   81.340    0.453    0.219
  183.184    7.692   83.192    0.446    0.232
  183.489    7.987   79.512    0.445    0.246
  183.793    8.293   78.291    0.448    0.259
  184.098    8.772   81.986    0.452    0.259
  184.403    8.770   85.067    0.435    0.251
  184.708    8.933   84.461    0.432    0.243
  185.013    8.930   81.398    0.435    0.240
  185.317    8.927   77.718    0.443    0.158
  185.622    8.590   75.266    0.451    0.156
  185.927    8.587   90.640    0.456    0.250
  186.232    8.584   89.421    0.435    0.254
  186.537    8.421   80.210    0.426    0.256
  186.841    8.578   77.759    0.426    0.255
  187.146    8.575   77.766    0.432    0.231
  187.451    8.411   80.846    0.441    0.244
  187.756    7.943   81.470    0.457    0.249
  188.061    7.501   86.394    0.466    0.244
  188.365    7.357   83.946    0.470    0.229
  188.670    7.494   81.493    0.466    0.235
  188.975    7.351   82.733    0.436    0.231
  189.280    6.684   80.896    0.427    0.213
  189.585    5.528   85.821    0.438    0.181
  189.889    5.320   91.360    0.451    0.215
  190.194    5.524   96.901    0.454    0.212
  190.499    6.070  100.598    0.457    0.205
  190.804    6.545  101.835    0.460    0.202
  191.109    6.543   99.385    0.454    0.197
  191.413    6.063   93.247    0.446    0.188
  191.718    5.409   90.797    0.444    0.197
  192.023    5.109   90.188    0.457    0.210
  192.328    4.645   92.654    0.501    0.202
  192.633    4.386  101.884    0.500    0.210
  192.937    4.385  101.277    0.502    0.223
  193.242    4.552  101.900    0.491    0.234
  193.547    4.551  104.368    0.483    0.215
  193.852    4.463  104.379    0.485    0.199
  194.156    4.215  103.154    0.534    0.213
  194.461    3.833   99.474    0.563    0.219
  194.766    3.688   92.106    0.535    0.226
  195.071    3.977   89.041    0.507    0.240
  195.376    4.129   91.508    0.486    0.266
  195.680    4.207  103.193    0.479    0.221
  195.985    3.973  107.504    0.479    0.236
  196.290    3.349  109.972    0.546    0.245
  196.595    3.163  107.523    0.593    0.231
  196.900    3.542  102.611    0.583    0.208
  197.204    4.120   91.556    0.506    0.200
  197.509    4.884   92.179    0.474    0.190
  197.814    6.013   94.032    0.465    0.178
  198.119    6.994   85.434    0.465    0.115
  198.424    7.540   83.598    0.461    0.104
  198.728    7.683   97.129    0.432    0.203
  199.033    7.534  100.825    0.417    0.212
  199.338    7.391   96.530    0.421    0.216
  199.643    7.113   87.934    0.447    0.224
  199.948    6.110   81.796    0.466    0.227
  200.252    5.350   86.106    0.454    0.199
  200.557    4.595   92.261    0.454    0.219
  200.862    4.423   95.958    0.502    0.214
  201.167    4.505   97.195    0.519    0.202
  201.472    4.678   92.900    0.519    0.238
  201.776    5.140   84.918    0.498    0.217
  202.081    5.648   82.468    0.473    0.233
  202.386    6.091   85.549    0.469    0.243
  202.691    6.445   91.702    0.503    0.253
  202.996    6.819   92.325    0.497    0.246
  203.300    7.079   94.178    0.469    0.210
  203.605    7.211   97.258    0.472    0.204
  203.910    7.208   98.496    0.473    0.207
  204.215    7.205   92.358    0.468    0.202
  204.520    7.068   89.907    0.452    0.199
  204.824    6.802   85.615    0.438    0.206
  205.129    6.424   85.621    0.423    0.247
  205.434    5.731   88.090    0.417    0.260
  205.739    4.740   88.713    0.429    0.232
  206.043    4.230   87.491    0.459    0.207
  206.348    3.433   83.811    0.473    0.229
  206.653    3.121   81.360    0.484    0.242
  206.958    2.732   80.140    0.531    0.239
  207.263    2.630   80.146    0.587    0.272
  207.567    2.484   80.769    0.574    0.267
  207.872    2.390   84.469    0.566    0.263
  208.177    2.389   86.318    0.548    0.265
  208.482    2.434   88.171    0.543    0.255
  208.787    2.778   87.563    0.542    0.250
  209.091    3.171   83.884    0.526    0.251
  209.396    3.903   82.049    0.511    0.237
  209.701    4.372   85.746    0.457    0.239
  210.006    4.804   87.597    0.435    0.218
  210.311    4.988   86.375    0.481    0.240
  210.615    5.178   82.697    0.492    0.234
  210.920    5.275   81.475    0.480    0.230
  211.225    5.273   81.482    0.467    0.218
  211.530    4.886   82.105    0.461    0.204
  211.835    4.443   88.260    0.437    0.220
  212.139    3.964  102.404    0.456    0.233
  212.444    3.673  106.101    0.496    0.206
