~VERSION INFORMATION
 VERS.                 2.0:   CWLS LOG ASCII STANDARD -VERSION 2.0
 WRAP.                  NO:   ONE LINE PER DEPTH STEP
~WELL INFORMATION BLOCK
#MNEM.UNIT           DATA                    DESCRIPTION OF MNEMONIC
#---------    -------------------            -------------------------------
# Generated from Intellog Unique Number	CW_70_72/WELL/1060
NULL.         -999.25                        : NULL_VALUE
WELL.         HUSKY ET AL SMITH 11-21        : Well_name    - WELL              
LOC .         11-21-071-24W4                 : Location     - LOCATION          
UWI .         00/11-21-071-24W4/0            : Uwi          - UNIQUE WELL ID    
ENTR.         JAYE                           : Entered      - ENTERED BY        
SRVC.         SCHLUMBERGER                   : Scn          - SERVICE COMPANY   
DATE.         18 DEC 77                      : Date         - LOG DATE          
STRT.M        422.453                        : top_depth    - START DEPTH       
STOP.M        642.453                        : bot_depth    - STOP DEPTH        
STEP.M        0.25                           : increment    - STEP LENGTH       
~CURVE INFORMATION BLOCK
#MNEM UNIT       ERCB CURVE CODE    CURVE DESCRIPTION
#-----------   ------------------   ----------------------------------
DEPT.M        00 001 00 00         : DEPTH        - DEPTH                       
DPHI.V/V      00 890 00 00         : PHID         - DENSITY POROSITY (SANDSTONE)
NPHI.V/V      00 330 00 00         : PHIN         - NEUTRON POROSITY (SANDSTONE)
GR  .API      00 310 00 00         : GR           - GAMMA RAY                   
CALI.MM       00 280 01 00         : CAL          - CALIPER                     
ILD .OHMM     00 120 00 00         : RESD         - DEEP RESISTIVITY (DIL)      
~PARAMETER INFORMATION       
#MNEM.UNIT           DATA             DESCRIPTION OF MNEMONIC
#---------         -----------     ------------------------------
GL  .M        642.671              : gl           - GROUND LEVEL ELEVATION      
EREF.M        646.633              : kb           - ELEVATION OF DEPTH REFERENCE
DATM.M        642.671              : datum        - DATUM ELEVATION             
TDD .M        658.368              : tdd          - TOTAL DEPTH DRILLER         
RUN .         ONE                  : Run          - RUN NUMBER                  
ENG .         DALY                 : Engineer     - RECORDING ENGINEER          
WIT .         TODD/GEORGE          : Witness      - WITNESSED BY                
BASE.         EDM                  : Branch       - HOME BASE OF LOGGING UNIT   
MUD .         GEL                  : Mud_type     - MUD TYPE                    
MATR.         SANDSTONE            : Logunit      - NEUTRON MATRIX              
TMAX.C        26.1111              : BHT          - MAXIMUM RECORDED TEMPERATURE
BHTD.M        658.368              : BHTDEP       - MAXIMUM RECORDED TEMPERATURE
RMT .C        -17.7778             : MDTP         - TEMPERATURE OF MUD          
MUDD.KG/M     1092                 : MWT          - MUD DENSITY                 
NEUT.         1                    : NEUTRON      - NEUTRON TYPE                
RESI.         0                    : RESIST       - RESISTIVITY TYPE            
RM  .OHMM     0                    : RM           - RESISTIVITY OF MUD          
RMC .OHMM     0                    : RMC          - RESISTIVITY OF MUD CAKE     
RMF .OHMM     6.97                 : RMF          - RESISTIVITY OF MUD FILTRATE 
SUFT.C        -17.7778             : SUFT         - SURFACE TEMPERATURE         
~A  DEPTH     PHID     PHIN       GR      CAL     RESD
# ...
  531.953    0.332    0.456   76.674  168.712    2.010
  532.203    0.327    0.446   76.992  171.574    2.043
  532.453    0.311    0.436   75.811  170.421    2.092
  532.703    0.285    0.448   80.060  168.952    2.175
  532.953    0.291    0.459   86.805  168.962    2.261
  533.203    0.303    0.446   86.373  169.605    2.341
  533.453    0.310    0.442   85.319  170.142    2.401
  533.703    0.307    0.453   86.509  170.680    2.401
  533.953    0.294    0.456   86.515  170.902    2.368
  534.203    0.301    0.453   82.839  171.122    2.310
  534.453    0.312    0.430   84.093  170.920    2.279
  534.703    0.318    0.420   84.223  171.245    2.240
  534.953    0.323    0.416   82.668  171.257    2.218
  535.203    0.324    0.424   82.362  171.161    2.201
  535.453    0.315    0.425   81.369  171.274    2.179
  535.703    0.308    0.421   82.997  171.177    2.177
  535.953    0.305    0.415   81.629  170.975    2.153
  536.203    0.302    0.422   80.824  171.407    2.151
  536.453    0.307    0.439   81.641  171.840    2.123
  536.703    0.297    0.438   84.142  172.165    2.113
  536.953    0.310    0.441   86.831  172.283    2.097
  537.203    0.319    0.450   91.079  172.290    2.088
  537.453    0.305    0.455   90.461  172.404    2.079
  537.703    0.297    0.444   89.157  171.569    2.082
  537.953    0.302    0.434   88.975  170.416    2.088
  538.203    0.296    0.422   87.108  171.377    2.107
  538.453    0.280    0.416   81.498  172.654    2.114
  538.703    0.283    0.414   80.629  173.931    2.116
  538.953    0.297    0.411   80.198  174.468    2.119
  539.203    0.309    0.423   79.767  174.583    2.110
  539.453    0.314    0.438   80.397  174.594    2.109
  539.703    0.290    0.457   80.090  174.604    2.128
  539.953    0.298    0.454   78.411  174.507    2.161
  540.203    0.299    0.442   76.731  174.517    2.161
  540.453    0.304    0.453   84.912  174.947    2.346
  540.703    0.300    0.450   95.212  174.958    2.526
  540.953    0.272    0.423  111.130  175.600    2.777
  541.203    0.224    0.410  118.748  179.836    3.024
  541.453    0.196    0.411  121.000  183.650    3.287
  541.703    0.189    0.419  116.513  185.138    3.566
  541.953    0.177    0.412  115.894  187.049    3.869
  542.203    0.209    0.416  121.266  189.488    4.015
  542.453    0.199    0.428  124.017  191.612    4.081
  542.703    0.182    0.431  124.334  192.783    4.102
  542.953    0.180    0.417  122.967  193.639    4.106
  543.203    0.195    0.423  120.914  193.859    3.932
  543.453    0.182    0.428  117.675  193.128    3.800
  543.703    0.190    0.434  113.250  191.658    3.652
  543.953    0.219    0.441  108.888  189.342    3.563
  544.203    0.230    0.446  103.839  186.393    3.568
  544.453    0.214    0.431   99.039  183.339    3.647
  544.703    0.199    0.418   93.429  180.707    3.927
  544.953    0.196    0.428   87.444  178.180    4.846
  545.203    0.185    0.445   83.019  175.336    6.552
  545.453    0.124    0.383   72.542  171.330   10.343
  545.703    0.048    0.188   67.181  169.226   12.740
  545.953   -0.000    0.158   67.499  168.708   13.566
  546.203    0.021    0.180   75.242  169.774   12.845
  546.453    0.049    0.211   87.228  170.734    8.267
  546.703    0.113    0.266   96.843  172.540    6.767
  546.953    0.172    0.342  107.705  175.825    5.509
  547.203    0.210    0.377  104.404  177.841    4.726
  547.453    0.224    0.401  100.167  177.111    4.433
  547.703    0.220    0.391   97.114  169.514    4.591
  547.953    0.189    0.381   93.314  165.401    4.719
  548.203    0.172    0.368   90.511  164.461    4.769
  548.453    0.183    0.351   94.011  164.891    4.635
  548.703    0.170    0.335  105.186  165.535    4.356
  548.953    0.204    0.353  112.056  165.650    4.049
  549.203    0.201    0.392  116.054  164.814    3.792
  549.453    0.191    0.397  121.988  165.037    3.665
  549.703    0.204    0.396  120.496  165.572    3.561
  549.953    0.216    0.401  118.130  166.215    3.481
  550.203    0.216    0.418  121.880  166.860    3.460
  550.453    0.202    0.442  125.879  167.715    3.452
  550.703    0.194    0.444  125.385  168.886    3.456
  550.953    0.184    0.438  121.459  169.740    3.494
  551.203    0.197    0.431  117.222  170.911    3.511
  551.453    0.203    0.422  113.982  172.189    3.529
  551.703    0.199    0.400  110.494  173.466    3.540
  551.953    0.194    0.388  114.867  174.850    3.565
  552.203    0.186    0.387  120.739  175.598    3.604
  552.453    0.195    0.409  124.487  176.453    3.642
  552.703    0.203    0.420  125.991  177.518    3.667
  552.953    0.195    0.416  127.306  178.163    3.700
  553.203    0.185    0.425  130.120  178.807    3.718
  553.453    0.179    0.423  129.502  178.921    3.746
  553.703    0.186    0.419  128.572  178.824    3.785
  553.953    0.198    0.414  127.953  178.412    3.811
  554.203    0.189    0.409  127.958  178.317    3.845
  554.453    0.179    0.407  129.275  178.114    3.878
  554.703    0.199    0.421  126.784  178.122    3.927
  554.953    0.204    0.432  122.858  178.132    3.963
  555.203    0.182    0.424  121.866  178.141    3.998
  555.453    0.182    0.428  121.185  178.151    3.995
  555.703    0.201    0.430  120.317  178.159    3.972
  555.953    0.212    0.431  121.196  178.169    3.940
  556.203    0.187    0.437  124.258  178.919    3.945
  556.453    0.164    0.433  127.883  180.090    3.973
  556.703    0.164    0.424  129.262  181.156    4.000
  556.953    0.174    0.422  127.832  182.010    4.029
  557.203    0.175    0.421  125.841  182.336    4.026
  557.453    0.185    0.411  123.600  181.817    3.994
  557.703    0.193    0.403  123.044  180.770    3.926
  557.953    0.207    0.401  123.299  180.358    3.866
  558.203    0.207    0.402  123.741  180.366    3.820
  558.453    0.198    0.408  124.371  180.376    3.783
  558.703    0.190    0.414  124.314  180.385    3.774
  558.953    0.180    0.420  123.696  180.183    3.772
  559.203    0.176    0.423  124.574  180.088    3.764
  559.453    0.179    0.425  130.757  180.201    3.720
  559.703    0.187    0.430  130.763  180.212    3.704
  559.953    0.172    0.439  128.148  180.220    3.695
  560.203    0.177    0.439  126.656  180.123    3.749
  560.453    0.179    0.438  122.668  179.816    3.860
  560.703    0.176    0.432  115.871  179.403    4.020
  560.953    0.175    0.427  110.761  178.039    4.297
  561.203    0.170    0.439  105.774  175.090    4.732
  561.453    0.155    0.433  100.787  175.205    5.221
  561.703    0.134    0.417   98.734  176.060    5.509
  561.953    0.120    0.382  103.669  176.069    5.557
  562.203    0.086    0.358  110.788  175.338    5.242
  562.453    0.068    0.350  125.270  174.291    4.720
  562.703    0.115    0.368  137.194  174.089    4.257
  562.953    0.161    0.416  136.825  175.789    3.934
  563.203    0.195    0.429  128.407  178.439    3.691
  563.453    0.184    0.431  118.865  179.612    3.710
  563.703    0.167    0.426  114.503  179.198    3.885
  563.953    0.156    0.425  105.148  178.151    4.223
  564.203    0.141    0.425   95.108  176.577    4.608
  564.453    0.116    0.391   85.254  176.057    4.953
  564.703    0.087    0.360   81.890  176.065    5.177
  564.953    0.108    0.300   95.935  176.920    5.145
  565.203    0.136    0.321  107.423  177.881    4.955
  565.453    0.174    0.356  116.975  177.996    4.657
  565.703    0.191    0.367  124.343  177.478    4.408
  565.953    0.176    0.417  127.344  176.853    4.067
  566.203    0.190    0.426  127.600  176.650    3.990
  566.453    0.198    0.412  129.414  176.977    3.943
  566.703    0.189    0.414  128.734  177.093    3.921
  566.953    0.170    0.415  128.053  177.631    3.925
  567.203    0.160    0.415  128.308  177.850    3.983
  567.453    0.171    0.417  126.442  178.177    4.009
  567.703    0.168    0.415  127.383  178.080    4.075
  567.953    0.155    0.418  130.696  178.089    4.173
  568.203    0.166    0.433  135.880  178.205    4.257
