~VERSION INFORMATION
 VERS.                 2.0:   CWLS LOG ASCII STANDARD -VERSION 2.0
 WRAP.                  NO:   ONE LINE PER DEPTH STEP
~WELL INFORMATION BLOCK
#MNEM.UNIT           DATA                    DESCRIPTION OF MNEMONIC
#---------    -------------------            -------------------------------
# Generated from Intellog Unique Number	CS_77_79/WELL/1009
WELL.         MESA PORTAGE                   : Well_name    - WELL
LOC .         00/11-34-079-18W4/0            : Location     - LOCATION
UWI .         00/11-34-079-18W4/0            : Uwi          - UNIQUE WELL ID
ENTR.         JHS                            : Entered      - ENTERED BY
SRVC.         SCHLUMBERGER                   : Scn          - SERVICE COMPANY
STRT.M        152.4                          : top_depth    - START DEPTH
STOP.M        374.65                         : bot_depth    - STOP DEPTH
STEP.M        0.25                           : increment    - STEP LENGTH
 NULL. -999.2500:NULL Value
~CURVE INFORMATION BLOCK
#MNEM UNIT       ERCB CURVE CODE    CURVE DESCRIPTION
#-----------   ------------------   ----------------------------------
DEPT.M        00 001 00 00         : DEPTH        - DEPTH
RHOB.KG/M3    00 350 00 00         : DENS         - BULK DENSITY
GR  .API      00 310 00 00         : GR           - GAMMA RAY
DPHI.V/V      00 890 00 00         : PHID         - DENSITY POROSITY (SANDSTONE)
NPHI.V/V      00 330 00 00         : PHIN         - NEUTRON POROSITY (SANDSTONE)
ILD .OHMM     00 120 00 00         : RESD         - DEEP RESISTIVITY (DIL)
~PARAMETER INFORMATION
#MNEM.UNIT           DATA             DESCRIPTION OF MNEMONIC
#---------         -----------     ------------------------------
GL  .M        554.462              : gl           - GROUND LEVEL ELEVATION
EREF.M        557.814              : kb           - ELEVATION OF DEPTH REFERENCE
DATM.M        557.814              : datum        - DATUM ELEVATION
TDD .M        374.904              : tdd          - TOTAL DEPTH DRILLER
RUN .         ONE                  : Run          - RUN NUMBER
ENG .         BILL                 : Engineer     - RECORDING ENGINEER
WIT .         JIM                  : Witness      - WITNESSED BY
MUD .         GEL                  : Mud_type     - MUD TYPE
MATR.         SANDSTONE            : Logunit      - NEUTRON MATRIX
TMAX.C        60                   : BHT          - MAXIMUM RECORDED TEMPERATURE
BHTD.M        374.904              : BHTDEP       - MAXIMUM RECORDED TEMPERATURE
MATR.         1                    : LOGUNIT      - NEUTRON MATRIX
RMT .C        25                   : MDTP         - TEMPERATURE OF MUD
NEUT.         1                    : NEUTRON      - NEUTRON TYPE
RESI.         0                    : RESIST       - RESISTIVITY TYPE
RMC .OHMM     0.25                 : RMC          - RESISTIVITY OF MUD CAKE
RMF .OHMM     0.25                 : RMF          - RESISTIVITY OF MUD FILTRATE
SUFT.C        15                   : SUFT         - SURFACE TEMPERATURE
~A  DEPTH     DENS       GR     PHID     PHIN     RESD
# ...
  334.900 2387.230   38.425    0.189    0.392   10.135
  335.150 2377.750   37.889    0.194    0.377   13.205
  335.400 2348.080   38.321    0.212    0.391   15.165
  335.650 2311.110   39.280    0.233    0.417   14.443
  335.900 2307.960   41.659    0.235    0.422   12.028
  336.150 2334.170   43.502    0.220    0.391    9.653
  336.400 2382.400   48.170    0.192    0.384    6.730
  336.650 2406.730   52.014    0.177    0.393    5.777
  336.900 2331.750   51.513    0.221    0.416    4.450
  337.150 2330.480   47.866    0.222    0.468    4.223
  337.400 2336.460   40.025    0.218    0.509    4.248
  337.650 2366.030   30.873    0.201    0.488    4.412
  337.900 2408.730   38.677    0.176    0.461    4.807
  338.150 2414.350   41.665    0.173    0.431    5.122
  338.400 2408.450   62.245    0.176    0.432    5.369
  338.650 2408.750   76.913    0.176    0.449    5.783
  338.900 2440.530   76.290    0.158    0.416    6.051
  339.150 2477.710   70.676    0.136    0.405    6.251
  339.400 2506.560   62.052    0.119    0.395    6.126
  339.650 2490.650   60.666    0.128    0.413    5.682
  339.900 2427.410   65.175    0.165    0.430    5.124
  340.150 2419.700   69.931    0.170    0.436    4.993
  340.400 2404.640   68.431    0.179    0.453    5.430
  340.650 2410.230   65.868    0.175    0.463    5.887
  340.900 2396.080   62.991    0.184    0.445    6.676
  341.150 2404.040   59.396    0.179    0.409    7.789
  341.400 2475.410   55.748    0.137    0.379    8.877
  341.650 2508.060   54.017    0.118    0.366    9.483
  341.900 2543.600   55.424    0.097    0.379    9.462
  342.150 2542.340   54.269    0.098    0.373    8.983
  342.400 2473.700   57.862    0.138    0.366    8.194
  342.650 2505.100   60.130    0.120    0.375    7.459
  342.900 2451.440   59.225    0.151    0.402    6.465
  343.150 2501.780   58.633    0.122    0.409    5.684
  343.400 2474.070   55.708    0.138    0.403    5.726
  343.650 2427.150   52.734    0.164    0.420    6.508
  343.900 2365.170   48.276    0.162    0.470    7.636
  344.150 2164.790   41.392    0.133    0.539   10.214
  344.400 -102.269   32.312    0.019    0.088   13.993
  344.650  -18.888   24.763    0.003    0.016   37.988
  344.900   -0.594   24.526    0.000    0.001   53.560
  345.150    0.203   26.176   -0.000    0.010   63.081
  345.400    0.027   26.292   -0.000    0.019   64.566
  345.650    0.000   26.302   -0.000    0.044   66.367
  345.900   -0.000   26.544    0.000    0.012   71.345
  346.150   -0.000   26.180    0.000    0.004   71.625
  346.400    0.000   29.211   -0.000    0.042   71.638
  346.650    0.000   31.186   -0.000    0.038   73.873
  346.900    0.000   28.980   -0.000    0.005   78.441
  347.150   -0.000   26.614    0.000   -0.000   89.076
  347.400   -0.000   25.898    0.000    0.010   97.297
  347.650   -0.000   32.323    0.000    0.064  101.146
  347.900    0.000   33.975   -0.000    0.021  103.013
  348.150    0.000   31.276   -0.000   -0.000  108.313
  348.400    0.000   26.948   -0.000   -0.000  115.536
  348.650   -0.000   23.602    0.000    0.000  123.820
  348.900   -0.000   24.240    0.000    0.004  130.725
  349.150    0.000   26.441   -0.000    0.019  129.493
  349.400    0.000   29.945   -0.000    0.010  129.841
  349.650    0.000   29.200   -0.000   -0.000  126.632
  349.900   -0.000   26.668    0.000    0.000  122.946
  350.150   -0.000   25.918    0.000    0.000  118.368
  350.400   -0.000   25.911    0.000    0.000  111.474
  350.650    0.000   24.989   -0.000   -0.000  108.513
  350.900    0.000   22.480   -0.000    0.006  103.507
  351.150    0.000   22.288   -0.000    0.013  106.179
  351.400   -0.000   20.719    0.000    0.002  117.641
  351.650   -0.000   18.993    0.000    0.000  130.808
  351.900   -0.000   18.740    0.000    0.000  143.710
  352.150    0.000   18.764   -0.000   -0.000  150.974
  352.400    0.000   18.901   -0.000   -0.000  141.129
  352.650   -0.000   19.964    0.000    0.000  124.690
  352.900   -0.000   22.676    0.000    0.008  103.209
  353.150   -0.000   25.106    0.000    0.035   94.432
  353.400    0.000   25.592   -0.000    0.052   83.263
  353.650    0.000   25.866   -0.000    0.069   74.787
  353.900    0.000   26.119   -0.000    0.078   70.402
  354.150   -0.000   26.113    0.000    0.062   63.995
  354.400   -0.000   26.654    0.000    0.064   60.428
  354.650   -0.000   28.095    0.000    0.093   55.749
  354.900    0.000   30.931   -0.000    0.139   53.499
  355.150    0.000   33.888   -0.000    0.172   51.894
  355.400   -0.000   38.504    0.000    0.190   51.970
  355.650   -0.000   40.106    0.000    0.189   53.649
  355.900   -0.000   39.694    0.000    0.165   55.349
  356.150    0.000   42.098   -0.000    0.142   57.139
  356.400    0.000   42.376   -0.000    0.128   59.470
  356.650    0.000   40.096   -0.000    0.134   63.298
  356.900   -0.000   34.068    0.000    0.156   64.260
  357.150   -0.000   27.739    0.000    0.168   64.362
  357.400   -0.000   27.152    0.000    0.170   63.005
  357.650    0.000   33.356   -0.000    0.169   62.022
  357.900    0.000   36.012   -0.000    0.164   62.440
  358.150    0.000   34.400   -0.000    0.156   64.573
  358.400   -0.000   33.761    0.000    0.115   66.322
  358.650   -0.000   35.707    0.000    0.090   71.330
  358.900    0.000   36.947   -0.000    0.072   79.150
  359.150    0.000   34.838   -0.000    0.062   87.156
  359.400    0.000   32.951   -0.000    0.059   90.941
  359.650   -0.000   31.388    0.000    0.058   89.453
  359.900   -0.000   32.389    0.000    0.067   86.113
  360.150   -0.000   33.339    0.000    0.112   80.923
  360.400    0.000   31.750   -0.000    0.138   77.277
  360.650    0.000   30.645   -0.000    0.120   74.905
  360.900    0.000   30.357   -0.000    0.118   74.266
  361.150   -0.000   31.057    0.000    0.126   74.106
  361.400   -0.000   30.320    0.000    0.131   73.057
  361.650    0.000   30.362   -0.000    0.136   70.512
  361.900    0.000   31.713   -0.000    0.137   65.721
  362.150    0.000   32.852   -0.000    0.131   60.158
  362.400   -0.000   35.324    0.000    0.126   55.635
  362.650   -0.000   35.657    0.000    0.118   53.855
  362.900   -0.000   35.855    0.000    0.097   53.550
  363.150    0.000   35.338   -0.000    0.076   57.066
  363.400    0.000   35.191   -0.000    0.059   62.297
  363.650    0.000   33.432   -0.000    0.042   66.318
  363.900   -0.000   30.964    0.000    0.030   69.783
  364.150   -0.000   30.552    0.000    0.034   71.028
  364.400   -0.000   32.407    0.000    0.049   67.280
  364.650    0.000   34.537   -0.000    0.059   63.199
  364.900    0.000   35.859   -0.000    0.061   51.999
  365.150   -0.000   36.735    0.000    0.063   44.761
  365.400   -0.000   35.109    0.000    0.080   42.712
  365.650   -0.000   32.030    0.000    0.105   39.689
  365.900    0.000   32.315   -0.000    0.161   39.319
  366.150    0.000   33.425   -0.000    0.160   43.194
  366.400    0.000   33.657   -0.000    0.133   52.517
  366.650   -0.000   32.742    0.000    0.109   62.069
  366.900   -0.000   30.123    0.000    0.062   75.205
  367.150   -0.000   28.235    0.000    0.027   94.049
  367.400    0.000   27.910   -0.000    0.057  137.596
  367.650    0.000   25.585   -0.000    0.075  218.768
  367.900    0.000   19.747    0.000    0.112  299.284
  368.150   -0.000   15.612    0.000    0.073  345.146
  368.400   -0.000   14.079    0.000    0.046  329.362
  368.650    0.000   14.230   -0.000    0.063  238.148
  368.900    0.000   15.635   -0.000    0.121  201.063
  369.150    0.000   16.053   -0.000    0.161  187.159
  369.400   -0.000   15.002    0.000    0.123  171.468
  369.650   -0.000   14.922    0.000    0.094  138.406
  369.900   -0.000   15.666    0.000    0.075  132.388
  370.150    0.000   16.731   -0.000    0.069  140.306
  370.400    0.000   16.870   -0.000    0.072  155.933
  370.650    0.000   16.223   -0.000    0.072  239.633
  370.900   -0.000   15.240    0.000    0.073  500.222
  371.150   -0.000   14.314    0.000    0.070  888.924
