~VERSION INFORMATION
 VERS.                 2.0:   CWLS LOG ASCII STANDARD -VERSION 2.0
 WRAP.                  NO:   ONE LINE PER DEPTH STEP
~WELL INFORMATION BLOCK
#MNEM.UNIT           DATA                    DESCRIPTION OF MNEMONIC
#---------    -------------------            -------------------------------
# Generated from Intellog Unique Number	CW_70_72/WELL/3306
NULL.         -999.25                        : NULL_VALUE
WELL.         CHEVRON SOBC MITSUE            : Well_name    - WELL              
LOC .         10-01-070-04W5                 : Location     - LOCATION          
UWI .         00/10-01-070-04W5/0            : Uwi          - UNIQUE WELL ID    
ENTR.         CAMPBELL                       : Entered      - ENTERED BY        
SRVC.         SCHLUMBERGER                   : Scn          - SERVICE COMPANY   
DATE.         06 SEP 66                      : Date         - LOG DATE
STRT.M        640.08                         : top_depth    - START DEPTH       
STOP.M        774.08                         : bot_depth    - STOP DEPTH        
STEP.M        0.25                           : increment    - STEP LENGTH       
~CURVE INFORMATION BLOCK
#MNEM UNIT       ERCB CURVE CODE    CURVE DESCRIPTION
#-----------   ------------------   ----------------------------------
DEPT.M        00 001 00 00         : DEPTH        - DEPTH                       
ILD .OHMM     00 120 00 00         : RESD         - DEEP RESISTIVITY (DIL)      
CALI.MM       00 280 01 00         : CAL          - CALIPER                     
GR  .API      00 310 00 00         : GR           - GAMMA RAY                   
DELT.US/F     00 520 00 00         : DELT         - SONIC TRAVEL TIME           
~PARAMETER INFORMATION       
#MNEM.UNIT           DATA             DESCRIPTION OF MNEMONIC
#---------         -----------     ------------------------------
GL  .M        665.5                : gl           - GROUND LEVEL ELEVATION      
EREF.M        669.493              : kb           - ELEVATION OF DEPTH REFERENCE
DATM.M        669.493              : datum        - DATUM ELEVATION             
TDD .M        1792.22              : tdd          - TOTAL DEPTH DRILLER         
RUN .         ONE                  : Run          - RUN NUMBER                  
ENG .         McNAUGHTON           : Engineer     - RECORDING ENGINEER          
WIT .         LINKE                : Witness      - WITNESSED BY                
MUD .         GEL                  : Mud_type     - MUD TYPE                    
MATR.         SANDSTONE            : Logunit      - NEUTRON MATRIX              
TMAX.C        50                   : BHT          - MAXIMUM RECORDED TEMPERATURE
BHTD.M        1792.22              : BHTDEP       - MAXIMUM RECORDED TEMPERATURE
RMT .C        25                   : MDTP         - TEMPERATURE OF MUD          
MUDD.KG/M     10000                : MWT          - MUD DENSITY                 
NEUT.         1                    : NEUTRON      - NEUTRON TYPE                
RESI.         0                    : RESIST       - RESISTIVITY TYPE            
RM  .OHMM     1.1                  : RM           - RESISTIVITY OF MUD          
RMC .OHMM     1.34                 : RMC          - RESISTIVITY OF MUD CAKE     
RMF .OHMM     0.93                 : RMF          - RESISTIVITY OF MUD FILTRATE 
SUFT.C        15                   : SUFT         - SURFACE TEMPERATURE         
~A  DEPTH     RESD      CAL       GR     DELT
# ...
  683.580    2.283  253.137   53.033  328.676
  683.830    2.263  262.875   45.895  329.965
  684.080    2.242  261.896   41.143  339.487
  684.330    2.221  258.372   40.924  341.767
  684.580    2.222  266.575   42.854  342.398
  684.830    2.242  251.308   43.112  344.348
  685.080    2.242  238.086   44.322  351.895
  685.330    2.242  247.820   47.204  331.139
  685.580    2.263  247.866   47.939  297.875
  685.830    2.263  251.983   47.006  274.151
  686.080    2.263  251.004   47.741  294.204
  686.330    2.263  251.561   50.623  305.701
  686.580    2.284  253.637   47.780  321.472
  686.830    2.284  247.047   49.708  340.863
  687.080    2.306  237.906   49.252  346.763
  687.330    2.327  233.356   48.797  355.297
  687.580    2.327  236.458   47.142  366.785
  687.830    2.327  242.631   42.389  365.444
  688.080    2.327  247.769   45.510  365.097
  688.330    2.327  251.381   44.578  365.070
  688.580    2.306  246.326   46.269  365.372
  688.830    2.285  247.892   46.289  367.322
  689.080    2.285  248.954   47.498  367.956
  689.330    2.264  244.404   46.563  365.628
  689.580    2.182  233.733   45.629  365.933
  689.830    2.104  238.886   46.605  362.621
  690.080    2.084  239.942   43.043  362.597
  690.330    2.123  238.458   43.778  363.886
  690.580    2.203  236.454   45.944  361.887
  690.830    2.372  236.500   45.487  363.508
  691.080    2.461  237.047   46.944  363.484
  691.330    2.553  236.578   47.913  363.789
  691.580    2.601  235.094   48.171  364.423
  691.830    2.307  235.640   48.668  362.424
  692.080    2.224  237.722   44.870  353.515
  692.330    2.163  238.783   45.607  338.021
  692.580    2.124  237.804   48.012  336.352
  692.830    2.085  237.341   44.217  338.302
  693.080    2.028  239.423   45.901  348.150
  693.330    1.973  237.939   47.834  352.733
  693.580    1.937  237.985   46.658  357.316
  693.830    1.937  239.041   47.870  360.911
  694.080    2.010  241.118   50.037  366.152
  694.330    2.029  243.710   52.442  369.748
  694.580    2.067  245.792   54.131  373.670
  694.830    2.105  247.368   50.572  370.358
  695.080    2.184  243.839   47.251  361.448
  695.330    2.245  241.329   31.048  346.942
  695.580    2.287  238.310   37.032  337.374
  695.830    2.330  237.841   31.328  339.325
  696.080    2.351  240.438   35.877  353.780
  696.330    2.395  246.091   43.295  365.276
  696.580    2.462  248.677   43.314  372.492
  696.830    2.485  250.764   43.095  376.417
  697.080    2.508  252.331   38.581  373.099
  697.330    2.532  254.418   38.839  370.113
  697.580    2.532  255.989   41.247  368.111
  697.830    2.555  257.566   42.456  367.103
  698.080    2.555  258.628   44.864  366.091
  698.330    2.555  260.194   48.939  366.064
  698.580    2.556  262.786   48.242  366.698
  698.830    2.603  266.913   50.647  368.322
  699.080    2.603  271.030   45.421  371.253
  699.330    2.603  277.708   46.871  372.223
  699.580    2.628  283.361   48.558  375.157
  699.830    2.652  289.528   51.917  371.842
  700.080    2.652  295.176   55.282  366.553
  700.330    2.677  300.318   57.207  360.934
  700.580    2.702  307.001   54.364  350.708
  700.830    2.702  311.118   54.860  342.454
  701.080    2.727  315.241   53.687  342.759
  701.330    2.727  318.853   52.992  341.748
  701.580    2.727  321.450   52.535  340.078
  701.830    2.727  323.536   50.404  341.370
  702.080    2.727  324.088   58.774  344.637
  702.330    2.702  324.639   63.805  344.280
  702.580    2.702  325.701   61.200  343.595
  702.830    2.678  326.252   67.184  343.571
  703.080    2.678  327.319   61.719  342.889
  703.330    2.678  327.860   59.352  343.855
  703.580    2.678  328.411   56.506  345.147
  703.830    2.678  328.968   55.333  351.046
  704.080    2.678  329.514   53.923  355.297
  704.330    2.654  330.071   50.600  356.918
  704.580    2.629  330.632   53.005  356.565
  704.830    2.605  331.173   46.345  353.253
  705.080    2.605  331.725   48.513  348.289
  705.330    2.630  332.281   48.530  346.949
  705.580    2.630  333.348   53.085  346.266
  705.830    2.630  333.889   49.048  346.568
  706.080    2.630  333.889   55.989  345.886
  706.330    2.654  335.002   54.338  347.836
  706.580    2.654  336.053   52.685  349.128
  706.830    2.679  337.635   51.750  349.104
  707.080    2.704  338.697   53.203  350.067
  707.330    2.704  339.248   50.598  348.726
  707.580    2.729  340.310   49.422  351.006
  707.830    2.754  340.856   49.444  351.643
  708.080    2.832  341.412   47.075  350.960
  708.330    3.105  341.959   50.198  351.594
  708.580    3.374  342.520   51.172  349.916
  708.830    3.598  342.562   45.943  348.249
  709.080    3.909  342.083   50.018  345.592
  709.330    4.208  342.129   48.844  343.923
  709.580    4.572  341.665   48.864  342.579
  709.830    4.531  340.686   51.507  340.583
  710.080    4.248  339.202   54.389  338.914
  710.330    4.094  338.213   55.845  337.573
  710.580    3.983  335.714   57.293  336.230
  710.830    3.983  333.710   57.551  334.560
  711.080    4.020  332.216   54.946  332.232
  711.330    4.020  329.706   54.250  329.579
  711.580    4.058  326.692   58.325  325.276
  711.830    4.133  323.673   53.811  322.288
  712.080    4.171  318.613   50.970  315.024
  712.330    4.210  313.038   51.228  305.456
  712.580    4.249  307.978   49.580  294.569
  712.830    4.369  305.469   49.833  286.318
  713.080    4.533  309.091   52.243  275.105
  713.330    4.746  308.612   57.508  280.017
  713.580    4.970  304.572   63.733  290.524
  713.830    5.063  306.154   64.704  306.295
  714.080    4.791  308.236   66.873  325.360
  714.330    4.290  307.762   70.709  322.704
  714.580    4.022  305.253   65.719  316.750
  714.830    3.771  302.233   64.784  314.096
  715.080    3.668  299.219   71.483  311.439
  715.330    3.536  296.705   66.731  312.073
  715.580    3.471  293.685   62.933  312.375
  715.830    3.504  290.161   62.714  315.316
  716.080    3.602  288.156   64.403  313.646
  716.330    3.703  284.127   65.615  308.680
  716.580    3.772  280.592   65.876  303.722
  716.830    3.842  277.058   61.837  296.787
  717.080    3.878  269.957   62.097  294.460
  717.330    3.987  263.883   59.015  263.499
  717.580    4.024  255.252   58.319  265.120
  717.830    4.061  251.217   60.962  277.930
  718.080    4.061  284.921   61.936  293.702
  718.330    4.061  291.089   58.856  330.537
  718.580    4.061  291.130   60.543  321.628
  718.830    4.062  291.171   60.085  325.550
  719.080    4.062  291.171   57.960  326.842
  719.330    4.025  291.259   60.362  329.124
  719.580    4.025  292.315   66.110  325.477
  719.830    4.025  293.382   63.982  324.466
  720.080    4.025  293.964   61.141  321.806
  720.330    3.988  294.490   64.259  318.491
  720.580    3.916  296.051   65.471  316.495
  720.830    3.844  297.623   61.912  307.257
  721.080    3.168  299.200   59.310  306.242
  721.330    2.517  300.776   60.758  308.851
  721.580    2.093  301.828   63.402  310.472
  721.830    1.840  302.894   61.751  312.422
  722.080    1.559  303.956   60.341  307.133
  722.330    1.238  304.512   61.079  308.090
  722.580    1.140  305.569   63.961  310.704
  722.830    1.119  307.146   68.033  316.603
  723.080    1.069  309.743   69.964  322.831
  723.330    1.069  311.814   69.983  329.389
  723.580    1.140  314.406   67.376  335.617
  723.830    1.205  318.028   70.022  344.152
  724.080    1.449  320.105   71.234  348.406
  724.330    1.726  323.722   70.776  352.659
  724.580    2.094  326.819   64.354  366.457
  724.830    2.541  330.436   58.884  390.126
  725.080    3.170  338.634   55.325  430.910
  725.330    3.674  354.494   50.811  510.532
  725.580    3.847  376.470   44.151  537.492
  725.830    3.847  365.799   48.464  560.177
  726.080    3.777  374.002   42.758  582.530
  726.330    3.607  382.210   38.244  596.659
  726.580    3.541  363.882   40.411  594.329
  726.830    3.477  341.479   47.828  627.873
