~VERSION INFORMATION
 VERS.                 2.0:   CWLS LOG ASCII STANDARD -VERSION 2.0
 WRAP.                  NO:   ONE LINE PER DEPTH STEP
~WELL INFORMATION BLOCK
#MNEM.UNIT           DATA                    DESCRIPTION OF MNEMONIC
#---------    -------------------            -------------------------------
# Generated from Intellog Unique Number	cxy/WELL/1154
WELL.         HB MISTEMAE                    : Well_name    - WELL
LOC .         00/10-27-079-01W5/0            : Location     - LOCATION
UWI .         00/10-27-079-01W5/0            : Uwi          - UNIQUE WELL ID
ENTR.         T                              : Entered      - ENTERED BY
SRVC.         SCHLUMBERGER                   : Scn          - SERVICE COMPANY
STRT.F        950                            : top_depth    - START DEPTH
STOP.F        1799.74                        : bot_depth    - STOP DEPTH
STEP.F        0.82                           : increment    - STEP LENGTH
 NULL. -999.2500:NULL Value
~CURVE INFORMATION BLOCK
#MNEM UNIT       ERCB CURVE CODE    CURVE DESCRIPTION
#-----------   ------------------   ----------------------------------
DEPT.F        00 001 00 00         : DEPTH        - DEPTH
CALI.IN       00 280 01 00         : CAL          - CALIPER
GR  .API      00 310 00 00         : GR           - GAMMA RAY
NPHI.V/V      00 330 00 00         : PHIN         - NEUTRON POROSITY (SANDSTONE)
ILD .OHMM     00 120 00 00         : RESD         - DEEP RESISTIVITY (DIL)
DPHI.V/V      00 890 00 00         : PHID         - DENSITY POROSITY (SANDSTONE)
~PARAMETER INFORMATION
#MNEM.UNIT           DATA             DESCRIPTION OF MNEMONIC
#---------         -----------     ------------------------------
GL  .F        1965                 : gl           - GROUND LEVEL ELEVATION
EREF.F        1978                 : kb           - ELEVATION OF DEPTH REFERENCE
DATM.F        1978                 : datum        - DATUM ELEVATION
TDD .F        1810                 : tdd          - TOTAL DEPTH DRILLER
RUN .         ONE                  : Run          - RUN NUMBER
ENG .         BILL                 : Engineer     - RECORDING ENGINEER
WIT .         JIM                  : Witness      - WITNESSED BY
MUD .         GEL                  : Mud_type     - MUD TYPE
MATR.         SANDSTONE            : Logunit      - NEUTRON MATRIX
TMAX.F        78                   : BHT          - MAXIMUM RECORDED TEMPERATURE
BHTD.F        1810                 : BHTDEP       - MAXIMUM RECORDED TEMPERATURE
MATR.         1                    : LOGUNIT      - NEUTRON MATRIX
RMT .F        77                   : MDTP         - TEMPERATURE OF MUD
NEUT.         1                    : NEUTRON      - NEUTRON TYPE
RESI.         5.67                 : RESIST       - RESISTIVITY TYPE
RMC .OHMM     5.67                 : RMC          - RESISTIVITY OF MUD CAKE
RMF .OHMM     5.67                 : RMF          - RESISTIVITY OF MUD FILTRATE
SUFT.F        4                    : SUFT         - SURFACE TEMPERATURE
~A  DEPTH      CAL       GR     PHIN     RESD     PHID
  950.000    7.929   53.156    0.500   13.541    0.281
  950.820    7.930   53.161    0.497   13.796    0.287
  951.640    7.930   52.579    0.492   14.055    0.289
  952.461    7.891   51.994    0.484   15.411    0.291
  953.281    7.891   52.003    0.476   15.414    0.291
  954.101    7.852   52.010    0.469   15.417    0.286
  954.921    7.853   52.608    0.464   15.708    0.282
  955.741    7.853   52.615    0.459   16.002    0.280
  956.562    7.854   52.623    0.468   17.870    0.283
  957.382    7.854   52.631    0.478   19.594    0.288
  958.202    7.855   53.819    0.485   20.329    0.290
  959.022    7.855   54.416    0.482   20.710    0.291
  959.843    7.856   55.014    0.483   21.100    0.295
  960.663    7.856   53.249    0.484   21.495    0.285
  961.483    7.856   50.894    0.482   22.305    0.274
  962.303    7.857   49.722    0.478   23.145    0.245
  963.123    7.818   55.044    0.484   23.579    0.205
  963.944    7.818   60.368    0.498   22.322    0.197
  964.764    7.818   63.326    0.513   20.748    0.246
  965.584    7.819   65.105    0.513   19.285    0.280
  966.404    7.820   62.161    0.514   18.596    0.297
  967.224    7.780   58.627    0.520   18.263    0.301
  968.045    7.781   57.451    0.525   18.266    0.301
  968.865    7.781   54.505    0.523   18.610    0.302
  969.685    7.782   53.921    0.520   19.308    0.303
  970.505    7.782   56.881    0.517   20.038    0.306
  971.325    7.743   60.434    0.516   20.411    0.310
  972.146    7.743   59.260    0.516   21.181    0.308
  972.966    7.704   56.904    0.516   21.580    0.292
  973.786    7.705   58.093    0.509   22.806    0.287
  974.606    7.705   60.464    0.497   24.105    0.291
  975.427    7.706   61.654    0.483   24.554    0.293
  976.247    7.706   57.527    0.473   26.432    0.290
  977.067    7.706   53.398    0.470   28.454    0.278
  977.887    7.707   51.043    0.467   30.628    0.260
  978.707    7.707   49.868    0.426   31.779    0.243
  979.528    7.708   48.700    0.391   34.844    0.217
  980.348    7.708   48.113    0.330   38.204    0.187
  981.168    7.709   46.352    0.285   40.376    0.153
  981.988    7.709   45.178    0.235   42.671    0.087
  982.808    7.710   44.590    0.213   44.277    0.056
  983.629    7.710   43.416    0.188   44.288    0.024
  984.449    7.750   42.836    0.194   41.164    0.006
  985.269    7.751   42.847    0.232   36.211    0.001
  986.089    7.751   42.850    0.288   33.654    0.049
  986.909    7.791   42.858    0.415   31.863    0.127
  987.730    7.791   43.455    0.429   31.290    0.177
  988.550    7.791   45.234    0.442   31.301    0.211
  989.370    7.832   44.651    0.454   31.307    0.225
  990.190    7.832   44.067    0.461   31.313    0.263
  991.010    7.912   44.074    0.469   31.320    0.280
  991.831    7.912   44.672    0.474   29.652    0.286
  992.651    7.913   45.865    0.481   29.122    0.289
  993.471    7.913   45.278    0.484   28.599    0.292
  994.291    7.914   45.285    0.490   28.086    0.293
  995.112    7.874   45.294    0.497   27.581    0.294
  995.932    7.875   45.301    0.502   27.591    0.294
  996.752    7.876   44.127    0.484   27.596    0.295
  997.572    7.915   42.953    0.474   27.606    0.296
  998.392    7.916   44.143    0.470   27.611    0.299
  999.213    7.956   47.694    0.470   27.114    0.300
 1000.030    7.956   49.471    0.470   26.629    0.300
 1000.850    7.917   50.659    0.470   26.636    0.300
 1001.670    7.918   50.668    0.469   26.644    0.300
 1002.490    7.918   50.676    0.469   26.166    0.301
 1003.310    7.918   50.091    0.470   25.695    0.305
 1004.130    7.880   48.919    0.472   25.235    0.306
 1004.950    7.880   48.926    0.469   24.781    0.308
 1005.770    7.841   49.525    0.473   23.897    0.311
 1006.590    7.841   49.531    0.475   23.903    0.315
 1007.410    7.802   50.128    0.482   24.351    0.318
 1008.230    7.803   50.135    0.486   24.807    0.323
 1009.060    7.764   50.144    0.489   26.704    0.326
 1009.880    7.764   48.970    0.492   28.223    0.326
 1010.700    7.725   47.798    0.494   25.753    0.297
 1011.520    7.725   46.035    0.479   21.442    0.274
 1012.340    7.726   44.857    0.454   17.527    0.238
 1013.160    7.726   43.683    0.401   15.418    0.209
 1013.980    7.726   47.824    0.320   14.071    0.187
 1014.800    7.727   53.741    0.326   13.566    0.195
 1015.620    7.727   53.157    0.345   13.082    0.234
 1016.440    7.728   51.983    0.473   13.084    0.268
 1017.260    7.728   50.809    0.499   13.331    0.283
 1018.080    7.729   50.224    0.521   13.581    0.263
 1018.900    7.729   50.233    0.527   14.093    0.243
 1019.720    7.730   51.421    0.461   14.356    0.244
 1020.540    7.730   49.066    0.453   14.361    0.270
 1021.360    7.730   49.663    0.494   14.629    0.293
 1022.180    7.731   49.080    0.501   14.634    0.306
 1023.000    7.731   47.320    0.496   15.185    0.313
 1023.820    7.732   46.733    0.482   15.470    0.309
 1024.640    7.732   46.150    0.469   15.761    0.307
 1025.460    7.733   46.157    0.466   15.765    0.310
 1026.280    7.733   47.349    0.468   16.062    0.312
 1027.100    7.734   48.535    0.465   16.363    0.313
 1027.920    7.734   50.906    0.469   16.366    0.312
 1028.740    7.735   51.502    0.478   16.073    0.307
 1029.560    7.735   52.100    0.485   14.669    0.306
 1030.380    7.735   52.697    0.487   13.633    0.307
 1031.200    7.736   52.706    0.483   12.671    0.309
 1032.020    7.736   53.304    0.474   11.778    0.310
 1032.840    7.737   56.856    0.471   11.150    0.313
 1033.660    7.777   59.816    0.470   10.364    0.313
 1034.480    7.777   61.595    0.470    9.993    0.315
 1035.300    7.817   61.600    0.472    9.813    0.316
 1036.120    7.857   62.790    0.481    9.816    0.303
 1036.940    7.897   63.388    0.496    9.819    0.292
 1037.760    7.898   61.625    0.515    9.821    0.289
 1038.580    7.938   61.632    0.520   10.006    0.290
 1039.400    7.938   61.639    0.506   10.008    0.293
 1040.220    7.939   59.284    0.495   10.011    0.296
 1041.040    7.939   53.387    0.488   10.198    0.295
 1041.860    7.940   51.030    0.481   10.391    0.271
 1042.680    7.980   52.809    0.485   10.585    0.271
 1043.500    7.980   56.950    0.488   10.984    0.278
 1044.320    7.980   57.547    0.470   11.397    0.284
 1045.140    7.981   56.968    0.477   12.269    0.275
 1045.960    7.981   56.384    0.484   12.498    0.277
 1046.780    7.982   56.391    0.492   13.455    0.278
 1047.600    8.022   58.762    0.497   13.961    0.277
 1048.430    8.022   58.768    0.497   14.224    0.279
 1049.250    8.023   57.595    0.492   14.226    0.281
 1050.070    8.023   57.010    0.489   13.717    0.284
 1050.890    8.024   56.426    0.488   12.066    0.284
 1051.710    8.064   56.434    0.483    9.335    0.290
 1052.530    8.064   57.622    0.480    7.091    0.292
 1053.350    8.064   66.489    0.478    5.691    0.299
 1054.170    8.065   73.583    0.476    4.915    0.302
 1054.990    8.066   83.040    0.490    4.485    0.304
 1055.810    8.066   87.181    0.511    4.246    0.274
 1056.630    8.106   86.007    0.526    4.741    0.245
 1057.450    8.106   83.064    0.537    6.132    0.219
 1058.270    8.107   78.345    0.553    7.505    0.194
 1059.090    8.107   71.265    0.553    8.536    0.192
 1059.910    8.108   71.274    0.529    7.790    0.235
 1060.730    8.068   73.051    0.520    7.240    0.259
 1061.550    8.069   78.966    0.509    6.369    0.267
 1062.370    8.030   83.109    0.491    6.732    0.269
 1063.190    7.991   84.297    0.517    7.517    0.267
 1064.010    7.991   84.304    0.528    8.091    0.263
 1064.830    7.952   83.128    0.541    9.203    0.262
 1065.650    7.913   81.363    0.529   10.661    0.263
 1066.470    7.913   83.146    0.522   11.905    0.250
 1067.290    7.914   81.972    0.517   13.054    0.233
 1068.110    7.914   79.026    0.509   13.544    0.223
 1068.930    7.914   76.078    0.500   13.797    0.224
