~VERSION INFORMATION
 VERS.                 2.0:   CWLS LOG ASCII STANDARD -VERSION 2.0
 WRAP.                  NO:   ONE LINE PER DEPTH STEP
~WELL INFORMATION BLOCK
#MNEM.UNIT           DATA                    DESCRIPTION OF MNEMONIC
#---------    -------------------            -------------------------------
# Generated from Intellog Unique Number	CC_80_83/WELL/2437
NULL.         -999.25                        : NULL_VALUE
COMP .        INTERCITY GAS CORPORATION      :  COMPANY
WELL.         HOMESTEAD CANOXY COWPAR        : Well_name
LOC .         14-36-080-05W4                 : Location     - LOCATION          
UWI .         00/14-36-080-05W400            : Uwi          - UNIQUE WELL ID    
ENTR.         DW                             : Entered      - ENTERED BY        
SRVC.         SCHLUMBERGER                   : Scn          - SERVICE COMPANY   
DATE.         11 FEB 78                      : Date         - LOG DATE
STRT.M        106.68                         : top_depth    - START DEPTH       
STOP.M        274.318                        : bot_depth    - STOP DEPTH        
STEP.M        0.305                          : increment    - STEP LENGTH       
~CURVE INFORMATION BLOCK
#MNEM UNIT       ERCB CURVE CODE    CURVE DESCRIPTION
#-----------   ------------------   ----------------------------------
DEPT.M        00 001 00 00         : DEPTH        - DEPTH                       
DPHI.V/V      00 890 00 00         : PHID         - DENSITY POROSITY (LIMESTONE)
NPHI.V/V      00 330 00 00         : PHIN         - NEUTRON POROSITY (LIMESTONE)
GR  .API      00 310 00 00         : GR           - GAMMA RAY                   
ILD .OHMM     00 120 00 00         : RESD         - DEEP RESISTIVITY (DIL)      
~PARAMETER INFORMATION       
#MNEM.UNIT           DATA             DESCRIPTION OF MNEMONIC
#---------         -----------     ------------------------------
GL  .M        442.874              : gl           - GROUND LEVEL ELEVATION      
EREF.M        446.349              : kb           - ELEVATION OF DEPTH REFERENCE
DATM.M        446.349              : datum        - DATUM ELEVATION             
TDD .M        279.806              : tdd          - TOTAL DEPTH DRILLER         
RUN .         ONE                  : Run          - RUN NUMBER                  
ENG .         BILL                 : Engineer     - RECORDING ENGINEER          
WIT .         JIM                  : Witness      - WITNESSED BY                
MUD .         GEL                  : Mud_type     - MUD TYPE                    
MATR.         LIMESTONE            : Logunit      - NEUTRON MATRIX              
TMAX.C        20.5556              : BHT          - MAXIMUM RECORDED TEMPERATURE
BHTD.M        279.806              : BHTDEP       - MAXIMUM RECORDED TEMPERATURE
MATR.         1                    : LOGUNIT      - NEUTRON MATRIX              
RMT .C        25                   : MDTP         - TEMPERATURE OF MUD          
NEUT.         1                    : NEUTRON      - NEUTRON TYPE                
RESI.         0                    : RESIST       - RESISTIVITY TYPE            
RMC .OHMM     0.25                 : RMC          - RESISTIVITY OF MUD CAKE     
RMF .OHMM     0.25                 : RMF          - RESISTIVITY OF MUD FILTRATE 
SUFT.C        15                   : SUFT         - SURFACE TEMPERATURE         
~A  DEPTH     PHID     PHIN       GR     RESD
# ...
  212.749    0.302    0.439   44.927    1.288
  213.054    0.318    0.445   44.935    1.313
  213.359    0.320    0.452   45.564    1.313
  213.663    0.317    0.457   44.958    1.338
  213.968    0.318    0.440   44.972    1.338
  214.273    0.312    0.424   45.595    1.313
  214.578    0.315    0.421   45.609    1.313
  214.883    0.317    0.420   45.619    1.312
  215.187    0.312    0.415   46.863    1.338
  215.492    0.286    0.406   47.496    1.338
  215.797    0.297    0.398   47.506    1.337
  216.102    0.302    0.392   47.514    1.337
  216.406    0.296    0.389   46.301    1.312
  216.711    0.297    0.390   45.694    1.312
  217.016    0.304    0.394   44.479    1.287
  217.321    0.307    0.403   41.421    1.287
  217.626    0.302    0.403   38.364    1.287
  217.930    0.266    0.385   35.922    1.287
  218.235    0.298    0.384   34.701    1.287
  218.540    0.279    0.391   33.489    1.263
  218.845    0.271    0.395   33.498    1.263
  219.150    0.299    0.389   32.894    1.263
  219.454    0.309    0.378   33.525    1.263
  219.759    0.316    0.372   34.148    1.312
  220.064    0.320    0.368   34.163    1.362
  220.369    0.320    0.379   34.177    1.388
  220.674    0.325    0.405   34.801    1.415
  220.978    0.321    0.419   38.502    1.388
  221.283    0.320    0.418   40.970    1.362
  221.588    0.373    0.442   42.209    1.362
  221.893    0.359    0.464   42.222    1.337
  222.198    0.326    0.434   40.394    1.336
  222.502    0.298    0.422   37.951    1.336
  222.807    0.293    0.385   36.728    1.362
  223.112    0.290    0.381   35.512    1.388
  223.417    0.282    0.376   34.297    1.415
  223.722    0.280    0.375   33.084    1.415
  224.026    0.314    0.381   33.096    1.388
  224.331    0.328    0.400   33.724    1.362
  224.636    0.338    0.419   34.349    1.362
  224.941    0.355    0.433   34.973    1.336
  225.246    0.375    0.443   34.372    1.336
  225.550    0.372    0.505   34.998    1.311
  225.855    0.334    0.442   37.470    1.286
  226.160    0.337    0.407   39.325    1.262
  226.465    0.353    0.435   41.799    1.262
  226.769    0.348    0.449   42.420    1.286
  227.074    0.313    0.385   43.044    1.336
  227.379    0.254    0.382   49.197    1.387
  227.684    0.254    0.403   51.667    1.441
  227.989    0.294    0.401   44.923    1.952
  228.293    0.295    0.377   36.951    2.028
  228.598    0.258    0.389   38.197    1.775
  228.903    0.253    0.388   39.433    1.709
  229.208    0.293    0.381   43.749    1.645
  229.513    0.274    0.382   48.057    1.677
  229.817    0.254    0.413   51.753    1.775
  230.122    0.292    0.453   62.822    1.844
  230.427    0.241    0.432   72.050    1.989
  230.732    0.276    0.469   75.747    2.229
  231.037    0.298    0.507   70.231    2.594
  231.341    0.264    0.512   72.698    2.694
  231.646    0.251    0.447   73.940    2.694
  231.951    0.320    0.458   56.141    2.545
  232.256    0.346    0.474   49.398    2.145
  232.561    0.340    0.459   46.339    1.878
  232.865    0.333    0.446   43.897    1.645
  233.170    0.337    0.436   39.612    1.468
  233.475    0.332    0.432   38.392    1.360
  233.780    0.330    0.465   38.410    1.310
  234.085    0.320    0.455   39.033    1.413
  234.389    0.320    0.439   40.884    1.440
  234.694    0.336    0.458   43.353    1.413
  234.999    0.336    0.476   47.666    1.386
  235.304    0.330    0.449   51.364    1.334
  235.609    0.318    0.433   55.676    1.309
  235.913    0.297    0.413   59.373    1.360
  236.218    0.265    0.421   63.071    1.524
  236.523    0.252    0.428   64.311    1.808
  236.828    0.273    0.429   64.939    2.026
  237.132    0.273    0.432   63.721    2.185
  237.437    0.284    0.448   59.439    2.227
  237.742    0.313    0.469   55.152    2.104
  238.047    0.299    0.445   53.932    1.950
  238.352    0.281    0.412   53.946    1.773
  238.656    0.301    0.428   55.185    1.613
  238.961    0.311    0.419   53.972    1.582
  239.266    0.300    0.424   52.752    1.523
  239.571    0.305    0.444   50.921    1.552
  239.876    0.315    0.468   48.481    1.582
  240.180    0.310    0.482   47.262    1.523
  240.485    0.306    0.459   46.046    1.466
  240.790    0.306    0.438   45.448    1.412
  241.095    0.310    0.423   46.689    1.385
  241.400    0.309    0.436   49.157    1.412
  241.704    0.305    0.440   49.780    1.439
  242.009    0.301    0.430   49.792    1.523
  242.314    0.307    0.422   48.579    1.552
  242.619    0.312    0.404   47.980    1.552
  242.924    0.315    0.408   47.988    1.494
  243.228    0.306    0.430   50.458    1.466
  243.533    0.292    0.414   57.841    1.466
  243.838    0.276    0.412   69.523    1.552
  244.143    0.222    0.398   86.116    1.772
  244.448    0.226    0.402  100.256    2.311
  244.752    0.247    0.418  102.727    2.640
  245.057    0.258    0.409  102.122    2.640
  245.362    0.268    0.399   98.449    2.541
  245.667    0.257    0.397   94.163    2.400
  245.972    0.246    0.405   92.334    2.102
  246.276    0.266    0.411   91.732    1.875
  246.581    0.291    0.411   89.286    1.840
  246.886    0.300    0.413   83.158    1.642
  247.191    0.292    0.421   80.712    1.493
  247.495    0.295    0.427   75.813    1.384
  247.800    0.296    0.442   66.612    1.358
  248.105    0.293    0.445   56.183    1.332
  248.410    0.295    0.427   52.513    1.358
  248.715    0.291    0.406   49.453    1.410
  249.019    0.292    0.422   45.778    1.437
  249.324    0.298    0.412   42.111    1.437
  249.629    0.309    0.401   40.889    1.437
  249.934    0.324    0.396   39.064    1.410
  250.239    0.330    0.409   38.466    1.358
  250.543    0.332    0.420   37.859    1.282
  250.848    0.318    0.417   37.874    1.235
  251.153    0.328    0.405   38.496    1.211
  251.458    0.334    0.404   38.513    1.234
  251.763    0.330    0.406   37.910    1.282
  252.067    0.307    0.400   37.918    1.307
  252.372    0.289    0.402   36.706    1.307
  252.677    0.300    0.422   34.879    1.282
  252.982    0.313    0.428   34.887    1.282
  253.287    0.316    0.434   33.673    1.282
  253.591    0.319    0.432   33.070    1.282
  253.896    0.324    0.400   33.692    1.331
  254.201    0.329    0.394   33.712    1.331
  254.506    0.325    0.397   33.722    1.331
  254.811    0.327    0.408   33.117    1.331
  255.115    0.327    0.414   31.906    1.331
  255.420    0.332    0.419   31.914    1.306
  255.725    0.332    0.437   30.701    1.306
  256.030    0.332    0.444   30.709    1.306
  256.335    0.331    0.417   30.111    1.257
  256.639    0.331    0.411   30.119    1.257
  256.944    0.312    0.401   29.520    1.281
  257.249    0.305    0.400   29.533    1.331
  257.554    0.314    0.416   29.547    1.356
  257.859    0.320    0.412   29.559    1.331
  258.163    0.322    0.388   30.186    1.306
  258.468    0.320    0.374   30.811    1.331
  258.773    0.304    0.369   33.277    1.409
  259.078    0.286    0.363   38.203    1.463
  259.383    0.256    0.344   56.642    1.703
  259.687    0.208    0.323   78.149    2.020
  259.992    0.141    0.348  102.729    2.442
  260.297    0.125    0.378  103.355    3.372
  260.602    0.101    0.397   94.155    4.077
  260.907    0.078    0.394   94.167    5.119
  261.212    0.086    0.381   99.709    5.419
  261.516    0.135    0.393  104.633    5.628
  261.821    0.152    0.373  112.632    5.628
  262.126    0.136    0.335  116.941    5.522
  262.431    0.131    0.339  122.482    5.522
  262.736    0.123    0.348  123.728    5.522
  263.040    0.114    0.352  123.121    5.627
  263.345    0.110    0.356  120.063    5.735
  263.650    0.125    0.361  117.004    5.845
  263.955    0.135    0.370  112.106    5.957
  264.260    0.136    0.374  107.203    5.734
  264.564    0.126    0.384  100.457    5.627
  264.869    0.114    0.392   88.187    5.626
  265.174    0.081    0.395   86.971    5.734
  265.479    0.065    0.374   91.285    5.843
