~VERSION INFORMATION
 VERS.                 2.0:   CWLS LOG ASCII STANDARD -VERSION 2.0
 WRAP.                  NO:   ONE LINE PER DEPTH STEP
~WELL INFORMATION BLOCK
#MNEM.UNIT           DATA                    DESCRIPTION OF MNEMONIC
#---------    -------------------            -------------------------------
# Generated from Intellog Unique Number	CS_73_76/WELL/3241
WELL.         10-26-075-05W4                 : Well_name    - WELL
LOC .         00/10-26-075-05W4/0            : Location     - LOCATION
UWI .         00/10-26-075-05W4/0            : Uwi          - UNIQUE WELL ID
ENTR.         SP                             : Entered      - ENTERED BY
SRVC.         SCHLUMBERGER                   : Scn          - SERVICE COMPANY
STRT.M        230                            : top_depth    - START DEPTH
STOP.M        455                            : bot_depth    - STOP DEPTH
STEP.M        0.25                           : increment    - STEP LENGTH
 NULL. -999.2500:NULL Value
~CURVE INFORMATION BLOCK
#MNEM UNIT       ERCB CURVE CODE    CURVE DESCRIPTION
#-----------   ------------------   ----------------------------------
DEPT.M        00 001 00 00         : DEPTH        - DEPTH
ILD .OHMM     00 120 00 00         : RESD         - DEEP RESISTIVITY (DIL)
DPHI.V/V      00 890 00 00         : PHID         - DENSITY POROSITY (LIMESTONE)
NPHI.V/V      00 330 00 00         : PHIN         - NEUTRON POROSITY (LIMESTONE)
GR  .API      00 310 00 00         : GR           - GAMMA RAY
~PARAMETER INFORMATION
#MNEM.UNIT           DATA             DESCRIPTION OF MNEMONIC
#---------         -----------     ------------------------------
GL  .M        619.6                : gl           - GROUND LEVEL ELEVATION
EREF.M        624.6                : kb           - ELEVATION OF DEPTH REFERENCE
DATM.M        619.6                : datum        - DATUM ELEVATION
TDD .M        465                  : tdd          - TOTAL DEPTH DRILLER
RUN .         ONE                  : Run          - RUN NUMBER
ENG .         BILL                 : Engineer     - RECORDING ENGINEER
WIT .         JIM                  : Witness      - WITNESSED BY
MUD .         GEL                  : Mud_type     - MUD TYPE
MATR.         LIMESTONE            : Logunit      - NEUTRON MATRIX
TMAX.C        16                   : BHT          - MAXIMUM RECORDED TEMPERATURE
BHTD.M        465                  : BHTDEP       - MAXIMUM RECORDED TEMPERATURE
MATR.         1                    : LOGUNIT      - NEUTRON MATRIX
RMT .C        25                   : MDTP         - TEMPERATURE OF MUD
NEUT.         1                    : NEUTRON      - NEUTRON TYPE
RESI.         0                    : RESIST       - RESISTIVITY TYPE
RMC .OHMM     0.25                 : RMC          - RESISTIVITY OF MUD CAKE
RMF .OHMM     0.25                 : RMF          - RESISTIVITY OF MUD FILTRATE
SUFT.C        15                   : SUFT         - SURFACE TEMPERATURE
~A  DEPTH     RESD     PHID     PHIN       GR
  230.000    3.322    0.256    0.527   85.884
  230.250    3.323    0.275    0.522   88.300
  230.500    3.323    0.289    0.522   96.159
  230.750    3.385    0.266    0.519  100.994
  231.000    3.513    0.268    0.537   97.361
  231.250    3.714    0.257    0.552   95.543
  231.500    3.784    0.260    0.537   95.540
  231.750    3.647    0.244    0.537   96.747
  232.000    3.581    0.232    0.529   94.323
  232.250    3.451    0.256    0.521   92.506
  232.500    3.389    0.274    0.516   90.082
  232.750    3.389    0.279    0.536   91.894
  233.000    3.453    0.262    0.556   93.099
  233.250    3.583    0.245    0.535   93.095
  233.500    3.719    0.253    0.523   93.697
  233.750    3.859    0.246    0.518   93.694
  234.000    3.932    0.246    0.510   91.876
  234.250    4.005    0.242    0.510   91.268
  234.500    4.157    0.240    0.500   89.450
  234.750    4.235    0.237    0.487   90.051
  235.000    4.395    0.231    0.497   88.233
  235.250    4.910    0.227    0.517   86.415
  235.500    5.191    0.168    0.520   83.386
  235.750    4.647    0.132    0.491   80.965
  236.000    4.316    0.140    0.359   77.332
  236.250    4.010    0.225    0.392   80.353
  236.500    3.937    0.232    0.458   88.816
  236.750    3.937    0.242    0.489   94.256
  237.000    4.240    0.230    0.511   93.042
  237.250    5.391    0.230    0.502   90.014
  237.500    6.730    0.237    0.483   87.593
  237.750    7.948    0.261    0.477   83.355
  238.000    9.387    0.270    0.464   77.304
  238.250   10.684    0.287    0.446   73.066
  238.500   11.505    0.312    0.438   72.458
  238.750   11.506    0.324    0.441   73.058
  239.000   11.508    0.312    0.441   74.870
  239.250   11.724    0.296    0.441   79.100
  239.500   11.944    0.289    0.440   83.330
  239.750   12.168    0.275    0.434   85.746
  240.000   12.170    0.260    0.427   87.556
  240.250   11.949    0.258    0.427   88.762
  240.500   11.731    0.264    0.415   89.365
  240.750   11.308    0.254    0.403   90.570
  241.000   11.102    0.254    0.403   90.566
  241.250   11.311    0.253    0.411   88.749
  241.500   12.180    0.264    0.417   86.325
  241.750   12.639    0.265    0.431   85.112
  242.000   13.611    0.249    0.417   85.110
  242.250   14.388    0.241    0.432   89.339
  242.500   15.493    0.257    0.440   91.755
  242.750   16.684    0.270    0.433   90.542
  243.000   16.998    0.299    0.425   86.305
  243.250   17.316    0.319    0.429   83.277
  243.500   17.319    0.305    0.422   83.878
  243.750   17.005    0.283    0.409   85.085
  244.000   16.696    0.270    0.397   82.661
  244.250   16.392    0.260    0.396   82.053
  244.500   16.094    0.248    0.403   82.654
  244.750   16.096    0.282    0.407   83.860
  245.000   15.515    0.295    0.415   86.880
  245.250   15.233    0.291    0.432   88.692
  245.500   14.956    0.276    0.418   91.713
  245.750   14.958    0.262    0.395   88.080
  246.000   14.960    0.245    0.389   85.052
  246.250   15.241    0.239    0.399   80.815
  246.500   15.527    0.252    0.412   78.997
  246.750   15.819    0.279    0.420   77.784
  247.000   16.116    0.294    0.414   73.547
  247.250   16.419    0.305    0.419   69.310
  247.500   16.120    0.299    0.424   68.700
  247.750   16.122    0.283    0.430   69.302
  248.000   16.125    0.291    0.433   72.323
  248.250   16.427    0.293    0.437   75.949
  248.500   16.736    0.302    0.443   80.179
  248.750   18.022    0.306    0.447   85.013
  249.000   18.703    0.324    0.449   82.591
  249.250   19.409    0.339    0.435   75.329
  249.500   19.774    0.351    0.433   71.696
  249.750   19.414    0.357    0.441   68.064
  250.000   18.034    0.360    0.450   62.617
  250.250   16.144    0.363    0.426   58.380
  250.500   14.453    0.312    0.420   64.425
  250.750   12.469    0.282    0.436   69.865
  251.000   10.958    0.249    0.441   75.910
  251.250    9.810    0.257    0.445   86.188
  251.500    9.282    0.244    0.443   91.627
  251.750    9.284    0.264    0.459   91.019
  252.000    9.998    0.252    0.455   83.152
  252.250   10.568    0.266    0.464   76.496
  252.500   11.172    0.287    0.449   68.630
  252.750   12.483    0.295    0.440   64.998
  253.000   13.195    0.241    0.441   69.228
  253.250   13.949    0.233    0.390   70.434
  253.500   14.211    0.225    0.342   71.035
  253.750   14.478    0.215    0.370   70.427
  254.000   15.591    0.233    0.387   69.818
  254.250   16.179    0.250    0.406   64.976
  254.500   16.790    0.264    0.395   60.738
  254.750   16.792    0.261    0.384   59.526
  255.000   15.033    0.246    0.395   62.547
  255.250   12.732    0.251    0.406   64.962
  255.500   10.393    0.266    0.418   67.377
  255.750    8.966    0.250    0.407   74.632
  256.000    7.880    0.203    0.396   84.911
  256.250    7.054    0.176    0.417   94.584
  256.500    6.433    0.186    0.442  102.443
  256.750    5.866    0.150    0.482  106.674
  257.000    5.654    0.135    0.510  102.435
  257.250    5.252    0.157    0.505  104.852
  257.500    4.879    0.193    0.504  109.687
  257.750    4.532    0.214    0.488  110.288
  258.000    4.210    0.221    0.480  108.471
  258.250    3.839    0.204    0.507  111.491
  258.500    3.700    0.199    0.530  112.697
  258.750    3.437    0.199    0.542  110.879
  259.000    3.193    0.221    0.553  109.060
  259.250    3.253    0.214    0.559  111.477
  259.500    3.635    0.231    0.557  111.473
  259.750    4.292    0.244    0.547  108.445
  260.000    6.098    0.249    0.533  101.789
  260.250    7.898    0.245    0.517   93.317
  260.500    9.502    0.270    0.490   86.660
  260.750   11.016    0.280    0.448   81.819
  261.000   11.645    0.288    0.433   75.767
  261.250   11.225    0.282    0.447   70.926
  261.500   11.021    0.277    0.451   70.922
  261.750   10.820    0.268    0.439   71.523
  262.000   11.024    0.258    0.435   75.753
  262.250   11.654    0.250    0.429   75.750
  262.500   12.548    0.261    0.430   69.697
  262.750   14.549    0.276    0.444   66.671
  263.000   16.256    0.301    0.452   59.408
  263.250   17.185    0.329    0.441   54.567
  263.500   17.507    0.343    0.435   50.330
  263.750   17.189    0.343    0.427   52.745
  264.000   16.568    0.339    0.430   59.395
  264.250   15.677    0.322    0.433   64.835
  264.500   15.111    0.305    0.428   69.669
  264.750   15.113    0.293    0.434   72.085
  265.000   15.396    0.284    0.440   73.896
  265.250   15.978    0.288    0.445   74.497
  265.500   16.581    0.299    0.440   75.704
  265.750   17.529    0.306    0.436   76.908
  266.000   17.858    0.300    0.427   77.511
  266.250   18.532    0.308    0.443   78.111
  266.500   18.880    0.316    0.439   79.318
  266.750   18.883    0.329    0.439   81.733
  267.000   18.201    0.329    0.447   84.149
  267.250   16.907    0.315    0.435   86.564
  267.500   15.997    0.292    0.421   88.981
  267.750   14.588    0.284    0.415   90.188
  268.000   13.804    0.245    0.402   90.184
  268.250   13.305    0.223    0.396   85.341
  268.500   13.063    0.222    0.399   83.523
  268.750   13.065    0.210    0.404   82.915
  269.000   13.068    0.220    0.398   82.307
  269.250   13.069    0.235    0.394   80.489
  269.500   13.070    0.224    0.399   79.276
  269.750   13.564    0.239    0.404   79.271
  270.000   13.818    0.252    0.387   78.664
  270.250   14.608    0.256    0.370   76.239
  270.500   15.443    0.243    0.366   75.633
  270.750   15.732    0.239    0.367   75.629
  271.000   16.631    0.245    0.357   75.021
  271.250   16.943    0.260    0.362   71.993
  271.500   17.262    0.269    0.370   66.545
  271.750   17.585    0.263    0.370   62.309
  272.000   17.588    0.254    0.364   63.514
  272.250   17.918    0.250    0.369   64.721
  272.500   19.295    0.250    0.380   66.532
  272.750   21.962    0.251    0.397   57.454
  273.000   24.539    0.263    0.407   53.823
  273.250   24.998    0.271    0.411   47.772
