~VERSION INFORMATION
 VERS.                 2.0:   CWLS LOG ASCII STANDARD -VERSION 2.0
 WRAP.                  NO:   ONE LINE PER DEPTH STEP
~WELL INFORMATION BLOCK
#MNEM.UNIT           DATA                    DESCRIPTION OF MNEMONIC
#---------    -------------------            -------------------------------
# Generated from Intellog Unique Number	CS_73_76/WELL/2200
WELL.         PEX KIRBY                      : Well_name    - WELL
LOC .         AA/11-10-074-08W4/0            : Location     - LOCATION
UWI .         AA/11-10-074-08W4/0            : Uwi          - UNIQUE WELL ID
ENTR.         SP                             : Entered      - ENTERED BY
SRVC.         SCHLUMBERGER                   : Scn          - SERVICE COMPANY
STRT.M        310                            : top_depth    - START DEPTH
STOP.M        533                            : bot_depth    - STOP DEPTH
STEP.M        0.25                           : increment    - STEP LENGTH
 NULL. -999.2500:NULL Value
~CURVE INFORMATION BLOCK
#MNEM UNIT       ERCB CURVE CODE    CURVE DESCRIPTION
#-----------   ------------------   ----------------------------------
DEPT.M        00 001 00 00         : DEPTH        - DEPTH
ILD .OHMM     00 120 00 00         : RESD         - DEEP RESISTIVITY (DIL)
DPHI.V/V      00 890 00 00         : PHID         - DENSITY POROSITY (LIMESTONE)
NPHI.V/V      00 330 00 00         : PHIN         - NEUTRON POROSITY (LIMESTONE)
GR  .API      00 310 00 00         : GR           - GAMMA RAY
~PARAMETER INFORMATION
#MNEM.UNIT           DATA             DESCRIPTION OF MNEMONIC
#---------         -----------     ------------------------------
GL  .M        692.3                : gl           - GROUND LEVEL ELEVATION
EREF.M        695.8                : kb           - ELEVATION OF DEPTH REFERENCE
DATM.M        692.3                : datum        - DATUM ELEVATION
TDD .M        538                  : tdd          - TOTAL DEPTH DRILLER
RUN .         ONE                  : Run          - RUN NUMBER
ENG .         BILL                 : Engineer     - RECORDING ENGINEER
WIT .         JIM                  : Witness      - WITNESSED BY
MUD .         GEL                  : Mud_type     - MUD TYPE
MATR.         LIMESTONE            : Logunit      - NEUTRON MATRIX
TMAX.C        23                   : BHT          - MAXIMUM RECORDED TEMPERATURE
BHTD.M        538                  : BHTDEP       - MAXIMUM RECORDED TEMPERATURE
MATR.         1                    : LOGUNIT      - NEUTRON MATRIX
RMT .C        25                   : MDTP         - TEMPERATURE OF MUD
NEUT.         1                    : NEUTRON      - NEUTRON TYPE
RESI.         0                    : RESIST       - RESISTIVITY TYPE
RMC .OHMM     0.25                 : RMC          - RESISTIVITY OF MUD CAKE
RMF .OHMM     0.25                 : RMF          - RESISTIVITY OF MUD FILTRATE
SUFT.C        15                   : SUFT         - SURFACE TEMPERATURE
~A  DEPTH     RESD     PHID     PHIN       GR
# ...
  484.000   11.268    0.220    0.335   96.325
  484.250   10.858    0.229    0.331   93.874
  484.500   10.462    0.227    0.321   90.813
  484.750   10.273    0.230    0.326   82.873
  485.000   10.084    0.237    0.330   88.343
  485.250    9.718    0.229    0.320   93.820
  485.500    9.539    0.215    0.325   99.297
  485.750    9.020    0.208    0.331  101.116
  486.000    8.856    0.198    0.337  101.103
  486.250    8.859    0.192    0.327  104.138
  486.500    9.202    0.188    0.322  103.516
  486.750    9.739    0.193    0.338   98.628
  487.000   10.307    0.230    0.368   88.859
  487.250   10.907    0.262    0.372   79.701
  487.500   11.985    0.259    0.358   75.420
  487.750   13.674    0.251    0.355   71.750
  488.000   15.310    0.270    0.378   68.689
  488.250   17.140    0.289    0.373   66.239
  488.500   19.927    0.295    0.356   63.787
  488.750   20.695    0.286    0.373   62.557
  489.000   18.500    0.302    0.392   62.542
  489.250   17.166    0.319    0.388   61.923
  489.500   14.236    0.290    0.393   69.225
  489.750   13.715    0.265    0.386   75.921
  490.000   15.070    0.263    0.387   61.883
  490.250   20.357    0.310    0.400   52.117
  490.500   48.291    0.333    0.398   44.787
  490.750   81.718    0.331    0.393   40.507
  491.000  108.335    0.329    0.394   36.224
  491.250  125.928    0.328    0.381   33.166
  491.500  140.995    0.328    0.366   29.496
  491.750  143.720    0.330    0.355   32.532
  492.000  135.911    0.332    0.370   34.349
  492.250   95.177    0.342    0.402   34.336
  492.500   70.512    0.345    0.388   33.715
  492.750   54.236    0.339    0.374   37.358
  493.000   46.693    0.333    0.377   39.788
  493.250   42.527    0.322    0.397   43.435
  493.500   40.209    0.319    0.415   47.080
  493.750   37.317    0.316    0.409   45.846
  494.000   34.631    0.329    0.396   45.837
  494.250   32.745    0.329    0.385   47.651
  494.500   30.387    0.322    0.388   48.861
  494.750   27.675    0.316    0.397   48.847
  495.000   23.829    0.314    0.403   51.880
  495.250   22.111    0.315    0.381   54.915
  495.500   18.337    0.308    0.376   56.736
  495.750   16.700    0.302    0.393   59.773
  496.000   15.496    0.302    0.400   61.591
  496.250   13.094    0.309    0.413   67.674
  496.500   12.380    0.291    0.422   69.493
  496.750   11.067    0.275    0.405   64.600
  497.000   10.463    0.264    0.375   63.979
  497.250    9.179    0.278    0.380   68.236
  497.500    8.204    0.275    0.383   75.540
  497.750    7.613    0.251    0.373   77.966
  498.000    7.065    0.238    0.368   79.173
  498.250    6.936    0.225    0.373   85.866
  498.500    7.205    0.212    0.373   93.173
  498.750    7.345    0.206    0.361  104.135
  499.000    7.347    0.207    0.345  105.342
  499.250    7.489    0.201    0.349  102.282
  499.500    7.633    0.198    0.380  102.269
  499.750    7.930    0.193    0.389   99.816
  500.000    7.932    0.196    0.361   96.757
  500.250    7.935    0.202    0.328   90.036
  500.500    7.937    0.220    0.336   83.928
  500.750    8.092    0.241    0.341   79.039
  501.000    8.247    0.261    0.340   74.757
  501.250   10.146    0.263    0.329   72.913
  501.500   11.575    0.242    0.315   71.681
  501.750   13.204    0.202    0.312   69.233
  502.000   14.781    0.170    0.334   61.293
  502.250   20.730    0.221    0.373   57.625
  502.500   26.469    0.266    0.387   53.954
  502.750   31.947    0.287    0.361   50.281
  503.000   35.768    0.304    0.349   47.221
  503.250   37.151    0.311    0.355   44.161
  503.500   36.475    0.309    0.355   42.318
  503.750   34.488    0.303    0.351   44.137
  504.000   32.615    0.304    0.350   46.563
  504.250   32.019    0.290    0.355   45.334
  504.500   32.642    0.271    0.367   42.267
  504.750   33.268    0.271    0.371   41.038
  505.000   33.912    0.286    0.367   40.419
  505.250   33.295    0.293    0.364   40.399
  505.500   31.485    0.286    0.363   39.784
  505.750   29.219    0.292    0.355   37.943
  506.000   25.151    0.300    0.353   43.413
  506.250   19.713    0.300    0.352   46.454
  506.500   16.042    0.276    0.355   53.148
  506.750   14.072    0.250    0.344   63.502
  507.000   12.344    0.230    0.330   73.853
  507.250   10.828    0.208    0.325   79.940
  507.500   10.433    0.220    0.332   78.096
  507.750   10.054    0.233    0.335   75.647
  508.000   21.308    0.252    0.370   63.437
  508.250   27.721    0.270    0.397   55.501
  508.500   41.132    0.296    0.395   43.904
  508.750   56.614    0.318    0.371   31.089
  509.000   65.811    0.340    0.373   26.808
  509.250   57.737    0.345    0.383   27.402
  509.500   46.105    0.348    0.374   29.831
  509.750   31.102    0.358    0.374   35.912
  510.000   27.278    0.364    0.383   40.782
  510.250   21.785    0.345    0.373   57.841
  510.500   17.074    0.309    0.375   70.633
  510.750   13.635    0.308    0.373   74.280
  511.000   10.687    0.316    0.361   63.900
  511.250    9.918    0.320    0.358   55.353
  511.500    8.865    0.318    0.358   51.071
  511.750    7.924    0.311    0.350   58.379
  512.000    7.083    0.263    0.350   79.096
  512.250    6.697    0.241    0.361   77.254
  512.500    6.100    0.253    0.382   69.316
  512.750    5.988    0.268    0.389   65.644
  513.000    5.662    0.290    0.356   69.900
  513.250    5.560    0.279    0.365   74.767
  513.500    5.562    0.272    0.373   71.097
  513.750    5.564    0.275    0.368   72.302
  514.000    5.463    0.263    0.355   78.385
  514.250    5.464    0.245    0.370   81.424
  514.500    5.265    0.235    0.368   82.020
  514.750    5.073    0.230    0.322   71.644
  515.000    4.707    0.239    0.329   51.511
  515.250    4.369    0.263    0.349   45.402
  515.500    4.131    0.298    0.367   43.558
  515.750    4.056    0.316    0.367   44.157
  516.000    4.058    0.321    0.349   44.756
  516.250    4.060    0.323    0.344   47.786
  516.500    4.138    0.318    0.359   48.998
  516.750    4.140    0.306    0.361   50.815
  517.000    4.141    0.301    0.353   52.022
  517.250    4.065    0.303    0.348   52.010
  517.500    3.991    0.308    0.359   47.120
  517.750    3.919    0.317    0.366   44.669
  518.000    3.921    0.325    0.379   44.046
  518.250    3.922    0.328    0.377   44.646
  518.500    3.998    0.330    0.370   44.024
  518.750    3.999    0.326    0.376   41.573
  519.000    4.077    0.316    0.391   42.169
  519.250    4.156    0.320    0.386   42.761
  519.500    4.157    0.326    0.380   45.194
  519.750    4.237    0.296    0.366   51.886
  520.000    4.238    0.268    0.359   56.754
  520.250    3.933    0.265    0.362   56.740
  520.500    3.582    0.320    0.373   50.021
  520.750    3.325    0.343    0.384   43.302
  521.000    3.203    0.356    0.374   33.533
  521.250    3.086    0.359    0.369   28.644
  521.500    3.087    0.359    0.403   34.118
  521.750    3.088    0.362    0.414   38.981
  522.000    3.269    0.368    0.413   39.583
  522.250    3.395    0.361    0.398   40.181
  522.500    3.662    0.352    0.384   49.315
  522.750    3.803    0.345    0.373   68.813
  523.000    4.024    0.328    0.383   73.067
  523.250    4.422    0.302    0.395   66.959
  523.500    4.680    0.263    0.410   47.435
  523.750    5.047    0.269    0.346   44.983
  524.000    5.547    0.274    0.324   58.385
  524.250    5.870    0.248    0.335   73.618
  524.500    6.211    0.167    0.358   96.772
  524.750    6.699    0.158    0.371   98.591
  525.000    6.958    0.156    0.347   96.137
  525.250    7.227    0.167    0.347   92.463
  525.500    7.229    0.176    0.366   91.235
  525.750    7.232    0.176    0.374   90.006
  526.000    7.234    0.195    0.372   89.378
  526.250    7.103    0.203    0.362   90.590
  526.500    6.843    0.201    0.357   92.408
  526.750    6.350    0.197    0.388   93.005
  527.000    6.234    0.192    0.425   94.210
  527.250    6.121    0.199    0.425   91.151
