~VERSION INFORMATION
 VERS.                 2.0:   CWLS LOG ASCII STANDARD -VERSION 2.0
 WRAP.                  NO:   ONE LINE PER DEPTH STEP
~WELL INFORMATION BLOCK
#MNEM.UNIT           DATA                    DESCRIPTION OF MNEMONIC
#---------    -------------------            -------------------------------
# Generated from Intellog Unique Number	CW_70_72/WELL/3024
NULL.         -999.25                        : NULL_VALUE
WELL.         CHIEFCO ET AL RANCH 10-32      : Well_name    - WELL              
LOC .         10-32-070-26W4                 : Location     - LOCATION          
UWI .         00/10-32-070-26W4/0            : Uwi          - UNIQUE WELL ID    
ENTR.         J                              : Entered      - ENTERED BY        
SRVC.         SCHLUMBERGER                   : Scn          - SERVICE COMPANY   
DATE.         31 DEC 75                      : Date         - LOG DATE          
STRT.M        435.864                        : top_depth    - START DEPTH       
STOP.M        701.114                        : bot_depth    - STOP DEPTH        
STEP.M        0.25                           : increment    - STEP LENGTH       
~CURVE INFORMATION BLOCK
#MNEM UNIT       ERCB CURVE CODE    CURVE DESCRIPTION
#-----------   ------------------   ----------------------------------
DEPT.M        00 001 00 00         : DEPTH        - DEPTH                       
ILD .OHMM     00 120 00 00         : RESD         - DEEP RESISTIVITY (DIL)      
CALI.MM       00 280 01 00         : CAL          - CALIPER                     
GR  .API      00 310 00 00         : GR           - GAMMA RAY                   
NPHI.V/V      00 330 00 00         : PHIN         - NEUTRON POROSITY (SANDSTONE)
DPHI.V/V      00 890 00 00         : PHID         - DENSITY POROSITY (SANDSTONE)
~PARAMETER INFORMATION       
#MNEM.UNIT           DATA             DESCRIPTION OF MNEMONIC
#---------         -----------     ------------------------------
GL  .M        612.953              : gl           - GROUND LEVEL ELEVATION      
EREF.M        615.696              : kb           - ELEVATION OF DEPTH REFERENCE
DATM.M        612.953              : datum        - DATUM ELEVATION             
TDD .M        715.975              : tdd          - TOTAL DEPTH DRILLER         
RUN .         ONE                  : Run          - RUN NUMBER                  
ENG .         WILTSHIRE            : Engineer     - RECORDING ENGINEER          
BASE.         EDM                  : Branch       - HOME BASE OF LOGGING UNIT   
MUD .         GEL CHEM             : Mud_type     - MUD TYPE                    
MATR.         SANDSTONE            : Logunit      - NEUTRON MATRIX              
TMAX.C        -17.7778             : BHT          - MAXIMUM RECORDED TEMPERATURE
BHTD.M        717.194              : BHTDEP       - MAXIMUM RECORDED TEMPERATURE
RMT .C        21.1111              : MDTP         - TEMPERATURE OF MUD          
MUDD.KG/M     1128                 : MWT          - MUD DENSITY                 
NEUT.         1                    : NEUTRON      - NEUTRON TYPE                
RESI.         0                    : RESIST       - RESISTIVITY TYPE            
RM  .OHMM     3.87                 : RM           - RESISTIVITY OF MUD          
RMC .OHMM     0.25                 : RMC          - RESISTIVITY OF MUD CAKE     
RMF .OHMM     4.74                 : RMF          - RESISTIVITY OF MUD FILTRATE 
SUFT.C        -17.7778             : SUFT         - SURFACE TEMPERATURE         
~A  DEPTH     RESD      CAL       GR     PHIN     PHID
  435.864    2.141  244.948   98.507    0.479    0.176
  436.114    2.058  249.031   95.388    0.466    0.179
  436.364    2.105  259.481   95.426    0.501    0.209
  436.614    2.223  264.285   92.066    0.534    0.228
  436.864    2.352  266.298   85.120    0.495    0.238
  437.114    2.507  258.241   79.025    0.505    0.264
  437.364    2.732  240.524   74.937    0.517    0.290
  437.614    2.864  205.520   72.486    0.483    0.271
  437.864    3.036  197.975   72.828    0.422    0.227
  438.114    3.239  191.248   74.567    0.416    0.214
  438.364    3.268  187.620   75.033    0.415    0.212
  438.614    3.293  184.811   74.282    0.422    0.214
  438.864    3.447  181.477   71.044    0.426    0.211
  439.114    3.680  178.763   68.958    0.393    0.218
  439.364    4.010  177.905   70.090    0.392    0.178
  439.614    4.314  177.571   70.009    0.393    0.113
  439.864    3.855  177.330   72.657    0.389    0.093
  440.114    3.222  178.322   77.190    0.412    0.115
  440.364    2.905  182.697   86.402    0.417    0.224
  440.614    2.813  184.935   96.099    0.397    0.251
  440.864    2.773  190.749  101.969    0.397    0.227
  441.114    2.871  194.215  104.130    0.451    0.206
  441.364    3.170  195.931  100.226    0.442    0.228
  441.614    3.383  193.838   93.888    0.417    0.240
  441.864    3.817  194.420   87.248    0.425    0.231
  442.114    3.915  187.700   88.194    0.433    0.274
  442.364    3.916  184.064   93.883    0.396    0.257
  442.614    3.860  189.583  100.301    0.380    0.234
  442.864    3.926  196.024  107.688    0.467    0.269
  443.114    4.185  198.664  112.649    0.568    0.300
  443.364    4.270  189.266  104.791    0.564    0.354
  443.614    4.143  182.133   98.274    0.512    0.273
  443.864    3.952  178.289   93.939    0.467    0.201
  444.114    3.690  175.678   88.150    0.421    0.224
  444.364    3.475  174.623   82.539    0.393    0.231
  444.614    3.244  173.561   79.178    0.395    0.239
  444.864    3.062  173.011   72.721    0.411    0.252
  445.114    2.922  172.870   71.358    0.430    0.268
  445.364    2.841  172.824   71.887    0.429    0.258
  445.614    2.845  172.889   67.068    0.412    0.256
  445.864    2.958  172.763   64.680    0.395    0.253
  446.114    3.108  172.828   65.934    0.401    0.234
  446.364    3.246  173.102   72.895    0.395    0.232
  446.614    3.380  173.684   81.377    0.380    0.228
  446.864    3.448  174.673   87.732    0.395    0.214
  447.114    3.488  176.898   91.717    0.406    0.200
  447.364    3.533  180.258   94.127    0.405    0.183
  447.614    3.566  188.038   92.043    0.394    0.204
  447.864    3.639  209.910   87.950    0.383    0.216
  448.114    3.741  207.095   89.871    0.406    0.266
  448.364    3.757  185.461   89.425    0.426    0.256
  448.614    3.571  174.113   87.886    0.406    0.195
  448.864    3.192  171.191   85.255    0.386    0.169
  449.114    2.868  170.638   80.861    0.385    0.182
  449.364    2.549  169.670   70.030    0.371    0.210
  449.614    2.287  169.241   59.623    0.351    0.219
  449.864    2.085  169.102   51.525    0.349    0.242
  450.114    1.975  168.758   49.378    0.348    0.255
  450.364    2.000  169.530   53.669    0.340    0.262
  450.614    2.103  170.419   62.453    0.335    0.273
  450.864    2.168  171.111   68.141    0.344    0.266
  451.114    2.292  171.999   70.120    0.356    0.214
  451.364    2.398  172.576   72.229    0.365    0.235
  451.614    2.532  172.859   78.278    0.359    0.250
  451.864    2.671  173.840   87.612    0.341    0.224
  452.114    2.735  174.119   92.084    0.332    0.207
  452.364    2.717  174.494   90.971    0.339    0.189
  452.614    2.664  174.565   96.231    0.333    0.208
  452.864    2.607  174.525   98.700    0.329    0.214
  453.114    2.556  174.184   94.794    0.334    0.208
  453.364    2.567  173.632   89.973    0.345    0.204
  453.614    2.658  173.396   87.221    0.350    0.211
  453.864    2.751  173.973   91.086    0.355    0.230
  454.114    2.864  174.443   99.323    0.341    0.202
  454.364    3.025  174.724  106.166    0.351    0.194
  454.614    3.184  174.682  115.372    0.347    0.201
  454.864    3.420  174.655  118.634    0.349    0.187
  455.114    3.586  175.954  118.851    0.364    0.189
  455.364    3.795  180.035  118.471    0.391    0.210
  455.614    3.957  200.670  117.598    0.438    0.206
  455.864    3.937  213.487  120.431    0.440    0.252
  456.114    3.480  198.125  118.587    0.401    0.239
  456.364    3.038  195.214  115.227    0.364    0.206
  456.614    2.595  194.450  112.349    0.382    0.171
  456.864    2.216  196.683  110.504    0.408    0.192
  457.114    1.977  221.121  110.301    0.482    0.197
  457.364    1.897  233.941  111.254    0.570    0.274
  457.614    2.105  247.379  114.150    0.573    0.265
  457.864    2.313  285.183  117.285    0.562    0.264
  458.114    2.525  263.556  118.297    0.558    0.290
  458.364    2.731  226.495  113.964    0.539    0.308
  458.614    2.843  209.284  106.107    0.471    0.277
  458.864    2.773  204.103   94.487    0.462    0.241
  459.114    2.632  206.539   81.287    0.472    0.251
  459.364    2.576  186.657   75.191    0.419    0.286
  459.614    2.750  173.148   75.901    0.389    0.261
  459.864    3.051  173.833   79.398    0.408    0.236
  460.114    3.086  177.699   78.770    0.436    0.258
  460.364    2.834  181.160   70.795    0.458    0.268
  460.614    2.547  181.333   66.461    0.340    0.323
  460.864    2.311  180.371   69.235    0.316    0.253
  461.114    2.260  179.297   70.425    0.344    0.250
  461.364    2.303  178.438   69.250    0.376    0.261
  461.614    2.509  178.611   70.506    0.391    0.258
  461.864    2.834  179.705   77.409    0.382    0.264
  462.114    3.209  181.013   88.077    0.389    0.241
  462.364    3.345  184.161   93.277    0.405    0.205
  462.614    3.288  186.705   95.381    0.407    0.183
  462.864    3.234  193.958   97.056    0.408    0.190
  463.114    3.160  199.074   99.165    0.400    0.233
  463.364    3.097  206.958  101.692    0.407    0.211
  463.614    3.001  214.841  102.040    0.431    0.205
  463.864    2.958  223.340  100.803    0.452    0.188
  464.114    2.947  236.468  101.511    0.466    0.214
  464.364    2.927  225.528  100.336    0.494    0.224
  464.614    2.911  211.807   98.310    0.486    0.204
  464.864    2.882  204.066  101.083    0.498    0.192
  465.114    2.861  196.315   99.604    0.477    0.193
  465.364    2.825  191.447   93.752    0.447    0.187
  465.614    2.771  187.606   90.509    0.429    0.217
  465.864    2.692  184.592   88.909    0.418    0.235
  466.114    2.598  185.478   87.980    0.441    0.242
  466.364    2.537  192.742   86.076    0.463    0.232
  466.614    2.565  179.958   86.965    0.435    0.279
  466.864    2.666  174.677   91.682    0.419    0.219
  467.114    2.755  173.715   99.981    0.417    0.225
  467.364    2.900  173.989  105.060    0.416    0.244
  467.614    3.092  176.318  109.776    0.407    0.237
  467.864    3.272  180.490  116.375    0.393    0.230
  468.114    3.357  184.777  121.209    0.386    0.202
  468.364    3.280  195.334  117.241    0.392    0.169
  468.614    3.124  207.541  109.994    0.403    0.182
  468.864    2.890  220.668   99.770    0.442    0.226
  469.114    2.777  214.358   89.487    0.464    0.226
  469.364    2.722  189.124   81.386    0.453    0.206
  469.614    2.749  174.590   78.573    0.436    0.247
  469.864    2.969  171.363   84.136    0.427    0.261
  470.114    3.180  172.458   90.311    0.426    0.250
  470.364    3.458  175.917   88.043    0.430    0.259
  470.614    3.601  177.327   81.462    0.422    0.254
  470.864    3.393  177.288   76.826    0.422    0.204
  471.114    3.167  175.301   73.403    0.427    0.188
  471.364    2.989  174.225   75.141    0.411    0.185
  471.614    2.894  173.263   77.005    0.401    0.236
  471.864    2.947  172.516   78.865    0.387    0.255
  472.114    3.114  172.275   80.850    0.388    0.253
