~VERSION INFORMATION
 VERS.                 2.0:   CWLS LOG ASCII STANDARD -VERSION 2.0
 WRAP.                  NO:   ONE LINE PER DEPTH STEP
~WELL INFORMATION BLOCK
#MNEM.UNIT           DATA                    DESCRIPTION OF MNEMONIC
#---------    -------------------            -------------------------------
# Generated from Intellog Unique Number	CS_77_79/WELL/995
WELL.         HOME LEISTER                   : Well_name    - WELL
LOC .         00/11-14-078-06W4/0            : Location     - LOCATION
UWI .         00/11-14-078-06W4/0            : Uwi          - UNIQUE WELL ID
ENTR.         JHS                            : Entered      - ENTERED BY
SRVC.         SCHLUMBERGER                   : Scn          - SERVICE COMPANY
STRT.M        140                            : top_depth    - START DEPTH
STOP.M        420                            : bot_depth    - STOP DEPTH
STEP.M        0.25                           : increment    - STEP LENGTH
 NULL. -999.2500:NULL Value
~CURVE INFORMATION BLOCK
#MNEM UNIT       ERCB CURVE CODE    CURVE DESCRIPTION
#-----------   ------------------   ----------------------------------
DEPT.M        00 001 00 00         : DEPTH        - DEPTH
DPHI.V/V      00 890 00 00         : PHID         - DENSITY POROSITY (LIMESTONE)
NPHI.V/V      00 330 00 00         : PHIN         - NEUTRON POROSITY (LIMESTONE)
GR  .API      00 310 00 00         : GR           - GAMMA RAY
ILD .OHMM     00 120 00 00         : RESD         - DEEP RESISTIVITY (DIL)
RHOB.KG/M3    00 350 00 00         : DENS         - BULK DENSITY
~PARAMETER INFORMATION
#MNEM.UNIT           DATA             DESCRIPTION OF MNEMONIC
#---------         -----------     ------------------------------
GL  .M        593.32               : gl           - GROUND LEVEL ELEVATION
EREF.M        596.32               : kb           - ELEVATION OF DEPTH REFERENCE
DATM.M        596.32               : datum        - DATUM ELEVATION
TDD .M        430                  : tdd          - TOTAL DEPTH DRILLER
RUN .         ONE                  : Run          - RUN NUMBER
ENG .         BILL                 : Engineer     - RECORDING ENGINEER
WIT .         JIM                  : Witness      - WITNESSED BY
MUD .         GEL                  : Mud_type     - MUD TYPE
MATR.         LIMESTONE            : Logunit      - NEUTRON MATRIX
TMAX.C        24                   : BHT          - MAXIMUM RECORDED TEMPERATURE
BHTD.M        430                  : BHTDEP       - MAXIMUM RECORDED TEMPERATURE
MATR.         1                    : LOGUNIT      - NEUTRON MATRIX
RMT .C        25                   : MDTP         - TEMPERATURE OF MUD
NEUT.         1                    : NEUTRON      - NEUTRON TYPE
RESI.         0                    : RESIST       - RESISTIVITY TYPE
RMC .OHMM     0.25                 : RMC          - RESISTIVITY OF MUD CAKE
RMF .OHMM     0.25                 : RMF          - RESISTIVITY OF MUD FILTRATE
SUFT.C        15                   : SUFT         - SURFACE TEMPERATURE
~A  DEPTH     PHID     PHIN       GR     RESD     DENS
# ...
  322.500    0.297    0.419   92.266    2.482 2201.520
  322.750    0.286    0.438   90.380    2.259 2220.290
  323.000    0.266    0.436   91.585    2.135 2255.820
  323.250    0.269    0.432   89.707    2.094 2249.450
  323.500    0.271    0.447   90.294    2.133 2247.260
  323.750    0.262    0.460   89.020    2.172 2261.840
  324.000    0.273    0.444   88.382    2.171 2242.870
  324.250    0.272    0.439   88.964    2.170 2244.840
  324.500    0.262    0.422   87.083    2.169 2261.530
  324.750    0.257    0.443   89.520    2.208 2269.810
  325.000    0.256    0.461   93.195    2.249 2271.810
  325.250    0.254    0.502   91.931    2.378 2275.920
  325.500    0.229    0.542   96.220    2.514 2317.770
  325.750    0.216    0.439   98.655    2.759 2340.750
  326.000    0.223    0.340   92.454    3.029 2328.070
  326.250    0.221    0.363   93.657    3.387 2332.140
  326.500    0.211    0.419   94.244    3.932 2348.840
  326.750    0.217    0.449   91.746    4.480 2338.240
  327.000    0.203    0.386   93.567    4.917 2363.330
  327.250    0.170    0.319   86.129    5.198 2419.860
  327.500    0.220    0.361   83.015    5.294 2333.760
  327.750    0.232    0.399   88.534    5.002 2312.690
  328.000    0.239    0.423   89.734    4.727 2302.070
  328.250    0.246    0.442   92.794    4.143 2289.420
  328.500    0.225    0.436  102.638    3.990 2324.970
  328.750    0.209    0.419  108.146    3.700 2352.120
  329.000    0.209    0.372  107.514    3.630 2352.030
  329.250    0.218    0.392   98.844    3.628 2337.250
  329.500    0.219    0.378   96.342    3.695 2335.060
  329.750    0.217    0.394   96.928    3.693 2339.140
  330.000    0.217    0.369  100.598    3.691 2339.040
  330.250    0.222    0.375  101.185    3.553 2330.560
  330.500    0.226    0.341   99.917    3.486 2324.140
  330.750    0.226    0.321  101.129    3.419 2324.060
  331.000    0.215    0.339  104.793    3.354 2342.840
  331.250    0.221    0.373  105.381    3.290 2332.240
  331.500    0.223    0.399  103.499    3.227 2327.960
  331.750    0.217    0.405  103.475    3.226 2338.360
  332.000    0.233    0.400  101.589    3.285 2310.970
  332.250    0.241    0.439   94.774    3.409 2298.310
  332.500    0.245    0.435  100.293    3.672 2291.900
  332.750    0.226    0.388  100.265    3.883 2323.270
  333.000    0.216    0.353   97.149    4.261 2339.940
  333.250    0.212    0.362   92.796    4.765 2348.240
  333.500    0.212    0.403  100.171    5.230 2348.140
  333.750    0.214    0.390  105.697    5.634 2343.840
  334.000    0.202    0.331  102.579    6.183 2364.730
  334.250    0.191    0.311   91.443    6.537 2383.510
  334.500    0.208    0.321   84.617    6.911 2354.010
  334.750    0.203    0.326   81.503    7.585 2362.330
  335.000    0.158    0.373   83.325    8.171 2439.850
  335.250    0.032    0.234   82.674    9.138 2655.800
  335.500    0.099    0.206   75.855    9.661 2540.330
  335.750    0.179    0.227   69.661    9.656 2403.880
  336.000    0.238    0.242   62.219    8.465 2303.100
  336.250    0.288    0.245   70.828    7.150 2217.000
  336.500    0.265    0.259   76.968    5.397 2256.760
  336.750    0.253    0.341   86.815    4.229 2277.620
  337.000    0.297    0.320   93.574    3.996 2202.020
  337.250    0.320    0.259   87.366    4.469 2162.060
  337.500    0.334    0.237   79.314    5.487 2138.890
  337.750    0.339    0.137   76.202    7.263 2130.370
  338.000    0.343    0.056   71.849   10.360 2124.010
  338.250    0.365    0.046   69.350   15.926 2086.150
  338.500    0.409    0.047   56.363   30.647 2010.550
  338.750    0.394    0.056   42.134   49.837 2035.620
  339.000    0.363    0.058   35.936   69.765 2090.050
  339.250    0.361    0.058   31.588   78.014 2092.040
  339.500    0.377    0.058   30.937   67.131 2064.660
  339.750    0.368    0.057   32.761   56.697 2081.350
  340.000    0.355    0.060   38.283   46.123 2102.200
  340.250    0.359    0.065   41.953   45.248 2095.840
  340.500    0.381    0.071   43.154   50.592 2057.980
  340.750    0.389    0.077   46.827   52.497 2045.310
  341.000    0.380    0.081   51.121   51.503 2059.850
  341.250    0.373    0.081   47.383   48.667 2072.370
  341.500    0.372    0.085   47.970   44.294 2074.370
  341.750    0.379    0.091   51.644   41.074 2061.690
  342.000    0.347    0.100   53.462   39.551 2116.130
  342.250    0.351    0.107   57.755   34.677 2109.700
  342.500    0.365    0.167   57.104   27.685 2086.560
  342.750    0.323    0.219   52.752   22.947 2157.780
  343.000    0.303    0.237   55.811   19.021 2191.230
  343.250    0.297    0.242   67.503   14.904 2201.630
  343.500    0.242    0.264   73.029   12.826 2295.920
  343.750    0.215    0.285   91.511   10.832 2341.940
  344.000    0.207    0.297  110.608    9.497 2356.530
  344.250    0.197    0.340  115.512    9.143 2373.220
  344.500    0.203    0.380  122.272    9.667 2362.640
  344.750    0.249    0.269  128.410   12.557 2284.930
  345.000    0.290    0.093  124.679   17.252 2213.510
  345.250    0.342    0.079  112.307   25.546 2125.320
  345.500    0.360    0.083   67.844   34.450 2093.750
  345.750    0.354    0.086   52.389   39.992 2104.130
  346.000    0.349    0.092   45.565   38.501 2112.430
  346.250    0.359    0.103   45.540   33.131 2095.540
  346.500    0.345    0.119   41.802   25.963 2120.620
  346.750    0.304    0.144   41.775   21.927 2189.740
  347.000    0.286    0.176   60.257   19.588 2221.090
  347.250    0.241    0.214   74.416   17.828 2298.620
  347.500    0.235    0.244   84.260   17.820 2308.980
  347.750    0.252    0.275   82.998   17.810 2279.530
  348.000    0.281    0.293   70.624   17.802 2229.100
  348.250    0.283    0.309   60.718   17.793 2226.900
  348.500    0.263    0.316   65.001   16.813 2260.360
  348.750    0.254    0.301   63.742   14.465 2274.940
  349.000    0.247    0.332   73.587   13.415 2287.420
  349.250    0.236    0.347   84.658   12.211 2306.190
  349.500    0.218    0.370   91.421   11.540 2337.560
  349.750    0.223    0.355   95.094   11.751 2329.070
  350.000    0.253    0.261   88.271   11.963 2276.540
  350.250    0.276    0.240   75.903   12.188 2238.690
  350.500    0.270    0.249   63.527   13.129 2249.070
  350.750    0.288    0.279   69.668   13.369 2217.510
  351.000    0.282    0.299   78.897   12.633 2227.900
  351.250    0.295    0.318   84.418   11.938 2204.710
  351.500    0.283    0.341  102.900   12.157 2225.610
  351.750    0.271    0.354  139.277   13.595 2246.480
  352.000    0.291    0.350  146.034   17.008 2212.820
  352.250    0.283    0.318  105.892   20.496 2225.300
  352.500    0.272    0.320   84.265   22.499 2244.060
  352.750    0.268    0.302  121.878   25.162 2252.370
  353.000    0.260    0.312  150.845   28.139 2264.850
  353.250    0.262    0.333  145.265   29.750 2262.660
  353.500    0.297    0.328  113.145   30.294 2201.730
  353.750    0.296    0.308   93.369   30.280 2203.730
  354.000    0.281    0.301  149.493   32.009 2228.790
  354.250    0.272    0.346  158.712   32.601 2245.470
  354.500    0.268    0.387  163.005   33.829 2251.680
  354.750    0.295    0.394  136.441   33.184 2205.430
  355.000    0.298    0.368  112.957   33.791 2201.120
  355.250    0.288    0.350   99.968   33.775 2217.810
  355.500    0.295    0.341   89.452   31.321 2205.140
  355.750    0.282    0.332   77.694   29.601 2228.110
  356.000    0.268    0.346   71.493   26.442 2251.080
  356.250    0.268    0.367   68.372   25.456 2250.970
  356.500    0.264    0.378   74.510   26.914 2259.270
  356.750    0.267    0.350   78.185   29.539 2252.860
  357.000    0.293    0.335   77.533   31.820 2208.710
  357.250    0.301    0.318   89.230   33.013 2196.050
  357.500    0.277    0.309  100.313   31.788 2235.780
  357.750    0.260    0.326  113.859   27.353 2265.060
  358.000    0.265    0.361  111.358   21.037 2256.570
  358.250    0.254    0.338   95.901   17.767 2275.350
  358.500    0.230    0.307   84.760   15.578 2317.200
  358.750    0.229    0.303  105.713   14.995 2319.210
