~VERSION INFORMATION
 VERS.                 2.0:   CWLS LOG ASCII STANDARD -VERSION 2.0
 WRAP.                  NO:   ONE LINE PER DEPTH STEP
~WELL INFORMATION BLOCK
#MNEM.UNIT           DATA                    DESCRIPTION OF MNEMONIC
#---------    -------------------            -------------------------------
# Generated from Intellog Unique Number	CS_71_72/WELL/856
WELL.         PEX PHILLIPS AEC WIAU          : Well_name    - WELL
LOC .         00/10-15-071-07W4/0            : Location     - LOCATION
UWI .         00/10-15-071-07W4/0            : Uwi          - UNIQUE WELL ID
ENTR.         SP                             : Entered      - ENTERED BY
SRVC.         SCHLUMBERGER                   : Scn          - SERVICE COMPANY
STRT.M        290                            : top_depth    - START DEPTH
STOP.M        507                            : bot_depth    - STOP DEPTH
STEP.M        0.25                           : increment    - STEP LENGTH
 NULL. -999.2500:NULL Value
~CURVE INFORMATION BLOCK
#MNEM UNIT       ERCB CURVE CODE    CURVE DESCRIPTION
#-----------   ------------------   ----------------------------------
DEPT.M        00 001 00 00         : DEPTH        - DEPTH
ILD .OHMM     00 120 00 00         : RESD         - DEEP RESISTIVITY (DIL)
DPHI.V/V      00 890 00 00         : PHID         - DENSITY POROSITY (LIMESTONE)
NPHI.V/V      00 330 00 00         : PHIN         - NEUTRON POROSITY (LIMESTONE)
GR  .API      00 310 00 00         : GR           - GAMMA RAY
~PARAMETER INFORMATION
#MNEM.UNIT           DATA             DESCRIPTION OF MNEMONIC
#---------         -----------     ------------------------------
GL  .M        647.2                : gl           - GROUND LEVEL ELEVATION
EREF.M        650.2                : kb           - ELEVATION OF DEPTH REFERENCE
DATM.M        647.2                : datum        - DATUM ELEVATION
TDD .M        510                  : tdd          - TOTAL DEPTH DRILLER
RUN .         ONE                  : Run          - RUN NUMBER
ENG .         BILL                 : Engineer     - RECORDING ENGINEER
WIT .         JIM                  : Witness      - WITNESSED BY
MUD .         GEL                  : Mud_type     - MUD TYPE
MATR.         LIMESTONE            : Logunit      - NEUTRON MATRIX
TMAX.C        25                   : BHT          - MAXIMUM RECORDED TEMPERATURE
BHTD.M        510                  : BHTDEP       - MAXIMUM RECORDED TEMPERATURE
MATR.         1                    : LOGUNIT      - NEUTRON MATRIX
RMT .C        25                   : MDTP         - TEMPERATURE OF MUD
NEUT.         1                    : NEUTRON      - NEUTRON TYPE
RESI.         0                    : RESIST       - RESISTIVITY TYPE
RMC .OHMM     0.25                 : RMC          - RESISTIVITY OF MUD CAKE
RMF .OHMM     0.25                 : RMF          - RESISTIVITY OF MUD FILTRATE
SUFT.C        15                   : SUFT         - SURFACE TEMPERATURE
~A  DEPTH     RESD     PHID     PHIN       GR
# ...
  420.500    6.269    0.181    0.456   78.977
  420.750    6.084    0.141    0.419   81.153
  421.000    5.905    0.185    0.403   84.720
  421.250    5.647    0.262    0.428   86.897
  421.500    5.370    0.274    0.455   88.890
  421.750    5.154    0.271    0.480   89.976
  422.000    5.068    0.283    0.484   90.635
  422.250    5.278    0.271    0.468   89.599
  422.500    5.610    0.263    0.457   84.805
  422.750    5.986    0.268    0.452   79.889
  423.000    6.246    0.286    0.462   77.338
  423.250    6.481    0.299    0.472   76.119
  423.500    6.516    0.297    0.468   77.386
  423.750    6.359    0.281    0.463   78.954
  424.000    5.892    0.266    0.469   79.373
  424.250    5.480    0.262    0.474   79.912
  424.500    5.182    0.274    0.467   80.874
  424.750    4.919    0.269    0.466   81.292
  425.000    4.668    0.261    0.464   80.801
  425.250    4.122    0.250    0.465   77.462
  425.500    3.639    0.252    0.472   76.606
  425.750    3.183    0.261    0.478   79.084
  426.000    2.683    0.282    0.480   81.018
  426.250    2.386    0.297    0.491   83.190
  426.500    2.257    0.321    0.511   83.853
  426.750    2.219    0.328    0.536   84.452
  427.000    2.256    0.317    0.551   85.112
  427.250    2.367    0.322    0.573   85.287
  427.500    2.597    0.328    0.573   85.100
  427.750    2.865    0.324    0.549   83.154
  428.000    3.249    0.307    0.543   80.117
  428.250    3.591    0.295    0.540   78.414
  428.500    3.818    0.304    0.522   78.529
  428.750    3.983    0.295    0.500   79.492
  429.000    4.087    0.282    0.484   81.424
  429.250    4.179    0.279    0.479   82.873
  429.500    4.186    0.268    0.469   83.835
  429.750    4.162    0.259    0.464   83.830
  430.000    4.047    0.268    0.470   81.762
  430.250    3.972    0.277    0.462   80.665
  430.500    4.098    0.265    0.458   80.295
  430.750    4.631    0.282    0.466   80.046
  431.000    5.109    0.291    0.479   75.676
  431.250    5.774    0.300    0.498   69.125
  431.500    6.406    0.276    0.484   63.907
  431.750    6.962    0.216    0.451   59.113
  432.000    7.305    0.193    0.404   59.227
  432.250    7.386    0.177    0.363   61.645
  432.500    7.102    0.223    0.374   59.154
  432.750    6.829    0.263    0.410   56.057
  433.000    6.530    0.308    0.432   53.566
  433.250    6.062    0.334    0.449   52.347
  433.500    5.627    0.333    0.457   54.219
  433.750    5.146    0.333    0.455   56.031
  434.000    4.912    0.332    0.444   58.145
  434.250    4.839    0.333    0.433   60.684
  434.500    4.892    0.335    0.446   64.494
  434.750    4.955    0.319    0.441   66.550
  435.000    5.047    0.305    0.437   70.600
  435.250    5.112    0.296    0.435   71.506
  435.500    4.781    0.284    0.432   74.045
  435.750    4.052    0.272    0.437   79.856
  436.000    3.685    0.264    0.446   87.849
  436.250    3.440    0.259    0.455   93.479
  436.500    3.247    0.258    0.464   98.441
  436.750    3.175    0.262    0.473  101.283
  437.000    3.163    0.264    0.490  102.731
  437.250    3.156    0.272    0.528   97.392
  437.500    3.156    0.278    0.540   90.658
  437.750    3.178    0.275    0.544   88.531
  438.000    3.190    0.273    0.513   88.948
  438.250    3.322    0.279    0.494   87.245
  438.500    3.713    0.269    0.483   82.754
  438.750    4.298    0.261    0.492   75.596
  439.000    5.184    0.256    0.499   70.743
  439.250    6.357    0.264    0.482   70.493
  439.500    7.484    0.272    0.451   72.608
  439.750    8.473    0.264    0.433   71.632
  440.000    9.057    0.255    0.437   67.443
  440.250    9.072    0.251    0.440   64.892
  440.500    8.516    0.227    0.429   65.492
  440.750    7.019    0.215    0.419   69.727
  441.000    5.617    0.214    0.411   76.266
  441.250    4.428    0.257    0.428   84.017
  441.500    3.902    0.280    0.443   89.949
  441.750    4.321    0.290    0.452   88.912
  442.000    5.096    0.281    0.464   82.845
  442.250    6.010    0.283    0.480   77.566
  442.500    7.384    0.275    0.488   72.651
  442.750    8.486    0.263    0.445   70.343
  443.000    9.362    0.278    0.422   68.881
  443.250    9.896    0.301    0.414   68.754
  443.500   10.023    0.304    0.409   69.050
  443.750    9.947    0.289    0.407   68.741
  444.000    9.854    0.280    0.414   67.037
  444.250    9.670    0.275    0.416   65.031
  444.500    9.544    0.279    0.412   63.812
  444.750    9.667    0.289    0.408   63.017
  445.000   10.546    0.285    0.403   62.162
  445.250   11.831    0.268    0.400   62.035
  445.500   12.599    0.247    0.403   62.453
  445.750   12.251    0.201    0.412   65.416
  446.000   11.246    0.040    0.417   70.560
  446.250   10.324    0.078    0.342   74.615
  446.500   10.360    0.127    0.331   78.789
  446.750   11.557    0.192    0.371   80.904
  447.000   12.538    0.241    0.405   82.836
  447.250   13.353    0.269    0.425   85.921
  447.500   13.500    0.292    0.440   88.521
  447.750   12.933    0.304    0.449   91.120
  448.000   12.299    0.306    0.435   92.629
  448.250   12.093    0.307    0.426   91.713
  448.500   12.950    0.289    0.419   88.374
  448.750   14.635    0.283    0.414   86.064
  449.000   17.229    0.276    0.412   85.633
  449.250   20.972    0.279    0.425   85.627
  449.500   27.141    0.292    0.422   85.378
  449.750   31.597    0.314    0.426   84.888
  450.000   33.092    0.333    0.437   78.032
  450.250   29.928    0.350    0.444   69.845
  450.500   28.566    0.367    0.436   65.657
  450.750   27.724    0.366    0.427   68.438
  451.000   28.293    0.347    0.420   70.189
  451.250   31.328    0.339    0.416   71.031
  451.500   34.240    0.335    0.418   70.176
  451.750   36.736    0.348    0.424   67.625
  452.000   38.050    0.364    0.439   65.678
  452.250   33.593    0.369    0.441   66.763
  452.500   28.262    0.361    0.430   72.454
  452.750   23.252    0.348    0.429   80.870
  453.000   18.536    0.347    0.415   88.257
  453.250   15.336    0.329    0.395   96.189
  453.500   12.294    0.305    0.384   94.001
  453.750   10.343    0.282    0.395   83.207
  454.000   10.633    0.260    0.419   75.141
  454.250   13.015    0.249    0.403   68.590
  454.500   15.152    0.241    0.378   63.856
  454.750   18.038    0.256    0.362   59.062
  455.000   25.283    0.277    0.388   56.087
  455.250   32.902    0.293    0.415   56.626
  455.500   26.870    0.310    0.411   62.255
  455.750   21.500    0.326    0.404   70.186
  456.000   17.044    0.349    0.407   75.514
  456.250   13.538    0.327    0.421   83.506
  456.500   11.015    0.313    0.429   88.894
  456.750    9.458    0.300    0.423   92.462
  457.000    8.602    0.289    0.406   93.850
  457.250    8.180    0.282    0.392   94.268
  457.500    7.924    0.277    0.383   94.080
  457.750    7.879    0.269    0.375   94.740
  458.000    8.236    0.264    0.369   95.157
  458.250    8.919    0.257    0.366   93.636
  458.500    9.784    0.248    0.376   89.569
  458.750   10.401    0.242    0.386   85.199
  459.000   11.076    0.254    0.395   79.315
  459.250   11.450    0.272    0.406   73.793
  459.500   11.238    0.301    0.418   69.363
  459.750   10.866    0.324    0.432   65.781
  460.000   10.429    0.320    0.426   61.955
  460.250    9.973    0.319    0.411   60.496
  460.500    9.879    0.331    0.392   66.246
  460.750   11.186    0.332    0.382   70.482
  461.000   12.688    0.313    0.377   68.476
  461.250   13.689    0.294    0.382   66.710
  461.500   14.551    0.279    0.387   67.917
  461.750   14.334    0.270    0.390   72.577
  462.000   12.726    0.272    0.389   76.873
  462.250   11.341    0.276    0.390   80.079
  462.500   10.449    0.268    0.396   82.254
  462.750   10.466    0.241    0.412   81.399
  463.000   11.397    0.217    0.422   70.787
  463.250   15.166    0.229    0.432   65.933
  463.500   22.727    0.244    0.429   61.381
  463.750   32.213    0.257    0.379   57.496
