~VERSION INFORMATION
 VERS.                 2.0:   CWLS LOG ASCII STANDARD -VERSION 2.0
 WRAP.                  NO:   ONE LINE PER DEPTH STEP
~WELL INFORMATION BLOCK
#MNEM.UNIT           DATA                    DESCRIPTION OF MNEMONIC
#---------    -------------------            -------------------------------
# Generated from Intellog Unique Number	CS_69_70/WELL/891
WELL.         MANVILLE OIL & GAS LTD.        : Well_name    - WELL
LOC .         00/11-21-069-17W4/0            : Location     - LOCATION
UWI .         00/11-21-069-17W4/0            : Uwi          - UNIQUE WELL ID
ENTR.         SP                             : Entered      - ENTERED BY
SRVC.         SCHLUMBERGER                   : Scn          - SERVICE COMPANY
STRT.M        290                            : top_depth    - START DEPTH
STOP.M        502                            : bot_depth    - STOP DEPTH
STEP.M        0.25                           : increment    - STEP LENGTH
 NULL. -999.2500:NULL Value
~CURVE INFORMATION BLOCK
#MNEM UNIT       ERCB CURVE CODE    CURVE DESCRIPTION
#-----------   ------------------   ----------------------------------
DEPT.M        00 001 00 00         : DEPTH        - DEPTH
ILD .OHMM     00 120 00 00         : RESD         - DEEP RESISTIVITY (DIL)
DPHI.V/V      00 890 00 00         : PHID         - DENSITY POROSITY (LIMESTONE)
NPHI.V/V      00 330 00 00         : PHIN         - NEUTRON POROSITY (LIMESTONE)
GR  .API      00 310 00 00         : GR           - GAMMA RAY
~PARAMETER INFORMATION
#MNEM.UNIT           DATA             DESCRIPTION OF MNEMONIC
#---------         -----------     ------------------------------
GL  .M        556.93               : gl           - GROUND LEVEL ELEVATION
EREF.M        560.03               : kb           - ELEVATION OF DEPTH REFERENCE
DATM.M        556.93               : datum        - DATUM ELEVATION
TDD .M        504                  : tdd          - TOTAL DEPTH DRILLER
RUN .         ONE                  : Run          - RUN NUMBER
ENG .         BILL                 : Engineer     - RECORDING ENGINEER
WIT .         JIM                  : Witness      - WITNESSED BY
MUD .         GEL                  : Mud_type     - MUD TYPE
MATR.         LIMESTONE            : Logunit      - NEUTRON MATRIX
TMAX.C        23                   : BHT          - MAXIMUM RECORDED TEMPERATURE
BHTD.M        504                  : BHTDEP       - MAXIMUM RECORDED TEMPERATURE
MATR.         1                    : LOGUNIT      - NEUTRON MATRIX
RMT .C        25                   : MDTP         - TEMPERATURE OF MUD
NEUT.         1                    : NEUTRON      - NEUTRON TYPE
RESI.         0                    : RESIST       - RESISTIVITY TYPE
RMC .OHMM     0.25                 : RMC          - RESISTIVITY OF MUD CAKE
RMF .OHMM     0.25                 : RMF          - RESISTIVITY OF MUD FILTRATE
SUFT.C        15                   : SUFT         - SURFACE TEMPERATURE
~A  DEPTH     RESD     PHID     PHIN       GR
# ...
  420.500    2.221    0.316    0.439   67.330
  420.750    2.338    0.186    0.425   68.366
  421.000    2.625    0.149    0.358   66.104
  421.250    2.914    0.124    0.290   65.674
  421.500    3.228    0.161    0.289   71.044
  421.750    3.484    0.190    0.329   79.527
  422.000    3.532    0.217    0.365   87.888
  422.250    3.502    0.243    0.409   93.441
  422.500    3.485    0.241    0.433   96.979
  422.750    3.494    0.241    0.418   96.550
  423.000    3.536    0.241    0.409   91.968
  423.250    3.634    0.240    0.401   87.448
  423.500    3.733    0.237    0.394   86.530
  423.750    3.829    0.237    0.399   88.115
  424.000    3.979    0.243    0.410   90.737
  424.250    4.111    0.246    0.416   92.383
  424.500    4.264    0.244    0.417   93.540
  424.750    4.365    0.236    0.404   91.950
  425.000    4.452    0.227    0.376   89.323
  425.250    4.522    0.223    0.377   93.288
  425.500    4.577    0.216    0.401   96.033
  425.750    4.555    0.209    0.423   97.556
  426.000    4.406    0.215    0.442   96.882
  426.250    4.159    0.229    0.423   94.987
  426.500    3.781    0.248    0.404   98.037
  426.750    3.529    0.264    0.441  101.880
  427.000    3.318    0.268    0.469  105.663
  427.250    3.180    0.265    0.505  108.346
  427.500    3.082    0.251    0.554  109.137
  427.750    3.049    0.237    0.501  106.753
  428.000    3.023    0.229    0.486  105.469
  428.250    3.009    0.245    0.490  104.429
  428.500    2.999    0.255    0.503  104.976
  428.750    2.996    0.250    0.487  107.171
  429.000    2.981    0.260    0.474  110.404
  429.250    2.966    0.263    0.467  112.416
  429.500    2.957    0.255    0.472  113.695
  429.750    2.954    0.250    0.486  114.425
  430.000    2.939    0.246    0.498  113.996
  430.250    2.936    0.240    0.489  112.405
  430.500    2.938    0.230    0.483  110.450
  430.750    3.002    0.216    0.475  106.295
  431.000    3.203    0.207    0.436  103.241
  431.250    3.405    0.202    0.420  101.345
  431.500    3.538    0.210    0.427  102.747
  431.750    3.649    0.217    0.451  105.431
  432.000    3.721    0.212    0.473  111.594
  432.250    3.759    0.205    0.447  108.844
  432.500    3.754    0.207    0.423  103.164
  432.750    3.695    0.213    0.417   96.812
  433.000    3.635    0.219    0.442   90.766
  433.250    3.563    0.223    0.471   85.941
  433.500    3.525    0.218    0.486   80.932
  433.750    3.528    0.213    0.489   83.981
  434.000    3.611    0.208    0.491   85.505
  434.250    3.788    0.198    0.472   86.479
  434.500    4.221    0.185    0.452   78.907
  434.750    4.642    0.171    0.374   70.907
  435.000    5.094    0.150    0.356   75.972
  435.250    5.686    0.123    0.342   80.731
  435.500    6.530    0.110    0.321   81.216
  435.750    7.303    0.102    0.297   79.382
  436.000    7.763    0.149    0.286   78.525
  436.250    7.523    0.176    0.303   77.790
  436.500    6.648    0.199    0.346   77.604
  436.750    5.521    0.228    0.373   77.418
  437.000    4.779    0.235    0.389   77.965
  437.250    4.460    0.207    0.403   79.183
  437.500    4.406    0.217    0.412   79.792
  437.750    4.416    0.242    0.423   84.673
  438.000    4.555    0.254    0.440   89.859
  438.250    4.925    0.225    0.410   93.703
  438.500    5.254    0.197    0.411   88.206
  438.750    5.460    0.180    0.388   80.878
  439.000    5.557    0.192    0.324   82.035
  439.250    5.604    0.209    0.334   86.550
  439.500    5.503    0.213    0.368   91.370
  439.750    5.244    0.195    0.390   95.397
  440.000    5.093    0.187    0.399   98.019
  440.250    5.067    0.181    0.401   99.909
  440.500    5.138    0.183    0.402  101.494
  440.750    5.240    0.191    0.405  102.224
  441.000    5.353    0.177    0.399  101.611
  441.250    5.438    0.159    0.402   98.434
  441.500    5.474    0.143    0.390   91.533
  441.750    5.467    0.136    0.377   91.957
  442.000    5.451    0.157    0.365   98.365
  442.250    5.414    0.174    0.352  102.758
  442.500    5.357    0.186    0.356  106.906
  442.750    5.320    0.193    0.372  108.980
  443.000    5.215    0.199    0.384  108.306
  443.250    5.083    0.201    0.390  103.968
  443.500    4.890    0.199    0.393  102.623
  443.750    4.721    0.192    0.395  102.620
  444.000    4.541    0.192    0.406  103.717
  444.250    4.426    0.199    0.417  105.118
  444.500    4.346    0.188    0.423  102.368
  444.750    4.391    0.184    0.428   96.444
  445.000    4.554    0.191    0.428   91.619
  445.250    4.733    0.200    0.409   89.418
  445.500    4.975    0.178    0.348   87.340
  445.750    5.111    0.147    0.345   89.047
  446.000    5.232    0.132    0.364   91.425
  446.250    5.236    0.167    0.379   95.207
  446.500    5.141    0.186    0.393   98.257
  446.750    4.799    0.194    0.399   99.781
  447.000    4.487    0.197    0.399  101.060
  447.250    4.071    0.194    0.401  101.424
  447.500    3.530    0.190    0.406  102.399
  447.750    2.714    0.189    0.415  105.876
  448.000    2.349    0.191    0.430  110.391
  448.250    2.247    0.202    0.463  113.746
  448.500    2.448    0.215    0.484  114.109
  448.750    2.946    0.223    0.493  106.292
  449.000    3.435    0.224    0.471   97.987
  449.250    3.907    0.223    0.375   90.842
  449.500    4.296    0.217    0.359   85.528
  449.750    4.566    0.192    0.343   89.005
  450.000    4.755    0.150    0.349   93.398
  450.250    4.821    0.184    0.366   95.838
  450.500    4.735    0.206    0.377   96.751
  450.750    4.545    0.208    0.380   96.565
  451.000    4.583    0.208    0.385   95.341
  451.250    5.040    0.203    0.391   94.484
  451.500    5.397    0.196    0.366   89.720
  451.750    5.684    0.166    0.337   84.040
  452.000    5.817    0.136    0.316   81.778
  452.250    5.888    0.136    0.305   87.453
  452.500    5.783    0.162    0.346   90.870
  452.750    5.605    0.177    0.374   92.454
  453.000    5.421    0.184    0.393   95.199
  453.250    5.166    0.188    0.395   97.944
  453.500    4.978    0.189    0.382  101.482
  453.750    4.834    0.182    0.366  104.409
  454.000    4.685    0.180    0.357  106.543
  454.250    4.567    0.175    0.379  108.006
  454.500    4.502    0.151    0.390  101.227
  454.750    4.446    0.123    0.387   90.236
  455.000    4.391    0.096    0.353   93.347
  455.250    4.345    0.115    0.323  100.792
  455.500    4.315    0.165    0.343  105.307
  455.750    4.294    0.182    0.378  106.037
  456.000    4.265    0.170    0.399  106.279
  456.250    4.204    0.161    0.403  107.863
  456.500    4.044    0.172    0.412  109.082
  456.750    3.986    0.176    0.425  109.262
  457.000    3.959    0.180    0.435  108.038
  457.250    3.970    0.175    0.428  106.632
  457.500    3.996    0.160    0.438  103.455
  457.750    4.037    0.137    0.434  102.903
  458.000    4.047    0.142    0.421  104.671
  458.250    4.042    0.172    0.429  106.438
  458.500    4.023    0.181    0.428  107.291
  458.750    4.010    0.168    0.416  107.410
  459.000    3.908    0.160    0.399  104.294
  459.250    3.845    0.155    0.389  106.856
  459.500    3.791    0.160    0.380  115.339
  459.750    3.744    0.168    0.386  117.290
  460.000    3.691    0.172    0.419  112.220
  460.250    3.645    0.168    0.442  110.447
  460.500    3.586    0.162    0.439  108.857
  460.750    3.482    0.157    0.437  108.855
  461.000    3.375    0.154    0.434  111.294
  461.250    3.258    0.164    0.438  114.222
  461.500    3.285    0.177    0.452  115.745
  461.750    3.532    0.185    0.471  116.414
  462.000    3.691    0.189    0.463  116.961
  462.250    3.969    0.176    0.450  118.180
  462.500    4.062    0.158    0.405  108.714
  462.750    3.617    0.147    0.385  103.889
  463.000    3.190    0.139    0.372  107.183
  463.250    2.944    0.175    0.370  112.858
  463.500    2.773    0.189    0.396  118.411
  463.750    2.834    0.194    0.435  120.911
