~VERSION INFORMATION
 VERS.                 2.0:   CWLS LOG ASCII STANDARD -VERSION 2.0
 WRAP.                  NO:   ONE LINE PER DEPTH STEP
~WELL INFORMATION BLOCK
#MNEM.UNIT           DATA                    DESCRIPTION OF MNEMONIC
#---------    -------------------            -------------------------------
# Generated from Intellog Unique Number	CS_73_76/WELL/3262
WELL.         W.W. BECKER OIL & GAS LTD.     : Well_name    - WELL
LOC .         00/11-11-075-14W4/0            : Location     - LOCATION
UWI .         00/11-11-075-14W4/0            : Uwi          - UNIQUE WELL ID
ENTR.         SP                             : Entered      - ENTERED BY
SRVC.         SCHLUMBERGER                   : Scn          - SERVICE COMPANY
STRT.M        396.24                         : top_depth    - START DEPTH
STOP.M        630.74                         : bot_depth    - STOP DEPTH
STEP.M        0.25                           : increment    - STEP LENGTH
 NULL. -999.2500:NULL Value
~CURVE INFORMATION BLOCK
#MNEM UNIT       ERCB CURVE CODE    CURVE DESCRIPTION
#-----------   ------------------   ----------------------------------
DEPT.M        00 001 00 00         : DEPTH        - DEPTH
GR  .API      00 310 00 00         : GR           - GAMMA RAY
DPHI.V/V      00 890 00 00         : PHID         - DENSITY POROSITY (SANDSTONE)
NPHI.V/V      00 330 00 00         : PHIN         - NEUTRON POROSITY (SANDSTONE)
ILD .OHMM     00 120 00 00         : RESD         - DEEP RESISTIVITY (DIL)
~PARAMETER INFORMATION
#MNEM.UNIT           DATA             DESCRIPTION OF MNEMONIC
#---------         -----------     ------------------------------
GL  .M        859.231              : gl           - GROUND LEVEL ELEVATION
EREF.M        859.231              : kb           - ELEVATION OF DEPTH REFERENCE
DATM.M        859.231              : datum        - DATUM ELEVATION
TDD .M        634.289              : tdd          - TOTAL DEPTH DRILLER
RUN .         ONE                  : Run          - RUN NUMBER
ENG .         BILL                 : Engineer     - RECORDING ENGINEER
WIT .         JIM                  : Witness      - WITNESSED BY
MUD .         GEL                  : Mud_type     - MUD TYPE
MATR.         SANDSTONE            : Logunit      - NEUTRON MATRIX
TMAX.C        23.8889              : BHT          - MAXIMUM RECORDED TEMPERATURE
BHTD.M        634.289              : BHTDEP       - MAXIMUM RECORDED TEMPERATURE
MATR.         1                    : LOGUNIT      - NEUTRON MATRIX
RMT .C        25                   : MDTP         - TEMPERATURE OF MUD
NEUT.         1                    : NEUTRON      - NEUTRON TYPE
RESI.         0                    : RESIST       - RESISTIVITY TYPE
RMC .OHMM     0.25                 : RMC          - RESISTIVITY OF MUD CAKE
RMF .OHMM     0.25                 : RMF          - RESISTIVITY OF MUD FILTRATE
SUFT.C        15                   : SUFT         - SURFACE TEMPERATURE
~A  DEPTH       GR     PHID     PHIN     RESD
# ...
  570.240   96.364    0.191    0.438    4.422
  570.490   96.056    0.204    0.453    4.051
  570.740   97.403    0.192    0.463    3.774
  570.990   99.945    0.186    0.470    3.567
  571.240  102.404    0.208    0.482    3.217
  571.490  102.764    0.179    0.488    3.038
  571.740  104.591    0.171    0.487    2.947
  571.990  103.186    0.178    0.487    2.861
  572.240  102.228    0.179    0.497    2.955
  572.490  102.420    0.187    0.504    3.057
  572.740   99.557    0.177    0.513    3.464
  572.990   95.356    0.175    0.497    3.739
  573.240   89.340    0.161    0.468    4.333
  573.490   88.296    0.164    0.467    4.704
  573.740   86.751    0.174    0.447    4.983
  573.990   85.283    0.155    0.411    5.252
  574.240   86.999    0.123    0.417    5.334
  574.490   89.391    0.167    0.430    5.280
  574.740   89.409    0.177    0.445    5.244
  574.990   88.380    0.159    0.433    5.250
  575.240   87.626    0.154    0.422    5.139
  575.490   88.543    0.137    0.418    5.148
  575.740   92.567    0.159    0.432    5.158
  575.990   95.766    0.173    0.444    5.044
  576.240   94.849    0.176    0.441    5.052
  576.490   93.917    0.162    0.442    4.969
  576.740   97.920    0.154    0.448    4.863
  576.990  100.343    0.171    0.453    4.877
  577.240  100.567    0.164    0.452    4.841
  577.490   93.497    0.144    0.451    4.895
  577.740   91.434    0.126    0.450    4.966
  577.990   89.564    0.111    0.451    5.162
  578.240   90.614    0.145    0.432    5.347
  578.490   92.541    0.110    0.411    5.348
  578.740   97.149    0.090    0.420    5.189
  578.990   93.976    0.143    0.440    5.138
  579.240   90.746    0.138    0.449    4.955
  579.490   87.569    0.148    0.451    4.933
  579.740   92.517    0.143    0.444    4.879
  579.990   93.463    0.156    0.445    4.870
  580.240   92.463    0.165    0.452    4.997
  580.490   91.194    0.179    0.427    5.152
  580.740   94.104    0.150    0.405    5.191
  580.990   98.019    0.131    0.414    5.477
  581.240   95.062    0.170    0.425    5.629
  581.490   91.801    0.179    0.436    5.980
  581.740   88.705    0.140    0.422    6.204
  581.990   88.292    0.101    0.406    6.394
  582.240   95.206    0.097    0.399    6.557
  582.490   99.229    0.156    0.411    6.413
  582.740  103.146    0.162    0.432    6.066
  582.990  107.883    0.163    0.443    5.712
  583.240  110.528    0.157    0.458    5.547
  583.490  110.478    0.147    0.441    5.611
  583.740  111.453    0.142    0.418    5.806
  583.990  112.893    0.156    0.408    6.165
  584.240  113.695    0.159    0.416    6.657
  584.490  110.071    0.150    0.427    7.367
  584.740   98.706    0.169    0.437    8.014
  584.990   89.495    0.188    0.436    9.025
  585.240   81.015    0.198    0.413   10.602
  585.490   74.445    0.178    0.399   11.872
  585.740   79.025    0.165    0.396   13.217
  585.990   84.599    0.205    0.398   14.644
  586.240   88.221    0.227    0.398   15.360
  586.490   85.352    0.218    0.394   15.763
  586.740   77.938    0.209    0.381   15.465
  586.990   74.013    0.198    0.373   14.878
  587.240   75.009    0.206    0.367   14.591
  587.490   79.977    0.203    0.363   14.629
  587.740   82.688    0.205    0.367   14.764
  587.990   84.573    0.190    0.368   14.881
  588.240   85.258    0.182    0.370   15.104
  588.490   80.498    0.197    0.377   15.543
  588.740   73.170    0.205    0.394   16.353
  588.990   72.701    0.201    0.395   17.108
  589.240   75.644    0.213    0.373   17.334
  589.490   76.560    0.224    0.362   17.560
  589.740   78.566    0.216    0.376   17.433
  589.990   80.697    0.213    0.369   16.096
  590.240   82.583    0.196    0.368   15.485
  590.490   82.734    0.179    0.365   14.852
  590.740   80.357    0.170    0.354   14.887
  590.990   77.375    0.155    0.346   15.127
  591.240   75.276    0.153    0.372   15.573
  591.490   70.134    0.196    0.387   16.416
  591.740   64.740    0.227    0.394   17.134
  591.990   58.877    0.244    0.388   18.546
  592.240   52.785    0.252    0.381   19.649
  592.490   51.282    0.264    0.369   21.296
  592.740   60.162    0.274    0.367   21.995
  592.990   69.707    0.250    0.358   22.689
  593.240   79.254    0.226    0.341   21.456
  593.490   91.934    0.191    0.479   18.203
  593.740  100.194    0.165    0.501   15.409
  593.990  104.362    0.137    0.517   12.784
  594.240  106.887    0.084    0.522    9.630
  594.490  107.977    0.147    0.509    7.152
  594.740  100.380    0.192    0.482    5.936
  594.990   81.263    0.247    0.455    7.300
  595.240   74.531    0.265    0.433    9.810
  595.490   66.115    0.270    0.408   12.630
  595.740   61.307    0.271    0.408   16.075
  595.990   63.233    0.283    0.412   20.848
  596.240   64.777    0.287    0.407   26.543
  596.490   67.802    0.293    0.410   31.968
  596.740   71.811    0.291    0.407   35.732
  596.990   73.518    0.278    0.402   37.878
  597.240   76.057    0.267    0.404   36.138
  597.490   79.069    0.261    0.404   32.432
  597.740   81.950    0.250    0.403   29.135
  597.990   87.266    0.221    0.393   26.794
  598.240   92.193    0.189    0.383   23.992
  598.490   97.218    0.170    0.393   20.237
  598.740  101.342    0.192    0.404   17.112
  598.990  106.625    0.195    0.394   14.415
  599.240  110.806    0.181    0.394   12.228
  599.490  114.697    0.161    0.395   10.442
  599.740  117.314    0.154    0.405    9.094
  599.990  115.810    0.164    0.394    8.651
  600.240  115.209    0.168    0.379    7.963
  600.490  112.255    0.172    0.378    7.873
  600.740  108.206    0.163    0.375    7.987
  600.990  105.322    0.171    0.380    8.219
  601.240  105.642    0.185    0.387    8.649
  601.490  109.718    0.200    0.383    9.037
  601.740  114.132    0.193    0.367    9.405
  601.990  115.002    0.176    0.366    9.810
  602.240  110.623    0.188    0.367   10.106
  602.490  109.591    0.197    0.368   10.375
  602.740  109.035    0.205    0.376   10.360
  602.990  112.875    0.203    0.373   10.371
  603.240  121.417    0.183    0.363   10.096
  603.490  125.162    0.161    0.369    9.640
  603.740  116.974    0.146    0.383    9.614
  603.990  104.119    0.157    0.381    9.814
  604.240   97.750    0.179    0.383   10.077
  604.490   94.978    0.167    0.387   10.668
  604.740   92.652    0.184    0.389   10.755
  604.990   93.651    0.191    0.384   11.087
  605.240   94.550    0.179    0.379   11.361
  605.490   92.655    0.171    0.373   11.562
  605.740   87.850    0.178    0.358   11.915
  605.990   83.652    0.192    0.354   12.284
  606.240   81.298    0.203    0.364   12.638
  606.490   78.588    0.201    0.369   13.174
  606.740   76.645    0.196    0.379   13.482
  606.990   74.201    0.200    0.385   14.108
  607.240   70.261    0.201    0.391   14.524
  607.490   67.118    0.214    0.381   14.949
  607.740   69.112    0.232    0.368   15.163
  607.990   72.056    0.226    0.373   15.292
  608.240   71.986    0.223    0.381   15.791
  608.490   74.249    0.226    0.390   15.784
  608.740   76.508    0.216    0.398   15.788
  608.990   76.242    0.205    0.402   15.789
  609.240   71.669    0.218    0.401   15.783
  609.490   62.143    0.230    0.397   15.743
  609.740   55.897    0.264    0.406   15.260
  609.990   52.209    0.275    0.399   15.043
  610.240   50.142    0.285    0.397   15.562
  610.490   53.573    0.270    0.387   16.482
  610.740   60.130    0.255    0.382   18.339
  610.990   64.283    0.249    0.384   20.431
  611.240   63.662    0.260    0.392   21.638
  611.490   58.966    0.263    0.389   22.916
  611.740   55.705    0.263    0.385   22.262
  611.990   53.450    0.278    0.371   18.403
  612.240   53.865    0.296    0.364   14.536
  612.490   59.695    0.287    0.367   11.640
  612.740   64.498    0.271    0.378    8.713
  612.990   66.956    0.257    0.389    6.708
  613.240   65.952    0.250    0.389    5.415
  613.490   61.467    0.274    0.387    4.827
