~VERSION INFORMATION
 VERS.                 2.0:   CWLS LOG ASCII STANDARD -VERSION 2.0
 WRAP.                  NO:   ONE LINE PER DEPTH STEP
~WELL INFORMATION BLOCK
#MNEM.UNIT           DATA                    DESCRIPTION OF MNEMONIC
#---------    -------------------            -------------------------------
# Generated from Intellog Unique Number	CS_73_76/WELL/2188
WELL.         PEX-MARGIS                     : Well_name    - WELL
LOC .         00/10-14-074-09W4/0            : Location     - LOCATION
UWI .         00/10-14-074-09W4/0            : Uwi          - UNIQUE WELL ID
ENTR.         SP                             : Entered      - ENTERED BY
SRVC.         SCHLUMBERGER                   : Scn          - SERVICE COMPANY
STRT.M        285                            : top_depth    - START DEPTH
STOP.M        493                            : bot_depth    - STOP DEPTH
STEP.M        0.25                           : increment    - STEP LENGTH
 NULL. -999.2500:NULL Value
~CURVE INFORMATION BLOCK
#MNEM UNIT       ERCB CURVE CODE    CURVE DESCRIPTION
#-----------   ------------------   ----------------------------------
DEPT.M        00 001 00 00         : DEPTH        - DEPTH
ILD .OHMM     00 120 00 00         : RESD         - DEEP RESISTIVITY (DIL)
NPHI.V/V      00 330 00 00         : PHIN         - NEUTRON POROSITY (LIMESTONE)
GR  .API      00 310 00 00         : GR           - GAMMA RAY
DPHI.V/V      00 890 00 00         : PHID         - DENSITY POROSITY (LIMESTONE)
~PARAMETER INFORMATION
#MNEM.UNIT           DATA             DESCRIPTION OF MNEMONIC
#---------         -----------     ------------------------------
GL  .M        654.68               : gl           - GROUND LEVEL ELEVATION
EREF.M        658.64               : kb           - ELEVATION OF DEPTH REFERENCE
DATM.M        654.68               : datum        - DATUM ELEVATION
TDD .M        503.51               : tdd          - TOTAL DEPTH DRILLER
RUN .         ONE                  : Run          - RUN NUMBER
ENG .         BILL                 : Engineer     - RECORDING ENGINEER
WIT .         JIM                  : Witness      - WITNESSED BY
MUD .         GEL                  : Mud_type     - MUD TYPE
MATR.         LIMESTONE            : Logunit      - NEUTRON MATRIX
TMAX.C        34                   : BHT          - MAXIMUM RECORDED TEMPERATURE
BHTD.M        503.51               : BHTDEP       - MAXIMUM RECORDED TEMPERATURE
MATR.         1                    : LOGUNIT      - NEUTRON MATRIX
RMT .C        25                   : MDTP         - TEMPERATURE OF MUD
NEUT.         1                    : NEUTRON      - NEUTRON TYPE
RESI.         0                    : RESIST       - RESISTIVITY TYPE
RMC .OHMM     0.25                 : RMC          - RESISTIVITY OF MUD CAKE
RMF .OHMM     0.25                 : RMF          - RESISTIVITY OF MUD FILTRATE
SUFT.C        15                   : SUFT         - SURFACE TEMPERATURE
~A  DEPTH     RESD     PHIN       GR     PHID
# ...
  459.000   17.779    0.343   98.647    0.211
  459.250   17.779    0.340  102.379    0.193
  459.500   18.465    0.339  102.999    0.180
  459.750   19.543    0.339   98.018    0.167
  460.000   21.482    0.340   91.169    0.194
  460.250   22.736    0.347   85.565    0.223
  460.500   24.524    0.357   81.206    0.252
  460.750   24.525    0.352   79.959    0.254
  461.000   23.172    0.350   83.691    0.253
  461.250   21.082    0.357   93.648    0.221
  461.500   18.122    0.349  101.114    0.195
  461.750   16.802    0.339  101.112    0.201
  462.000   14.719    0.341  104.845    0.212
  462.250   13.391    0.348  109.199    0.191
  462.500   13.908    0.347  109.819    0.179
  462.750   15.001    0.339  101.103    0.174
  463.000   17.785    0.343   93.009    0.169
  463.250   21.488    0.341   83.049    0.205
  463.500   29.638    0.332   76.200    0.309
  463.750   39.360    0.328   48.812    0.315
  464.000   70.744    0.328   46.320    0.291
  464.250   87.106    0.341   46.940    0.280
  464.500   97.574    0.344   46.316    0.297
  464.750  111.388    0.341   43.201    0.276
  465.000  117.895    0.341   41.332    0.264
  465.250  115.689    0.338   40.707    0.309
  465.500  109.310    0.334   41.327    0.330
  465.750  103.283    0.344   43.192    0.309
  466.000   88.783    0.357   45.058    0.290
  466.250   80.774    0.358   47.545    0.277
  466.500   73.487    0.360   49.410    0.254
  466.750   70.761    0.365   50.029    0.268
  467.000   72.114    0.364   48.783    0.288
  467.250   76.326    0.360   46.291    0.288
  467.500   79.270    0.355   46.288    0.279
  467.750   80.785    0.352   46.287    0.289
  468.000   74.901    0.359   47.529    0.310
  468.250   65.615    0.358   51.261    0.332
  468.500   50.352    0.354   62.462    0.323
  468.750   40.130    0.352   79.265    0.300
  469.000   33.215    0.348   86.109    0.272
  469.250   28.017    0.348   83.618    0.245
  469.500   28.018    0.354   87.349    0.262
  469.750   30.798    0.360   89.837    0.215
  470.000   32.596    0.367   89.213    0.188
  470.250   37.922    0.354   71.783    0.232
  470.500   43.290    0.352   57.465    0.274
  470.750   47.585    0.352   56.840    0.283
  471.000   51.325    0.357   61.195    0.294
  471.250   53.305    0.360   61.193    0.315
  471.500   55.361    0.362   58.701    0.316
  471.750   53.308    0.359   55.587    0.318
  472.000   48.499    0.353   53.095    0.299
  472.250   43.297    0.349   59.939    0.268
  472.500   42.487    0.353   65.539    0.256
  472.750   42.488    0.359   69.271    0.279
  473.000   44.127    0.356   68.024    0.252
  473.250   44.970    0.354   61.797    0.271
  473.500   49.432    0.349   59.306    0.294
  473.750   51.339    0.349   61.171    0.295
  474.000   53.319    0.357   55.567    0.301
  474.250   56.432    0.356   49.340    0.306
  474.500   58.609    0.357   51.206    0.304
  474.750   59.729    0.363   52.448    0.302
  475.000   62.033    0.361   46.844    0.312
  475.250   64.426    0.362   46.219    0.324
  475.500   64.428    0.365   47.462    0.327
  475.750   59.735    0.363   49.327    0.326
  476.000   48.517    0.361   51.192    0.328
  476.250   40.157    0.359   52.434    0.318
  476.500   30.239    0.352   61.146    0.302
  476.750   18.847    0.343   72.969    0.290
  477.000   14.463    0.340   68.610    0.282
  477.250   10.098    0.336   68.608    0.304
  477.500    8.201    0.342   74.207    0.280
  477.750    6.661    0.335   72.338    0.287
  478.000    5.947    0.331   71.713    0.328
  478.250    5.410    0.331   74.823    0.168
  478.500    5.112    0.330   76.066    0.152
  478.750    4.922    0.335   73.573    0.245
  479.000    4.830    0.338   71.705    0.287
  479.250    4.651    0.343   71.080    0.300
  479.500    4.651    0.350   76.679    0.300
  479.750    4.651    0.346   81.656    0.273
  480.000    4.740    0.347   81.031    0.217
  480.250    4.740    0.351   79.785    0.234
  480.500    4.740    0.352   79.782    0.243
  480.750    4.564    0.351   81.025    0.233
  481.000    4.564    0.346   74.176    0.245
  481.250    4.565    0.342   74.796    0.262
  481.500    4.565    0.347   77.906    0.240
  481.750    4.565    0.356   81.638    0.243
  482.000    4.565    0.361   82.881    0.235
  482.250    4.565    0.361   81.011    0.218
  482.500    4.480    0.359   82.254    0.211
  482.750    4.233    0.351   76.028    0.218
  483.000    3.924    0.347   78.515    0.229
  483.250    3.779    0.342   72.289    0.285
  483.500    3.779    0.337   72.286    0.310
  483.750    3.779    0.334   74.774    0.327
  484.000    3.925    0.340   82.862    0.322
  484.250    4.000    0.339   87.840    0.249
  484.500    4.314    0.335   89.705    0.267
  484.750    4.566    0.332   85.345    0.273
  485.000    4.397    0.332   84.099    0.258
  485.250    4.076    0.334   82.851    0.214
  485.500    3.780    0.332   71.646    0.208
  485.750    3.439    0.340   64.797    0.225
  486.000    3.249    0.345   62.305    0.269
  486.250    3.070    0.345   59.814    0.280
  486.500    3.012    0.345   56.699    0.299
  486.750    2.901    0.341   57.320    0.333
  487.000    2.846    0.341   61.674    0.348
  487.250    2.901    0.344   59.182    0.355
  487.500    2.901    0.340   59.802    0.375
  487.750    3.070    0.336   61.045    0.360
  488.000    3.572    0.331   61.665    0.361
  488.250    4.316    0.326   60.418    0.380
  488.500    5.519    0.319   61.661    0.371
  488.750    6.795    0.307   66.015    0.327
  489.000    9.551    0.292   67.880    0.205
  489.250   11.760    0.287   71.613    0.003
  489.500   14.756    0.275   79.079    0.004
  489.750   16.220    0.266   85.923    0.010
  490.000   17.167    0.265   91.523    0.026
  490.250   17.829    0.265   95.255    0.008
  490.500   17.830    0.260   86.539    0.000
  490.750   17.496    0.259   81.558    0.000
  491.000   17.169    0.260   81.555    0.000
  491.250   16.532    0.266   84.665    0.000
  491.500   16.222    0.271   84.663    0.023
  491.750   15.919    0.273   79.059    0.017
  492.000   15.919    0.277   76.567    0.023
  492.250   16.224    0.286   75.320    0.011
  492.500   16.224    0.292   74.073    0.011
  492.750   16.534    0.292   76.560    0.012
  493.000   16.534    0.291   80.915    0.017
