~VERSION INFORMATION
 VERS.                 2.0:   CWLS LOG ASCII STANDARD -VERSION 2.0
 WRAP.                  NO:   ONE LINE PER DEPTH STEP
~WELL INFORMATION BLOCK
#MNEM.UNIT           DATA                    DESCRIPTION OF MNEMONIC
#---------    -------------------            -------------------------------
# Generated from Intellog Unique Number	CS_77_79/WELL/983
WELL.         HOME OIL COMPANY LIMITED       : Well_name    - WELL
LOC .         00/11-02-077-08W4/0            : Location     - LOCATION
UWI .         00/11-02-077-08W4/0            : Uwi          - UNIQUE WELL ID
ENTR.         SP                             : Entered      - ENTERED BY
SRVC.         SCHLUMBERGER                   : Scn          - SERVICE COMPANY
STRT.M        150                            : top_depth    - START DEPTH
STOP.M        380                            : bot_depth    - STOP DEPTH
STEP.M        0.25                           : increment    - STEP LENGTH
 NULL. -999.2500:NULL Value
~CURVE INFORMATION BLOCK
#MNEM UNIT       ERCB CURVE CODE    CURVE DESCRIPTION
#-----------   ------------------   ----------------------------------
DEPT.M        00 001 00 00         : DEPTH        - DEPTH
ILD .OHMM     00 120 00 00         : RESD         - DEEP RESISTIVITY (DIL)
DPHI.V/V      00 890 00 00         : PHID         - DENSITY POROSITY (LIMESTONE)
NPHI.V/V      00 330 00 00         : PHIN         - NEUTRON POROSITY (LIMESTONE)
GR  .API      00 310 00 00         : GR           - GAMMA RAY
~PARAMETER INFORMATION
#MNEM.UNIT           DATA             DESCRIPTION OF MNEMONIC
#---------         -----------     ------------------------------
GL  .M        575.6                : gl           - GROUND LEVEL ELEVATION
EREF.M        579.11               : kb           - ELEVATION OF DEPTH REFERENCE
DATM.M        575.61               : datum        - DATUM ELEVATION
TDD .M        400                  : tdd          - TOTAL DEPTH DRILLER
RUN .         ONE                  : Run          - RUN NUMBER
ENG .         BILL                 : Engineer     - RECORDING ENGINEER
WIT .         JIM                  : Witness      - WITNESSED BY
MUD .         GEL                  : Mud_type     - MUD TYPE
MATR.         LIMESTONE            : Logunit      - NEUTRON MATRIX
TMAX.C        36                   : BHT          - MAXIMUM RECORDED TEMPERATURE
BHTD.M        400                  : BHTDEP       - MAXIMUM RECORDED TEMPERATURE
MATR.         1                    : LOGUNIT      - NEUTRON MATRIX
RMT .C        25                   : MDTP         - TEMPERATURE OF MUD
NEUT.         1                    : NEUTRON      - NEUTRON TYPE
RESI.         0                    : RESIST       - RESISTIVITY TYPE
RMC .OHMM     0.25                 : RMC          - RESISTIVITY OF MUD CAKE
RMF .OHMM     0.25                 : RMF          - RESISTIVITY OF MUD FILTRATE
SUFT.C        15                   : SUFT         - SURFACE TEMPERATURE
~A  DEPTH     RESD     PHID     PHIN       GR
# ...
  324.000   12.671    0.256    0.264   72.326
  324.250   12.675    0.243    0.255   74.802
  324.500   13.163    0.226    0.260   77.900
  324.750   13.416    0.236    0.269   78.528
  325.000   17.099    0.233    0.277   79.772
  325.250   22.200    0.213    0.303   79.785
  325.500   29.918    0.267    0.324   67.447
  325.750   40.323    0.318    0.250   54.495
  326.000   54.341    0.327    0.231   56.974
  326.250   73.229    0.317    0.271   56.988
  326.500   89.932    0.311    0.309   53.909
  326.750   93.375    0.312    0.334   47.749
  327.000   96.969    0.313    0.361   44.672
  327.250   95.223    0.290    0.388   42.831
  327.500   91.778    0.293    0.399   45.929
  327.750   83.664    0.307    0.403   45.326
  328.000   82.169    0.302    0.392   47.185
  328.250   79.195    0.294    0.380   51.519
  328.500   79.230    0.289    0.397   55.236
  328.750   77.813    0.286    0.417   56.476
  329.000   75.004    0.295    0.428   58.342
  329.250   73.645    0.306    0.395   57.115
  329.500   69.674    0.312    0.368   55.273
  329.750   62.341    0.303    0.380   54.668
  330.000   57.889    0.296    0.383   55.298
  330.250   52.772    0.299    0.363   57.776
  330.500   49.003    0.301    0.365   62.726
  330.750   43.034    0.297    0.367   64.587
  331.000   36.411    0.300    0.363   66.451
  331.250   28.598    0.300    0.354   69.548
  331.500   23.314    0.291    0.335   71.411
  331.750   20.858    0.278    0.318   77.594
  332.000   17.647    0.272    0.323   85.631
  332.250   14.385    0.256    0.346   92.431
  332.500   11.948    0.246    0.324   97.998
  332.750   10.494    0.234    0.295  107.271
  333.000    9.745    0.227    0.324  119.625
  333.250    9.392    0.205    0.354  126.427
  333.500    9.396    0.212    0.366  104.214
  333.750    9.401    0.263    0.358   77.680
  334.000    9.946    0.279    0.340   69.667
  334.250   10.721    0.268    0.347   70.912
  334.500   11.993    0.253    0.353   74.627
  334.750   12.924    0.246    0.348   67.847
  335.000   16.476    0.267    0.338   56.130
  335.250   18.090    0.290    0.342   51.818
  335.500   19.864    0.282    0.343   47.508
  335.750   20.625    0.274    0.331   51.223
  336.000   20.255    0.274    0.347   59.258
  336.250   19.524    0.281    0.355   67.294
  336.500   17.797    0.276    0.313   74.714
  336.750   15.925    0.257    0.313   80.280
  337.000   15.066    0.235    0.347   72.882
  337.250   14.252    0.257    0.360   67.340
  337.500   13.488    0.281    0.345   71.052
  337.750   13.243    0.265    0.317   82.174
  338.000   13.003    0.246    0.292   84.654
  338.250   12.537    0.246    0.300   81.582
  338.500   12.309    0.232    0.303   81.591
  338.750   12.088    0.218    0.292   80.366
  339.000   11.654    0.220    0.312   79.758
  339.250   11.443    0.186    0.343   85.326
  339.500   11.235    0.207    0.349   82.251
  339.750   11.034    0.232    0.336   84.114
  340.000   10.637    0.232    0.316   89.061
  340.250   10.444    0.237    0.327   86.604
  340.500   10.256    0.185    0.317   94.024
  340.750   10.073    0.158    0.307   93.415
  341.000   10.075    0.167    0.296   79.234
  341.250   10.270    0.202    0.327   77.388
  341.500   10.471    0.221    0.357   76.780
  341.750   10.672    0.225    0.355   76.791
  342.000   10.877    0.208    0.322   77.420
  342.250   11.087    0.204    0.320   79.900
  342.500   11.091    0.208    0.334   76.824
  342.750   11.304    0.218    0.354   74.368
  343.000   11.737    0.218    0.386   74.376
  343.250   12.190    0.233    0.394   68.830
  343.500   12.424    0.249    0.334   70.075
  343.750   12.900    0.248    0.313   69.473
  344.000   12.911    0.248    0.325   67.628
  344.250   12.915    0.241    0.325   70.725
  344.500   12.918    0.223    0.304   76.294
  344.750   12.686    0.215    0.290   78.156
  345.000   12.230    0.211    0.291   86.809
  345.250   12.009    0.200    0.291   94.843
  345.500   12.471    0.173    0.361   99.177
  345.750   12.709    0.166    0.373   86.843
  346.000   13.199    0.227    0.356   79.444
  346.250   13.705    0.245    0.331   70.196
  346.500   14.234    0.240    0.311   74.529
  346.750   14.506    0.224    0.313   78.241
  347.000   15.067    0.214    0.314   69.612
  347.250   15.355    0.222    0.314   66.533
  347.500   15.362    0.261    0.347   65.309
  347.750   15.657    0.270    0.364   71.499
  348.000   15.664    0.253    0.368   73.974
  348.250   15.970    0.235    0.369   73.368
  348.500   15.974    0.217    0.352   69.056
  348.750   16.591    0.248    0.375   67.834
  349.000   16.909    0.264    0.399   69.081
  349.250   17.233    0.265    0.421   70.325
  349.500   17.894    0.252    0.415   71.569
  349.750   18.242    0.236    0.354   69.728
  350.000   16.456    0.251    0.298   71.319
  350.250   15.860    0.230    0.299   74.400
  350.500   15.291    0.229    0.311   73.795
  350.750   15.019    0.221    0.318   73.191
  351.000   15.031    0.225    0.307   67.052
  351.250   15.324    0.233    0.335   63.377
  351.500   16.215    0.243    0.369   61.540
  351.750   16.842    0.276    0.341   60.937
  352.000   17.491    0.262    0.313   64.637
  352.250   18.507    0.254    0.330   68.333
  352.500   19.583    0.266    0.347   65.884
  352.750   20.726    0.275    0.378   60.977
  353.000   20.354    0.276    0.371   57.298
  353.250   18.906    0.271    0.370   57.306
  353.500   18.221    0.258    0.362   65.926
  353.750   16.920    0.249    0.360   72.085
  354.000   16.616    0.247    0.341   74.550
  354.250   16.017    0.242    0.328   71.489
  354.500   16.333    0.262    0.332   65.350
  354.750   16.968    0.282    0.355   60.442
  355.000   17.625    0.289    0.328   60.452
  355.250   17.965    0.273    0.300   70.298
  355.500   17.972    0.226    0.287   75.227
  355.750   17.323    0.257    0.308   71.548
  356.000   17.336    0.276    0.309   72.173
  356.250   17.674    0.276    0.280   71.573
  356.500   18.357    0.237    0.297   69.734
  356.750   17.368    0.257    0.326   62.983
  357.000   16.431    0.278    0.336   72.829
  357.250   15.839    0.271    0.298   77.142
  357.500   15.848    0.231    0.330   69.774
  357.750   16.159    0.235    0.348   67.325
  358.000   16.781    0.248    0.359   66.108
  358.250   18.787    0.258    0.364   61.814
  358.500   19.509    0.256    0.369   58.136
  358.750   19.892    0.258    0.384   56.915
  359.000   19.175    0.268    0.365   63.072
  359.250   18.141    0.257    0.332   74.148
  359.500   17.813    0.228    0.331   82.151
  359.750   17.173    0.227    0.333   79.088
  360.000   17.508    0.238    0.344   75.409
  360.250   18.879    0.261    0.344   71.731
  360.500   19.979    0.275    0.340   69.898
  360.750   20.364    0.280    0.345   66.219
  361.000   20.379    0.268    0.363   64.997
  361.250   20.013    0.259    0.373   66.240
  361.500   19.291    0.253    0.362   66.864
  361.750   20.039    0.251    0.354   69.331
  362.000   22.009    0.256    0.371   64.423
  362.250   29.697    0.260    0.390   61.975
  362.500   35.817    0.277    0.406   66.903
  362.750   39.335    0.287    0.386   65.071
  363.000   49.242    0.311    0.384   60.162
  363.250   46.602    0.321    0.371   55.868
  363.500   43.262    0.321    0.343   52.803
  363.750   37.288    0.297    0.306   55.272
  364.000   34.628    0.258    0.312   65.118
  364.250   34.009    0.267    0.349   57.754
  364.500   34.664    0.292    0.437   51.617
  364.750   39.533    0.305    0.470   47.320
  365.000   52.339    0.311    0.469   45.488
  365.250   74.667    0.321    0.448   48.572
  365.500   88.392    0.330    0.440   48.584
  365.750   93.549    0.325    0.393   47.975
  366.000   93.588    0.327    0.338   45.528
  366.250   83.749    0.330    0.348   56.604
  366.500   79.220    0.324    0.370   59.686
  366.750   69.576    0.314    0.381   63.387
  367.000   65.809    0.312    0.395   49.870
  367.250   61.106    0.313    0.397   51.726
