~VERSION INFORMATION
 VERS.                 2.0:   CWLS LOG ASCII STANDARD -VERSION 2.0
 WRAP.                  NO:   ONE LINE PER DEPTH STEP
~WELL INFORMATION BLOCK
#MNEM.UNIT           DATA                    DESCRIPTION OF MNEMONIC
#---------    -------------------            -------------------------------
# Generated from Intellog Unique Number	CS_73_76/WELL/2205
WELL.         BOW VALLEY INDUSTRIES LTD      : Well_name    - WELL
LOC .         00/11-30-074-16W4/0            : Location     - LOCATION
UWI .         00/11-30-074-16W4/0            : Uwi          - UNIQUE WELL ID
ENTR.         SP                             : Entered      - ENTERED BY
SRVC.         SCHLUMBERGER                   : Scn          - SERVICE COMPANY
STRT.M        271.272                        : top_depth    - START DEPTH
STOP.M        444.772                        : bot_depth    - STOP DEPTH
STEP.M        0.25                           : increment    - STEP LENGTH
 NULL. -999.2500:NULL Value
~CURVE INFORMATION BLOCK
#MNEM UNIT       ERCB CURVE CODE    CURVE DESCRIPTION
#-----------   ------------------   ----------------------------------
DEPT.M        00 001 00 00         : DEPTH        - DEPTH
GR  .API      00 310 00 00         : GR           - GAMMA RAY
DPHI.V/V      00 890 00 00         : PHID         - DENSITY POROSITY (SANDSTONE)
NPHI.V/V      00 330 00 00         : PHIN         - NEUTRON POROSITY (SANDSTONE)
ILD .OHMM     00 120 00 00         : RESD         - DEEP RESISTIVITY (DIL)
~PARAMETER INFORMATION
#MNEM.UNIT           DATA             DESCRIPTION OF MNEMONIC
#---------         -----------     ------------------------------
GL  .M        620.116              : gl           - GROUND LEVEL ELEVATION
EREF.M        623.621              : kb           - ELEVATION OF DEPTH REFERENCE
DATM.M        620.116              : datum        - DATUM ELEVATION
TDD .M        454.762              : tdd          - TOTAL DEPTH DRILLER
RUN .         ONE                  : Run          - RUN NUMBER
ENG .         BILL                 : Engineer     - RECORDING ENGINEER
WIT .         JIM                  : Witness      - WITNESSED BY
MUD .         GEL                  : Mud_type     - MUD TYPE
MATR.         SANDSTONE            : Logunit      - NEUTRON MATRIX
TMAX.C        60                   : BHT          - MAXIMUM RECORDED TEMPERATURE
BHTD.M        454.762              : BHTDEP       - MAXIMUM RECORDED TEMPERATURE
MATR.         1                    : LOGUNIT      - NEUTRON MATRIX
RMT .C        25                   : MDTP         - TEMPERATURE OF MUD
NEUT.         1                    : NEUTRON      - NEUTRON TYPE
RESI.         0                    : RESIST       - RESISTIVITY TYPE
RMC .OHMM     0.25                 : RMC          - RESISTIVITY OF MUD CAKE
RMF .OHMM     0.25                 : RMF          - RESISTIVITY OF MUD FILTRATE
SUFT.C        15                   : SUFT         - SURFACE TEMPERATURE
~A  DEPTH       GR     PHID     PHIN     RESD
# ...
  314.772   96.726    0.213    0.476    6.692
  315.022   96.318    0.201    0.485    6.234
  315.272   94.563    0.209    0.491    5.846
  315.522   91.740    0.247    0.492    5.403
  315.772   84.869    0.241    0.470    5.199
  316.022   80.049    0.259    0.455    5.136
  316.272   72.299    0.273    0.449    5.608
  316.522   65.046    0.294    0.437    6.217
  316.772   60.202    0.310    0.420    6.880
  317.022   58.357    0.315    0.429    7.454
  317.272   57.380    0.315    0.428    7.912
  317.522   57.120    0.317    0.423    8.101
  317.772   56.755    0.309    0.423    8.267
  318.022   55.149    0.303    0.415    8.256
  318.272   54.413    0.312    0.430    8.258
  318.522   53.810    0.318    0.439    8.258
  318.772   53.789    0.321    0.449    8.258
  319.022   54.621    0.323    0.453    8.258
  319.272   56.223    0.325    0.444    8.258
  319.522   58.312    0.325    0.435    8.258
  319.772   59.617    0.321    0.430    8.258
  320.022   61.096    0.313    0.425    8.258
  320.272   62.794    0.305    0.423    8.254
  320.522   63.697    0.306    0.417    8.240
  320.772   63.709    0.311    0.415    8.100
  321.022   62.793    0.321    0.416    8.106
  321.272   61.820    0.321    0.410    8.107
  321.522   60.761    0.322    0.413    8.107
  321.772   60.467    0.324    0.417    8.108
  322.022   59.829    0.322    0.408    8.107
  322.272   57.720    0.320    0.405    8.009
  322.522   57.635    0.326    0.409    7.962
  322.772   58.175    0.327    0.414    7.958
  323.022   59.769    0.328    0.416    7.958
  323.272   62.231    0.320    0.418    7.956
  323.522   64.728    0.316    0.426    7.969
  323.772   66.913    0.312    0.425    7.797
  324.022   67.508    0.319    0.428    7.811
  324.272   68.096    0.327    0.432    7.812
  324.522   67.683    0.325    0.436    7.812
  324.772   66.264    0.319    0.437    7.812
  325.022   64.881    0.317    0.426    7.812
  325.272   62.875    0.315    0.411    7.812
  325.522   60.855    0.304    0.401    7.812
  325.772   61.620    0.306    0.405    7.812
  326.022   62.120    0.295    0.406    7.812
  326.272   60.437    0.302    0.409    7.812
  326.522   59.308    0.300    0.406    7.816
  326.772   59.036    0.297    0.404    7.832
  327.022   59.568    0.302    0.401    7.952
  327.272   59.750    0.307    0.399    8.127
  327.522   62.979    0.310    0.402    8.116
  327.772   66.051    0.319    0.416    8.287
  328.022   67.180    0.325    0.433    8.152
  328.272   61.531    0.327    0.444    8.105
  328.522   59.867    0.331    0.448    7.864
  328.772   60.713    0.334    0.432    7.622
  329.022   62.123    0.328    0.422    7.526
  329.272   63.460    0.328    0.430    7.527
  329.522   64.114    0.329    0.431    7.530
  329.772   63.574    0.330    0.432    7.517
  330.022   61.579    0.332    0.430    7.673
  330.272   60.344    0.333    0.428    7.835
  330.522   59.321    0.329    0.429    7.966
  330.772   58.020    0.325    0.421    8.003
  331.022   54.259    0.315    0.420    8.260
  331.272   52.647    0.310    0.427    8.355
  331.522   52.526    0.305    0.435    8.622
  331.772   53.122    0.316    0.430    8.887
  332.022   54.832    0.311    0.440    9.051
  332.272   54.791    0.305    0.443    9.237
  332.522   52.260    0.306    0.436    9.387
  332.772   48.338    0.308    0.428    9.415
  333.022   48.292    0.306    0.426    9.219
  333.272   49.324    0.309    0.425    9.102
  333.522   50.214    0.316    0.422    8.893
  333.772   50.204    0.320    0.421    8.713
  334.022   49.787    0.310    0.422    8.455
  334.272   48.809    0.307    0.428    8.202
  334.522   47.157    0.318    0.433    7.956
  334.772   45.105    0.318    0.435    7.702
  335.022   43.849    0.317    0.431    7.635
  335.272   45.251    0.324    0.437    7.525
  335.522   47.325    0.323    0.447    7.446
  335.772   48.492    0.328    0.474    7.393
  336.022   47.989    0.335    0.498    7.390
  336.272   46.277    0.341    0.515    7.390
  336.522   45.346    0.351    0.529    7.390
  336.772   44.319    0.378    0.535    7.390
  337.022   44.350    0.388    0.539    7.389
  337.272   46.778    0.350    0.495    7.388
  337.522   48.467    0.328    0.480    7.490
  337.772   47.845    0.318    0.456    7.516
  338.022   47.934    0.323    0.447    7.533
  338.272   47.940    0.322    0.464    7.588
  338.522   47.926    0.338    0.475    7.795
  338.772   48.511    0.369    0.497    7.813
  339.022   49.807    0.407    0.507    7.808
  339.272   51.880    0.426    0.516    7.791
  339.522   53.349    0.414    0.511    7.663
  339.772   55.151    0.383    0.517    7.668
  340.022   54.652    0.360    0.501    7.669
  340.272   53.696    0.340    0.483    7.669
  340.522   53.010    0.327    0.473    7.669
  340.772   54.782    0.317    0.475    7.669
  341.022   56.447    0.322    0.479    7.669
  341.272   57.564    0.337    0.472    7.669
  341.522   55.557    0.334    0.463    7.669
  341.772   53.103    0.339    0.451    7.668
  342.022   52.940    0.320    0.442    7.667
  342.272   54.013    0.313    0.437    7.678
  342.522   54.094    0.310    0.448    7.510
  342.772   51.021    0.306    0.443    7.512
  343.022   50.572    0.320    0.441    7.384
  343.272   50.609    0.323    0.462    7.389
  343.522   50.631    0.322    0.464    7.390
  343.772   51.214    0.325    0.460    7.390
  344.022   52.110    0.330    0.463    7.387
  344.272   52.466    0.339    0.468    7.391
  344.522   52.508    0.345    0.467    7.244
  344.772   52.741    0.349    0.467    7.261
  345.022   54.286    0.335    0.465    7.130
  345.272   55.489    0.325    0.456    7.125
  345.522   59.206    0.315    0.450    7.121
  345.772   63.242    0.304    0.449    7.120
  346.022   66.570    0.302    0.456    7.107
  346.272   68.387    0.296    0.461    7.259
  346.522   68.708    0.264    0.466    7.365
  346.772   63.464    0.229    0.436    7.484
  347.022   58.606    0.203    0.418    7.819
  347.272   59.120    0.204    0.404    8.201
  347.522   64.116    0.241    0.442    8.623
  347.772   69.015    0.263    0.463    9.051
  348.022   70.390    0.266    0.479    9.142
  348.272   71.588    0.289    0.485    9.450
  348.522   71.012    0.295    0.462    9.572
  348.772   69.726    0.290    0.455    9.850
  349.022   68.494    0.288    0.462   10.136
  349.272   68.534    0.290    0.462   10.117
  349.522   68.552    0.290    0.461   10.037
  349.772   69.345    0.298    0.459    9.922
  350.022   73.128    0.308    0.455    9.449
  350.272   75.541    0.310    0.460    8.927
  350.522   77.726    0.299    0.469    8.570
  350.772   79.692    0.297    0.479    8.212
  351.022   81.504    0.304    0.489    7.920
  351.272   83.393    0.308    0.499    7.685
  351.522   77.273    0.299    0.516    7.206
  351.772   76.510    0.304    0.521    7.083
  352.022   76.538    0.315    0.518    6.860
  352.272   77.486    0.312    0.523    6.662
  352.522   78.453    0.307    0.528    6.611
  352.772   78.413    0.313    0.519    6.712
  353.022   78.277    0.301    0.495    6.764
  353.272   76.557    0.292    0.490    7.132
  353.522   73.650    0.268    0.465    7.595
  353.772   70.222    0.222    0.429    7.908
  354.022   69.315    0.206    0.390    8.108
  354.272   71.983    0.239    0.413    8.045
  354.522   73.831    0.282    0.443    7.621
  354.772   74.781    0.304    0.471    7.407
  355.022   75.780    0.315    0.470    7.187
  355.272   76.744    0.329    0.471    6.981
  355.522   76.721    0.322    0.478    7.002
  355.772   76.921    0.316    0.482    6.833
  356.022   78.723    0.308    0.487    6.073
  356.272   80.868    0.272    0.489    5.094
  356.522   82.796    0.234    0.490    4.508
  356.772   86.533    0.255    0.487    3.720
  357.022   85.733    0.281    0.481    3.357
  357.272   87.526    0.286    0.472    3.734
  357.522   89.523    0.278    0.463    4.453
  357.772   91.636    0.276    0.452    5.097
  358.022   92.098    0.264    0.460    5.677
