~VERSION INFORMATION
 VERS.                 2.0:   CWLS LOG ASCII STANDARD -VERSION 2.0
 WRAP.                  NO:   ONE LINE PER DEPTH STEP
~WELL INFORMATION BLOCK
#MNEM.UNIT           DATA                    DESCRIPTION OF MNEMONIC
#---------    -------------------            -------------------------------
# Generated from Intellog Unique Number	CW_73_75/WELL/1044
WELL.         PARAMOUNT ER AL RO 11-20       : Well_name    - WELL
LOC .         00/11-20-075-22W4/0            : Location     - LOCATION
UWI .         00/11-20-075-22W4/0            : Uwi          - UNIQUE WELL ID
ENTR.         JAYE                           : Entered      - ENTERED BY
SRVC.         WESTERN ATLAS                  : Scn          - SERVICE COMPANY
DATE.         22 FEB 77                      : Date         - LOG DATE
STRT.M        359.664                        : top_depth    - START DEPTH
STOP.M        612.664                        : bot_depth    - STOP DEPTH
STEP.M        0.25                           : increment    - STEP LENGTH
 NULL. -999.2500:NULL Value
~CURVE INFORMATION BLOCK
#MNEM UNIT       ERCB CURVE CODE    CURVE DESCRIPTION
#-----------   ------------------   ----------------------------------
DEPT.M        00 001 00 00         : DEPTH        - DEPTH
ILD .OHMM     00 120 00 00         : RESD         - DEEP RESISTIVITY (DIL)
NPHI.V/V      00 330 00 00         : PHIN         - NEUTRON POROSITY (SANDSTONE)
DPHI.V/V      00 890 00 00         : PHID         - DENSITY POROSITY (SANDSTONE)
GR  .API      00 310 00 00         : GR           - GAMMA RAY
CALI.MM       00 280 01 00         : CAL          - CALIPER
~PARAMETER INFORMATION
#MNEM.UNIT           DATA             DESCRIPTION OF MNEMONIC
#---------         -----------     ------------------------------
GL  .M        651.51               : gl           - GROUND LEVEL ELEVATION
EREF.M        654.558              : kb           - ELEVATION OF DEPTH REFERENCE
DATM.M        651.51               : datum        - DATUM ELEVATION
TDD .M        624.23               : tdd          - TOTAL DEPTH DRILLER
RUN .         ONE                  : Run          - RUN NUMBER
ENG .         KING                 : Engineer     - RECORDING ENGINEER
WIT .         COMMELLY             : Witness      - WITNESSED BY
BASE.         MEDICINE HAT         : Branch       - HOME BASE OF LOGGING UNIT
MUD .         GEL CHEM             : Mud_type     - MUD TYPE
MATR.         SANDSTONE            : Logunit      - NEUTRON MATRIX
TMAX.C        20.5556              : BHT          - MAXIMUM RECORDED TEMPERATURE
BHTD.M        624.84               : BHTDEP       - MAXIMUM RECORDED TEMPERATURE
RMT .C        15                   : MDTP         - TEMPERATURE OF MUD
MUDD.KG/M     1176                 : MWT          - MUD DENSITY
NEUT.         1                    : NEUTRON      - NEUTRON TYPE
RESI.         0                    : RESIST       - RESISTIVITY TYPE
RM  .OHMM     3.4                  : RM           - RESISTIVITY OF MUD
RMC .OHMM     0                    : RMC          - RESISTIVITY OF MUD CAKE
RMF .OHMM     2.4                  : RMF          - RESISTIVITY OF MUD FILTRATE
SUFT.C        -17.7778             : SUFT         - SURFACE TEMPERATURE
~A  DEPTH     RESD     PHIN     PHID       GR      CAL
# ...
  432.664    4.867    0.508    0.209  122.420  170.492
  432.914    4.849    0.509    0.196  124.266  169.421
  433.164    4.826    0.518    0.207  122.514  169.193
  433.414    4.824    0.531    0.203  124.953  169.283
  433.664    4.840    0.546    0.198  127.093  169.477
  433.914    4.896    0.550    0.202  128.334  169.459
  434.164    5.051    0.514    0.223  127.785  167.968
  434.414    5.311    0.485    0.249  124.831  164.998
  434.664    5.659    0.465    0.288  107.808  162.767
  434.914    6.261    0.459    0.279   85.996  161.695
  435.164    6.869    0.431    0.233   81.850  161.468
  435.414    7.575    0.387    0.160   86.085  161.874
  435.664    8.769    0.288    0.061   71.756  162.384
  435.914   10.117    0.011   -0.015   64.323  163.000
  436.164   12.171   -0.005   -0.018   67.953  163.615
  436.414   12.569   -0.003   -0.017   79.078  164.021
  436.664   12.456    0.006    0.001   76.728  164.215
  436.914   10.700    0.026    0.037   82.758  164.303
  437.164    9.523    0.082    0.085   93.584  163.127
  437.414    7.971    0.241    0.259  101.721  161.421
  437.664    6.915    0.289    0.275  108.345  160.983
  437.914    5.689    0.453    0.276  109.592  159.808
  438.164    5.080    0.450    0.279  104.542  158.524
  438.414    4.755    0.441    0.291   98.300  157.875
  438.664    4.559    0.436    0.290   93.256  158.278
  438.914    4.470    0.456    0.288   89.415  158.897
  439.164    4.469    0.451    0.294   87.059  159.724
  439.414    4.526    0.444    0.292   85.612  160.865
  439.664    4.656    0.455    0.266   88.944  161.164
  439.914    4.736    0.421    0.263   91.382  161.044
  440.164    4.793    0.416    0.286   90.529  161.026
  440.414    4.826    0.457    0.298   89.082  160.905
  440.664    4.850    0.459    0.296   87.923  160.676
  440.914    4.858    0.448    0.294   89.470  160.660
  441.164    4.858    0.440    0.294   87.114  160.643
  441.414    4.867    0.435    0.296   93.749  160.205
  441.664    4.850    0.420    0.297   91.404  159.767
  441.914    4.849    0.415    0.301   87.851  159.435
  442.164    4.803    0.455    0.308   83.400  159.101
  442.414    4.760    0.456    0.307   80.151  159.082
  442.664    4.726    0.483    0.299   81.398  158.959
  442.914    4.709    0.495    0.290   85.633  159.048
  443.164    4.710    0.476    0.293   87.174  159.029
  443.414    4.702    0.455    0.301   80.933  159.223
  443.664    4.703    0.434    0.305   76.182  159.417
  443.914    4.700    0.422    0.303   72.341  159.402
  444.164    4.707    0.423    0.298   73.582  159.494
  444.414    4.693    0.431    0.288   79.014  159.688
  444.664    4.701    0.438    0.298   85.644  159.774
  444.914    4.685    0.453    0.300   85.998  159.760
  445.164    4.652    0.457    0.292   87.833  159.216
  445.414    4.628    0.460    0.273   86.979  158.356
  445.664    4.596    0.469    0.271   78.038  158.022
  445.914    4.594    0.487    0.289   79.291  158.320
  446.164    4.609    0.477    0.299   81.131  158.939
  446.414    4.609    0.440    0.298   79.673  159.343
  446.664    4.616    0.430    0.301   81.214  159.853
  446.914    4.625    0.418    0.297   83.958  159.836
  447.164    4.624    0.434    0.287   85.493  159.609
  447.414    4.625    0.445    0.279   87.339  158.854
  447.664    4.625    0.434    0.280   86.191  157.466
  447.914    4.609    0.420    0.285   83.536  156.604
  448.164    4.592    0.415    0.288   83.885  157.012
  448.414    4.566    0.420    0.276   84.822  158.365
  448.664    4.557    0.448    0.279   83.076  159.403
  448.914    4.557    0.473    0.286   84.013  160.124
  449.164    4.540    0.475    0.285   87.355  160.527
  449.414    4.566    0.455    0.278   91.584  160.827
  449.664    4.581    0.431    0.276   94.926  160.704
  449.914    4.605    0.445    0.274   95.270  160.687
  450.164    4.598    0.458    0.267   94.716  160.883
  450.414    4.604    0.461    0.258   96.262  160.654
  450.664    4.588    0.447    0.247   95.403  160.323
  450.914    4.613    0.479    0.257   92.459  160.833
  451.164    4.636    0.475    0.260   85.015  161.131
  451.414    4.668    0.434    0.257   88.651  161.222
  451.664    4.676    0.430    0.263   91.389  160.781
  451.914    4.717    0.434    0.234   92.930  160.448
  452.164    4.707    0.443    0.224   94.177  160.117
  452.414    4.691    0.455    0.259   97.215  159.883
  452.664    4.675    0.444    0.259  103.545  159.550
  452.914    4.658    0.445    0.252  118.561  159.323
  453.164    4.668    0.474    0.248  125.195  159.203
  453.414    4.675    0.483    0.234  120.451  158.874
  453.664    4.683    0.489    0.249  117.507  158.537
  453.914    4.690    0.488    0.255  120.539  158.415
  454.164    4.658    0.472    0.248  117.590  158.506
  454.414    4.657    0.467    0.248  119.436  158.804
  454.664    4.649    0.495    0.243  120.372  159.419
  454.914    4.625    0.484    0.223  111.138  159.722
  455.164    4.574    0.462    0.203  114.774  160.124
  455.414    4.511    0.446    0.180  107.634  160.739
  455.664    4.503    0.431    0.185  109.475  160.726
  455.914    4.453    0.470    0.211  111.913  160.076
  456.164    4.427    0.481    0.212  112.556  160.690
  456.414    4.435    0.472    0.218  113.504  161.308
  456.664    4.444    0.471    0.216  122.229  162.343
  456.914    4.452    0.488    0.205  124.673  163.275
  457.164    4.451    0.495    0.205  124.113  164.206
  457.414    4.467    0.479    0.200  127.156  164.507
  457.664    4.492    0.475    0.198  128.703  165.229
  457.914    4.507    0.474    0.192  128.741  165.529
  458.164    4.523    0.471    0.189  130.282  166.566
  458.414    4.532    0.451    0.202  121.358  167.078
  458.664    4.547    0.450    0.215  123.486  167.483
  458.914    4.563    0.450    0.230  116.945  167.361
  459.164    4.596    0.450    0.252  112.494  164.814
  459.414    4.676    0.437    0.279  103.260  161.318
  459.664    4.814    0.419    0.305   89.529  160.985
  459.914    4.960    0.380    0.285   85.982  161.705
  460.164    5.122    0.341    0.262   86.026  162.215
  460.414    5.577    0.229    0.243   85.178  162.515
  460.664    6.429    0.200    0.099   81.924  163.340
  460.914    8.232    0.047   -0.036   78.376  164.589
  461.164   10.782    0.025   -0.042   76.924  165.628
  461.414   14.136    0.020   -0.043   76.070  165.821
  461.664   15.679    0.023   -0.042   70.428  165.700
  461.914   16.312    0.034   -0.039   69.574  163.786
  462.164   14.155    0.054   -0.033   74.407  161.765
  462.414   13.818    0.055   -0.021   76.846  163.331
  462.664   10.261    0.110   -0.000   78.986  161.732
  462.914    8.725    0.298    0.017   85.920  159.288
  463.164    8.010    0.270    0.031   92.549  158.745
  463.414    7.701    0.242    0.074   90.797  160.204
  463.664    7.336    0.207    0.191   85.155  161.872
  463.914    7.002    0.161    0.131   88.192  162.597
  464.164    6.654    0.298    0.054   96.024  161.102
  464.414    6.304    0.429    0.089   95.470  157.397
  464.664    5.832    0.416    0.194   94.921  157.063
  464.914    5.280    0.422    0.285   92.865  158.734
  465.164    4.890    0.458    0.281   93.807  160.086
  465.414    4.630    0.472    0.284   96.850  160.914
  465.664    4.525    0.447    0.280   99.289  161.424
  465.914    4.508    0.418    0.277  100.236  161.721
  466.164    4.541    0.399    0.289   93.989  161.497
  466.414    4.563    0.448    0.290   97.925  160.952
  466.664    4.579    0.476    0.280   97.980  160.933
  466.914    4.531    0.502    0.270   98.911  160.814
  467.164    4.482    0.507    0.262  104.947  160.476
  467.414    4.433    0.484    0.265  114.271  160.358
  467.664    4.383    0.467    0.251  120.606  160.026
  467.914    4.319    0.455    0.236  121.554  159.900
  468.164    4.285    0.441    0.223  123.693  159.676
  468.414    4.246    0.438    0.239  125.229  159.551
  468.664    4.212    0.455    0.239  125.583  159.642
  468.914    4.139    0.474    0.217  121.426  160.784
