~VERSION INFORMATION
 VERS.                 2.0:   CWLS LOG ASCII STANDARD -VERSION 2.0
 WRAP.                  NO:   ONE LINE PER DEPTH STEP
~WELL INFORMATION BLOCK
#MNEM.UNIT           DATA                    DESCRIPTION OF MNEMONIC
#---------    -------------------            -------------------------------
# Generated from Intellog Unique Number	CW_73_75/WELL/1046
WELL.         AMOCO 57 MARTEN HILLS 11-32    : Well_name    - WELL
LOC .         00/11-32-075-25W4/0            : Location     - LOCATION
UWI .         00/11-32-075-25W4/0            : Uwi          - UNIQUE WELL ID
ENTR.         JAYE                           : Entered      - ENTERED BY
SRVC.         SCHLUMBERGER                   : Scn          - SERVICE COMPANY
STRT.M        463.296                        : top_depth    - START DEPTH
STOP.M        649.296                        : bot_depth    - STOP DEPTH
STEP.M        0.25                           : increment    - STEP LENGTH
 NULL. -999.2500:NULL Value
~CURVE INFORMATION BLOCK
#MNEM UNIT       ERCB CURVE CODE    CURVE DESCRIPTION
#-----------   ------------------   ----------------------------------
DEPT.M        00 001 00 00         : DEPTH        - DEPTH
ILD .OHMM     00 120 00 00         : RESD         - DEEP RESISTIVITY (DIL)
NPHI.V/V      00 330 00 00         : PHIN         - NEUTRON POROSITY (SANDSTONE)
DPHI.V/V      00 890 00 00         : PHID         - DENSITY POROSITY (SANDSTONE)
GR  .API      00 310 00 00         : GR           - GAMMA RAY
CALI.MM       00 280 01 00         : CAL          - CALIPER
~PARAMETER INFORMATION
#MNEM.UNIT           DATA             DESCRIPTION OF MNEMONIC
#---------         -----------     ------------------------------
GL  .M        752.246              : gl           - GROUND LEVEL ELEVATION
EREF.M        756.209              : kb           - ELEVATION OF DEPTH REFERENCE
DATM.M        752.246              : datum        - DATUM ELEVATION
TDD .M        649.529              : tdd          - TOTAL DEPTH DRILLER
RUN .         ONE                  : Run          - RUN NUMBER
MATR.         SANDSTONE            : Logunit      - NEUTRON MATRIX
TMAX.C        31.1111              : BHT          - MAXIMUM RECORDED TEMPERATURE
BHTD.M        649.224              : BHTDEP       - MAXIMUM RECORDED TEMPERATURE
RMT .C        25                   : MDTP         - TEMPERATURE OF MUD
MUDD.KG/M     0                    : MWT          - MUD DENSITY
NEUT.         1                    : NEUTRON      - NEUTRON TYPE
RESI.         0                    : RESIST       - RESISTIVITY TYPE
RM  .OHMM     5.57                 : RM           - RESISTIVITY OF MUD
RMC .OHMM     0                    : RMC          - RESISTIVITY OF MUD CAKE
RMF .OHMM     0                    : RMF          - RESISTIVITY OF MUD FILTRATE
SUFT.C        -17.7778             : SUFT         - SURFACE TEMPERATURE
~A  DEPTH     RESD     PHIN     PHID       GR      CAL
# ...
  536.296    5.167    0.475    0.203   91.386  241.542
  536.546    4.938    0.482    0.209   87.873  245.806
  536.796    4.835    0.509    0.222   85.704  248.311
  537.046    4.811    0.520    0.238   84.445  248.759
  537.296    4.779    0.491    0.245   86.903  248.383
  537.546    4.619    0.472    0.223   90.029  240.994
  537.796    4.407    0.490    0.206   92.604  229.377
  538.046    4.158    0.502    0.213   94.572  226.734
  538.296    3.859    0.506    0.224   95.078  245.632
  538.546    3.594    0.480    0.209   93.333  247.833
  538.796    3.691    0.459    0.198   89.031  240.447
  539.046    3.910    0.483    0.200   89.904  240.170
  539.296    4.243    0.473    0.213   92.056  245.259
  539.546    4.665    0.458    0.216   93.415  245.911
  539.796    4.979    0.456    0.210   92.279  241.407
  540.046    5.246    0.475    0.201   90.352  237.115
  540.296    5.348    0.481    0.188   91.105  239.002
  540.546    5.362    0.486    0.176   91.490  240.380
  540.796    5.346    0.501    0.188   92.242  238.452
  541.046    5.420    0.499    0.214   92.442  237.564
  541.296    5.494    0.486    0.234   87.777  239.865
  541.546    5.519    0.472    0.252   83.047  242.372
  541.796    5.452    0.498    0.267   80.084  244.673
  542.046    5.221    0.506    0.280   82.114  243.988
  542.296    5.254    0.480    0.274   80.187  233.712
  542.546    5.567    0.461    0.242   73.633  225.912
  542.796    6.018    0.441    0.234   71.949  222.649
  543.046    6.676    0.442    0.234   74.649  225.571
  543.296    7.259    0.468    0.212   76.919  230.037
  543.546    7.440    0.486    0.189   78.341  237.080
  543.796    7.203    0.492    0.205   78.665  236.808
  544.046    6.479    0.487    0.226   75.520  229.007
  544.296    6.307    0.500    0.214   71.401  224.092
  544.546    6.820    0.511    0.226   69.474  222.798
  544.796    7.565    0.479    0.246   68.279  223.653
  545.046    8.550    0.455    0.261   66.775  225.231
  545.296    9.433    0.433    0.264   64.301  226.296
  545.546   10.180    0.432    0.234   62.190  226.638
  545.796   10.785    0.442    0.203   59.775  222.342
  546.046   11.055    0.474    0.217   60.161  214.753
  546.296   11.167    0.491    0.257   60.243  213.340
  546.546   11.195    0.499    0.285   60.263  213.689
  546.796   11.268    0.481    0.295   63.571  215.471
  547.046   11.232    0.478    0.296   65.419  217.363
  547.296   11.241    0.468    0.275   65.074  219.354
  547.546   11.293    0.446    0.237   61.866  221.974
  547.796   11.342    0.431    0.221   58.903  223.964
  548.046   11.372    0.452    0.205   58.680  225.543
  548.296   11.380    0.481    0.249   60.042  225.678
  548.546   11.305    0.489    0.262   62.376  220.459
  548.796   10.965    0.480    0.278   63.978  216.778
  549.046   10.290    0.474    0.286   65.458  213.931
  549.296    9.550    0.474    0.283   67.186  212.726
  549.546    8.606    0.475    0.268   68.665  212.554
  549.796    8.015    0.481    0.242   71.181  220.217
  550.046    7.522    0.507    0.219   74.552  224.993
  550.296    7.417    0.502    0.184   78.894  221.833
  550.546    7.437    0.489    0.212   77.394  215.172
  550.796    7.894    0.457    0.250   72.419  212.932
  551.046    9.069    0.406    0.223   66.291  221.112
  551.296   10.024    0.373    0.190   63.572  229.701
  551.546   10.143    0.413    0.156   67.065  233.862
  551.796    9.501    0.413    0.220   70.310  233.175
  552.046    9.063    0.487    0.259   70.939  230.838
  552.296    8.808    0.450    0.275   68.220  227.267
  552.546    8.830    0.418    0.278   62.154  224.720
  552.796   10.238    0.382    0.233   55.052  227.025
  553.046   13.233    0.328    0.175   57.022  229.223
  553.296   15.947    0.299    0.109   60.147  231.009
  553.546   16.834    0.340    0.094   62.356  228.983
  553.796   13.660    0.386    0.141   63.594  226.648
  554.046   11.206    0.411    0.197   64.346  224.829
  554.296    9.805    0.434    0.212   63.879  225.376
  554.546    9.494    0.414    0.201   59.943  227.581
  554.796   10.456    0.410    0.186   57.589  227.918
  555.046   11.221    0.421    0.163   60.837  227.340
  555.296   11.566    0.414    0.159   64.509  230.359
  555.546   11.321    0.403    0.159   68.123  235.136
  555.796   10.880    0.405    0.158   70.820  236.306
  556.046   10.266    0.416    0.164   74.372  228.813
  556.296    9.758    0.433    0.172   80.175  217.406
  556.546    9.056    0.443    0.186   85.005  213.523
  556.796    8.529    0.450    0.204   88.557  214.900
  557.046    7.989    0.461    0.204   90.647  217.618
  557.296    7.566    0.486    0.195   90.423  220.638
  557.546    7.297    0.492    0.189   89.654  224.385
  557.796    7.014    0.465    0.183   85.839  226.686
  558.046    6.816    0.444    0.179   86.102  227.348
  558.296    6.783    0.433    0.169   87.158  227.064
  558.546    6.764    0.426    0.158   87.481  226.998
  558.796    6.681    0.420    0.148   85.737  226.421
  559.046    6.650    0.420    0.138   85.941  226.043
  559.296    6.607    0.437    0.161   88.152  225.872
  559.546    6.599    0.461    0.169   89.391  226.005
  559.796    6.568    0.478    0.165   88.315  226.144
  560.046    6.537    0.480    0.168   87.726  226.172
  560.296    6.507    0.476    0.175   90.245  226.416
  560.546    6.427    0.477    0.180   91.419  226.242
  560.796    6.246    0.485    0.192   91.440  225.872
  561.046    6.343    0.490    0.191   85.556  225.700
  561.296    6.611    0.448    0.174   83.689  225.936
  561.546    7.228    0.426    0.150   79.388  226.796
  561.796    7.699    0.409    0.102   74.355  227.652
  562.046    8.097    0.425    0.082   74.743  228.408
  562.296    8.315    0.467    0.100   82.431  228.550
  562.546    8.508    0.466    0.150   78.435  228.168
  562.796    8.656    0.444    0.159   74.134  224.182
  563.046    8.743    0.418    0.102   73.606  218.242
  563.296    8.685    0.416    0.090   76.304  216.935
  563.546    8.441    0.439    0.132   78.580  217.688
  563.796    8.324    0.433    0.199   78.356  218.757
  564.046    8.148    0.425    0.193   78.070  219.719
  564.296    8.080    0.442    0.194   79.128  220.787
  564.546    8.530    0.451    0.193   79.818  221.641
  564.796    8.937    0.451    0.183   79.288  222.407
  565.046    9.522    0.402    0.181   69.385  222.335
  565.296   10.181    0.376    0.158   65.328  221.745
  565.546   11.090    0.401    0.139   67.479  219.826
  565.796   11.749    0.417    0.178   69.446  217.486
  566.046   12.565    0.397    0.181   65.206  216.293
  566.296   12.783    0.387    0.159   68.758  216.320
  566.546   12.700    0.397    0.170   71.458  216.770
  566.796   12.478    0.414    0.182   72.085  217.623
  567.046   12.148    0.422    0.175   72.411  218.690
  567.296   11.632    0.445    0.173   73.282  219.548
  567.546   11.036    0.451    0.195   72.633  220.927
  567.796   10.529    0.445    0.199   66.506  222.609
  568.046   10.063    0.422    0.182   66.161  224.499
  568.296    9.778    0.412    0.170   68.315  226.188
  568.546    9.538    0.409    0.171   69.246  227.046
  568.796    9.406    0.414    0.183   67.744  227.076
  569.046    9.326    0.437    0.188   66.182  226.287
  569.296    9.231    0.460    0.190   64.985  225.188
  569.546    9.170    0.460    0.189   66.528  224.505
  569.796    9.043    0.430    0.189   69.227  224.435
  570.046    8.885    0.416    0.187   73.936  224.465
  570.296    8.524    0.438    0.193   76.146  224.295
  570.546    8.499    0.420    0.212   70.627  224.330
  570.796    9.189    0.387    0.252   60.299  221.477
  571.046   10.270    0.372    0.300   56.788  218.834
  571.296   11.690    0.373    0.297   57.849  217.733
  571.546   13.430    0.378    0.275   58.170  216.941
  571.796   16.792    0.386    0.265   58.736  216.363
  572.046   20.462    0.375    0.287   60.402  216.398
  572.296   20.180    0.377    0.297   59.325  217.049
  572.546   19.074    0.376    0.303   57.399  218.317
