~VERSION INFORMATION
 VERS.                 2.0:   CWLS LOG ASCII STANDARD -VERSION 2.0
 WRAP.                  NO:   ONE LINE PER DEPTH STEP
~WELL INFORMATION BLOCK
#MNEM.UNIT           DATA                    DESCRIPTION OF MNEMONIC
#---------    -------------------            -------------------------------
# Generated from Intellog Unique Number	CN_94_101/WELL/3721
WELL.         14-09-096-15W4                 : Well_name    - WELL
LOC .         00/14-09-096-15W4/0            : Location     - LOCATION
UWI .         00/14-09-096-15W400            : Uwi          - UNIQUE WELL ID
ENTR.         JOETTE                         : Entered      - ENTERED BY
SRVC.         SCHLUMBERGER                   : Scn          - SERVICE COMPANY
DATE.         08/10/92                       : Date         - LOG DATE
STRT.M        125                            : top_depth    - START DEPTH
STOP.M        335                            : bot_depth    - STOP DEPTH
STEP.M        0.25                           : increment    - STEP LENGTH
 NULL. -999.2500:NULL Value
~CURVE INFORMATION BLOCK
#MNEM UNIT       ERCB CURVE CODE    CURVE DESCRIPTION
#-----------   ------------------   ----------------------------------
DEPT.M        00 001 00 00         : DEPTH        - DEPTH
ILD .OHMM     00 120 00 00         : RESD         - DEEP RESISTIVITY (DIL)
GR  .API      00 310 00 00         : GR           - GAMMA RAY
NPHI.V/V      00 330 00 00         : PHIN         - NEUTRON POROSITY (SANDSTONE)
DPHI.V/V      00 890 00 00         : PHID         - DENSITY POROSITY (SANDSTONE)
~PARAMETER INFORMATION
#MNEM.UNIT           DATA             DESCRIPTION OF MNEMONIC
#---------         -----------     ------------------------------
GL  .M        587.8                : gl           - GROUND LEVEL ELEVATION
EREF.M        591.15               : kb           - ELEVATION OF DEPTH REFERENCE
DATM.M        591.15               : datum        - DATUM ELEVATION
TDD .M        293                  : tdd          - TOTAL DEPTH DRILLER
RUN .         ONE                  : Run          - RUN NUMBER
ENG .         BILL                 : Engineer     - RECORDING ENGINEER
WIT .         JIM                  : Witness      - WITNESSED BY
MUD .         GEL                  : Mud_type     - MUD TYPE
MATR.         SANDSTONE            : Logunit      - NEUTRON MATRIX
TMAX.C        40                   : BHT          - MAXIMUM RECORDED TEMPERATURE
BHTD.M        293                  : BHTDEP       - MAXIMUM RECORDED TEMPERATURE
RMT .C        13                   : MDTP         - TEMPERATURE OF MUD
MUDD.KG/M     1110                 : MWT          - MUD DENSITY
NEUT.         1                    : NEUTRON      - NEUTRON TYPE
RESI.         0                    : RESIST       - RESISTIVITY TYPE
RM  .OHMM     0.304                : RM           - RESISTIVITY OF MUD
RMC .OHMM     0.304                : RMC          - RESISTIVITY OF MUD CAKE
RMF .OHMM     0.614                : RMF          - RESISTIVITY OF MUD FILTRATE
SUFT.C        4                    : SUFT         - SURFACE TEMPERATURE
~A  DEPTH     RESD       GR     PHIN     PHID
  125.000   43.543   37.185    0.388    0.323
  125.250   40.533   38.491    0.384    0.325
  125.500   37.043   38.531    0.390    0.330
  125.750   37.115   37.980    0.380    0.316
  126.000   40.027   36.782    0.367    0.316
  126.250   42.400   34.991    0.361    0.333
  126.500   42.462   33.793    0.366    0.329
  126.750   42.545   33.228    0.380    0.323
  127.000   42.648   33.282    0.374    0.323
  127.250   43.503   33.336    0.371    0.317
  127.500   41.267   32.165    0.374    0.309
  127.750   39.128   30.967    0.381    0.315
  128.000   37.788   31.640    0.386    0.327
  128.250   37.879   32.314    0.357    0.320
  128.500   37.916   29.891    0.343    0.307
  128.750   38.695   28.720    0.332    0.301
  129.000   38.808   30.012    0.338    0.301
  129.250   39.567   29.434    0.342    0.294
  129.500   39.663   28.869    0.334    0.292
  129.750   39.721   28.303    0.329    0.290
  130.000   39.091   28.371    0.328    0.291
  130.250   38.435   30.283    0.328    0.294
  130.500   37.136   32.814    0.334    0.307
  130.750   35.864   36.597    0.364    0.320
  131.000   33.385   39.734    0.381    0.323
  131.250   32.824   45.362    0.390    0.327
  131.500   34.754   51.609    0.396    0.332
  131.750   33.564   65.920    0.431    0.303
  132.000   17.984   80.218    0.504    0.271
  132.250    5.156   92.052    0.545    0.259
  132.500    4.546  101.409    0.558    0.259
  132.750    4.721  100.831    0.574    0.263
  133.000    4.908  105.247    0.568    0.268
  133.250    4.917  102.824    0.554    0.262
  133.500    4.662  100.993    0.559    0.257
  133.750    4.340   96.725    0.551    0.244
  134.000    4.429   95.541    0.538    0.227
  134.250    4.776   94.976    0.528    0.243
  134.500    5.247   94.397    0.521    0.256
  134.750    5.555   96.322    0.523    0.249
  135.000    5.672   98.881    0.528    0.244
  135.250    5.680  100.146    0.521    0.248
  135.500    5.593  101.452    0.513    0.248
  135.750    5.496  102.126    0.509    0.248
  136.000    5.407  100.941    0.512    0.257
  136.250    5.417   98.532    0.517    0.265
  136.500    5.528   96.701    0.508    0.270
  136.750    5.339   95.516    0.513    0.261
  137.000    5.550   98.047    0.533    0.263
  137.250    6.568   99.340    0.544    0.267
  137.500    7.083   98.775    0.527    0.257
  137.750    7.097   93.255    0.495    0.224
  138.000    6.981   87.736    0.463    0.214
  138.250    7.125   82.216    0.443    0.191
  138.500    7.268   83.509    0.450    0.206
  138.750    7.838   87.898    0.466    0.255
  139.000    8.614   90.429    0.460    0.270
  139.250    9.285   91.103    0.468    0.280
  139.500    8.803   91.157    0.495    0.280
  139.750    7.475   91.211    0.503    0.279
  140.000    5.899   91.278    0.502    0.282
  140.250    5.803   91.952    0.510    0.287
  140.500    5.925   90.767    0.518    0.285
  140.750    5.931   93.904    0.496    0.270
  141.000    5.728   95.843    0.484    0.264
  141.250    5.954   95.278    0.509    0.264
  141.500    6.543   91.603    0.520    0.262
  141.750    6.675   89.180    0.516    0.261
  142.000    6.566   86.743    0.503    0.265
  142.250    6.225   86.797    0.477    0.231
  142.500    6.124   87.498    0.461    0.201
  142.750    6.487   89.409    0.446    0.222
  143.000    6.743   91.941    0.452    0.265
  143.250    6.878   94.458    0.493    0.272
  143.500    6.895   98.242    0.506    0.271
  143.750    6.659   98.296    0.500    0.275
  144.000    5.974   94.634    0.505    0.264
  144.250    5.457   91.592    0.530    0.266
  144.500    4.634   89.169    0.531    0.275
  144.750    3.865   86.113    0.523    0.277
  145.000    3.341   79.974    0.532    0.260
  145.250    2.997   73.849    0.534    0.216
  145.500    3.174   73.256    0.487    0.194
  145.750    4.039   74.562    0.459    0.190
  146.000    5.142   80.190    0.485    0.200
  146.250    5.756   85.199    0.505    0.264
  146.500    5.874   88.363    0.506    0.276
  146.750    5.883   86.559    0.505    0.279
  147.000    5.894   84.122    0.503    0.279
  147.250    5.589   78.603    0.501    0.275
  147.500    5.205   71.225    0.495    0.268
  147.750    5.215   65.706    0.482    0.266
  148.000    6.163   61.438    0.471    0.292
  148.250    7.563   59.621    0.462    0.310
  148.500    8.462   59.675    0.470    0.315
  148.750    8.632   61.587    0.454    0.306
  149.000    9.486   64.132    0.470    0.296
  149.250    9.861   66.663    0.486    0.290
  149.500    9.700   68.561    0.456    0.286
  149.750    9.029   71.093    0.465    0.284
  150.000    8.561   66.811    0.482    0.312
  150.250    8.268   61.306    0.457    0.328
  150.500    8.438   59.502    0.484    0.341
  150.750   10.350   58.950    0.488    0.353
  151.000   12.014   58.990    0.479    0.342
  151.250   13.204   59.664    0.460    0.347
  151.500   13.725   59.718    0.438    0.350
  151.750   13.758   59.153    0.450    0.360
  152.000   13.772   57.968    0.452    0.362
  152.250   13.812   56.784    0.435    0.355
  152.500   13.832   57.457    0.445    0.352
  152.750   13.866   60.608    0.448    0.348
  153.000   13.646   64.377    0.442    0.358
  153.250   13.166   66.909    0.444    0.361
  153.500   12.483   71.298    0.478    0.349
  153.750   12.976   75.081    0.485    0.344
  154.000   13.739   76.374    0.493    0.334
  154.250   13.268   76.441    0.500    0.316
  154.500   12.357   75.849    0.513    0.315
  154.750   11.288   72.834    0.521    0.317
  155.000   10.316   71.016    0.486    0.325
  155.250    9.603   68.593    0.465    0.318
  155.500   10.954   68.042    0.441    0.303
  155.750   10.965   68.688    0.428    0.291
  156.000   10.786   71.852    0.439    0.279
  156.250   10.417   76.241    0.452    0.302
  156.500   10.437   80.630    0.464    0.317
  156.750   10.651   85.019    0.471    0.308
  157.000   10.875   90.028    0.489    0.298
  157.250   10.306   93.178    0.481    0.288
  157.500    8.918   96.948    0.494    0.274
  157.750    8.146   98.860    0.505    0.269
  158.000    7.441   97.703    0.475    0.276
  158.250    6.558   97.110    0.468    0.278
  158.500    6.333   95.306    0.454    0.274
  158.750    6.343   92.883    0.456    0.277
  159.000    6.476   86.745    0.467    0.284
  159.250    6.728   75.032    0.462    0.298
  159.500    7.391   67.655    0.449    0.302
  159.750    8.273   60.883    0.425    0.311
  160.000    9.257   54.125    0.411    0.323
  160.250   11.566   52.954    0.405    0.335
  160.500   12.034   55.471    0.410    0.334
  160.750   12.281   58.003    0.413    0.323
  161.000   12.293   59.322    0.413    0.323
  161.250   12.317   62.486    0.417    0.322
  161.500   11.476   64.371    0.427    0.303
  161.750   10.678   66.903    0.437    0.307
  162.000   10.124   62.002    0.428    0.317
  162.250   11.116   52.148    0.423    0.314
  162.500   13.393   47.248    0.438    0.300
  162.750   14.444   47.301    0.446    0.297
  163.000   15.293   47.975    0.407    0.306
  163.250   16.798   48.029    0.394    0.309
  163.500   17.152   49.322    0.378    0.301
  163.750   15.668   56.188    0.390    0.295
  164.000   13.060   61.196    0.418    0.287
  164.250   10.689   66.838    0.441    0.271
  164.500    9.071   69.369    0.449    0.250
  164.750    7.702   70.661    0.448    0.238
  165.000    6.788   72.573    0.453    0.249
  165.250    6.674   75.118    0.474    0.265
  165.500    6.687   77.649    0.495    0.279
  165.750    6.700   80.167    0.499    0.296
  166.000    6.713   82.712    0.510    0.270
  166.250    6.726   82.752    0.516    0.265
  166.500    6.380   77.233    0.509    0.262
  166.750    6.049   70.475    0.507    0.271
  167.000    5.951   64.969    0.483    0.282
  167.250    6.658   63.151    0.479    0.288
  167.500    7.588   62.600    0.473    0.297
  167.750    8.490   63.879    0.464    0.329
  168.000    9.155   68.268    0.453    0.336
  168.250    9.694   73.276    0.451    0.311
