~VERSION INFORMATION
 VERS.                 2.0:   CWLS LOG ASCII STANDARD -VERSION 2.0
 WRAP.                  NO:   ONE LINE PER DEPTH STEP
~WELL INFORMATION BLOCK
#MNEM.UNIT           DATA                    DESCRIPTION OF MNEMONIC
#---------    -------------------            -------------------------------
# Generated from Intellog Unique Number	CW_73_75/WELL/927
WELL.         MANNVILLE ALGAS MARTENH 10-18  : Well_name    - WELL
LOC .         00/10-18-074-24W4/0            : Location     - LOCATION
UWI .         00/10-18-074-24W4/0            : Uwi          - UNIQUE WELL ID
ENTR.         JAYE                           : Entered      - ENTERED BY
SRVC.         SCHLUMBERGER                   : Scn          - SERVICE COMPANY
DATE.         7 DEC 80                       : Date         - LOG DATE
STRT.M        415                            : top_depth    - START DEPTH
STOP.M        645                            : bot_depth    - STOP DEPTH
STEP.M        0.25                           : increment    - STEP LENGTH
 NULL. -999.2500:NULL Value
~CURVE INFORMATION BLOCK
#MNEM UNIT       ERCB CURVE CODE    CURVE DESCRIPTION
#-----------   ------------------   ----------------------------------
DEPT.M        00 001 00 00         : DEPTH        - DEPTH
ILD .OHMM     00 120 00 00         : RESD         - DEEP RESISTIVITY (DIL)
NPHI.V/V      00 330 00 00         : PHIN         - NEUTRON POROSITY (SANDSTONE)
DPHI.V/V      00 890 00 00         : PHID         - DENSITY POROSITY (SANDSTONE)
CALI.MM       00 280 01 00         : CAL          - CALIPER
GR  .API      00 310 00 00         : GR           - GAMMA RAY
~PARAMETER INFORMATION
#MNEM.UNIT           DATA             DESCRIPTION OF MNEMONIC
#---------         -----------     ------------------------------
GL  .M        686.4                : gl           - GROUND LEVEL ELEVATION
EREF.M        689.5                : kb           - ELEVATION OF DEPTH REFERENCE
DATM.M        686.4                : datum        - DATUM ELEVATION
TDD .M        644                  : tdd          - TOTAL DEPTH DRILLER
RUN .         ONE                  : Run          - RUN NUMBER
BASE.         EDM                  : Branch       - HOME BASE OF LOGGING UNIT
MUD .         GEL CHEM             : Mud_type     - MUD TYPE
MATR.         SANDSTONE            : Logunit      - NEUTRON MATRIX
TMAX.C        33.3                 : BHT          - MAXIMUM RECORDED TEMPERATURE
BHTD.M        645.2                : BHTDEP       - MAXIMUM RECORDED TEMPERATURE
RMT .C        12.8                 : MDTP         - TEMPERATURE OF MUD
MUDD.KG/M     1190                 : MWT          - MUD DENSITY
NEUT.         1                    : NEUTRON      - NEUTRON TYPE
RESI.         0                    : RESIST       - RESISTIVITY TYPE
RM  .OHMM     3.2                  : RM           - RESISTIVITY OF MUD
RMC .OHMM     0                    : RMC          - RESISTIVITY OF MUD CAKE
RMF .OHMM     2.13                 : RMF          - RESISTIVITY OF MUD FILTRATE
SUFT.C        0                    : SUFT         - SURFACE TEMPERATURE
~A  DEPTH     RESD     PHIN     PHID      CAL       GR
# ...
  524.500    4.318    0.406    0.291  147.859   71.143
  524.750    4.245    0.411    0.296  147.890   71.347
  525.000    4.151    0.404    0.302  148.331   72.677
  525.250    4.051    0.407    0.294  148.572   72.757
  525.500    3.968    0.423    0.291  148.594   70.457
  525.750    3.902    0.430    0.290  148.308   70.037
  526.000    3.895    0.436    0.283  147.920   71.867
  526.250    3.968    0.448    0.276  147.945   75.011
  526.500    4.058    0.454    0.277  147.766   82.283
  526.750    4.245    0.436    0.280  148.010   86.992
  527.000    4.465    0.410    0.258  148.138   88.258
  527.250    4.714    0.407    0.250  148.370   88.650
  527.500    5.042    0.409    0.242  148.604   85.913
  527.750    5.344    0.400    0.239  148.946   79.487
  528.000    5.244    0.400    0.236  149.183   80.003
  528.250    5.042    0.405    0.232  149.314   84.086
  528.500    4.857    0.445    0.251  149.340   84.416
  528.750    4.704    0.455    0.258  149.682   86.057
  529.000    4.565    0.438    0.263  150.017   90.016
  529.250    4.447    0.414    0.252  150.153   94.788
  529.500    4.430    0.395    0.239  150.496   96.741
  529.750    4.422    0.410    0.239  150.625   96.257
  530.000    4.439    0.418    0.252  150.544   96.023
  530.250    4.472    0.418    0.260  149.843   96.353
  530.500    4.522    0.429    0.255  149.348   90.739
  530.750    4.548    0.449    0.242  148.857   86.501
  531.000    4.565    0.407    0.227  148.883   92.710
  531.250    4.599    0.385    0.233  148.911   99.733
  531.500    4.616    0.409    0.238  149.144   99.937
  531.750    4.651    0.424    0.236  149.379   99.014
  532.000    4.685    0.417    0.234  149.515   99.281
  532.250    4.738    0.408    0.227  149.435  100.862
  532.500    4.792    0.397    0.212  149.564  103.443
  532.750    4.846    0.405    0.192  149.489  103.335
  533.000    4.928    0.419    0.190  149.727  100.660
  533.250    4.965    0.403    0.191  149.859   99.113
  533.500    5.040    0.382    0.198  150.298   99.944
  533.750    5.135    0.387    0.213  151.060  102.586
  534.000    5.193    0.396    0.220  151.813  102.040
  534.250    5.242    0.413    0.203  152.885  101.492
  534.500    5.281    0.429    0.186  153.122  104.888
  534.750    5.311    0.420    0.188  153.145  106.405
  535.000    5.350    0.407    0.195  152.859  104.232
  535.250    5.360    0.400    0.198  151.641  101.808
  535.500    5.340    0.384    0.194  150.831  100.887
  535.750    5.340    0.402    0.193  150.438  104.469
  536.000    5.360    0.422    0.191  150.052  107.675
  536.250    5.350    0.413    0.189  150.075  106.064
  536.500    5.360    0.389    0.204  150.104  105.206
  536.750    5.360    0.373    0.209  150.447  106.974
  537.000    5.359    0.366    0.194  151.102  108.616
  537.250    5.380    0.396    0.177  151.542  108.757
  537.500    5.400    0.402    0.185  152.195  110.775
  537.750    5.410    0.407    0.192  152.955  111.543
  538.000    5.420    0.420    0.185  153.815  107.117
  538.250    5.399    0.415    0.196  154.151  108.885
  538.500    5.379    0.409    0.203  154.699  108.964
  538.750    5.369    0.405    0.189  155.148  105.102
  539.000    5.399    0.404    0.190  155.073  106.244
  539.250    5.429    0.407    0.189  155.413  109.325
  539.500    5.470    0.396    0.176  155.540  109.845
  539.750    5.511    0.383    0.176  155.567  110.547
  540.000    5.563    0.379    0.188  155.801  112.127
  540.250    5.625    0.397    0.190  155.831  111.707
  540.500    5.657    0.419    0.184  155.651  108.656
  540.750    5.678    0.435    0.179  155.677  105.358
  541.000    5.710    0.426    0.186  155.492  103.309
  541.250    5.710    0.404    0.198  155.312  101.825
  541.500    5.710    0.390    0.204  155.241  106.783
  541.750    5.731    0.408    0.202  154.949  113.054
  542.000    5.774    0.415    0.194  154.462  107.754
  542.250    5.795    0.399    0.195  153.968  104.893
  542.500    5.828    0.384    0.201  153.782  106.286
  542.750    5.828    0.381    0.195  153.494  105.863
  543.000    5.828    0.383    0.187  153.210  105.443
  543.250    5.839    0.383    0.190  153.132  104.769
  543.500    5.849    0.387    0.188  152.845  104.411
  543.750    5.860    0.393    0.172  152.877  107.868
  544.000    5.893    0.402    0.164  153.112  105.319
  544.250    5.904    0.396    0.172  152.932  101.270
  544.500    5.827    0.389    0.183  153.580  104.227
  544.750    5.762    0.393    0.191  154.444  108.058
  545.000    5.550    0.395    0.192  154.885  107.324
  545.250    5.508    0.389    0.182  155.436  105.025
  545.500    5.550    0.384    0.184  155.463  105.231
  545.750    5.654    0.403    0.192  155.700  104.746
  546.000    5.903    0.404    0.198  155.410  102.698
  546.250    6.174    0.384    0.198  155.125  104.215
  546.500    6.482    0.404    0.187  154.846  115.366
  546.750    6.742    0.424    0.187  154.874  127.643
  547.000    7.118    0.427    0.192  154.895  128.035
  547.250    7.643    0.428    0.175  154.821   95.524
  547.500    8.100    0.432    0.192  154.741   83.466
  547.750    8.681    0.412    0.244  154.454   72.847
  548.000    9.461    0.403    0.283  154.068   73.302
  548.250   10.254    0.409    0.273  153.363   70.002
  548.500   11.219    0.399    0.267  152.558   67.204
  548.750   12.204    0.402    0.267  151.960   68.534
  549.000   12.934    0.400    0.263  151.986   69.676
  549.250   13.809    0.398    0.260  152.015   68.629
  549.500   14.417    0.404    0.257  151.830   69.710
  549.750   15.164    0.411    0.257  151.753   71.101
  550.000   15.215    0.408    0.277  147.906   66.001
  550.250   15.315    0.397    0.274  147.024   67.962
  550.500   14.672    0.401    0.269  146.572   73.159
  550.750   14.494    0.416    0.273  146.730   76.181
  551.000   13.941    0.407    0.287  147.713   72.483
  551.250   12.938    0.429    0.283  148.920   69.840
  551.500   12.143    0.443    0.268  150.018   69.623
  551.750   11.548    0.425    0.274  151.004   69.349
  552.000   11.513    0.401    0.278  151.986   68.575
  552.250   11.965    0.397    0.269  152.876   67.922
  552.500   12.456    0.409    0.266  153.459   66.342
  552.750   12.799    0.411    0.267  153.411   64.574
  553.000   13.080    0.408    0.263  152.522   65.229
  553.250   13.641    0.413    0.259  151.758   67.628
  553.500   14.073    0.419    0.257  151.097   67.414
  553.750   14.845    0.407    0.257  149.900   69.314
  554.000   15.545    0.389    0.259  149.655   74.635
  554.250   15.976    0.404    0.263  148.979   75.042
  554.500   16.384    0.405    0.252  148.618   72.216
  554.750   16.647    0.370    0.228  148.166   70.260
  555.000   16.566    0.369    0.234  148.118   70.293
  555.250   16.546    0.398    0.261  147.655   70.701
  555.500   15.974    0.414    0.274  147.710   73.784
  555.750   15.137    0.405    0.253  147.671   77.426
  556.000   14.020    0.406    0.252  147.931   75.779
  556.250   13.537    0.417    0.269  148.188   76.002
  556.500   13.754    0.412    0.275  148.753   79.207
  556.750   14.374    0.408    0.273  149.232   80.237
  557.000   15.022    0.418    0.267  149.614   77.846
  557.250   15.525    0.418    0.264  150.182   75.142
  557.500   15.982    0.404    0.264  150.037   73.312
  557.750   16.357    0.397    0.272  149.258   73.096
  558.000   16.557    0.389    0.270  148.701   73.316
  558.250   16.510    0.386    0.257  147.925   73.103
  558.500   16.427    0.405    0.248  147.045   72.204
  558.750   16.470    0.420    0.248  145.856   74.789
  559.000   16.701    0.410    0.265  145.507   77.809
  559.250   17.097    0.404    0.275  145.146   76.785
  559.500   17.372    0.395    0.263  145.409   78.189
  559.750   17.548    0.395    0.251  145.667   75.360
  560.000   17.563    0.416    0.256  145.629   72.347
  560.250   17.644    0.411    0.243  145.897   71.138
  560.500   17.757    0.387    0.246  146.358   70.796
  560.750   17.703    0.405    0.258  146.630   71.207
