~VERSION INFORMATION
 VERS.                 2.0:   CWLS LOG ASCII STANDARD -VERSION 2.0
 WRAP.                  NO:   ONE LINE PER DEPTH STEP
~WELL INFORMATION BLOCK
#MNEM.UNIT           DATA                    DESCRIPTION OF MNEMONIC
#---------    -------------------            -------------------------------
# Generated from Intellog Unique Number	CS_73_76/WELL/3228
WELL.         10-01-076-05W4                 : Well_name    - WELL
LOC .         00/10-01-076-05W4/0            : Location     - LOCATION
UWI .         00/10-01-076-05W4/0            : Uwi          - UNIQUE WELL ID
ENTR.         SP                             : Entered      - ENTERED BY
SRVC.         SCHLUMBERGER                   : Scn          - SERVICE COMPANY
STRT.M        228.6                          : top_depth    - START DEPTH
STOP.M        481.35                         : bot_depth    - STOP DEPTH
STEP.M        0.25                           : increment    - STEP LENGTH
 NULL. -999.2500:NULL Value
~CURVE INFORMATION BLOCK
#MNEM UNIT       ERCB CURVE CODE    CURVE DESCRIPTION
#-----------   ------------------   ----------------------------------
DEPT.M        00 001 00 00         : DEPTH        - DEPTH
GR  .API      00 310 00 00         : GR           - GAMMA RAY
DPHI.V/V      00 890 00 00         : PHID         - DENSITY POROSITY (SANDSTONE)
NPHI.V/V      00 330 00 00         : PHIN         - NEUTRON POROSITY (SANDSTONE)
ILD .OHMM     00 120 00 00         : RESD         - DEEP RESISTIVITY (DIL)
~PARAMETER INFORMATION
#MNEM.UNIT           DATA             DESCRIPTION OF MNEMONIC
#---------         -----------     ------------------------------
GL  .M        620.878              : gl           - GROUND LEVEL ELEVATION
EREF.M        624.23               : kb           - ELEVATION OF DEPTH REFERENCE
DATM.M        620.878              : datum        - DATUM ELEVATION
TDD .M        489.204              : tdd          - TOTAL DEPTH DRILLER
RUN .         ONE                  : Run          - RUN NUMBER
ENG .         BILL                 : Engineer     - RECORDING ENGINEER
WIT .         JIM                  : Witness      - WITNESSED BY
MUD .         GEL                  : Mud_type     - MUD TYPE
MATR.         SANDSTONE            : Logunit      - NEUTRON MATRIX
TMAX.C        33.3333              : BHT          - MAXIMUM RECORDED TEMPERATURE
BHTD.M        489.204              : BHTDEP       - MAXIMUM RECORDED TEMPERATURE
MATR.         1                    : LOGUNIT      - NEUTRON MATRIX
RMT .C        25                   : MDTP         - TEMPERATURE OF MUD
NEUT.         1                    : NEUTRON      - NEUTRON TYPE
RESI.         0                    : RESIST       - RESISTIVITY TYPE
RMC .OHMM     0.25                 : RMC          - RESISTIVITY OF MUD CAKE
RMF .OHMM     0.25                 : RMF          - RESISTIVITY OF MUD FILTRATE
SUFT.C        15                   : SUFT         - SURFACE TEMPERATURE
~A  DEPTH       GR     PHID     PHIN     RESD
# ...
  402.600   77.874    0.271    0.367   13.533
  402.850   80.059    0.283    0.377   12.606
  403.100   84.822    0.291    0.385   10.593
  403.350   87.402    0.276    0.396    9.700
  403.600   92.224    0.273    0.383    8.410
  403.850   95.567    0.261    0.370    7.706
  404.100   97.920    0.242    0.380    7.383
  404.350   94.715    0.247    0.386    7.256
  404.600   92.359    0.262    0.391    7.151
  404.850   89.817    0.255    0.392    6.791
  405.100   88.850    0.252    0.379    6.751
  405.350   90.435    0.240    0.352    6.762
  405.600   94.233    0.221    0.348    6.567
  405.850  103.710    0.174    0.375    6.505
  406.100  112.278    0.167    0.387    6.197
  406.350  115.242    0.162    0.399    5.914
  406.600  114.508    0.153    0.402    5.824
  406.850  115.628    0.172    0.401    5.760
  407.100  120.354    0.185    0.417    5.722
  407.350  121.174    0.187    0.423    5.626
  407.600  120.407    0.192    0.434    5.447
  407.850  121.244    0.187    0.446    5.400
  408.100  123.255    0.197    0.444    5.222
  408.350  125.241    0.189    0.449    5.219
  408.600  126.494    0.185    0.453    5.108
  408.850  124.793    0.183    0.457    4.955
  409.100  124.972    0.174    0.457    4.806
  409.350  127.688    0.173    0.456    4.662
  409.600  128.966    0.172    0.458    4.521
  409.850  129.987    0.182    0.473    4.381
  410.100  131.871    0.194    0.482    4.330
  410.350  131.730    0.211    0.490    4.248
  410.600  128.595    0.207    0.500    4.163
  410.850  127.129    0.198    0.505    4.170
  411.100  126.122    0.193    0.504    4.137
  411.350  125.079    0.192    0.499    4.097
  411.600  123.504    0.189    0.492    4.097
  411.850  122.793    0.188    0.490    4.100
  412.100  124.557    0.192    0.501    4.101
  412.350  122.762    0.200    0.515    4.184
  412.600  123.647    0.196    0.513    4.180
  412.850  125.713    0.187    0.520    4.181
  413.100  126.086    0.182    0.519    4.174
  413.350  126.350    0.180    0.509    4.271
  413.600  125.726    0.186    0.488    4.258
  413.850  126.309    0.191    0.478    4.345
  414.100  126.908    0.195    0.478    4.433
  414.350  125.323    0.182    0.470    4.502
  414.600  123.315    0.175    0.448    4.553
  414.850  121.312    0.167    0.441    4.610
  415.100  119.718    0.178    0.441    4.852
  415.350  118.776    0.181    0.444    5.003
  415.600  117.131    0.180    0.456    5.154
  415.850  114.653    0.183    0.466    5.469
  416.100  113.181    0.167    0.471    5.594
  416.350  111.174    0.166    0.457    5.765
  416.600  107.862    0.170    0.429    5.896
  416.850  110.082    0.167    0.412    5.894
  417.100  112.446    0.187    0.403    5.792
  417.350  116.285    0.196    0.413    5.734
  417.600  117.832    0.201    0.431    5.678
  417.850  119.173    0.204    0.446    5.679
  418.100  117.353    0.203    0.453    5.711
  418.350  116.398    0.196    0.463    5.901
  418.600  115.175    0.186    0.466    5.887
  418.850  113.986    0.180    0.466    6.028
  419.100  113.338    0.193    0.471    6.013
  419.350  116.728    0.201    0.470    6.141
  419.600  119.068    0.195    0.465    6.135
  419.850  116.537    0.187    0.459    6.129
  420.100  111.439    0.178    0.454    6.329
  420.350  104.692    0.178    0.450    6.381
  420.600   97.271    0.194    0.447    6.684
  420.850   89.671    0.207    0.440    7.352
  421.100   79.936    0.214    0.411    8.506
  421.350   75.046    0.221    0.371    9.314
  421.600   69.111    0.225    0.354   10.236
  421.850   64.007    0.227    0.357   11.005
  422.100   60.513    0.232    0.348   11.581
  422.350   58.724    0.234    0.351   11.945
  422.600   60.599    0.241    0.352   12.099
  422.850   70.567    0.250    0.343   12.103
  423.100   72.955    0.241    0.342   12.120
  423.350   72.328    0.226    0.341   11.726
  423.600   69.394    0.213    0.347   11.354
  423.850   63.945    0.206    0.355   11.020
  424.100   63.882    0.215    0.363   11.017
  424.350   64.741    0.233    0.359   11.321
  424.600   67.083    0.241    0.352   11.921
  424.850   70.553    0.224    0.348   12.647
  425.100   70.240    0.221    0.346   13.693
  425.350   65.200    0.227    0.347   14.348
  425.600   61.548    0.240    0.362   15.302
  425.850   58.724    0.255    0.371   15.941
  426.100   58.395    0.284    0.389   16.394
  426.350   61.017    0.304    0.393   16.749
  426.600   67.395    0.300    0.377   16.727
  426.850   69.317    0.275    0.351   15.185
  427.100   70.365    0.247    0.345   13.976
  427.350   72.297    0.237    0.343   12.591
  427.600   69.007    0.241    0.354   12.362
  427.850   63.790    0.238    0.359   12.621
  428.100   60.691    0.242    0.363   13.127
  428.350   58.100    0.247    0.369   13.869
  428.600   55.008    0.266    0.385   14.903
  428.850   53.944    0.275    0.395   16.408
  429.100   57.049    0.288    0.402   16.798
  429.350   60.100    0.299    0.399   16.341
  429.600   64.657    0.284    0.384   15.375
  429.850   68.073    0.260    0.360   14.145
  430.100   69.974    0.244    0.354   13.700
  430.350   69.503    0.244    0.358   14.187
  430.600   60.471    0.244    0.361   14.560
  430.850   52.996    0.258    0.404   15.334
  431.100   52.227    0.282    0.395   16.102
  431.350   59.312    0.282    0.371   16.520
  431.600   62.971    0.260    0.363   16.505
  431.850   61.719    0.251    0.367   16.123
  432.100   53.900    0.256    0.371   17.007
  432.350   47.975    0.262    0.374   18.056
  432.600   45.129    0.280    0.378   19.634
  432.850   45.902    0.291    0.383   20.903
  433.100   49.441    0.303    0.378   22.626
  433.350   48.308    0.291    0.379   23.179
  433.600   44.511    0.291    0.388   23.685
  433.850   42.405    0.297    0.389   26.037
  434.100   40.579    0.302    0.381   28.437
  434.350   38.585    0.312    0.397   31.368
  434.600   40.399    0.318    0.402   33.070
  434.850   42.427    0.322    0.404   33.327
  435.100   43.404    0.325    0.406   33.833
  435.350   43.365    0.329    0.417   32.671
  435.600   44.250    0.332    0.426   30.578
  435.850   46.260    0.316    0.425   23.431
  436.100   49.989    0.307    0.417   20.056
  436.350   55.257    0.296    0.408   19.728
  436.600   57.144    0.289    0.402   21.010
  436.850   56.605    0.290    0.423   22.222
  437.100   48.576    0.290    0.431   22.893
  437.350   50.170    0.329    0.415   22.523
  437.600   58.288    0.311    0.398   19.247
  437.850   68.081    0.302    0.400   15.152
  438.100   80.041    0.291    0.415   13.520
  438.350   85.981    0.280    0.423   11.770
  438.600   89.193    0.241    0.414    9.894
  438.850   87.191    0.235    0.427    9.358
  439.100   72.091    0.245    0.442    9.304
  439.350   51.017    0.248    0.432   10.337
  439.600   47.036    0.279    0.437   12.691
  439.850   46.697    0.302    0.437   13.107
  440.100   43.563    0.314    0.420   13.555
  440.350   42.432    0.322    0.406   13.861
  440.600   40.729    0.322    0.407   13.552
  440.850   39.730    0.324    0.397   13.351
  441.100   38.609    0.318    0.389   12.750
  441.350   36.502    0.316    0.379   11.927
  441.600   38.009    0.318    0.371   11.450
  441.850   40.219    0.313    0.368    9.989
  442.100   49.488    0.294    0.379    8.139
  442.350   52.907    0.292    0.388    7.739
  442.600   49.936    0.310    0.395    7.521
  442.850   46.877    0.318    0.388    7.415
  443.100   47.010    0.322    0.379    7.241
  443.350   47.342    0.320    0.379    7.410
  443.600   48.390    0.311    0.385    7.509
  443.850   48.181    0.304    0.382    7.548
  444.100   46.086    0.295    0.371    7.404
  444.350   43.978    0.293    0.364    6.813
  444.600   43.624    0.303    0.364    6.014
  444.850   44.223    0.309    0.374    5.317
  445.100   45.179    0.309    0.373    4.788
  445.350   45.571    0.305    0.370    4.522
  445.600   41.424    0.309    0.367    4.463
  445.850   38.534    0.310    0.367    4.486
