~VERSION INFORMATION
 VERS.                 2.0:   CWLS LOG ASCII STANDARD -VERSION 2.0
 WRAP.                  NO:   ONE LINE PER DEPTH STEP
~WELL INFORMATION BLOCK
#MNEM.UNIT           DATA                    DESCRIPTION OF MNEMONIC
#---------    -------------------            -------------------------------
# Generated from Intellog Unique Number	CS_77_79/WELL/945
WELL.         DOME PETROLEUM LIMITED         : Well_name    - WELL
LOC .         00/10-11-077-16W4/0            : Location     - LOCATION
UWI .         00/10-11-077-16W4/0            : Uwi          - UNIQUE WELL ID
ENTR.         SP                             : Entered      - ENTERED BY
SRVC.         SCHLUMBERGER                   : Scn          - SERVICE COMPANY
STRT.M        310                            : top_depth    - START DEPTH
STOP.M        545                            : bot_depth    - STOP DEPTH
STEP.M        0.25                           : increment    - STEP LENGTH
 NULL. -999.2500:NULL Value
~CURVE INFORMATION BLOCK
#MNEM UNIT       ERCB CURVE CODE    CURVE DESCRIPTION
#-----------   ------------------   ----------------------------------
DEPT.M        00 001 00 00         : DEPTH        - DEPTH
DPHI.V/V      00 890 00 00         : PHID         - DENSITY POROSITY (LIMESTONE)
NPHI.V/V      00 330 00 00         : PHIN         - NEUTRON POROSITY (LIMESTONE)
GR  .API      00 310 00 00         : GR           - GAMMA RAY
ILD .OHMM     00 120 00 00         : RESD         - DEEP RESISTIVITY (DIL)
~PARAMETER INFORMATION
#MNEM.UNIT           DATA             DESCRIPTION OF MNEMONIC
#---------         -----------     ------------------------------
GL  .M        703                  : gl           - GROUND LEVEL ELEVATION
EREF.M        706.8                : kb           - ELEVATION OF DEPTH REFERENCE
DATM.M        703                  : datum        - DATUM ELEVATION
TDD .M        552                  : tdd          - TOTAL DEPTH DRILLER
RUN .         ONE                  : Run          - RUN NUMBER
ENG .         BILL                 : Engineer     - RECORDING ENGINEER
WIT .         JIM                  : Witness      - WITNESSED BY
MUD .         GEL                  : Mud_type     - MUD TYPE
MATR.         LIMESTONE            : Logunit      - NEUTRON MATRIX
TMAX.C        26                   : BHT          - MAXIMUM RECORDED TEMPERATURE
BHTD.M        552                  : BHTDEP       - MAXIMUM RECORDED TEMPERATURE
MATR.         1                    : LOGUNIT      - NEUTRON MATRIX
RMT .C        25                   : MDTP         - TEMPERATURE OF MUD
NEUT.         1                    : NEUTRON      - NEUTRON TYPE
RESI.         0                    : RESIST       - RESISTIVITY TYPE
RMC .OHMM     0.25                 : RMC          - RESISTIVITY OF MUD CAKE
RMF .OHMM     0.25                 : RMF          - RESISTIVITY OF MUD FILTRATE
SUFT.C        15                   : SUFT         - SURFACE TEMPERATURE
~A  DEPTH     PHID     PHIN       GR     RESD
# ...
  440.500    0.361    0.424   67.308    5.460
  440.750    0.347    0.424   67.918    5.461
  441.000    0.341    0.423   69.136    5.462
  441.250    0.338    0.422   67.939    5.463
  441.500    0.336    0.419   67.340    5.568
  441.750    0.325    0.419   66.742    5.466
  442.000    0.313    0.418   65.544    5.467
  442.250    0.305    0.418   64.944    5.468
  442.500    0.299    0.418   65.560    5.470
  442.750    0.295    0.418   66.171    5.471
  443.000    0.295    0.418   66.783    5.576
  443.250    0.294    0.417   68.001    5.683
  443.500    0.292    0.417   70.435    5.791
  443.750    0.290    0.414   71.046    5.902
  444.000    0.294    0.412   72.262    5.904
  444.250    0.291    0.410   74.088    5.796
  444.500    0.287    0.407   75.303    5.797
  444.750    0.296    0.406   75.915    5.799
  445.000    0.291    0.407   73.507    5.692
  445.250    0.288    0.406   72.910    5.588
  445.500    0.291    0.407   73.521    5.384
  445.750    0.291    0.409   73.534    5.091
  446.000    0.286    0.413   74.148    4.905
  446.250    0.277    0.415   74.760    4.815
  446.500    0.271    0.417   75.373    4.727
  446.750    0.268    0.415   76.592    4.817
  447.000    0.265    0.413   77.202    4.819
  447.250    0.259    0.413   77.816    4.911
  447.500    0.255    0.415   77.822    4.912
  447.750    0.253    0.420   77.230    5.006
  448.000    0.248    0.414   76.629    5.008
  448.250    0.241    0.413   76.638    5.009
  448.500    0.236    0.410   76.653    5.010
  448.750    0.258    0.413   76.661    4.918
  449.000    0.260    0.412   77.275    4.919
  449.250    0.259    0.409   77.283    4.829
  449.500    0.264    0.408   77.291    4.741
  449.750    0.273    0.406   77.299    4.831
  450.000    0.277    0.408   77.306    4.924
  450.250    0.277    0.409   77.312    5.113
  450.500    0.293    0.407   76.714    5.211
  450.750    0.276    0.402   76.119    5.411
  451.000    0.282    0.398   73.709    5.725
  451.250    0.299    0.391   73.109    5.834
  451.500    0.307    0.387   70.700    6.059
  451.750    0.310    0.385   68.894    6.060
  452.000    0.317    0.384   67.087    6.061
  452.250    0.322    0.385   64.071    5.950
  452.500    0.328    0.386   62.267    5.842
  452.750    0.333    0.387   61.668    5.734
  453.000    0.343    0.397   59.866    5.629
  453.250    0.350    0.403   58.663    5.631
  453.500    0.358    0.403   57.459    5.738
  453.750    0.369    0.399   55.659    5.741
  454.000    0.377    0.398   55.062    5.742
  454.250    0.381    0.399   55.069    5.743
  454.500    0.376    0.400   54.470    5.637
  454.750    0.360    0.394   54.479    5.534
  455.000    0.343    0.392   54.486    5.640
  455.250    0.337    0.387   54.492    5.749
  455.500    0.335    0.383   53.896    5.750
  455.750    0.338    0.391   53.911    5.751
  456.000    0.340    0.400   53.918    5.753
  456.250    0.335    0.403   54.532    5.754
  456.500    0.334    0.397   54.540    5.756
  456.750    0.332    0.392   55.153    5.757
  457.000    0.335    0.383   55.766    5.758
  457.250    0.341    0.380   55.771    5.759
  457.500    0.341    0.378   56.384    5.760
  457.750    0.342    0.379   55.793    5.762
  458.000    0.341    0.389   55.195    5.763
  458.250    0.337    0.394   55.203    5.873
  458.500    0.333    0.387   55.212    6.099
  458.750    0.341    0.375   55.221    6.575
  459.000    0.343    0.365   55.228    6.956
  459.250    0.319    0.316   55.838    8.235
  459.500    0.248    0.268   56.453    9.748
  459.750    0.188    0.231   55.857   10.909
  460.000    0.117    0.201   54.050   11.542
  460.250    0.080    0.189   52.243   10.319
  460.500    0.054    0.193   51.045    9.224
  460.750    0.086    0.217   50.449    8.247
  461.000    0.136    0.246   50.456    7.102
  461.250    0.176    0.275   50.463    6.349
  461.500    0.241    0.293   51.076    5.782
  461.750    0.317    0.349   52.900    5.468
  462.000    0.340    0.376   54.724    5.268
  462.250    0.339    0.406   56.545    5.269
  462.500    0.334    0.411   60.184    5.271
  462.750    0.335    0.396   60.193    5.272
  463.000    0.339    0.390   58.993    5.373
  463.250    0.344    0.388   57.791    5.374
  463.500    0.349    0.390   57.192    5.477
  463.750    0.350    0.398   57.803    5.582
  464.000    0.350    0.402   59.630    5.583
  464.250    0.354    0.398   60.243    5.690
  464.500    0.355    0.387   60.250    5.909
  464.750    0.350    0.378   60.256    6.022
  465.000    0.345    0.357   60.268    5.911
  465.250    0.315    0.337   59.671    5.696
  465.500    0.304    0.311   57.864    5.487
  465.750    0.306    0.311   57.267    5.190
  466.000    0.326    0.357   56.673    5.095
  466.250    0.343    0.392   57.285    5.095
  466.500    0.357    0.410   57.901    4.909
  466.750    0.364    0.410   59.117    4.820
  467.000    0.362    0.414   59.728    4.731
  467.250    0.357    0.424   59.736    4.732
  467.500    0.353    0.432   59.145    4.823
  467.750    0.347    0.426   57.336    4.824
  468.000    0.348    0.419   56.741    4.825
  468.250    0.356    0.414   56.749    4.917
  468.500    0.362    0.407   56.758    4.919
  468.750    0.363    0.403   57.367    4.920
  469.000    0.356    0.403   57.984    5.014
  469.250    0.350    0.408   58.594    4.922
  469.500    0.340    0.404   59.211    4.924
  469.750    0.337    0.397   58.612    4.924
  470.000    0.340    0.394   56.200    4.925
  470.250    0.345    0.393   54.998    5.020
  470.500    0.356    0.394   54.404    5.021
  470.750    0.368    0.396   54.412    5.117
  471.000    0.371    0.393   54.419    5.215
  471.250    0.366    0.394   55.638    5.415
  471.500    0.364    0.397   56.857    5.623
  471.750    0.359    0.400   58.073    6.062
  472.000    0.349    0.401   58.687    6.178
  472.250    0.342    0.406   58.699    6.297
  472.500    0.343    0.412   59.310    6.417
  472.750    0.358    0.417   59.921    6.300
  473.000    0.367    0.429   60.538    6.302
  473.250    0.374    0.433   59.942    6.303
  473.500    0.377    0.435   59.342    6.305
  473.750    0.382    0.434   57.540    6.074
  474.000    0.386    0.430   57.544    5.852
  474.250    0.375    0.430   56.950    5.534
  474.500    0.363    0.428   57.563    5.233
  474.750    0.356    0.417   58.175    5.137
  475.000    0.349    0.416   60.608    5.043
  475.250    0.349    0.413   61.822    5.044
  475.500    0.361    0.412   63.042    4.952
  475.750    0.364    0.410   64.256    4.953
  476.000    0.371    0.399   63.662    4.954
  476.250    0.372    0.394   62.464    4.955
  476.500    0.366    0.389   61.258    4.956
  476.750    0.351    0.388   59.454    4.958
  477.000    0.336    0.388   58.854    4.959
  477.250    0.337    0.389   60.683    4.960
  477.500    0.340    0.394   61.294    5.055
  477.750    0.333    0.395   61.906    5.056
  478.000    0.327    0.394   62.519    5.057
  478.250    0.322    0.393   63.135    5.059
  478.500    0.326    0.394   61.931    5.060
  478.750    0.340    0.396   59.520    5.061
  479.000    0.345    0.399   60.135    4.969
  479.250    0.349    0.407   61.351    5.064
  479.500    0.350    0.412   62.568    5.065
  479.750    0.350    0.412   63.786    5.066
  480.000    0.349    0.414   65.613    5.067
  480.250    0.348    0.417   67.436    5.068
  480.500    0.345    0.424   68.652    5.069
  480.750    0.332    0.434   69.873    5.071
  481.000    0.333    0.436   69.274    5.072
  481.250    0.332    0.438   66.260    5.073
  481.500    0.327    0.438   65.660    5.074
  481.750    0.318    0.436   65.065    4.982
  482.000    0.322    0.433   65.684    4.983
  482.250    0.324    0.430   62.058    4.984
  482.500    0.334    0.420   62.675    4.985
  482.750    0.346    0.414   62.074    4.893
  483.000    0.356    0.404   63.297    4.895
  483.250    0.353    0.395   63.303    4.896
  483.500    0.342    0.392   63.916    4.806
  483.750    0.329    0.386   64.526    4.807
