~Version Information
VERS.                2.00:
WRAP.                  NO:
~Well Information Block
#MNEM.UNIT       Data Type    Information
#---------    -------------   -------------------
FLD.   :FIELD
FLD.   :FIELD
FLD.   :FIELD
FLD.   :FIELD
STRT.M          1950.0000:
STOP.M          4060.0000:
STEP.M             0.8202:
NULL.           -999.2500:
COMP.  MUTUAL EXPLORATION FUNDS:COMPANY
WELL.  MUTES IOE SEAFORTH:WELL
FLD.   :FIELD
LOC.   15-20-095-20W4:LOCATION
CTRY.  CANADA:COUNTRY
PROV.  ALBERTA:PROVINCE
SRVC.  SCHLUMBERGER:SERVICE COMPANY
DATE.  01 MAR 69:LOG DATE
UWI.   00/15-20-095-20W4/0:UNIQUE WELL ID
~Curve Information Block
#MNEM.UNIT        API CODE    Curve Description
#---------    ------------    -----
DEPT.M                    :   DEPTH
CALI.in                   :   CALI
GR  .API                  :   GR
SNP .V/V                  :   SNP
~A  Depth           CALI          GR         SNP
# ...
3160.6152        13.7401     16.1941      0.2382
3161.4354        14.4527     16.2291      0.2090
3162.2556        14.6427     16.2640      0.1369
3163.0758        14.8327     16.2989      0.1204
3163.8960        14.8766     16.0063      0.1348
3164.7162        14.6885     16.2626      0.1428
3165.5364        13.5717     16.7175      0.0983
3166.3566        14.1879     16.8287      0.0715
3167.1768        14.4067     17.2144      0.0526
3167.9970        14.6256     16.6376      0.0513
3168.8172        14.8445     16.5656      0.0590
3169.6374        14.9710     16.5821      0.0719
3170.4576        14.9563     16.6140      0.0945
3171.2778        14.9223     16.3086      0.0878
3172.0980        14.9206     14.6177      0.0941
3172.9182        14.8533     13.0293      0.1259
3173.7384        12.7563     11.7795      0.2292
3174.5586        11.5938     11.3334      0.1179
3175.3788        10.9600     10.8510      0.0711
3176.1990        10.2041     10.7848      0.0576
3177.0192         9.9021     11.1315      0.0490
3177.8394         9.8235     11.7715      0.0481
3178.6596         9.8261     12.3766      0.0477
3179.4798         9.9284     13.5410      0.0476
3180.3000        10.1547     14.8790      0.0475
3181.1202        10.4058     15.5837      0.1829
3181.9404        10.8515     15.8504      0.2183
3182.7606        11.3276     15.9141      0.2206
3183.5808        13.3668     15.9525      0.1970
3184.4010        14.5936     16.7163      0.1548
3185.2212        13.7630     17.1952      0.1187
3186.0414        12.2368     16.5409      0.0960
3186.8616        14.1100     16.1411      0.0766
3187.6818        14.7469     16.4413      0.0655
3188.5020        14.9378     16.9339      0.0767
3189.3222        14.9519     17.0072      0.0887
3190.1424        14.9560     16.3002      0.0847
3190.9626        14.9595     16.2845      0.0644
3191.7828        14.9630     16.3037      0.0752
3192.6030        14.8887     16.6456      0.0884
3193.4232        14.8888     16.3928      0.1086
3194.2434        14.8922     16.0292      0.1297
3195.0636        14.8957     16.0374      0.1170
3195.8838        14.9390     16.0707      0.1032
3196.7040        12.9190     15.7226      0.1291
3197.5242        12.7961     15.3525      0.1555
3198.3444        14.6898     15.3638      0.1100
3199.1646        14.9538     15.3975      0.0705
3199.9848        14.9573     15.0458      0.0469
3200.8050        14.8384     16.3159      0.0394
3201.6252        14.8473     16.3414      0.0429
3202.4454        14.8496     15.9808      0.0830
3203.2656        14.8507     15.5911      0.1039
3204.0858        14.8515     14.4726      0.1410
3204.9060        14.8524     13.6492      0.1795
3205.7262        14.8532     12.1415      0.1456
3206.5464        14.8540     11.9770      0.0680
3207.3666        14.6804     11.6117      0.0335
3208.1868        11.5656     11.9234      0.0318
3209.0070        10.9533     11.6222      0.0381
3209.8272        10.6276     11.2422      0.0461
3210.6474        10.5634     10.8516      0.0455
3211.4676        10.3682     11.1424      0.0374
3212.2878        10.1625     11.1929      0.0283
3213.1080        10.0365     10.8699      0.0219
3213.9282         9.9942     10.8332      0.0181
3214.7484         9.9136     10.8243      0.0207
3215.5686         9.8815     10.4977      0.0244
3216.3888         9.8430     10.7298      0.0304
3217.2090         9.8362     11.4811      0.0367
3218.0292         9.8356     11.9528      0.0438
3218.8494         9.8362     12.0479      0.0523
3219.6696         9.8370     12.0724      0.0472
3220.4898         9.8712     12.4868      0.0402
3221.3100         9.8780     13.2963      0.0424
3222.1302         9.9470     13.6272      0.0562
3222.9504        10.0267     13.3234      0.0732
3223.7706        10.1416     13.7177      0.0953
3224.5908        10.2624     14.5172      0.1182
3225.4110        10.3180     14.9376      0.1648
3226.2312        10.3619     14.9600      0.2048
3227.0514        10.3703     15.3522      0.1766
3227.8716        10.4062     16.1425      0.1665
3228.6918        10.6461     16.5709      0.2666
3229.5120        12.6683     16.9806      0.2819
3230.3322        14.2115     17.3892      0.2386
3231.1524        12.9481     17.4240      0.1824
3231.9726        11.9970     17.4337      0.1185
3232.7928        14.8429     16.3389      0.1016
3233.6130        14.9090     15.8848      0.0887
3234.4332        14.6625     15.8570      0.0914
3235.2534        14.8087     15.8531      0.1022
3236.0736        14.8041     16.5771      0.1050
3236.8938        14.7370     17.3778      0.1180
3237.7140        14.2014     17.8309      0.1274
3238.5342        14.3016     18.9536      0.1250
3239.3544        14.5561     19.8017      0.1204
3240.1746        14.2092     17.6079      0.1170
3240.9948        14.2712     16.6943      0.1224
3241.8150        14.6585     16.0306      0.1330
3242.6352        14.5438     15.5981      0.1327
3243.4554        14.3502     15.1996      0.1150
3244.2756        13.9585     14.8063      0.0780
3245.0958        13.5018     13.7473      0.0399
3245.9160        12.7882     12.9099      0.0485
3246.7362        11.8839     12.4385      0.0927
3247.5564        10.9316     13.3421      0.1439
3248.3766        11.0137     15.1540      0.1189
3249.1968        11.0774     16.8066      0.0903
3250.0170        11.0099     18.1026      0.0735
3250.8372        13.1909     18.6810      0.0627
3251.6574        13.8906     18.4780      0.0545
3252.4776        14.4104     18.0331      0.0552
3253.2978        14.7093     18.0371      0.0837
3254.1180        14.7374     18.4395      0.1169
3254.9382        14.7778     17.2825      0.1187
3255.7584        14.7820     17.2550      0.1351
3256.5786        14.7076     16.4914      0.1656
3257.3988        14.6651     16.0824      0.1943
3258.2190        14.7393     15.6892      0.2331
3259.0392        14.5509     14.9212      0.2315
3259.8594        13.6011     14.5037      0.1791
3260.6796        11.8302     14.4800      0.1511
3261.4998        12.0497     14.4852      0.1261
3262.3200        13.3799     14.4927      0.1061
3263.1402        14.4526     14.5003      0.1222
3263.9604        14.6252     15.2325      0.1453
3264.7806        13.7000     15.6738      0.1820
3265.6008        13.7994     15.3695      0.2207
3266.4210        13.6088     15.6981      0.2449
3267.2412        13.0372     16.0973      0.2566
3268.0614        12.6004     16.1524      0.2701
3268.8816        12.0583     15.4679      0.2921
3269.7018        13.0219     13.6560      0.2720
3270.5220        12.9390     12.3778      0.2049
3271.3422        12.5493     14.2463      0.1454
3272.1624        13.5279     15.5577      0.1142
3272.9826        13.9261     13.4032      0.0954
3273.8028        11.5077     12.2905      0.0664
3274.6230        10.9916     13.2083      0.0457
3275.4432        10.8485     14.3702      0.0474
3276.2634        10.8044     16.2400      0.0848
3277.0836        10.7898     14.9298      0.1095
3277.9038        10.8245     13.9240      0.1152
3278.7240        10.8294     13.2101      0.0992
3279.5442        10.8667     13.7219      0.0769
3280.3644        10.8716     15.0628      0.0646
3281.1846        10.8729     15.0727      0.0554
3282.0048        10.9036     15.0805      0.0593
3282.8250        11.0946     15.0881      0.0782
3283.6452        12.0284     15.0958      0.1305
3284.4654        13.0581     15.1035      0.1478
3285.2856        13.9016     15.1112      0.1436
3286.1058        14.6077     15.1189      0.1291
3286.9260        14.7198     15.1266      0.0936
3287.7462        14.7323     14.7558      0.0978
3288.5664        14.7343     13.8334      0.1162
3289.3866        14.7352     13.5600      0.1188
3290.2068        14.7730     13.9168      0.1423
3291.0270        14.7772     14.3212      0.1922
3291.8472        14.7783     15.0966      0.2305
3292.6674        14.2316     15.9036      0.2516
3293.4876        13.8247     15.9862      0.2200
3294.3078        13.8882     14.5641      0.1778
