~VERSION INFORMATION
 VERS.                 2.0:   CWLS LOG ASCII STANDARD -VERSION 2.0
 WRAP.                  NO:   ONE LINE PER DEPTH STEP
~WELL INFORMATION BLOCK
#MNEM.UNIT           DATA                    DESCRIPTION OF MNEMONIC
#---------    -------------------            -------------------------------
# Generated from Intellog Unique Number	CS_77_79/WELL/3308
WELL.         ANDERSON EXPLORATION LTD.      : Well_name    - WELL
LOC .         00/14-33-077-03W4/0            : Location     - LOCATION
UWI .         00/14-33-077-03W4/0            : Uwi          - UNIQUE WELL ID
ENTR.         JOETTE                         : Entered      - ENTERED BY
SRVC.         COMPUTALOG                     : Scn          - SERVICE COMPANY
DATE.         08/26/92                       : Date         - LOG DATE
STRT.M        175                            : top_depth    - START DEPTH
STOP.M        435                            : bot_depth    - STOP DEPTH
STEP.M        0.25                           : increment    - STEP LENGTH
 NULL. -999.2500:NULL Value
~CURVE INFORMATION BLOCK
#MNEM UNIT       ERCB CURVE CODE    CURVE DESCRIPTION
#-----------   ------------------   ----------------------------------
DEPT.M        00 001 00 00         : DEPTH        - DEPTH
ILD .OHMM     00 120 00 00         : RESD         - DEEP RESISTIVITY (DIL)
NPHI.V/V      00 330 00 00         : PHIN         - NEUTRON POROSITY (SANDSTONE)
GR  .API      00 310 00 00         : GR           - GAMMA RAY
~PARAMETER INFORMATION
#MNEM.UNIT           DATA             DESCRIPTION OF MNEMONIC
#---------         -----------     ------------------------------
GL  .M        565.2                : gl           - GROUND LEVEL ELEVATION
EREF.M        568.8                : kb           - ELEVATION OF DEPTH REFERENCE
DATM.M        568.8                : datum        - DATUM ELEVATION
TDD .M        434.4                : tdd          - TOTAL DEPTH DRILLER
RUN .         ONE                  : Run          - RUN NUMBER
ENG .         BILL                 : Engineer     - RECORDING ENGINEER
WIT .         JIM                  : Witness      - WITNESSED BY
MUD .         GEL                  : Mud_type     - MUD TYPE
MATR.         SANDSTONE            : Logunit      - NEUTRON MATRIX
TMAX.C        25                   : BHT          - MAXIMUM RECORDED TEMPERATURE
BHTD.M        434.3                : BHTDEP       - MAXIMUM RECORDED TEMPERATURE
MATR.         1                    : LOGUNIT      - NEUTRON MATRIX
RMT .C        13                   : MDTP         - TEMPERATURE OF MUD
NEUT.         1                    : NEUTRON      - NEUTRON TYPE
RESI.         0                    : RESIST       - RESISTIVITY TYPE
RMC .OHMM     1.9                  : RMC          - RESISTIVITY OF MUD CAKE
RMF .OHMM     1.7                  : RMF          - RESISTIVITY OF MUD FILTRATE
SUFT.C        15                   : SUFT         - SURFACE TEMPERATURE
~A  DEPTH     RESD     PHIN       GR
# ...
  283.500    6.431    0.511   86.487
  283.750    7.200    0.516   85.863
  284.000    7.476    0.508   85.238
  284.250    7.619    0.489   78.896
  284.500    7.912    0.473   75.731
  284.750    8.217    0.459   83.998
  285.000    8.218    0.466   92.271
  285.250    8.376    0.469   91.009
  285.500    8.377    0.472   88.476
  285.750    8.538    0.467   85.310
  286.000    8.702    0.446   82.147
  286.250    8.867    0.432   78.979
  286.500    9.209    0.428   72.002
  286.750    9.562    0.429   71.380
  287.000    9.930    0.440   73.293
  287.250   10.507    0.470   79.656
  287.500   10.509    0.474   84.750
  287.750   10.710    0.474   86.031
  288.000   10.713    0.479   80.325
  288.250   10.715    0.482   77.162
  288.500   10.717    0.464   82.886
  288.750   10.520    0.465   92.424
  289.000   10.523    0.457   92.435
  289.250   10.525    0.439   85.458
  289.500   10.729    0.440   79.752
  289.750   10.934    0.412   76.586
  290.000   11.142    0.405   79.137
  290.250   11.355    0.435   77.245
  290.500   12.243    0.436   73.446
  290.750   12.476    0.417   73.451
  291.000   13.966    0.408   77.281
  291.250   14.776    0.407   78.554
  291.500   15.932    0.414   82.375
  291.750   16.236    0.418   81.115
  292.000   16.240    0.397   73.503
  292.250   15.355    0.340   68.432
  292.500   14.518    0.236   62.726
  292.750   13.222    0.203   54.479
  293.000   12.270    0.249   43.691
  293.250   11.386    0.316   46.877
  293.500   10.370    0.441   62.132
  293.750    9.803    0.490   80.566
  294.000    9.270    0.483   89.469
  294.250    9.271    0.462   93.290
  294.500    9.101    0.442   95.841
  294.750    9.103    0.452   94.581
  295.000    8.936    0.423   94.591
  295.250    8.609    0.396   99.048
  295.500    8.294    0.394  101.602
  295.750    7.554    0.450   99.707
  296.000    6.879    0.469  102.258
  296.250    6.265    0.508  102.903
  296.500    5.705    0.507  100.370
  296.750    5.100    0.502   99.745
  297.000    4.732    0.501  103.567
  297.250    4.474    0.504   99.133
  297.500    4.310    0.509   98.509
  297.750    4.076    0.502   99.787
  298.000    3.854    0.492  102.341
  298.250    3.783    0.479  103.621
  298.500    3.784    0.487  103.634
  298.750    3.784    0.499  103.012
  299.000    3.785    0.510  103.017
  299.250    3.786    0.521  103.028
  299.500    3.859    0.533  104.943
  299.750    4.007    0.525  102.416
  300.000    4.084    0.504   98.612
  300.250    4.241    0.489   98.628
  300.500    4.572    0.481  100.539
  300.750    4.929    0.474  101.819
  301.000    5.517    0.461   98.656
  301.250    6.292    0.447   94.853
  301.500    7.883    0.437   91.052
  301.750    8.185    0.424   85.349
  302.000    8.500    0.460   82.180
  302.250    8.345    0.479   80.285
  302.500    8.039    0.490   79.663
  302.750    7.891    0.485   80.946
  303.000    7.187    0.466   82.222
  303.250    6.924    0.464   87.319
  303.500    6.925    0.461   90.505
  303.750    6.927    0.466   92.418
  304.000    7.192    0.474   92.429
  304.250    7.611    0.480   91.169
  304.500    8.053    0.485   89.274
  304.750    8.521    0.480   88.649
  305.000    8.522    0.457   90.565
  305.250    8.366    0.454   92.481
  305.500    8.212    0.446   93.761
  305.750    7.765    0.444   92.501
  306.000    7.767    0.451   93.782
  306.250    7.768    0.461   95.063
  306.500    8.067    0.473   91.900
  306.750    8.536    0.463   88.732
  307.000    8.699    0.449   85.566
  307.250    8.866    0.436   86.212
  307.500    8.702    0.428   93.844
  307.750    7.926    0.440   93.219
  308.000    7.218    0.448   91.324
  308.250    5.056    0.456   95.784
  308.500    4.519    0.440   98.332
  308.750    4.039    0.427   99.613
  309.000    3.412    0.496   99.626
  309.250    2.830    0.497   98.366
  309.500    2.726    0.497   95.200
  309.750    2.676    0.500   92.032
  310.000    2.727    0.532   89.501
  310.250    2.728    0.531   88.244
  310.500    2.728    0.511   88.254
  310.750    2.781    0.510   91.443
  311.000    2.834    0.511   91.451
  311.250    2.999    0.518   88.921
  311.500    3.114    0.522   88.296
  311.750    3.295    0.527   90.212
  312.000    3.620    0.539   93.401
  312.250    3.976    0.544   94.679
  312.500    4.207    0.524   96.595
  312.750    4.709    0.484   92.794
  313.000    5.173    0.456   90.264
  313.250    5.372    0.448   86.463
  313.500    5.274    0.444   82.662
  313.750    5.081    0.442   81.405
  314.000    4.987    0.442   83.953
  314.250    4.896    0.445   87.139
  314.500    4.543    0.437   87.150
  314.750    4.377    0.423   87.160
  315.000    3.912    0.427   89.711
  315.250    3.563    0.431   91.627
  315.500    3.432    0.435   89.099
  315.750    3.433    0.449   92.283
  316.000    3.370    0.481   97.378
  316.250    3.435    0.497  100.564
  316.500    3.500    0.500  101.845
  316.750    3.568    0.491  101.855
  317.000    3.704    0.480   99.960
  317.250    3.920    0.469   97.432
  317.500    4.070    0.453  100.618
  317.750    4.556    0.440  102.534
  318.000    4.912    0.461  101.909
  318.250    5.396    0.487   98.744
  318.500    5.397    0.467   96.211
  318.750    5.605    0.442   91.775
  319.000    5.712    0.435   86.069
  319.250    6.044    0.441   86.717
  319.500    6.639    0.419   91.171
  319.750    7.715    0.382   90.546
  320.000    8.966    0.360   84.840
  320.250   10.036    0.344   77.228
  320.500   10.819    0.330   72.794
  320.750   11.448    0.331   72.169
  321.000   11.888    0.360   72.815
  321.250   12.345    0.365   75.366
  321.500   12.347    0.360   79.820
  321.750   12.350    0.349   83.642
  322.000   11.898    0.331   83.657
  322.250   11.462    0.316   83.668
  322.500   10.246    0.309   83.675
  322.750    8.821    0.308   84.324
  323.000    6.414    0.310   82.428
  323.250    5.842    0.314   79.263
  323.500    5.420    0.336   76.095
  323.750    4.755    0.387   74.199
  324.000    4.581    0.425   78.656
  324.250    4.847    0.440   83.113
  324.500    5.325    0.382   90.745
  324.750    7.896    0.210   93.296
  325.000    8.674    0.173   85.685
  325.250   10.079    0.145   74.897
  325.500   11.496    0.178   64.747
  325.750   13.111    0.187   60.308
  326.000   12.396    0.199   59.051
  326.250   10.089    0.213   60.329
  326.500    7.476    0.220   61.610
  326.750    6.558    0.256   60.985
  327.000    6.085    0.318   57.184
  327.250    5.439    0.338   56.559
  327.500    4.953    0.344   55.934
  327.750    4.683    0.343   54.039
  328.000    4.346    0.342   51.511
  328.250    4.187    0.344   51.522
  328.500    4.110    0.349   53.440
  328.750    4.111    0.355   54.716
  329.000    4.035    0.376   59.813
  329.250    4.036    0.399   62.361
  329.500    4.037    0.404   64.277
  329.750    4.038    0.401   63.017
  330.000    4.039    0.394   60.489
  330.250    4.040    0.387   59.230
  330.500    4.041    0.382   62.418
  330.750    4.041    0.374   64.329
  331.000    4.119    0.363   67.515
  331.250    4.198    0.371   73.878
  331.500    4.278    0.380   79.605
  331.750    4.360    0.365   84.699
  332.000    4.361    0.328   83.439
  332.250    4.445    0.314   85.990
  332.500    4.446    0.321   90.447
  332.750    4.447    0.326   96.171
  333.000    4.448    0.327  101.901
  333.250    4.366    0.326  103.817
  333.500    4.206    0.330  100.016
  333.750    4.129    0.341   96.851
  334.000    3.832    0.334  105.754
  334.250    3.761    0.338  116.562
  334.500    3.692    0.351  122.927
  334.750    3.624    0.346  114.042
  335.000    3.694    0.340   88.010
  335.250    3.835    0.313   78.492
  335.500    4.059    0.308   84.219
  335.750    4.136    0.318   84.230
  336.000    4.137    0.328   79.794
  336.250    4.138    0.335   72.820
  336.500    4.139    0.331   71.557
  336.750    4.140    0.307   76.654
  337.000    4.141    0.305   74.121
  337.250    4.142    0.299   71.588
  337.500    4.143    0.297   72.234
