~VERSION INFORMATION
 VERS.                 2.0:   CWLS LOG ASCII STANDARD -VERSION 2.0
 WRAP.                  NO:   ONE LINE PER DEPTH STEP
~WELL INFORMATION BLOCK
#MNEM.UNIT           DATA                    DESCRIPTION OF MNEMONIC
#---------    -------------------            -------------------------------
# Generated from Intellog Unique Number	CX_WELLS/WELL/2307
WELL.         CDN SUP CR RAP                 : Well_name    - WELL
LOC .         00/11-29-089-12W4/0            : Location     - LOCATION
UWI .         00/11-29-089-12W400            : Uwi          - UNIQUE WELL ID
ENTR.         RJA                            : Entered      - ENTERED BY
SRVC.         SCHLUMBERGER                   : Scn          - SERVICE COMPANY
STRT.M        100                            : top_depth    - START DEPTH
STOP.M        255                            : bot_depth    - STOP DEPTH
STEP.M        0.25                           : increment    - STEP LENGTH
 NULL. -999.2500:NULL Value
~CURVE INFORMATION BLOCK
#MNEM UNIT       ERCB CURVE CODE    CURVE DESCRIPTION
#-----------   ------------------   ----------------------------------
DEPT.M        00 001 00 00         : DEPTH        - DEPTH
GR  .API      00 310 00 00         : GR           - GAMMA RAY
NPHI.V/V      00 330 00 00         : PHIN         - NEUTRON POROSITY (SANDSTONE)
DPHI.V/V      00 890 00 00         : PHID         - DENSITY POROSITY (SANDSTONE)
ILD .OHMM     00 120 00 00         : RESD         - DEEP RESISTIVITY (DIL)
~PARAMETER INFORMATION
#MNEM.UNIT           DATA             DESCRIPTION OF MNEMONIC
#---------         -----------     ------------------------------
GL  .M        520.9                : gl           - GROUND LEVEL ELEVATION
EREF.M        525                  : kb           - ELEVATION OF DEPTH REFERENCE
DATM.M        525                  : datum        - DATUM ELEVATION
TDD .M        255                  : tdd          - TOTAL DEPTH DRILLER
RUN .         ONE                  : Run          - RUN NUMBER
ENG .         BILL                 : Engineer     - RECORDING ENGINEER
WIT .         JIM                  : Witness      - WITNESSED BY
MUD .         GEL                  : Mud_type     - MUD TYPE
MATR.         SANDSTONE            : Logunit      - NEUTRON MATRIX
TMAX.C        39                   : BHT          - MAXIMUM RECORDED TEMPERATURE
BHTD.M        255                  : BHTDEP       - MAXIMUM RECORDED TEMPERATURE
MATR.         1                    : LOGUNIT      - NEUTRON MATRIX
RMT .C        25                   : MDTP         - TEMPERATURE OF MUD
NEUT.         1                    : NEUTRON      - NEUTRON TYPE
RESI.         0                    : RESIST       - RESISTIVITY TYPE
RMC .OHMM     0.25                 : RMC          - RESISTIVITY OF MUD CAKE
RMF .OHMM     0.25                 : RMF          - RESISTIVITY OF MUD FILTRATE
SUFT.C        15                   : SUFT         - SURFACE TEMPERATURE
~A  DEPTH       GR     PHIN     PHID     RESD
  100.000   63.037    0.458    0.316   14.690
  100.250   62.472    0.465    0.316   13.931
  100.500   61.289    0.477    0.319   12.976
  100.750   58.870    0.484    0.317   12.751
  101.000   57.666    0.480    0.321   12.545
  101.250   56.473    0.470    0.322   12.332
  101.500   55.279    0.464    0.323   12.577
  101.750   54.086    0.467    0.323   13.082
  102.000   53.500    0.471    0.324   13.595
  102.250   53.542    0.474    0.331   14.129
  102.500   53.584    0.464    0.335   14.962
  102.750   53.019    0.452    0.337   15.253
  103.000   51.825    0.439    0.344   16.153
  103.250   50.632    0.421    0.360   17.106
  103.500   49.438    0.406    0.366   17.446
  103.750   49.491    0.390    0.371   18.467
  104.000   49.544    0.369    0.372   19.548
  104.250   50.193    0.329    0.372   21.104
  104.500   50.246    0.416    0.370   21.913
  104.750   50.277    0.432    0.369   23.637
  105.000   50.948    0.447    0.363   24.575
  105.250   51.000    0.457    0.347   25.052
  105.500   51.032    0.465    0.340   24.638
  105.750   51.084    0.478    0.338   21.699
  106.000   51.116    0.480    0.341   18.762
  106.250   51.148    0.481    0.342   16.222
  106.500   51.211    0.489    0.339   14.026
  106.750   51.264    0.490    0.338   13.054
  107.000   51.285    0.487    0.336   12.148
  107.250   51.327    0.462    0.332   11.953
  107.500   51.379    0.435    0.322   12.195
  107.750   51.421    0.417    0.300   12.211
  108.000   50.835    0.385    0.282   12.701
  108.250   49.024    0.372    0.270   12.953
  108.500   50.323    0.385    0.274   13.462
  108.750   51.600    0.434    0.341   13.990
  109.000   52.868    0.478    0.341   14.280
  109.250   54.145    0.484    0.341   14.576
  109.500   54.187    0.485    0.341   14.595
  109.750   54.230    0.488    0.342   13.847
  110.000   54.282    0.495    0.344   13.859
  110.250   54.324    0.501    0.345   13.381
  110.500   54.995    0.496    0.342   12.920
  110.750   55.026    0.492    0.339   12.480
  111.000   55.079    0.488    0.335   12.496
  111.250   55.132    0.485    0.334   12.523
  111.500   55.163    0.480    0.334   12.539
  111.750   55.216    0.469    0.334   12.566
  112.000   55.269    0.459    0.335   12.582
  112.250   55.289    0.454    0.335   12.614
  112.500   55.971    0.451    0.335   12.641
  112.750   56.630    0.456    0.332   12.657
  113.000   57.269    0.471    0.330   12.679
  113.250   57.332    0.483    0.326   12.695
  113.500   57.364    0.485    0.322   12.722
  113.750   57.427    0.479    0.315   12.512
  114.000   56.841    0.474    0.316   12.528
  114.250   56.873    0.474    0.323   12.321
  114.500   56.307    0.473    0.326   12.347
  114.750   55.742    0.475    0.328   12.373
  115.000   55.156    0.480    0.337   12.395
  115.250   53.962    0.478    0.341   12.416
  115.500   53.397    0.477    0.341   12.437
  115.750   54.047    0.478    0.341   12.453
  116.000   54.728    0.478    0.341   12.474
  116.250   55.367    0.478    0.341   12.278
  116.500   55.409    0.478    0.341   12.070
  116.750   56.090    0.477    0.340   12.096
  117.000   56.111    0.475    0.337   12.111
  117.250   56.174    0.474    0.335   12.132
  117.500   56.205    0.473    0.333   12.384
  117.750   55.640    0.475    0.334   12.405
  118.000   55.672    0.480    0.336   12.657
  118.250   55.735    0.485    0.338   12.678
  118.500   56.384    0.488    0.339   12.706
  118.750   57.044    0.488    0.336   12.722
  119.000   57.715    0.487    0.333   12.744
  119.250   57.767    0.487    0.330   12.533
  119.500   58.406    0.487    0.333   12.325
  119.750   58.448    0.483    0.339   12.352
  120.000   59.726    0.472    0.343   12.148
  120.250   61.025    0.474    0.348   11.952
  120.500   61.056    0.486    0.342   11.962
  120.750   61.109    0.503    0.336   11.769
  121.000   61.151    0.509    0.327   11.161
  121.250   60.565    0.502    0.314   10.776
  121.500   61.864    0.497    0.311   10.602
  121.750   62.503    0.492    0.310   10.616
  122.000   63.791    0.487    0.309   10.634
  122.250   64.451    0.487    0.312   10.652
  122.500   65.111    0.488    0.321   10.671
  122.750   63.917    0.489    0.328   10.689
  123.000   62.724    0.493    0.329   10.707
  123.250   62.169    0.500    0.330   10.347
  123.500   62.190    0.507    0.331    9.986
  123.750   63.478    0.495    0.336    9.999
  124.000   64.138    0.486    0.340    9.838
  124.250   65.437    0.484    0.336    9.675
  124.500   66.076    0.481    0.335    9.691
  124.750   67.364    0.479    0.330    9.888
  125.000   68.642    0.496    0.325    9.547
  125.250   69.920    0.508    0.319    8.561
  125.500   71.815    0.517    0.311    6.877
  125.750   73.093    0.506    0.305    5.731
  126.000   73.753    0.509    0.300    4.689
  126.250   74.423    0.516    0.294    4.287
  126.500   73.848    0.521    0.287    4.453
  126.750   73.272    0.511    0.280    4.985
  127.000   75.167    0.500    0.273    5.577
  127.250   80.152    0.493    0.275    6.589
  127.500   86.372    0.493    0.285    7.646
  127.750   91.985    0.501    0.286    8.397
  128.000   96.970    0.514    0.285    7.676
  128.250  100.101    0.536    0.282    6.886
  128.500  104.478    0.554    0.279    6.294
  128.750  108.227    0.561    0.271    5.646
  129.000  110.122    0.567    0.261    5.250
  129.250  110.165    0.568    0.254    4.624
  129.500  109.589    0.568    0.246    4.148
  129.750  108.406    0.569    0.238    3.721
  130.000  107.202    0.573    0.226    3.798
  130.250  104.794    0.577    0.215    3.875
  130.500  104.208    0.576    0.205    4.103
  130.750  103.621    0.574    0.194    4.426
  131.000  103.674    0.567    0.201    4.596
  131.250  104.962    0.554    0.213    4.958
  131.500  108.093    0.556    0.227    5.248
  131.750  111.225    0.559    0.210    5.354
  132.000  113.748    0.568    0.217    5.368
  132.250  115.026    0.576    0.228    5.375
  132.500  115.079    0.570    0.219    5.384
  132.750  114.482    0.560    0.207    5.297
  133.000  112.692    0.556    0.216    5.205
  133.250  111.488    0.560    0.226    4.846
  133.500  109.676    0.567    0.237    4.679
  133.750  107.258    0.577    0.244    4.357
  134.000  106.054    0.584    0.246    4.130
  134.250  102.400    0.592    0.251    3.987
  134.500  100.578    0.596    0.252    3.850
  134.750   97.531    0.592    0.255    3.786
  135.000   93.269    0.587    0.251    3.722
  135.250   90.830    0.586    0.241    3.868
  135.500   87.783    0.589    0.230    4.327
  135.750   86.579    0.586    0.224    5.309
  136.000   83.532    0.571    0.228    6.048
  136.250   79.867    0.522    0.236    6.894
  136.500   76.820    0.509    0.244    7.712
  136.750   75.009    0.481    0.258    8.473
  137.000   73.208    0.491    0.260    8.973
  137.250   73.240    0.495    0.245    9.147
  137.500   73.303    0.492    0.227    9.333
  137.750   73.952    0.482    0.227    9.522
  138.000   75.241    0.475    0.233    9.377
  138.250   74.675    0.473    0.234    9.214
  138.500   74.089    0.471    0.232    9.061
  138.750   72.885    0.474    0.232    8.753
  139.000   72.320    0.488    0.230    8.764
  139.250   73.598    0.498    0.195    8.622
  139.500   76.729    0.498    0.180    8.634
  139.750   79.860    0.478    0.206    8.656
  140.000   84.227    0.479    0.215    8.663
  140.250   87.976    0.481    0.224    8.685
  140.500   91.107    0.482    0.235    8.700
  140.750   94.270    0.484    0.235    8.873
  141.000   95.526    0.489    0.234    8.892
  141.250   96.814    0.492    0.234    8.911
  141.500   97.474    0.489    0.234    8.919
  141.750   96.888    0.488    0.234    8.771
  142.000   95.695    0.490    0.233    8.318
  142.250   93.904    0.496    0.233    7.462
  142.500   92.711    0.501    0.233    6.944
  142.750   91.507    0.498    0.233    6.460
  143.000   89.706    0.480    0.233    5.797
  143.250   87.895    0.463    0.232    5.810
