~VERSION INFORMATION
 VERS.                 2.0:   CWLS LOG ASCII STANDARD -VERSION 2.0
 WRAP.                  NO:   ONE LINE PER DEPTH STEP
~WELL INFORMATION BLOCK
#MNEM.UNIT           DATA                    DESCRIPTION OF MNEMONIC
#---------    -------------------            -------------------------------
# Generated from Intellog Unique Number	CN_91_93/WELL/2795
WELL.         PARAMOUNT RESOURCES LTD.       : Well_name    - WELL
LOC .         00/15-35-093-21W4/0            : Location     - LOCATION
UWI .         00/15-35-093-21W4/0            : Uwi          - UNIQUE WELL ID
ENTR.         JOETTE                         : Entered      - ENTERED BY
SRVC.         COMPUTALOG                     : Scn          - SERVICE COMPANY
DATE.         03/24/92                       : Date         - LOG DATE
STRT.M        190                            : top_depth    - START DEPTH
STOP.M        358                            : bot_depth    - STOP DEPTH
STEP.M        0.25                           : increment    - STEP LENGTH
 NULL. -999.2500:NULL Value
~CURVE INFORMATION BLOCK
#MNEM UNIT       ERCB CURVE CODE    CURVE DESCRIPTION
#-----------   ------------------   ----------------------------------
DEPT.M        00 001 00 00         : DEPTH        - DEPTH
CALI.MM       00 280 01 00         : CAL          - CALIPER
GR  .API      00 310 00 00         : GR           - GAMMA RAY
NPHI.V/V      00 330 00 00         : PHIN         - NEUTRON POROSITY (SANDSTONE)
DPHI.V/V      00 890 00 00         : PHID         - DENSITY POROSITY (SANDSTONE)
ILD .OHMM     00 120 00 00         : RESD         - DEEP RESISTIVITY (DIL)
~PARAMETER INFORMATION
#MNEM.UNIT           DATA             DESCRIPTION OF MNEMONIC
#---------         -----------     ------------------------------
GL  .M        665.6                : gl           - GROUND LEVEL ELEVATION
EREF.M        669                  : kb           - ELEVATION OF DEPTH REFERENCE
DATM.M        669                  : datum        - DATUM ELEVATION
TDD .M        356.5                : tdd          - TOTAL DEPTH DRILLER
RUN .         ONE                  : Run          - RUN NUMBER
ENG .         BILL                 : Engineer     - RECORDING ENGINEER
WIT .         JIM                  : Witness      - WITNESSED BY
MUD .         GEL                  : Mud_type     - MUD TYPE
MATR.         SANDSTONE            : Logunit      - NEUTRON MATRIX
TMAX.C        27                   : BHT          - MAXIMUM RECORDED TEMPERATURE
BHTD.M        356.5                : BHTDEP       - MAXIMUM RECORDED TEMPERATURE
RMT .C        13                   : MDTP         - TEMPERATURE OF MUD
MUDD.KG/M     1100                 : MWT          - MUD DENSITY
NEUT.         1                    : NEUTRON      - NEUTRON TYPE
RESI.         0                    : RESIST       - RESISTIVITY TYPE
RM  .OHMM     1.5                  : RM           - RESISTIVITY OF MUD
RMC .OHMM     1.5                  : RMC          - RESISTIVITY OF MUD CAKE
RMF .OHMM     1.5                  : RMF          - RESISTIVITY OF MUD FILTRATE
SUFT.C        4                    : SUFT         - SURFACE TEMPERATURE
~A  DEPTH      CAL       GR     PHIN     PHID     RESD
# ...
  336.000  178.116  105.910    0.375    0.117    9.695
  336.250  177.176  100.902    0.344    0.077    9.707
  336.500  175.183   99.074    0.340    0.059   10.118
  336.750  173.162  104.219    0.372    0.101    9.945
  337.000  173.305  108.715    0.397    0.165    8.692
  337.250  176.610  115.740    0.428    0.232    7.025
  337.500  178.862  120.236    0.472    0.225    6.017
  337.750  178.948  116.527    0.473    0.218    5.259
  338.000  178.009  113.417    0.458    0.210    4.420
  338.250  179.178  106.530    0.427    0.210    5.184
  338.500  181.429  101.557    0.400    0.181    6.449
  338.750  180.432   97.182    0.359    0.101    7.409
  339.000  178.468   96.003    0.330    0.080    8.862
  339.250  177.500  101.131    0.344    0.169    9.991
  339.500  177.644  104.977    0.388    0.188   11.050
  339.750  176.733  109.490    0.404    0.190   11.512
  340.000  176.790  113.370    0.409    0.177   10.676
  340.250  179.013  112.174    0.417    0.158    9.901
  340.500  181.236  112.243    0.431    0.165    9.726
  340.750  183.487  116.106    0.430    0.167    9.743
  341.000  186.793  116.175    0.418    0.162    9.588
  341.250  184.771  112.433    0.417    0.148    9.600
  341.500  180.670  102.383    0.407    0.136    9.622
  341.750  174.489   94.846    0.385    0.134   10.030
  342.000  173.493   84.797    0.350    0.193   10.872
  342.250  174.662   74.098    0.336    0.459   11.557
  342.500  182.183   68.476    0.352    0.476   12.528
  342.750  192.866   65.400    0.363    0.319   13.849
  343.000  183.467   86.337    0.324    0.265   18.270
  343.250  169.908  102.233    0.305    0.117   19.816
  343.500  172.131  111.788    0.311    0.154   18.000
  343.750  174.383  118.215    0.330    0.167   13.988
  344.000  175.523  117.634    0.346    0.178   12.973
  344.250  176.720  117.071    0.364    0.185   12.496
  344.500  177.831  117.139    0.367    0.175   12.045
  344.750  176.950  120.387    0.365    0.165   12.080
  345.000  177.036  121.704    0.367    0.167   12.355
  345.250  175.043  117.978    0.368    0.156   12.614
  345.500  176.211  111.091    0.357    0.138   13.149
  345.750  177.380  105.451    0.329    0.110   14.254
  346.000  176.412   99.829    0.315    0.156   17.387
  346.250  171.286   99.915    0.318    0.193   18.848
  346.500  170.318  102.496    0.330    0.208   19.646
  346.750  170.490  108.906    0.351    0.209   19.704
  347.000  170.548  110.240    0.359    0.209   18.981
  347.250  172.770  110.941    0.352    0.202   18.306
  347.500  176.076  113.556    0.337    0.198   17.993
  347.750  176.191  112.976    0.319    0.179   17.686
  348.000  171.064  108.618    0.299    0.159   18.089
  348.250  169.014   97.936    0.276    0.077   19.217
  348.500  164.941   87.237    0.263    0.034   21.663
  348.750  162.948   83.512    0.272    0.086   23.947
  349.000  160.955   86.111    0.289    0.248   25.959
  349.250  161.041   92.503    0.307    0.289   27.059
  349.500  161.156  100.827    0.333    0.334   27.675
  349.750  163.436  100.264    0.334    0.301   27.724
  350.000  164.605   99.700    0.328    0.261   27.805
  350.250  165.802  100.402    0.339    0.233   26.800
  350.500  165.860  101.735    0.351    0.220   24.840
  350.750  166.032  102.437    0.364    0.218   22.126
  351.000  166.118  102.505    0.367    0.218   18.952
  351.250  166.204  102.574    0.370    0.219   15.028
  351.500  167.373   98.849    0.392    0.211   14.196
  351.750  170.707  100.165    0.438    0.202   13.165
  352.000  171.818  102.798    0.414    0.189   12.443
  352.250  174.070  102.850    0.411    0.183   11.994
  352.500  174.184  102.286    0.415    0.179   11.560
  352.750  172.163   96.647    0.413    0.178   11.149
  353.000  168.061   90.409    0.396    0.181   10.946
  353.250  165.043   93.622    0.384    0.186   10.550
  353.500  165.158   97.486    0.382    0.187   10.370
  353.750  167.409   98.221    0.393    0.166   10.395
  354.000  167.495   95.094    0.411    0.166   10.217
  354.250  167.581   89.488    0.421    0.169   10.049
  354.500  166.671   86.378    0.424    0.185    9.877
  354.750  166.814   84.567    0.419    0.199    9.702
  355.000  166.929   87.165    0.415    0.189    9.352
  355.250  167.073   95.455    0.413    0.189    8.668
  355.500  167.130  103.113    0.416    0.208    7.725
  355.750  166.220  109.523    0.454    0.282    6.756
  356.000  166.306  112.788    0.484    0.291    6.258
  356.250  165.395  112.822    0.506    0.294    5.800
  356.500  165.510  109.712    0.520    0.295    5.482
  356.750  164.600  104.739    0.520    0.295    5.185
  357.000  164.686  102.261    0.513    0.295    4.992
  357.250  164.829  101.083    0.504    0.296    4.723
  357.500  163.890  100.519    0.504    0.297    4.640
  357.750  162.951   99.306    0.505    0.297    4.648
  358.000  160.958   96.230    0.507    0.298    4.662
