~VERSION INFORMATION
 VERS.                 2.0:   CWLS LOG ASCII STANDARD -VERSION 2.0
 WRAP.                  NO:   ONE LINE PER DEPTH STEP
~WELL INFORMATION BLOCK
#MNEM.UNIT           DATA                    DESCRIPTION OF MNEMONIC
#---------    -------------------            -------------------------------
# Generated from Intellog Unique Number	CS_73_76/WELL/3246
WELL.         STANDARD OIL COMPANY           : Well_name    - WELL
LOC .         00/10-27-076-11W4/0            : Location     - LOCATION
UWI .         00/10-27-076-11W4/0            : Uwi          - UNIQUE WELL ID
ENTR.         SP                             : Entered      - ENTERED BY
SRVC.         SCHLUMBERGER                   : Scn          - SERVICE COMPANY
STRT.M        268.224                        : top_depth    - START DEPTH
STOP.M        502.724                        : bot_depth    - STOP DEPTH
STEP.M        0.25                           : increment    - STEP LENGTH
 NULL. -999.2500:NULL Value
~CURVE INFORMATION BLOCK
#MNEM UNIT       ERCB CURVE CODE    CURVE DESCRIPTION
#-----------   ------------------   ----------------------------------
DEPT.M        00 001 00 00         : DEPTH        - DEPTH
GR  .API      00 310 00 00         : GR           - GAMMA RAY
DPHI.V/V      00 890 00 00         : PHID         - DENSITY POROSITY (SANDSTONE)
NPHI.V/V      00 330 00 00         : PHIN         - NEUTRON POROSITY (SANDSTONE)
ILD .OHMM     00 120 00 00         : RESD         - DEEP RESISTIVITY (DIL)
~PARAMETER INFORMATION
#MNEM.UNIT           DATA             DESCRIPTION OF MNEMONIC
#---------         -----------     ------------------------------
GL  .M        665.165              : gl           - GROUND LEVEL ELEVATION
EREF.M        668.426              : kb           - ELEVATION OF DEPTH REFERENCE
DATM.M        665.165              : datum        - DATUM ELEVATION
TDD .M        531.266              : tdd          - TOTAL DEPTH DRILLER
RUN .         ONE                  : Run          - RUN NUMBER
ENG .         BILL                 : Engineer     - RECORDING ENGINEER
WIT .         JIM                  : Witness      - WITNESSED BY
MUD .         GEL                  : Mud_type     - MUD TYPE
MATR.         SANDSTONE            : Logunit      - NEUTRON MATRIX
TMAX.C        22.7778              : BHT          - MAXIMUM RECORDED TEMPERATURE
BHTD.M        531.266              : BHTDEP       - MAXIMUM RECORDED TEMPERATURE
MATR.         1                    : LOGUNIT      - NEUTRON MATRIX
RMT .C        25                   : MDTP         - TEMPERATURE OF MUD
NEUT.         1                    : NEUTRON      - NEUTRON TYPE
RESI.         0                    : RESIST       - RESISTIVITY TYPE
RMC .OHMM     0.25                 : RMC          - RESISTIVITY OF MUD CAKE
RMF .OHMM     0.25                 : RMF          - RESISTIVITY OF MUD FILTRATE
SUFT.C        15                   : SUFT         - SURFACE TEMPERATURE
~A  DEPTH       GR     PHID     PHIN     RESD
  268.224  105.000    0.238    0.588    4.286
  268.474  106.238    0.225    0.585    4.287
  268.724  108.683    0.236    0.576    4.289
  268.974  106.884    0.236    0.593    4.287
  269.224  105.700    0.237    0.595    4.424
  269.474  102.112    0.234    0.584    4.452
  269.724   98.615    0.232    0.586    4.455
  269.974   98.991    0.240    0.592    4.458
  270.224  100.273    0.243    0.592    4.466
  270.474   99.760    0.235    0.587    4.536
  270.724   99.657    0.228    0.584    4.620
  270.974   99.643    0.247    0.574    4.805
  271.224   98.225    0.260    0.566    4.981
  271.474   97.243    0.277    0.562    5.569
  271.724   96.708    0.346    0.578    6.209
  271.974   93.733    0.366    0.571    7.231
  272.224   89.492    0.422    0.590    8.177
  272.474   82.079    0.445    0.594    8.808
  272.724   73.927    0.311    0.584    9.092
  272.974   66.492    0.293    0.516    9.665
  273.224   57.878    0.305    0.506   11.289
  273.474   51.555    0.307    0.498   13.106
  273.724   46.705    0.315    0.473   14.909
  273.974   43.550    0.332    0.452   16.880
  274.224   41.398    0.317    0.432   17.899
  274.474   40.324    0.323    0.441   19.200
  274.724   42.946    0.300    0.448   19.425
  274.974   47.517    0.295    0.454   19.565
  275.224   51.451    0.307    0.463   19.254
  275.474   57.693    0.312    0.479   18.132
  275.724   63.217    0.294    0.489   17.082
  275.974   68.564    0.235    0.464   16.066
  276.224   72.117    0.209    0.451   15.556
  276.474   70.857    0.239    0.453   15.456
  276.724   71.174    0.271    0.464   15.757
  276.974   74.191    0.288    0.471   15.372
  277.224   79.504    0.256    0.477   14.028
  277.474   83.277    0.247    0.485   12.831
  277.724   86.697    0.256    0.494   12.194
  277.974   87.197    0.248    0.503   12.390
  278.224   88.679    0.241    0.491   12.536
  278.474   94.018    0.252    0.485   12.591
  278.724   96.144    0.257    0.474   11.990
  278.974   96.549    0.260    0.473   11.626
  279.224   96.313    0.252    0.484   11.277
  279.474   96.823    0.243    0.494   10.949
  279.724   96.499    0.235    0.487   10.696
  279.974   93.078    0.243    0.458   10.716
  280.224   89.854    0.249    0.456   10.703
  280.474   88.536    0.250    0.468   11.001
  280.724   91.438    0.265    0.464   11.338
  280.974   90.442    0.282    0.478   11.795
  281.224   89.603    0.300    0.487   12.831
  281.474   89.643    0.295    0.485   13.606
  281.724   91.040    0.285    0.478   14.316
  281.974   97.340    0.269    0.470   14.701
  282.224  102.003    0.255    0.476   14.922
  282.474  104.864    0.238    0.485   15.391
  282.724   99.903    0.250    0.489   15.876
  282.974   92.359    0.256    0.475   16.139
  283.224   89.523    0.264    0.461   16.137
  283.474   90.977    0.245    0.462   15.789
  283.724   92.923    0.234    0.454   13.978
  283.974   94.770    0.216    0.442   12.011
  284.224   98.663    0.209    0.434   10.210
  284.474  101.442    0.205    0.455    8.690
  284.724  104.155    0.184    0.485    7.743
  284.974  108.700    0.164    0.514    7.219
  285.224  112.425    0.143    0.531    6.663
  285.474  109.926    0.123    0.520    6.137
  285.724  113.093    0.145    0.510    5.696
  285.974  118.318    0.170    0.528    5.367
  286.224  120.285    0.182    0.556    5.060
  286.474  117.095    0.164    0.568    4.846
  286.724  116.099    0.175    0.586    4.703
  286.974  109.456    0.227    0.598    4.806
  287.224  101.415    0.244    0.612    5.423
  287.474   91.046    0.288    0.586    6.598
  287.724   75.692    0.320    0.509    8.737
  287.974   66.887    0.332    0.469   11.954
  288.224   61.591    0.344    0.466   15.178
  288.474   63.615    0.329    0.471   17.326
  288.724   68.854    0.309    0.492   19.048
  288.974   77.102    0.297    0.522   19.919
  289.224   81.292    0.303    0.499   19.315
  289.474   84.910    0.313    0.480   18.549
  289.724   78.675    0.297    0.481   17.799
  289.974   74.162    0.302    0.496   17.521
  290.224   69.329    0.311    0.507   17.177
  290.474   66.433    0.306    0.523   16.882
  290.724   65.738    0.301    0.515   16.691
  290.974   66.403    0.304    0.499   16.593
  291.224   64.750    0.314    0.485   16.582
  291.474   63.092    0.327    0.474   16.421
  291.724   62.262    0.331    0.478   16.300
  291.974   63.851    0.332    0.482   16.297
  292.224   65.841    0.326    0.483   16.302
  292.474   67.865    0.316    0.486   16.301
  292.724   70.008    0.317    0.502   16.552
  292.974   71.370    0.312    0.517   16.605
  293.224   73.094    0.308    0.511   16.617
  293.474   76.266    0.307    0.508   16.327
  293.724   80.270    0.310    0.512   15.907
  293.974   83.231    0.297    0.511   15.756
  294.224   87.347    0.282    0.509   14.884
  294.474   90.246    0.265    0.509   11.319
  294.724   99.205    0.244    0.519    9.219
  294.974  107.967    0.210    0.540    7.819
  295.224  119.730    0.175    0.561    6.813
  295.474  124.917    0.164    0.542    6.498
  295.724  124.910    0.190    0.516    6.741
  295.974  119.062    0.212    0.500    7.176
  296.224  112.540    0.222    0.482    7.760
  296.474  109.251    0.229    0.473    8.499
  296.724  104.343    0.237    0.478    9.606
  296.974   98.834    0.250    0.483   10.646
  297.224   94.219    0.258    0.488   11.700
  297.474   90.160    0.259    0.481   12.199
  297.724   86.631    0.274    0.475   12.478
  297.974   85.910    0.264    0.476   12.141
  298.224   95.581    0.258    0.485   11.449
  298.474  102.996    0.242    0.488   10.240
  298.724  108.210    0.233    0.501    9.600
  298.974  109.828    0.244    0.510    9.314
  299.224  107.168    0.241    0.492    9.302
  299.474  104.945    0.251    0.474    9.111
  299.724  102.639    0.241    0.468    8.828
  299.974  100.040    0.246    0.474    8.781
  300.224   93.769    0.256    0.471    9.113
  300.474   88.517    0.277    0.473    9.534
  300.724   82.439    0.297    0.472   10.537
  300.974   78.262    0.303    0.453   10.948
  301.224   75.910    0.295    0.471   11.471
  301.474   79.866    0.309    0.480   10.924
  301.724   85.647    0.326    0.495   10.962
  301.974   83.209    0.319    0.518   11.070
  302.224   80.278    0.331    0.546   11.446
  302.474   77.120    0.337    0.571   11.998
  302.724   76.945    0.317    0.529   12.695
  302.974   80.487    0.303    0.512   13.486
  303.224   82.093    0.298    0.513   13.927
  303.474   80.299    0.282    0.505   14.056
  303.724   78.727    0.300    0.502   14.267
  303.974   78.675    0.317    0.501   14.421
  304.224   79.531    0.316    0.483   14.530
  304.474   81.017    0.317    0.487   14.520
  304.724   81.866    0.301    0.490   14.840
  304.974   80.429    0.313    0.484   14.818
  305.224   80.468    0.323    0.479   14.822
  305.474   81.222    0.317    0.493   14.832
  305.724   80.487    0.315    0.498   14.841
  305.974   79.029    0.325    0.499   15.129
  306.224   78.903    0.317    0.508   15.117
  306.474   79.915    0.306    0.495   15.119
  306.724   79.157    0.314    0.493   15.149
  306.974   78.759    0.304    0.513   14.793
  307.224   79.213    0.300    0.527   14.097
  307.474   82.071    0.309    0.503   13.312
  307.724   85.685    0.301    0.497   12.021
  307.974   89.582    0.278    0.502   11.157
  308.224   93.182    0.288    0.518   10.286
  308.474   95.056    0.293    0.520    9.715
  308.724   95.701    0.286    0.517    9.426
  308.974   94.121    0.275    0.511    9.412
  309.224   92.562    0.261    0.527    9.223
  309.474   91.574    0.251    0.528    9.115
  309.724   91.637    0.264    0.513    9.067
  309.974   94.281    0.254    0.492    9.064
  310.224   96.979    0.234    0.475    9.065
  310.474   98.063    0.254    0.466    9.061
  310.724   97.116    0.265    0.466    9.225
  310.974   91.046    0.262    0.464    9.311
  311.224   85.769    0.254    0.472    9.617
  311.474   83.844    0.244    0.465    9.917
