~VERSION INFORMATION
 VERS.                 2.0:   CWLS LOG ASCII STANDARD -VERSION 2.0
 WRAP.                  NO:   ONE LINE PER DEPTH STEP
~WELL INFORMATION BLOCK
#MNEM.UNIT           DATA                    DESCRIPTION OF MNEMONIC
#---------    -------------------            -------------------------------
# Generated from Intellog Unique Number	CW_79_81/WELL/702
WELL.         ATCOR ET AL PELICAN            : Well_name    - WELL
LOC .         00/10-06-079-24W4/0            : Location     - LOCATION
UWI .         00/10-06-079-24W4/0            : Uwi          - UNIQUE WELL ID
ENTR.         MAX                            : Entered      - ENTERED BY
SRVC.         COMPUTALOG                     : Scn          - SERVICE COMPANY
STRT.M        275                            : top_depth    - START DEPTH
STOP.M        515                            : bot_depth    - STOP DEPTH
STEP.M        0.25                           : increment    - STEP LENGTH
 NULL. -999.2500:NULL Value
~CURVE INFORMATION BLOCK
#MNEM UNIT       ERCB CURVE CODE    CURVE DESCRIPTION
#-----------   ------------------   ----------------------------------
DEPT.M        00 001 00 00         : DEPTH        - DEPTH
ILD .OHMM     00 120 00 00         : RESD         - DEEP RESISTIVITY (DIL)
NPHI.V/V      00 330 00 00         : PHIN         - NEUTRON POROSITY (SANDSTONE)
DPHI.V/V      00 890 00 00         : PHID         - DENSITY POROSITY (SANDSTONE)
CALI.MM       00 280 01 00         : CAL          - CALIPER
GR  .API      00 310 00 00         : GR           - GAMMA RAY
~PARAMETER INFORMATION
#MNEM.UNIT           DATA             DESCRIPTION OF MNEMONIC
#---------         -----------     ------------------------------
GL  .M        594.9                : gl           - GROUND LEVEL ELEVATION
EREF.M        598.6                : kb           - ELEVATION OF DEPTH REFERENCE
DATM.M        594.9                : datum        - DATUM ELEVATION
TDD .M        520                  : tdd          - TOTAL DEPTH DRILLER
RUN .         ONE                  : Run          - RUN NUMBER
ENG .         BILL                 : Engineer     - RECORDING ENGINEER
WIT .         JIM                  : Witness      - WITNESSED BY
MUD .         GEL                  : Mud_type     - MUD TYPE
MATR.         SANDSTONE            : Logunit      - NEUTRON MATRIX
TMAX.C        32                   : BHT          - MAXIMUM RECORDED TEMPERATURE
BHTD.M        520                  : BHTDEP       - MAXIMUM RECORDED TEMPERATURE
RMT .C        16.7                 : MDTP         - TEMPERATURE OF MUD
MUDD.KG/M     1150                 : MWT          - MUD DENSITY
NEUT.         1                    : NEUTRON      - NEUTRON TYPE
RESI.         0                    : RESIST       - RESISTIVITY TYPE
RM  .OHMM     5.1                  : RM           - RESISTIVITY OF MUD
RMC .OHMM     0                    : RMC          - RESISTIVITY OF MUD CAKE
RMF .OHMM     4.7                  : RMF          - RESISTIVITY OF MUD FILTRATE
SUFT.C        -20                  : SUFT         - SURFACE TEMPERATURE
~A  DEPTH     RESD     PHIN     PHID      CAL       GR
  275.000    2.893    0.464    0.207  202.080   83.373
  275.250    2.923    0.481    0.228  202.125   83.400
  275.500    3.009    0.501    0.245  203.197   83.728
  275.750    3.902    0.510    0.260  206.797   85.581
  276.000    6.316    0.482    0.258  209.880   84.091
  276.250    9.672    0.460    0.212  210.427   79.552
  276.500   12.782    0.433    0.190  208.450   65.889
  276.750   14.427    0.406    0.226  200.885   57.703
  277.000   16.602    0.406    0.279  195.359   56.209
  277.250   16.319    0.419    0.291  194.391   56.548
  277.500   15.896    0.427    0.293  194.955   57.785
  277.750   15.917    0.419    0.287  195.502   59.033
  278.000   16.545    0.405    0.285  196.055   58.757
  278.250   17.348    0.408    0.291  195.588   59.392
  278.500   18.708    0.420    0.300  193.612   59.724
  278.750   19.989    0.421    0.303  192.131   59.147
  279.000   20.203    0.426    0.296  192.176   58.566
  279.250   20.047    0.427    0.292  196.290   57.072
  279.500   19.528    0.414    0.283  200.893   53.145
  279.750   18.847    0.419    0.269  202.460   51.039
  280.000   18.027    0.414    0.259  202.512   52.291
  280.250   17.557    0.401    0.243  201.031   55.968
  280.500   17.424    0.401    0.225  200.569   58.730
  280.750   17.614    0.393    0.229  200.627   61.195
  281.000   18.128    0.397    0.229  201.681   62.135
  281.250   20.094    0.414    0.209  202.239   64.904
  281.500   25.121    0.415    0.198  202.786   66.453
  281.750   29.166    0.393    0.181  203.339   64.347
  282.000   30.028    0.379    0.169  203.892   56.769
  282.250   30.066    0.353    0.189  203.944   49.800
  282.500   29.293    0.371    0.240  203.494   49.222
  282.750   28.012    0.370    0.276  203.027   51.379
  283.000   26.542    0.376    0.296  203.574   50.795
  283.250   24.913    0.387    0.296  204.132   48.088
  283.500   23.605    0.399    0.286  204.178   47.811
  283.750   22.787    0.403    0.281  204.230   47.839
  284.000   22.201    0.400    0.289  203.262   50.611
  284.250   21.827    0.407    0.296  202.299   53.065
  284.500   21.262    0.418    0.294  201.832   53.708
  284.750   21.097    0.430    0.278  202.385   53.425
  285.000   21.127    0.425    0.275  203.946   54.977
  285.250   21.162    0.415    0.277  203.491   55.004
  285.500   21.587    0.409    0.272  203.024   55.035
  285.750   22.225    0.405    0.266  201.565   57.195
  286.000   22.882    0.392    0.272  201.099   59.041
  286.250   23.782    0.395    0.278  202.153   57.855
  286.500   24.480    0.410    0.280  203.213   57.578
  286.750   25.678    0.403    0.285  202.250   56.693
  287.000   26.682    0.415    0.282  202.296   53.378
  287.250   27.471    0.418    0.268  202.342   52.493
  287.500   27.263    0.391    0.255  202.393   53.125
  287.750   24.891    0.363    0.260  201.926   54.069
  288.000   21.304    0.336    0.267  201.471   54.096
  288.250   15.030    0.330    0.269  201.004   52.907
  288.500   14.635    0.394    0.267  200.041   53.245
  288.750   13.614    0.426    0.258  199.574   54.791
  289.000   10.434    0.419    0.244  199.119   57.252
  289.250    8.687    0.401    0.242  200.190   59.713
  289.500    7.435    0.406    0.244  200.230   62.475
  289.750    6.424    0.416    0.249  199.256   66.464
  290.000    5.812    0.398    0.259  194.739   70.139
  290.250    5.457    0.428    0.243  190.227   75.034
  290.500    5.415    0.434    0.235  193.321   80.240
  290.750    5.423    0.432    0.238  195.890   80.571
  291.000    5.636    0.424    0.241  201.519   80.599
  291.250    6.075    0.415    0.236  202.585   80.630
  291.500    7.879    0.418    0.221  202.630   80.346
  291.750   10.410    0.435    0.223  202.163   80.070
  292.000   13.130    0.448    0.237  201.708   78.884
  292.250   17.029    0.444    0.252  201.754   69.477
  292.500   20.704    0.410    0.260  202.312   57.032
  292.750   21.914    0.395    0.277  202.865   50.975
  293.000   21.752    0.386    0.276  203.412   47.659
  293.250   21.189    0.381    0.253  203.971   46.774
  293.500   20.443    0.374    0.247  203.504   47.102
  293.750   19.370    0.361    0.252  202.536   47.133
  294.000   17.862    0.362    0.250  201.072   46.559
  294.250   17.075    0.363    0.226  201.112   46.583
  294.500   16.185    0.355    0.218  200.149   46.915
  294.750   15.763    0.340    0.216  200.201   48.163
  295.000   15.500    0.345    0.232  200.235   50.012
  295.250   15.522    0.384    0.253  200.281   52.166
  295.500   15.539    0.380    0.252  200.338   54.938
  295.750   15.562    0.376    0.245  200.384   55.270
  296.000   15.444    0.379    0.241  200.937   56.206
  296.250   15.047    0.379    0.236  200.983   59.276
  296.500   14.654    0.374    0.231  201.023   60.828
  296.750   14.144    0.365    0.225  201.068   60.855
  297.000   13.283    0.362    0.218  201.114   64.838
  297.250   13.057    0.363    0.216  201.166   77.044
  297.500   13.319    0.372    0.219  201.217   79.803
  297.750   14.098    0.368    0.222  200.756   84.701
  298.000   15.203    0.340    0.229  201.309   81.075
  298.250   15.505    0.310    0.240  201.349   62.240
  298.500   15.104    0.310    0.238  201.395   58.313
  298.750   13.923    0.329    0.245  201.441   61.991
  299.000   12.948    0.337    0.248  201.492   68.103
  299.250   10.886    0.370    0.242  201.538   75.131
  299.500   10.218    0.393    0.231  201.584   79.421
  299.750    9.415    0.395    0.226  203.156   84.312
  300.000    8.519    0.381    0.232  204.210   94.687
  300.250    7.637    0.380    0.234  203.749   97.151
  300.500    7.236    0.401    0.239  202.280   94.133
  300.750    7.050    0.422    0.261  200.816   89.902
  301.000    7.192    0.431    0.249  200.349   89.936
  301.250    7.755    0.416    0.219  200.896   88.442
  301.500    8.596    0.406    0.174  201.962   85.120
  301.750    9.187    0.398    0.180  202.509   80.581
  302.000    9.030    0.396    0.232  202.053   75.437
  302.250    8.635    0.385    0.238  201.085   77.293
  302.500    8.107    0.400    0.260  202.156   81.884
  302.750    7.402    0.439    0.288  205.233   81.915
  303.000    6.455    0.457    0.280  210.862   82.547
  303.250    5.948    0.453    0.230  210.400   87.145
  303.500    5.849    0.444    0.212  205.376   90.515
  303.750    6.133    0.448    0.236  203.895   95.714
  304.000    6.737    0.450    0.262  203.439  104.872
  304.250    8.421    0.447    0.290  203.491   96.385
  304.500   11.125    0.431    0.302  204.049   91.233
  304.750   13.399    0.394    0.306  204.095   84.872
  305.000   14.449    0.385    0.281  203.628   76.382
  305.250   14.737    0.422    0.269  203.668   76.105
  305.500   14.626    0.421    0.264  203.714   80.098
  305.750   14.118    0.398    0.258  203.771   77.992
  306.000   12.893    0.388    0.244  204.324   80.146
  306.250   11.450    0.384    0.232  204.877   84.128
  306.500    9.982    0.386    0.231  204.923   87.813
  306.750    7.792    0.387    0.236  205.470   87.837
  307.000    6.139    0.388    0.246  205.516   87.865
  307.250    5.113    0.396    0.254  208.103   89.112
  307.500    5.073    0.438    0.254  215.759   91.266
  307.750    5.176    0.469    0.257  221.890   92.514
  308.000    5.376    0.476    0.244  220.921   89.496
  308.250    6.784    0.411    0.211  215.891   71.879
  308.500   10.876    0.319    0.236  211.374   61.258
  308.750   15.187    0.343    0.290  205.341   57.639
  309.000   18.983    0.394    0.312  202.339   61.009
  309.250   21.433    0.418    0.321  200.875   62.565
  309.500   18.348    0.418    0.316  199.901   62.893
  309.750   14.861    0.407    0.293  197.919   64.441
  310.000   13.573    0.406    0.264  195.936   66.598
  310.250   13.590    0.423    0.262  194.974   69.060
  310.500   14.387    0.446    0.288  195.527   73.650
  310.750   15.947    0.441    0.315  197.601   67.594
  311.000   18.515    0.409    0.330  198.153   59.711
  311.250   20.709    0.390    0.338  197.698   54.871
