~VERSION INFORMATION
 VERS.                 2.0:   CWLS LOG ASCII STANDARD -VERSION 2.0
 WRAP.                  NO:   ONE LINE PER DEPTH STEP
~WELL INFORMATION BLOCK
#MNEM.UNIT           DATA                    DESCRIPTION OF MNEMONIC
#---------    -------------------            -------------------------------
# Generated from Intellog Unique Number	CS_73_76/WELL/2210
WELL.         WAINOCO OIL & GAS LIMITED      : Well_name    - WELL
LOC .         00/14-18-074-12W4/0            : Location     - LOCATION
UWI .         00/14-18-074-12W4/0            : Uwi          - UNIQUE WELL ID
ENTR.         SP                             : Entered      - ENTERED BY
SRVC.         SCHLUMBERGER                   : Scn          - SERVICE COMPANY
STRT.M        310                            : top_depth    - START DEPTH
STOP.M        533                            : bot_depth    - STOP DEPTH
STEP.M        0.25                           : increment    - STEP LENGTH
 NULL. -999.2500:NULL Value
~CURVE INFORMATION BLOCK
#MNEM UNIT       ERCB CURVE CODE    CURVE DESCRIPTION
#-----------   ------------------   ----------------------------------
DEPT.M        00 001 00 00         : DEPTH        - DEPTH
ILD .OHMM     00 120 00 00         : RESD         - DEEP RESISTIVITY (DIL)
DPHI.V/V      00 890 00 00         : PHID         - DENSITY POROSITY (LIMESTONE)
NPHI.V/V      00 330 00 00         : PHIN         - NEUTRON POROSITY (LIMESTONE)
GR  .API      00 310 00 00         : GR           - GAMMA RAY
~PARAMETER INFORMATION
#MNEM.UNIT           DATA             DESCRIPTION OF MNEMONIC
#---------         -----------     ------------------------------
GL  .M        679.35               : gl           - GROUND LEVEL ELEVATION
EREF.M        682.6                : kb           - ELEVATION OF DEPTH REFERENCE
DATM.M        679.35               : datum        - DATUM ELEVATION
TDD .M        543                  : tdd          - TOTAL DEPTH DRILLER
RUN .         ONE                  : Run          - RUN NUMBER
ENG .         BILL                 : Engineer     - RECORDING ENGINEER
WIT .         JIM                  : Witness      - WITNESSED BY
MUD .         GEL                  : Mud_type     - MUD TYPE
MATR.         LIMESTONE            : Logunit      - NEUTRON MATRIX
TMAX.C        23                   : BHT          - MAXIMUM RECORDED TEMPERATURE
BHTD.M        543                  : BHTDEP       - MAXIMUM RECORDED TEMPERATURE
MATR.         1                    : LOGUNIT      - NEUTRON MATRIX
RMT .C        25                   : MDTP         - TEMPERATURE OF MUD
NEUT.         1                    : NEUTRON      - NEUTRON TYPE
RESI.         0                    : RESIST       - RESISTIVITY TYPE
RMC .OHMM     0.25                 : RMC          - RESISTIVITY OF MUD CAKE
RMF .OHMM     0.25                 : RMF          - RESISTIVITY OF MUD FILTRATE
SUFT.C        15                   : SUFT         - SURFACE TEMPERATURE
~A  DEPTH     RESD     PHID     PHIN       GR
# ...
  397.000    4.138    0.263    0.479   86.532
  397.250    4.548    0.277    0.482   80.455
  397.500    5.093    0.283    0.473   71.337
  397.750    5.704    0.274    0.450   67.082
  398.000    5.924    0.286    0.408   64.646
  398.250    6.270    0.297    0.397   62.819
  398.500    6.636    0.304    0.401   60.383
  398.750    6.638    0.306    0.404   62.199
  399.000    6.767    0.304    0.406   66.442
  399.250    6.898    0.307    0.406   68.260
  399.500    6.899    0.305    0.409   70.683
  399.750    7.033    0.312    0.402   72.497
  400.000    7.035    0.318    0.403   71.885
  400.250    7.037    0.323    0.414   74.307
  400.500    7.038    0.334    0.425   76.731
  400.750    6.910    0.325    0.423   78.547
  401.000    6.532    0.321    0.416   79.145
  401.250    6.060    0.320    0.410   80.963
  401.500    5.415    0.319    0.412   85.203
  401.750    5.023    0.309    0.421   87.020
  402.000    4.163    0.296    0.411   88.837
  402.250    3.790    0.284    0.407   89.441
  402.500    3.323    0.278    0.427   91.257
  402.750    3.201    0.271    0.445   90.036
  403.000    3.325    0.277    0.456   83.956
  403.250    3.654    0.288    0.463   78.485
  403.500    4.330    0.300    0.472   73.013
  403.750    4.850    0.327    0.411   71.793
  404.000    5.329    0.337    0.399   71.787
  404.250    5.640    0.324    0.407   73.603
  404.500    5.970    0.309    0.407   76.026
  404.750    6.201    0.294    0.423   78.449
  405.000    6.320    0.275    0.448   82.085
  405.250    6.322    0.267    0.432   83.902
  405.500    6.324    0.268    0.409   79.036
  405.750    6.326    0.281    0.406   75.388
  406.000    6.571    0.297    0.395   70.523
  406.250    6.954    0.313    0.388   66.266
  406.500    7.643    0.325    0.399   65.045
  406.750    8.559    0.319    0.380   65.646
  407.000    9.954    0.308    0.368   68.070
  407.250   11.575    0.291    0.353   67.456
  407.500   14.512    0.257    0.332   65.020
  407.750   18.892    0.074    0.282   61.976
  408.000   24.136    0.053    0.223   60.148
  408.250   28.067    0.028    0.141   58.928
  408.500   30.270    0.019    0.120   58.315
  408.750   28.084    0.010    0.100   57.701
  409.000   23.272    0.010    0.093   57.696
  409.250   15.977    0.018    0.099   60.724
  409.500   12.279    0.047    0.120   62.542
  409.750    9.617    0.130    0.137   68.000
  410.000    8.275    0.192    0.187   70.426
  410.250    7.121    0.283    0.253   73.454
  410.500    6.859    0.294    0.376   72.234
  410.750    6.484    0.296    0.426   75.266
  411.000    6.130    0.297    0.419   78.296
  411.250    5.905    0.303    0.408   81.324
  411.500    5.798    0.313    0.405   83.141
  411.750    5.691    0.323    0.415   83.136
  412.000    5.800    0.323    0.414   83.737
  412.250    5.913    0.303    0.429   84.338
  412.500    6.027    0.272    0.415   82.510
  412.750    6.143    0.234    0.402   81.897
  413.000    6.261    0.223    0.398   82.498
  413.250    6.628    0.231    0.399   84.313
  413.500    6.630    0.231    0.400   87.342
  413.750    6.758    0.229    0.403   87.338
  414.000    6.760    0.230    0.397   83.688
  414.250    6.761    0.236    0.391   81.253
  414.500    6.638    0.242    0.399   83.675
  414.750    6.639    0.253    0.399   82.454
  415.000    6.642    0.249    0.391   81.234
  415.250    6.520    0.223    0.387   80.621
  415.500    6.522    0.223    0.386   81.826
  415.750    6.524    0.241    0.394   82.430
  416.000    6.525    0.249    0.398   83.638
  416.250    6.527    0.254    0.394   84.240
  416.500    6.529    0.242    0.388   83.018
  416.750    6.531    0.225    0.381   81.797
  417.000    6.533    0.224    0.387   80.579
  417.250    6.535    0.221    0.383   78.749
  417.500    6.536    0.222    0.388   81.172
  417.750    6.662    0.237    0.397   79.953
  418.000    6.665    0.244    0.396   78.123
  418.250    6.666    0.241    0.393   78.726
  418.500    6.796    0.233    0.398   80.540
  418.750    6.927    0.231    0.410   81.750
  419.000    6.929    0.229    0.417   83.564
  419.250    6.931    0.227    0.414   82.952
  419.500    6.803    0.227    0.408   79.301
  419.750    6.805    0.242    0.402   78.689
  420.000    6.555    0.248    0.398   79.291
  420.250    6.197    0.242    0.411   82.320
  420.500    5.971    0.232    0.425   82.922
  420.750    5.860    0.245    0.440   81.092
  421.000    5.646    0.261    0.418   80.480
  421.250    5.648    0.272    0.407   82.903
  421.500    5.544    0.277    0.393   84.719
  421.750    5.546    0.264    0.408   87.142
  422.000    5.548    0.262    0.422   90.172
  422.250    5.549    0.258    0.421   88.951
  422.500    5.550    0.246    0.411   85.300
  422.750    5.552    0.242    0.405   83.472
  423.000    5.659    0.266    0.406   83.467
  423.250    5.662    0.255    0.424   85.890
  423.500    5.771    0.248    0.435   87.098
  423.750    5.882    0.253    0.448   86.486
  424.000    5.884    0.269    0.439   84.658
  424.250    5.997    0.278    0.426   82.830
  424.500    5.999    0.283    0.438   81.609
  424.750    6.114    0.285    0.445   82.816
  425.000    6.117    0.288    0.453   84.633
  425.250    6.118    0.284    0.437   87.660
  425.500    6.119    0.276    0.423   88.870
  425.750    6.008    0.263    0.432   88.866
  426.000    6.009    0.257    0.426   85.822
  426.250    6.011    0.254    0.437   84.602
  426.500    6.013    0.244    0.426   83.382
  426.750    6.014    0.241    0.434   87.019
  427.000    6.017    0.235    0.444   90.655
  427.250    6.019    0.234    0.454   91.866
  427.500    6.020    0.239    0.468   86.394
  427.750    6.136    0.240    0.452   88.210
  428.000    6.138    0.244    0.441   85.167
  428.250    6.257    0.252    0.428   83.340
  428.500    6.258    0.259    0.411   84.547
  428.750    6.261    0.251    0.402   82.718
  429.000    6.145    0.248    0.407   83.320
  429.250    6.032    0.251    0.418   84.530
  429.500    5.703    0.252    0.406   85.737
  429.750    5.192    0.251    0.404   85.732
  430.000    4.553    0.256    0.412   85.726
  430.250    4.068    0.260    0.422   85.719
  430.500    3.371    0.255    0.428   89.357
  430.750    3.012    0.251    0.436   93.600
  431.000    2.691    0.248    0.433   97.237
  431.250    2.544    0.244    0.449   99.660
  431.500    2.360    0.250    0.467  101.477
  431.750    2.317    0.256    0.489  102.686
  432.000    2.406    0.265    0.519  100.858
  432.250    2.798    0.272    0.523   99.637
  432.500    3.193    0.281    0.524   96.595
  432.750    3.713    0.292    0.500   95.374
  433.000    4.081    0.282    0.479   95.368
  433.250    4.570    0.267    0.453   94.755
  433.500    4.746    0.254    0.432   91.712
  433.750    5.024    0.255    0.437   89.277
  434.000    5.121    0.256    0.425   88.662
  434.250    5.122    0.256    0.435   88.658
  434.500    4.935    0.258    0.429   91.687
  434.750    4.845    0.261    0.422   94.111
  435.000    4.846    0.271    0.435   94.105
  435.250    4.847    0.272    0.448   92.883
  435.500    4.848    0.261    0.430   92.878
  435.750    4.943    0.269    0.425   91.657
  436.000    4.944    0.281    0.437   88.007
  436.250    5.039    0.293    0.427   83.751
  436.500    5.234    0.298    0.415   78.885
  436.750    5.335    0.311    0.396   76.451
  437.000    5.439    0.323    0.399   75.837
  437.250    5.440    0.284    0.393   77.044
  437.500    5.544    0.263    0.393   77.648
  437.750    5.546    0.258    0.399   80.070
  438.000    5.547    0.286    0.400   83.101
  438.250    5.550    0.301    0.408   87.953
  438.500    5.551    0.285    0.418   90.983
  438.750    5.449    0.268    0.439   90.977
  439.000    5.451    0.248    0.445   86.111
  439.250    5.452    0.241    0.429   84.283
  439.500    5.454    0.238    0.428   85.491
  439.750    5.354    0.233    0.420   86.094
  440.000    5.355    0.248    0.425   87.303
  440.250    5.357    0.252    0.431   84.260
