~VERSION INFORMATION
 VERS.                 2.0:   CWLS LOG ASCII STANDARD -VERSION 2.0
 WRAP.                  NO:   ONE LINE PER DEPTH STEP
~WELL INFORMATION BLOCK
#MNEM.UNIT           DATA                    DESCRIPTION OF MNEMONIC
#---------    -------------------            -------------------------------
# Generated from Intellog Unique Number	CW_70_72/WELL/1045
NULL.         -999.25                        : NULL_VALUE
WELL.         SUNDANCE MCMORGAN SMITH 10-31  : Well_name    - WELL              
LOC .         10-31-072-24W4                 : Location     - LOCATION          
UWI .         00/10-31-072-24W4/0            : Uwi          - UNIQUE WELL ID    
ENTR.         JAYE                           : Entered      - ENTERED BY        
SRVC.         SCHLUMBERGER                   : Scn          - SERVICE COMPANY   
DATE.         20 JAN 74                      : Date         - LOG DATE          
STRT.M        399.288                        : top_depth    - START DEPTH       
STOP.M        655.288                        : bot_depth    - STOP DEPTH        
STEP.M        0.25                           : increment    - STEP LENGTH       
~CURVE INFORMATION BLOCK
#MNEM UNIT       ERCB CURVE CODE    CURVE DESCRIPTION
#-----------   ------------------   ----------------------------------
DEPT.M        00 001 00 00         : DEPTH        - DEPTH                       
CALI.MM       00 280 01 00         : CAL          - CALIPER                     
GR  .API      00 310 00 00         : GR           - GAMMA RAY                   
DPHI.V/V      00 890 00 00         : PHID         - DENSITY POROSITY (SANDSTONE)
NPHI.V/V      00 330 00 00         : PHIN         - NEUTRON POROSITY (SANDSTONE)
ILD .OHMM     00 120 00 00         : RESD         - DEEP RESISTIVITY (DIL)      
~PARAMETER INFORMATION       
#MNEM.UNIT           DATA             DESCRIPTION OF MNEMONIC
#---------         -----------     ------------------------------
GL  .M        648.767              : gl           - GROUND LEVEL ELEVATION      
EREF.M        651.815              : kb           - ELEVATION OF DEPTH REFERENCE
DATM.M        648.767              : datum        - DATUM ELEVATION             
TDD .M        664.464              : tdd          - TOTAL DEPTH DRILLER         
RUN .         ONE                  : Run          - RUN NUMBER                  
ENG .         WOON                 : Engineer     - RECORDING ENGINEER          
WIT .         TIEFENBACH           : Witness      - WITNESSED BY                
BASE.         EDM                  : Branch       - HOME BASE OF LOGGING UNIT   
MUD .         GEL CHEM             : Mud_type     - MUD TYPE                    
MATR.         SANDSTONE            : Logunit      - NEUTRON MATRIX              
TMAX.C        30                   : BHT          - MAXIMUM RECORDED TEMPERATURE
BHTD.M        663.55               : BHTDEP       - MAXIMUM RECORDED TEMPERATURE
RMT .C        15.5556              : MDTP         - TEMPERATURE OF MUD          
MUDD.KG/M     1080                 : MWT          - MUD DENSITY                 
NEUT.         1                    : NEUTRON      - NEUTRON TYPE                
RESI.         0                    : RESIST       - RESISTIVITY TYPE            
RM  .OHMM     5.63                 : RM           - RESISTIVITY OF MUD          
RMC .OHMM     0                    : RMC          - RESISTIVITY OF MUD CAKE     
RMF .OHMM     6.8                  : RMF          - RESISTIVITY OF MUD FILTRATE 
SUFT.C        -17.7778             : SUFT         - SURFACE TEMPERATURE         
~A  DEPTH      CAL       GR     PHID     PHIN     RESD
# ...
  435.788  173.056   72.920    0.216    0.497    3.648
  436.038  185.675   79.456    0.218    0.498    3.489
  436.288  182.440   85.570    0.234    0.508    3.380
  436.538  166.848   92.841    0.274    0.519    3.359
  436.788  165.773   97.799    0.252    0.520    3.333
  437.038  166.344   97.711    0.244    0.516    3.343
  437.288  165.983   93.730    0.250    0.516    3.377
  437.538  165.323   89.932    0.259    0.513    3.444
  437.788  164.457   87.291    0.257    0.502    3.538
  438.038  163.683   85.990    0.247    0.489    3.633
  438.288  163.339   84.689    0.235    0.502    3.808
  438.538  163.498   83.020    0.242    0.532    4.020
  438.788  166.433   80.865    0.244    0.524    4.237
  439.038  169.378   78.225    0.236    0.510    4.531
  439.288  172.007   75.401    0.219    0.508    4.792
  439.538  171.139   76.712    0.206    0.535    5.068
  439.788  164.916   80.087    0.238    0.559    5.390
  440.038  163.839   83.892    0.239    0.573    4.862
  440.288  164.823   88.973    0.233    0.580    4.144
  440.538  167.654   89.310    0.216    0.536    3.468
  440.788  172.455   84.481    0.226    0.460    2.913
  441.038  181.469   82.628    0.224    0.442    2.642
  441.288  177.511   86.066    0.220    0.447    2.559
  441.538  168.820   90.357    0.234    0.457    2.902
  441.788  163.420   94.891    0.258    0.470    3.431
  442.038  163.780   94.133    0.238    0.482    4.058
  442.288  164.873   85.962    0.233    0.496    4.905
  442.538  166.472   67.818    0.230    0.524    5.675
  442.788  168.586   61.767    0.228    0.543    5.862
  443.038  170.697   60.832    0.225    0.555    5.525
  443.288  172.821   65.422    0.218    0.562    4.805
  443.538  175.972   69.954    0.231    0.577    4.050
  443.788  181.073   75.761    0.238    0.561    3.567
  444.038  185.861   79.024    0.242    0.528    3.230
  444.288  187.571   82.524    0.246    0.509    3.222
  444.538  182.578   86.326    0.233    0.496    3.490
  444.788  175.947   90.554    0.240    0.492    3.914
  445.038  169.415   92.474    0.231    0.496    4.389
  445.288  168.957   93.238    0.205    0.499    4.797
  445.538  169.327   93.394    0.194    0.445    5.206
  445.788  169.999   93.488    0.186    0.297    5.671
  446.038  169.339   92.608    0.194    0.270    6.096
  446.288  164.043   90.269    0.207    0.256    7.079
  446.538  158.844   88.360    0.166    0.252    8.357
  446.788  157.465   86.145    0.095    0.303   10.516
  447.038  161.124   82.409    0.068    0.387   12.995
  447.288  166.018   73.689    0.064    0.425   15.482
  447.538  166.903   66.061    0.113    0.466   14.250
  447.788  164.900   59.409    0.146    0.488   12.188
  448.038  164.444   64.003    0.198    0.488    9.797
  448.288  166.662   71.817    0.206    0.481    8.244
  448.538  168.879   78.782    0.206    0.476    7.396
  448.788  169.970   84.409    0.199    0.483    6.733
  449.038  170.534   89.794    0.202    0.492    6.380
  449.288  170.599   92.138    0.194    0.502    6.024
  449.538  171.170   93.387    0.176    0.513    5.626
  449.788  171.845   95.551    0.165    0.508    5.274
  450.038  172.620   95.401    0.176    0.503    5.137
  450.288  173.709   92.697    0.189    0.500    5.107
  450.538  173.665   91.759    0.206    0.505    5.131
  450.788  168.576   90.942    0.225    0.526    5.165
  451.038  165.545   89.758    0.264    0.559    5.403
  451.288  164.466   88.823    0.287    0.589    5.929
  451.538  164.419   86.728    0.321    0.460    6.468
  451.788  164.167   82.930    0.355    0.451    7.044
  452.038  163.812   77.311    0.376    0.449    7.729
  452.288  163.460   65.187    0.310    0.456    8.449
  452.538  162.384   55.553    0.294    0.470    8.775
  452.788  162.133   49.385    0.289    0.479    8.610
  453.038  162.087   49.663    0.285    0.473    8.115
  453.288  162.451   58.025    0.269    0.480    8.036
  453.538  162.614   68.820    0.266    0.498    8.469
  453.788  162.468   76.820    0.255    0.503    9.257
  454.038  162.527   83.298    0.243    0.482   10.065
  454.288  162.473   88.986    0.227    0.457   10.585
  454.538  162.538   87.865    0.235    0.439   11.280
  454.788  162.176   82.609    0.239    0.421   11.865
  455.038  161.719   86.351    0.243    0.348   12.343
  455.288  162.090   88.088    0.240    0.293   12.960
  455.538  161.737   55.168    0.245    0.244   13.859
  455.788  162.001   49.854    0.239    0.254   15.260
  456.038  163.808   48.305    0.197    0.285   16.897
  456.288  167.160   48.096    0.125    0.355   18.639
  456.538  168.042   45.999    0.114    0.421   21.250
  456.788  165.731   43.359    0.154    0.447   22.149
  457.038  164.243   40.596    0.187    0.448   19.581
  457.288  163.371   38.991    0.214    0.439   16.267
  457.538  162.815   38.296    0.250    0.421   12.399
  457.788  162.560   40.213    0.290    0.415    9.822
  458.038  162.827   44.626    0.306    0.423    8.100
  458.288  162.984   47.331    0.292    0.418    7.241
  458.538  162.840   48.273    0.280    0.415    6.812
  458.788  162.895   48.193    0.284    0.415    6.734
  459.038  162.438   48.102    0.276    0.422    6.705
  459.288  162.390   47.896    0.288    0.427    6.713
  459.538  162.342   47.261    0.294    0.433    6.659
  459.788  162.301   44.256    0.285    0.440    6.545
  460.038  162.447   44.896    0.302    0.445    6.423
  460.288  162.507   45.779    0.301    0.450    6.292
  460.538  162.568   46.667    0.298    0.459    6.162
  460.788  162.426   48.088    0.281    0.466    6.069
  461.038  162.272   48.918    0.270    0.474    5.988
  461.288  162.122   49.624    0.278    0.487    5.939
  461.538  162.085   50.023    0.288    0.493    5.894
  461.788  162.145   49.754    0.303    0.459    5.848
  462.038  162.095   49.665    0.339    0.451    5.832
  462.288  161.845   49.638    0.357    0.454    5.807
  462.538  161.490   49.307    0.341    0.445    5.792
  462.788  161.444   49.462    0.325    0.447    5.821
  463.038  161.903   49.195    0.319    0.444    5.827
  463.288  162.377   51.233    0.320    0.442    5.813
  463.538  162.750   54.613    0.315    0.457    5.777
  463.788  162.798   54.526    0.309    0.448    5.784
  464.038  162.652   53.040    0.303    0.438    5.813
  464.288  162.401   51.857    0.318    0.485    5.895
  464.538  162.146   51.827    0.307    0.471    6.315
  464.788  162.004   52.532    0.293    0.457    6.903
  465.038  161.961   53.354    0.280    0.451    7.039
  465.288  161.713   53.510    0.280    0.460    6.647
  465.538  162.074   53.057    0.300    0.477    6.265
  465.788  162.239   52.485    0.331    0.475    5.970
  466.038  162.389   51.060    0.326    0.474    5.804
  466.288  162.653   47.325    0.322    0.471    5.737
  466.538  162.605   40.546    0.327    0.462    5.724
  466.788  162.568   39.484    0.331    0.458    5.750
  467.038  162.106   39.947    0.332    0.446    5.716
  467.288  161.760   40.225    0.334    0.456    5.722
  467.538  162.022   39.954    0.338    0.463    5.688
  467.788  161.975   38.772    0.336    0.465    5.592
  468.038  162.235   38.805    0.330    0.461    5.467
  468.288  162.597   38.409    0.311    0.463    5.354
  468.538  162.864   37.902    0.307    0.468    5.206
  468.788  163.228   38.848    0.311    0.476    5.062
  469.038  164.006   40.949    0.308    0.483    4.922
  469.288  164.582   38.916    0.315    0.479    4.820
  469.538  165.247   37.850    0.303    0.469    4.747
  469.788  165.623   39.041    0.307    0.461    4.692
  470.038  165.787   40.168    0.312    0.463    4.663
  470.288  165.537   40.936    0.310    0.467    4.619
  470.538  164.971   39.873    0.301    0.472    4.565
  470.788  164.723   40.213    0.304    0.471    4.537
  471.038  165.090   39.820    0.316    0.472    4.509
  471.288  166.281   38.818    0.325    0.476    4.466
  471.538  166.440   38.003    0.328    0.482    4.463
  471.788  163.513   37.365    0.328    0.492    4.452
  472.038  160.893   37.159    0.332    0.483    4.441
