~VERSION INFORMATION
 VERS.                 2.0:   CWLS LOG ASCII STANDARD -VERSION 2.0
 WRAP.                  NO:   ONE LINE PER DEPTH STEP
~WELL INFORMATION BLOCK
#MNEM.UNIT           DATA                    DESCRIPTION OF MNEMONIC
#---------    -------------------            -------------------------------
# Generated from Intellog Unique Number	CW_82_90/WELL/994
WELL.         11-14-084-24W4                 : Well_name    - WELL
LOC .         00/11-14-084-24W4/0            : Location     - LOCATION
UWI .         00/11-14-084-24W4/0            : Uwi          - UNIQUE WELL ID
ENTR.         JAYE                           : Entered      - ENTERED BY
SRVC.         SCHLUMBERGER                   : Scn          - SERVICE COMPANY
DATE.         3 FEB 76                       : Date         - LOG DATE
STRT.M        182.88                         : top_depth    - START DEPTH
STOP.M        390.13                         : bot_depth    - STOP DEPTH
STEP.M        0.25                           : increment    - STEP LENGTH
 NULL. -999.2500:NULL Value
~CURVE INFORMATION BLOCK
#MNEM UNIT       ERCB CURVE CODE    CURVE DESCRIPTION
#-----------   ------------------   ----------------------------------
DEPT.M        00 001 00 00         : DEPTH        - DEPTH
CALI.MM       00 280 01 00         : CAL          - CALIPER
GR  .API      00 310 00 00         : GR           - GAMMA RAY
NPHI.V/V      00 330 00 00         : PHIN         - NEUTRON POROSITY (SANDSTONE)
DPHI.V/V      00 890 00 00         : PHID         - DENSITY POROSITY (SANDSTONE)
ILD .OHMM     00 120 00 00         : RESD         - DEEP RESISTIVITY (DIL)
~PARAMETER INFORMATION
#MNEM.UNIT           DATA             DESCRIPTION OF MNEMONIC
#---------         -----------     ------------------------------
GL  .M        562.356              : gl           - GROUND LEVEL ELEVATION
EREF.M        565.099              : kb           - ELEVATION OF DEPTH REFERENCE
DATM.M        562.356              : datum        - DATUM ELEVATION
TDD .M        399.288              : tdd          - TOTAL DEPTH DRILLER
RUN .         ONE                  : Run          - RUN NUMBER
MATR.         SANDSTONE            : Logunit      - NEUTRON MATRIX
TMAX.C        17.2222              : BHT          - MAXIMUM RECORDED TEMPERATURE
BHTD.M        399.288              : BHTDEP       - MAXIMUM RECORDED TEMPERATURE
RMT .C        7.22222              : MDTP         - TEMPERATURE OF MUD
MUDD.KG/M     0                    : MWT          - MUD DENSITY
NEUT.         1                    : NEUTRON      - NEUTRON TYPE
RESI.         0                    : RESIST       - RESISTIVITY TYPE
RM  .OHMM     6.7                  : RM           - RESISTIVITY OF MUD
RMC .OHMM     0                    : RMC          - RESISTIVITY OF MUD CAKE
RMF .OHMM     0                    : RMF          - RESISTIVITY OF MUD FILTRATE
SUFT.C        -17.7778             : SUFT         - SURFACE TEMPERATURE
~A  DEPTH      CAL       GR     PHIN     PHID     RESD
# ...
  292.380  205.263   72.015    0.362    0.221   10.955
  292.630  203.932   73.250    0.398    0.198   10.665
  292.880  203.534   75.159    0.425    0.215   10.216
  293.130  203.342   77.561    0.420    0.230   10.013
  293.380  202.840   79.532    0.412    0.231    9.708
  293.630  203.376   80.584    0.397    0.232    9.431
  293.880  204.849   81.510    0.398    0.232    9.078
  294.130  205.795   85.747    0.399    0.225    8.837
  294.380  207.370   89.251    0.394    0.205    8.911
  294.630  207.696   88.341    0.402    0.175    9.472
  294.880  208.232   81.120    0.433    0.160   10.548
  295.130  207.315   77.210    0.441    0.166   11.379
  295.380  205.775   75.871    0.434    0.182   11.781
  295.630  204.756   75.451    0.425    0.229   11.554
  295.880  204.666   75.156    0.407    0.243   10.261
  296.130  205.105   75.655    0.398    0.240    7.805
  296.380  205.013   77.074    0.401    0.229    6.867
  296.630  204.825   80.088    0.413    0.229    6.862
  296.880  204.526   80.956    0.420    0.230    7.430
  297.130  204.855   79.861    0.427    0.224   10.049
  297.380  205.494   76.010    0.436    0.217   13.668
  297.630  205.820   72.712    0.449    0.213   18.007
  297.880  207.186   68.986    0.449    0.222   25.141
  298.130  207.617   66.053    0.435    0.205   32.451
  298.380  208.259   59.751    0.396    0.161   33.099
  298.630  207.652   54.185    0.305    0.130   27.330
  298.880  207.465   52.050    0.266    0.094   19.041
  299.130  207.586   53.224    0.196    0.019   13.641
  299.380  207.599   56.910    0.206    0.045   12.117
  299.630  207.824   64.764    0.275    0.063   10.543
  299.880  207.945   68.756    0.328    0.116    9.176
  300.130  209.100   75.629    0.356    0.147    8.814
  300.380  210.259   77.172    0.423    0.176    8.485
  300.630  211.314   74.668    0.433    0.198    8.321
  300.880  212.058   71.614    0.436    0.179    8.235
  301.130  212.176   71.685    0.433    0.178    8.183
  301.380  212.090   73.410    0.423    0.169    8.209
  301.630  211.899   75.320    0.419    0.172    8.293
  301.880  211.810   77.292    0.433    0.171    8.493
  302.130  211.934   77.912    0.436    0.172    8.693
  302.380  212.154   77.003    0.431    0.173    8.900
  302.630  211.757   76.341    0.423    0.159    9.233
  302.880  210.529   77.391    0.423    0.133    9.467
  303.130  209.507   81.016    0.437    0.097    9.894
  303.380  208.697   84.275    0.408    0.152   10.244
  303.630  208.714   86.490    0.386    0.151   10.508
  303.880  208.939   88.766    0.388    0.165   10.518
  304.130  210.406   91.288    0.395    0.154   10.549
  304.380  212.704   93.013    0.420    0.147   11.003
  304.630  214.276   93.697    0.428    0.170   11.892
  304.880  216.061   91.134    0.418    0.170   12.852
  305.130  216.074   85.386    0.401    0.165   13.381
  305.380  213.912   84.110    0.385    0.157   13.854
  305.630  205.004   83.933    0.361    0.137   14.292
  305.880  204.503   87.436    0.342    0.131   14.438
  306.130  204.730   89.774    0.347    0.169   14.619
  306.380  204.745   88.987    0.345    0.165   14.773
  306.630  204.656   85.198    0.340    0.181   15.293
  306.880  204.676   83.064    0.333    0.205   15.682
  307.130  204.379   82.216    0.331    0.212   16.512
  307.380  204.602   81.798    0.338    0.205   18.562
  307.630  203.997   74.637    0.340    0.195   20.060
  307.880  204.014   73.177    0.336    0.179   22.091
  308.130  204.029   73.126    0.322    0.174   23.651
  308.380  204.046   76.200    0.306    0.173   24.396
  308.630  204.791   77.740    0.316    0.157   24.605
  308.880  204.913   76.588    0.328    0.188   22.268
  309.130  205.030   77.146    0.331    0.150   19.158
  309.380  205.358   80.342    0.341    0.108   15.999
  309.630  206.003   85.196    0.376    0.133   15.172
  309.880  205.910   85.387    0.387    0.201   16.066
  310.130  205.200   82.210    0.380    0.195   17.171
  310.380  204.911   77.995    0.365    0.179   18.870
  310.630  204.610   73.836    0.342    0.168   23.373
  310.880  204.524   67.474    0.324    0.147   29.666
  311.130  204.961   63.377    0.296    0.119   31.766
  311.380  205.182   58.977    0.273    0.117   31.623
  311.630  206.131   54.758    0.260    0.138   30.665
  311.880  206.458   50.846    0.248    0.092   26.985
  312.130  206.165   54.225    0.304    0.052   21.428
  312.380  205.871   62.447    0.325    0.070   19.101
  312.630  205.576   64.356    0.360    0.085   16.747
  312.880  204.764   63.754    0.347    0.137   15.325
  313.130  203.741   65.540    0.345    0.142   15.170
  313.380  203.551   69.227    0.359    0.167   17.181
  313.630  203.669   69.545    0.368    0.150   19.748
  313.880  204.310   66.365    0.359    0.148   19.923
  314.130  203.806   66.073    0.353    0.146   18.997
  314.380  202.481   66.324    0.367    0.135   17.578
  314.630  202.185   68.969    0.371    0.153   14.846
  314.880  204.690   70.877    0.378    0.188   13.587
  315.130  206.054   73.951    0.369    0.153   13.155
  315.380  206.591   76.844    0.378    0.125   13.191
  315.630  206.917   76.790    0.388    0.173   14.176
  315.880  206.831   72.020    0.390    0.212   16.297
  316.130  206.533   70.746    0.374    0.222   19.446
  316.380  206.447   70.262    0.363    0.216   21.856
  316.630  205.116   68.373    0.367    0.188   27.226
  316.880  205.027   66.422    0.356    0.168   29.816
  317.130  205.562   61.530    0.334    0.169   28.699
  317.380  207.035   61.173    0.289    0.159   25.776
  317.630  207.359   65.779    0.269    0.037   21.935
  317.880  206.962   72.222    0.293    0.041   20.721
  318.130  205.423   73.580    0.400    0.084   19.683
  318.380  204.505   72.240    0.390    0.167   19.054
  318.630  204.002   71.824    0.382    0.197   19.548
  318.880  204.019   72.138    0.385    0.175   19.822
  319.130  202.999   72.638    0.376    0.149   19.996
  319.380  202.081   73.263    0.364    0.116   20.277
  319.630  201.686   73.576    0.374    0.126   20.230
  319.880  200.976   73.098    0.368    0.164   19.802
  320.130  200.678   74.150    0.368    0.147   19.378
  320.380  201.739   72.442    0.385    0.157   18.581
  320.630  202.269   70.063    0.386    0.179   17.133
  320.880  202.803   68.601    0.382    0.187   15.538
  321.130  203.236   70.082    0.370    0.199   14.896
  321.380  203.981   75.422    0.424    0.138   14.126
  321.630  204.620   79.721    0.434    0.133   13.445
  321.880  205.155   81.692    0.420    0.143   13.015
  322.130  205.280   83.848    0.400    0.129   12.737
  322.380  204.567   87.411    0.407    0.146   12.562
  322.630  203.128   89.198    0.420    0.138   12.529
  322.880  203.145   88.104    0.417    0.128   12.477
  323.130  204.619   86.888    0.419    0.150   12.305
  323.380  205.565   86.348    0.421    0.138   12.113
  323.630  206.308   84.273    0.415    0.143   12.033
  323.880  206.740   85.692    0.417    0.136   11.976
  324.130  206.963   87.172    0.411    0.133   12.127
  324.380  207.293   89.266    0.404    0.090   12.367
  324.630  207.100   90.380    0.413    0.118   12.947
  324.880  207.636   89.164    0.407    0.132   13.993
  325.130  207.756   87.951    0.400    0.133   14.649
  325.380  206.218   87.897    0.382    0.112   14.945
  325.630  205.925   88.212    0.359    0.097   14.627
  325.880  205.833   89.019    0.366    0.116   14.108
  326.130  206.268   89.826    0.386    0.175   13.627
  326.380  206.700   90.510    0.383    0.157   12.566
  326.630  206.820   88.987    0.387    0.154   12.049
  326.880  207.044   87.771    0.390    0.152   12.221
  327.130  206.747   86.067    0.387    0.145   12.939
  327.380  205.315   81.847    0.385    0.130   14.544
  327.630  204.605   78.180    0.377    0.139   17.097
  327.880  204.412   74.638    0.352    0.123   18.444
  328.130  202.770   75.268    0.320    0.087   18.190
  328.380  201.540   81.642    0.321    0.054   17.382
  328.630  200.209   83.612    0.347    0.103   16.794
