~VERSION INFORMATION
 VERS.                 2.0:   CWLS LOG ASCII STANDARD -VERSION 2.0
 WRAP.                  NO:   ONE LINE PER DEPTH STEP
~WELL INFORMATION BLOCK
#MNEM.UNIT           DATA                    DESCRIPTION OF MNEMONIC
#---------    -------------------            -------------------------------
# Generated from Intellog Unique Number	CS_73_76/WELL/3263
WELL.         BOW VALLEY EXPLORATION         : Well_name    - WELL
LOC .         00/11-12-076-13W4/0            : Location     - LOCATION
UWI .         00/11-12-076-13W4/0            : Uwi          - UNIQUE WELL ID
ENTR.         SP                             : Entered      - ENTERED BY
SRVC.         SCHLUMBERGER                   : Scn          - SERVICE COMPANY
STRT.M        350                            : top_depth    - START DEPTH
STOP.M        580                            : bot_depth    - STOP DEPTH
STEP.M        0.25                           : increment    - STEP LENGTH
 NULL. -999.2500:NULL Value
~CURVE INFORMATION BLOCK
#MNEM UNIT       ERCB CURVE CODE    CURVE DESCRIPTION
#-----------   ------------------   ----------------------------------
DEPT.M        00 001 00 00         : DEPTH        - DEPTH
ILD .OHMM     00 120 00 00         : RESD         - DEEP RESISTIVITY (DIL)
NPHI.V/V      00 330 00 00         : PHIN         - NEUTRON POROSITY (LIMESTONE)
DPHI.V/V      00 890 00 00         : PHID         - DENSITY POROSITY (LIMESTONE)
GR  .API      00 310 00 00         : GR           - GAMMA RAY
~PARAMETER INFORMATION
#MNEM.UNIT           DATA             DESCRIPTION OF MNEMONIC
#---------         -----------     ------------------------------
GL  .M        728.9                : gl           - GROUND LEVEL ELEVATION
EREF.M        731.6                : kb           - ELEVATION OF DEPTH REFERENCE
DATM.M        728.9                : datum        - DATUM ELEVATION
TDD .M        593                  : tdd          - TOTAL DEPTH DRILLER
RUN .         ONE                  : Run          - RUN NUMBER
ENG .         BILL                 : Engineer     - RECORDING ENGINEER
WIT .         JIM                  : Witness      - WITNESSED BY
MUD .         GEL                  : Mud_type     - MUD TYPE
MATR.         LIMESTONE            : Logunit      - NEUTRON MATRIX
TMAX.C        22                   : BHT          - MAXIMUM RECORDED TEMPERATURE
BHTD.M        593                  : BHTDEP       - MAXIMUM RECORDED TEMPERATURE
MATR.         1                    : LOGUNIT      - NEUTRON MATRIX
RMT .C        25                   : MDTP         - TEMPERATURE OF MUD
NEUT.         1                    : NEUTRON      - NEUTRON TYPE
RESI.         0                    : RESIST       - RESISTIVITY TYPE
RMC .OHMM     0.25                 : RMC          - RESISTIVITY OF MUD CAKE
RMF .OHMM     0.25                 : RMF          - RESISTIVITY OF MUD FILTRATE
SUFT.C        15                   : SUFT         - SURFACE TEMPERATURE
~A  DEPTH     RESD     PHIN     PHID       GR
# ...
  393.500   11.331    0.443    0.233  102.218
  393.750   10.715    0.416    0.209  102.823
  394.000    9.761    0.423    0.211  101.613
  394.250    9.229    0.428    0.213  102.218
  394.500    8.565    0.437    0.203  108.871
  394.750    7.660    0.445    0.196  107.661
  395.000    7.516    0.455    0.181  109.476
  395.250    7.513    0.464    0.187  110.685
  395.500    7.795    0.472    0.202  107.661
  395.750    8.550    0.480    0.216  104.637
  396.000    9.555    0.485    0.237  101.613
  396.250   10.289    0.472    0.258   97.984
  396.500   10.283    0.448    0.278   90.121
  396.750    9.906    0.436    0.274   88.911
  397.000    8.536    0.427    0.264   86.492
  397.250    6.340    0.437    0.250   93.750
  397.500    5.669    0.444    0.246  107.056
  397.750    5.563    0.467    0.233  107.661
  398.000    5.772    0.499    0.216   99.194
  398.250    5.560    0.511    0.258   93.750
  398.500    5.557    0.519    0.283   84.677
  398.750    6.942    0.503    0.311   78.024
  399.000    9.340    0.484    0.331   71.371
  399.250   13.043    0.463    0.310   65.323
  399.500   15.126    0.464    0.332   60.484
  399.750   16.286    0.454    0.327   62.903
  400.000   16.280    0.438    0.319   64.718
  400.250   16.272    0.431    0.319   65.927
  400.500   16.265    0.432    0.324   65.927
  400.750   15.668    0.432    0.309   64.718
  401.000   15.663    0.424    0.292   62.903
  401.250   15.368    0.411    0.292   61.089
  401.500   15.082    0.408    0.305   59.274
  401.750   15.079    0.416    0.307   58.065
  402.000   15.073    0.419    0.297   57.460
  402.250   15.068    0.421    0.304   55.040
  402.500   15.063    0.420    0.298   53.226
  402.750   15.057    0.418    0.291   53.226
  403.000   14.774    0.419    0.292   58.065
  403.250   14.771    0.426    0.295   59.274
  403.500   14.227    0.428    0.302   58.669
  403.750   13.960    0.431    0.311   58.669
  404.000   13.447    0.420    0.307   59.879
  404.250   13.441    0.413    0.319   62.298
  404.500   13.438    0.418    0.316   62.903
  404.750   13.941    0.433    0.308   64.113
  405.000   14.198    0.434    0.312   65.323
  405.250   14.459    0.422    0.309   68.347
  405.500   14.725    0.412    0.301   70.766
  405.750   14.720    0.412    0.298   63.508
  406.000   14.987    0.416    0.302   64.718
  406.250   14.982    0.414    0.305   67.742
  406.500   14.703    0.426    0.310   71.371
  406.750   14.699    0.430    0.310   73.790
  407.000   14.154    0.426    0.307   71.371
  407.250   13.890    0.424    0.312   69.556
  407.500   13.631    0.421    0.310   68.347
  407.750   13.377    0.421    0.307   67.137
  408.000   13.126    0.421    0.303   66.532
  408.250   12.880    0.426    0.301   66.532
  408.500   12.637    0.434    0.303   66.532
  408.750   12.633    0.443    0.309   67.742
  409.000   12.867    0.446    0.302   68.952
  409.250   13.104    0.432    0.300   65.927
  409.500   13.594    0.425    0.312   66.532
  409.750   13.841    0.416    0.319   68.347
  410.000   14.097    0.413    0.303   69.556
  410.250   14.356    0.414    0.298   73.186
  410.500   14.621    0.420    0.291   75.000
  410.750   14.892    0.428    0.290   78.024
  411.000   15.166    0.439    0.290   79.234
  411.250   15.156    0.448    0.291   77.419
  411.500   15.153    0.440    0.298   71.976
  411.750   15.149    0.428    0.303   69.556
  412.000   15.141    0.445    0.307   69.556
  412.250   15.138    0.443    0.298   72.581
  412.500   15.134    0.441    0.302   68.347
  412.750   15.126    0.444    0.296   64.113
  413.000   15.122    0.443    0.290   62.298
  413.250   15.402    0.434    0.291   61.694
  413.500   15.396    0.427    0.294   63.508
  413.750   15.104    0.433    0.297   65.323
  414.000   15.099    0.444    0.292   67.137
  414.250   15.093    0.447    0.295   68.347
  414.500   15.089    0.448    0.301   70.766
  414.750   14.270    0.451    0.304   68.952
  415.000   14.264    0.459    0.309   65.927
  415.250   14.259    0.462    0.315   64.113
  415.500   14.255    0.463    0.318   62.298
  415.750   13.728    0.456    0.319   61.089
  416.000   13.473    0.443    0.308   61.089
  416.250   13.221    0.455    0.306   64.113
  416.500   12.970    0.460    0.313   65.927
  416.750   12.967    0.455    0.294   67.137
  417.000   12.964    0.448    0.307   66.532
  417.250   12.957    0.459    0.310   66.532
  417.500   12.716    0.463    0.314   65.927
  417.750   12.712    0.469    0.304   68.347
  418.000   12.706    0.453    0.303   68.347
  418.250   12.703    0.444    0.303   68.952
  418.500   12.937    0.450    0.302   69.556
  418.750   12.932    0.453    0.295   69.556
  419.000   12.688    0.455    0.289   68.347
  419.250   12.923    0.453    0.286   67.137
  419.500   12.917    0.453    0.290   65.927
  419.750   12.914    0.454    0.295   64.718
  420.000   13.149    0.463    0.300   65.927
  420.250   13.145    0.473    0.314   68.347
  420.500   13.387    0.472    0.315   69.556
  420.750   13.633    0.466    0.310   68.952
  421.000   13.630    0.459    0.310   67.742
  421.250   13.623    0.454    0.317   65.323
  421.500   13.621    0.447    0.326   65.323
  421.750   13.365    0.435    0.321   66.532
  422.000   13.360    0.417    0.319   67.137
  422.250   13.356    0.412    0.320   68.347
  422.500   13.349    0.424    0.325   69.556
  422.750   13.596    0.439    0.311   69.556
  423.000   13.591    0.454    0.304   69.556
  423.250   13.588    0.467    0.290   69.556
  423.500   13.580    0.476    0.279   70.161
  423.750   13.577    0.476    0.283   70.766
  424.000   13.829    0.460    0.286   73.186
  424.250   13.822    0.456    0.296   75.000
  424.500   13.819    0.461    0.300   77.419
  424.750   13.559    0.476    0.296   79.839
  425.000   13.304    0.477    0.297   82.863
  425.250   13.301    0.472    0.294   87.097
  425.500   13.543    0.464    0.289   91.331
  425.750   13.794    0.466    0.283   91.936
  426.000   14.853    0.473    0.264   89.516
  426.250   16.596    0.468    0.244   86.492
  426.500   18.548    0.454    0.259   85.887
  426.750   20.344    0.448    0.265   87.097
  427.000   22.733    0.438    0.255   87.097
  427.250   24.027    0.388    0.246   85.282
  427.500   24.019    0.364    0.111   79.839
  427.750   23.570    0.270    0.125   78.629
  428.000   22.282    0.288    0.149   78.024
  428.250   21.069    0.307    0.232   78.629
  428.500   18.841    0.412    0.267   79.234
  428.750   17.815    0.443    0.262   82.258
  429.000   17.158    0.423    0.266   79.839
  429.250   17.152    0.409    0.261   75.605
  429.500   16.831    0.421    0.220   78.629
  429.750   16.211    0.435    0.193   81.048
  430.000   15.046    0.448    0.243   85.887
  430.250   14.494    0.440    0.287   88.911
  430.500   14.489    0.448    0.290   90.726
  430.750   14.218    0.455    0.264   89.516
  431.000   13.951    0.458    0.262   85.887
  431.250   13.688    0.456    0.284   87.097
  431.500   13.683    0.455    0.293   88.911
  431.750   13.933    0.454    0.300   87.097
  432.000   13.930    0.448    0.295   83.468
  432.250   14.187    0.452    0.305   81.653
  432.500   14.182    0.458    0.308   79.839
  432.750   13.916    0.467    0.296   83.468
  433.000   13.405    0.470    0.288   85.887
  433.250   12.675    0.461    0.288   87.097
  433.500   11.762    0.460    0.277   90.726
  433.750   11.121    0.429    0.264   94.355
  434.000   10.516    0.429    0.249   97.379
  434.250    9.759    0.441    0.231   99.798
  434.500    9.228    0.468    0.229  104.032
  434.750    9.055    0.479    0.225  103.427
  435.000    8.721    0.459    0.215   97.984
  435.250    8.400    0.454    0.203   96.169
  435.500    7.942    0.460    0.191   98.589
  435.750    7.371    0.469    0.211   99.194
  436.000    7.101    0.484    0.206   98.589
  436.250    6.839    0.482    0.196   97.984
  436.500    6.711    0.475    0.201   97.984
  436.750    6.464    0.476    0.203   99.798
