~VERSION INFORMATION
 VERS.                 2.0:   CWLS LOG ASCII STANDARD -VERSION 2.0
 WRAP.                  NO:   ONE LINE PER DEPTH STEP
~WELL INFORMATION BLOCK
#MNEM.UNIT           DATA                    DESCRIPTION OF MNEMONIC
#---------    -------------------            -------------------------------
# Generated from Intellog Unique Number	CS_71_72/WELL/896
WELL.         SUN CALLING LAKE               : Well_name    - WELL
LOC .         00/11-10-072-18W4/0            : Location     - LOCATION
UWI .         00/11-10-072-18W4/0            : Uwi          - UNIQUE WELL ID
ENTR.         SP                             : Entered      - ENTERED BY
SRVC.         SCHLUMBERGER                   : Scn          - SERVICE COMPANY
STRT.M        285                            : top_depth    - START DEPTH
STOP.M        465                            : bot_depth    - STOP DEPTH
STEP.M        0.25                           : increment    - STEP LENGTH
 NULL. -999.2500:NULL Value
~CURVE INFORMATION BLOCK
#MNEM UNIT       ERCB CURVE CODE    CURVE DESCRIPTION
#-----------   ------------------   ----------------------------------
DEPT.M        00 001 00 00         : DEPTH        - DEPTH
ILD .OHMM     00 120 00 00         : RESD         - DEEP RESISTIVITY (DIL)
DPHI.V/V      00 890 00 00         : PHID         - DENSITY POROSITY (LIMESTONE)
NPHI.V/V      00 330 00 00         : PHIN         - NEUTRON POROSITY (LIMESTONE)
GR  .API      00 310 00 00         : GR           - GAMMA RAY
~PARAMETER INFORMATION
#MNEM.UNIT           DATA             DESCRIPTION OF MNEMONIC
#---------         -----------     ------------------------------
GL  .M        598                  : gl           - GROUND LEVEL ELEVATION
EREF.M        598.6                : kb           - ELEVATION OF DEPTH REFERENCE
DATM.M        598                  : datum        - DATUM ELEVATION
TDD .M        486                  : tdd          - TOTAL DEPTH DRILLER
RUN .         ONE                  : Run          - RUN NUMBER
ENG .         BILL                 : Engineer     - RECORDING ENGINEER
WIT .         JIM                  : Witness      - WITNESSED BY
MUD .         GEL                  : Mud_type     - MUD TYPE
MATR.         LIMESTONE            : Logunit      - NEUTRON MATRIX
TMAX.C        27.8                 : BHT          - MAXIMUM RECORDED TEMPERATURE
BHTD.M        486                  : BHTDEP       - MAXIMUM RECORDED TEMPERATURE
MATR.         1                    : LOGUNIT      - NEUTRON MATRIX
RMT .C        25                   : MDTP         - TEMPERATURE OF MUD
NEUT.         1                    : NEUTRON      - NEUTRON TYPE
RESI.         0                    : RESIST       - RESISTIVITY TYPE
RMC .OHMM     0.25                 : RMC          - RESISTIVITY OF MUD CAKE
RMF .OHMM     0.25                 : RMF          - RESISTIVITY OF MUD FILTRATE
SUFT.C        15                   : SUFT         - SURFACE TEMPERATURE
~A  DEPTH     RESD     PHID     PHIN       GR
# ...
  372.000    4.280    0.334    0.468   60.814
  372.250    4.283    0.345    0.468   62.651
  372.500    4.284    0.356    0.467   64.491
  372.750    4.286    0.357    0.466   66.948
  373.000    4.287    0.359    0.462   68.178
  373.250    4.288    0.355    0.458   68.799
  373.500    4.291    0.351    0.454   69.425
  373.750    4.292    0.352    0.447   68.224
  374.000    4.295    0.345    0.439   67.027
  374.250    4.296    0.336    0.443   66.438
  374.500    4.298    0.328    0.447   65.855
  374.750    4.379    0.329    0.457   65.867
  375.000    4.301    0.329    0.462   65.891
  375.250    4.304    0.324    0.459   65.900
  375.500    4.305    0.325    0.457   66.533
  375.750    4.307    0.335    0.457   67.150
  376.000    4.229    0.345    0.466   67.778
  376.250    4.155    0.338    0.463   69.009
  376.500    4.080    0.346    0.459   68.421
  376.750    4.082    0.350    0.471   66.616
  377.000    4.083    0.355    0.483   65.415
  377.250    4.161    0.355    0.497   66.053
  377.500    4.240    0.347    0.496   66.071
  377.750    4.321    0.340    0.486   66.694
  378.000    4.323    0.335    0.481   67.315
  378.250    4.405    0.335    0.478   67.933
  378.500    4.407    0.337    0.473   67.952
  378.750    4.491    0.336    0.467   66.155
  379.000    4.494    0.330    0.465   66.169
  379.250    4.578    0.330    0.477   66.187
  379.500    4.665    0.332    0.487   66.817
  379.750    5.025    0.336    0.493   66.827
  380.000    5.721    0.337    0.491   65.634
  380.250    6.514    0.336    0.473   65.650
  380.500    7.146    0.326    0.451   67.488
  380.750    8.136    0.314    0.392   67.505
  381.000    8.927    0.296    0.361   66.913
  381.250    8.143    0.273    0.340   66.324
  381.500    7.158    0.262    0.396   66.948
  381.750    6.065    0.286    0.425   68.184
  382.000    5.430    0.311    0.467   68.814
  382.250    4.863    0.322    0.500   68.827
  382.500    4.436    0.323    0.502   68.847
  382.750    4.276    0.328    0.502   67.646
  383.000    4.200    0.312    0.504   66.450
  383.250    4.125    0.309    0.497   65.863
  383.500    4.126    0.318    0.486   67.099
  383.750    4.128    0.328    0.481   68.323
  384.000    4.207    0.331    0.478   69.556
  384.250    4.287    0.334    0.474   69.576
  384.500    4.369    0.334    0.470   69.602
  384.750    4.452    0.333    0.469   69.007
  385.000    4.455    0.323    0.471   69.020
  385.250    4.456    0.318    0.480   69.037
  385.500    4.540    0.311    0.495   69.053
  385.750    4.543    0.307    0.510   67.858
  386.000    4.461    0.323    0.492   64.840
  386.250    4.463    0.324    0.472   64.250
  386.500    4.464    0.321    0.478   64.880
  386.750    4.466    0.320    0.475   65.504
  387.000    4.386    0.321    0.466   65.523
  387.250    4.388    0.324    0.452   64.928
  387.500    4.390    0.329    0.454   64.341
  387.750    4.392    0.333    0.463   63.144
  388.000    4.394    0.336    0.466   62.556
  388.250    4.396    0.335    0.466   61.963
  388.500    4.398    0.336    0.458   61.977
  388.750    4.320    0.322    0.455   62.612
  389.000    4.321    0.309    0.464   62.623
  389.250    4.323    0.309    0.468   63.245
  389.500    4.325    0.314    0.467   63.882
  389.750    4.326    0.320    0.473   64.501
  390.000    4.328    0.323    0.476   65.737
  390.250    4.330    0.329    0.476   66.354
  390.500    4.097    0.323    0.472   69.411
  390.750    4.099    0.323    0.466   71.864
  391.000    4.101    0.323    0.459   72.483
  391.250    4.103    0.323    0.463   73.107
  391.500    4.105    0.323    0.473   71.909
  391.750    4.107    0.327    0.472   70.717
  392.000    4.108    0.324    0.471   70.728
  392.250    4.110    0.320    0.485   71.971
  392.500    4.346    0.318    0.485   72.591
  392.750    4.347    0.318    0.468   73.817
  393.000    4.349    0.318    0.461   73.836
  393.250    4.351    0.318    0.451   73.855
  393.500    4.353    0.328    0.447   73.874
  393.750    4.354    0.333    0.449   75.108
  394.000    4.356    0.324    0.452   75.730
  394.250    4.439    0.318    0.450   73.925
  394.500    4.523    0.311    0.445   75.160
  394.750    4.784    0.301    0.442   75.180
  395.000    4.965    0.270    0.434   74.589
  395.250    5.349    0.232    0.407   72.178
  395.500    5.552    0.169    0.303   69.761
  395.750    5.657    0.146    0.296   66.138
  396.000    5.354    0.172    0.326   66.154
  396.250    4.884    0.265    0.437   68.602
  396.500    4.455    0.309    0.460   71.047
  396.750    4.140    0.330    0.466   72.281
  397.000    3.846    0.342    0.466   74.733
  397.250    3.709    0.323    0.461   76.567
  397.500    3.850    0.312    0.464   77.799
  397.750    3.923    0.304    0.470   74.786
  398.000    4.226    0.293    0.473   72.367
  398.250    4.468    0.286    0.473   69.955
  398.500    4.638    0.249    0.446   67.543
  398.750    4.905    0.167    0.408   65.740
  399.000    4.998    0.150    0.379   66.366
  399.250    5.093    0.191    0.386   68.208
  399.500    4.732    0.237    0.455   71.870
  399.750    4.397    0.264    0.483   74.925
  400.000    4.162    0.297    0.502   76.151
  400.250    4.087    0.308    0.492   78.600
  400.500    3.941    0.314    0.485   81.661
  400.750    3.800    0.318    0.502   82.888
  401.000    3.731    0.322    0.509   85.944
  401.250    3.220    0.318    0.524   87.779
  401.500    2.884    0.312    0.547   92.052
  401.750    2.780    0.307    0.562   93.889
  402.000    2.680    0.283    0.556   95.125
  402.250    2.632    0.291    0.559   95.745
  402.500    2.733    0.301    0.556   97.591
  402.750    2.889    0.283    0.545   98.213
  403.000    3.229    0.267    0.519   97.630
  403.250    3.610    0.248    0.476   97.638
  403.500    3.817    0.231    0.465   97.053
  403.750    4.035    0.220    0.475   97.072
  404.000    4.347    0.229    0.480   97.089
  404.250    4.512    0.241    0.475   95.887
  404.500    4.684    0.246    0.466   93.481
  404.750    4.863    0.227    0.463   92.286
  405.000    4.956    0.224    0.466   91.688
  405.250    4.958    0.223    0.468   91.099
  405.500    5.053    0.227    0.472   92.331
  405.750    5.149    0.214    0.460   94.177
  406.000    5.150    0.213    0.453   94.189
  406.250    5.152    0.224    0.443   92.997
  406.500    5.250    0.227    0.437   93.017
  406.750    5.252    0.222    0.441   92.420
  407.000    5.255    0.220    0.438   91.830
  407.250    5.257    0.214    0.435   93.671
  407.500    5.164    0.220    0.440   95.513
  407.750    5.165    0.223    0.456   96.136
  408.000    5.073    0.228    0.466   94.937
  408.250    4.982    0.238    0.468   93.745
  408.500    4.984    0.238    0.456   93.155
  408.750    4.894    0.233    0.453   93.174
  409.000    4.896    0.229    0.461   93.185
  409.250    4.809    0.224    0.468   93.204
  409.500    4.810    0.235    0.456   90.191
  409.750    4.813    0.232    0.465   87.777
  410.000    4.814    0.233    0.468   86.581
  410.250    4.728    0.238    0.471   85.992
  410.500    4.643    0.241    0.469   84.185
  410.750    4.561    0.251    0.471   81.165
  411.000    4.397    0.265    0.478   81.180
  411.250    4.239    0.275    0.485   81.805
  411.500    4.163    0.292    0.491   76.965
  411.750    4.014    0.288    0.481   72.736
  412.000    3.942    0.288    0.464   70.930
  412.250    3.944    0.289    0.453   70.336
  412.500    3.946    0.296    0.457   69.753
  412.750    3.947    0.300    0.467   67.948
  413.000    4.022    0.304    0.470   66.745
  413.250    4.024    0.300    0.461   63.728
  413.500    4.026    0.298    0.453   63.745
  413.750    4.103    0.295    0.451   64.976
  414.000    4.029    0.287    0.442   64.394
  414.250    4.182    0.287    0.415   63.803
  414.500    4.761    0.235    0.370   62.602
  414.750    5.522    0.204    0.330   60.800
  415.000    6.404    0.172    0.283   58.391
  415.250    7.290    0.047    0.224   57.794
