~VERSION INFORMATION
 VERS.                 2.0:   CWLS LOG ASCII STANDARD -VERSION 2.0
 WRAP.                  NO:   ONE LINE PER DEPTH STEP
~WELL INFORMATION BLOCK
#MNEM.UNIT           DATA                    DESCRIPTION OF MNEMONIC
#---------    -------------------            -------------------------------
# Generated from Intellog Unique Number	CS_71_72/WELL/868
WELL.         PEX PHILLIPS AEC GRIST         : Well_name    - WELL
LOC .         00/10-23-072-07W4/0            : Location     - LOCATION
UWI .         00/10-23-072-07W4/0            : Uwi          - UNIQUE WELL ID
ENTR.         SP                             : Entered      - ENTERED BY
SRVC.         SCHLUMBERGER                   : Scn          - SERVICE COMPANY
STRT.M        320                            : top_depth    - START DEPTH
STOP.M        547                            : bot_depth    - STOP DEPTH
STEP.M        0.25                           : increment    - STEP LENGTH
 NULL. -999.2500:NULL Value
~CURVE INFORMATION BLOCK
#MNEM UNIT       ERCB CURVE CODE    CURVE DESCRIPTION
#-----------   ------------------   ----------------------------------
DEPT.M        00 001 00 00         : DEPTH        - DEPTH
ILD .OHMM     00 120 00 00         : RESD         - DEEP RESISTIVITY (DIL)
DPHI.V/V      00 890 00 00         : PHID         - DENSITY POROSITY (LIMESTONE)
NPHI.V/V      00 330 00 00         : PHIN         - NEUTRON POROSITY (LIMESTONE)
GR  .API      00 310 00 00         : GR           - GAMMA RAY
~PARAMETER INFORMATION
#MNEM.UNIT           DATA             DESCRIPTION OF MNEMONIC
#---------         -----------     ------------------------------
GL  .M        691.2                : gl           - GROUND LEVEL ELEVATION
EREF.M        694.7                : kb           - ELEVATION OF DEPTH REFERENCE
DATM.M        691.2                : datum        - DATUM ELEVATION
TDD .M        550                  : tdd          - TOTAL DEPTH DRILLER
RUN .         ONE                  : Run          - RUN NUMBER
ENG .         BILL                 : Engineer     - RECORDING ENGINEER
WIT .         JIM                  : Witness      - WITNESSED BY
MUD .         GEL                  : Mud_type     - MUD TYPE
MATR.         LIMESTONE            : Logunit      - NEUTRON MATRIX
TMAX.C        24                   : BHT          - MAXIMUM RECORDED TEMPERATURE
BHTD.M        550                  : BHTDEP       - MAXIMUM RECORDED TEMPERATURE
MATR.         1                    : LOGUNIT      - NEUTRON MATRIX
RMT .C        25                   : MDTP         - TEMPERATURE OF MUD
NEUT.         1                    : NEUTRON      - NEUTRON TYPE
RESI.         0                    : RESIST       - RESISTIVITY TYPE
RMC .OHMM     0.25                 : RMC          - RESISTIVITY OF MUD CAKE
RMF .OHMM     0.25                 : RMF          - RESISTIVITY OF MUD FILTRATE
SUFT.C        15                   : SUFT         - SURFACE TEMPERATURE
~A  DEPTH     RESD     PHID     PHIN       GR
# ...
  450.500    6.536    0.178    0.426   72.615
  450.750    6.414    0.183    0.414   78.109
  451.000    6.782    0.201    0.429   84.213
  451.250    6.781    0.215    0.449   87.266
  451.500    6.780    0.202    0.450   81.174
  451.750    6.780    0.192    0.437   75.084
  452.000    6.779    0.198    0.433   73.259
  452.250    6.778    0.236    0.435   75.094
  452.500    6.905    0.258    0.433   77.539
  452.750    6.904    0.267    0.436   79.986
  453.000    6.903    0.239    0.448   78.163
  453.250    6.902    0.224    0.453   76.949
  453.500    6.774    0.231    0.447   76.345
  453.750    6.773    0.233    0.422   78.790
  454.000    6.773    0.209    0.413   80.014
  454.250    6.647    0.202    0.434   81.850
  454.500    6.646    0.224    0.455   83.686
  454.750    6.646    0.232    0.466   84.911
  455.000    6.522    0.238    0.468   82.478
  455.250    6.521    0.239    0.456   81.874
  455.500    6.521    0.222    0.434   83.100
  455.750    6.400    0.211    0.419   87.374
  456.000    6.399    0.198    0.408   94.089
  456.250    6.398    0.283    0.443   96.531
  456.500    6.640    0.329    0.467  102.636
  456.750    6.639    0.320    0.465   91.056
  457.000    6.396    0.237    0.443   83.134
  457.250    6.277    0.199    0.415   72.164
  457.500    5.719    0.208    0.399   63.633
  457.750    5.210    0.223    0.400   66.078
  458.000    5.019    0.233    0.411   72.794
  458.250    4.572    0.223    0.434   77.067
  458.500    4.165    0.231    0.467   80.121
  458.750    3.725    0.242    0.480   74.641
  459.000    3.393    0.238    0.471   71.598
  459.250    2.978    0.258    0.467   69.773
  459.500    2.764    0.264    0.463   72.217
  459.750    2.614    0.266    0.518   77.105
  460.000    2.518    0.266    0.552   78.328
  460.250    2.518    0.281    0.552   70.406
  460.500    2.471    0.303    0.525   74.073
  460.750    2.517    0.304    0.517   75.909
  461.000    2.661    0.281    0.525   77.134
  461.250    2.975    0.263    0.512   78.357
  461.500    3.265    0.249    0.518   78.972
  461.750    3.517    0.253    0.525   76.541
  462.000    3.719    0.256    0.492   75.936
  462.250    4.006    0.256    0.472   75.334
  462.500    4.158    0.229    0.456   75.338
  462.750    4.235    0.211    0.455   75.955
  463.000    4.157    0.210    0.462   75.960
  463.250    4.156    0.225    0.446   76.578
  463.500    4.823    0.227    0.435   75.971
  463.750    5.293    0.232    0.429   71.711
  464.000    5.918    0.236    0.445   71.106
  464.250    6.997    0.244    0.452   71.721
  464.500    7.823    0.239    0.450   71.730
  464.750    9.423    0.279    0.482   70.515
  465.000   11.563    0.301    0.502   66.250
  465.250   12.456    0.313    0.473   58.940
  465.500   13.418    0.321    0.447   56.507
  465.750   14.454    0.325    0.451   55.904
  466.000   14.724    0.328    0.462   57.127
  466.250   13.665    0.333    0.467   57.743
  466.500   12.922    0.340    0.481   57.749
  466.750   11.771    0.338    0.454   54.707
  467.000   11.553    0.320    0.457   52.273
  467.250   12.445    0.240    0.463   49.232
  467.500   12.916    0.182    0.429   46.797
  467.750   13.656    0.144    0.409   48.023
  468.000   13.912    0.179    0.395   51.077
  468.250   13.154    0.219    0.422   54.745
  468.500   11.983    0.252    0.454   55.968
  468.750   12.436    0.293    0.474   56.586
  469.000   12.907    0.322    0.478   56.589
  469.250   13.903    0.332    0.464   53.550
  469.500   14.163    0.325    0.460   52.946
  469.750   14.699    0.315    0.470   52.951
  470.000   14.973    0.314    0.468   52.956
  470.250   15.253    0.321    0.457   53.570
  470.500   16.126    0.323    0.446   55.405
  470.750   16.736    0.315    0.450   57.850
  471.000   17.370    0.316    0.455   59.076
  471.250   19.063    0.321    0.460   56.034
  471.500   22.122    0.304    0.465   53.600
  471.750   24.734    0.238    0.447   52.386
  472.000   27.145    0.201    0.387   50.564
  472.250   29.789    0.173    0.344   49.351
  472.500   30.916    0.175    0.298   48.748
  472.750   27.136    0.195    0.294   49.362
  473.000   21.699    0.214    0.295   50.589
  473.250   18.694    0.256    0.294   51.812
  473.500   17.351    0.277    0.370   52.429
  473.750   16.406    0.301    0.418   52.434
  474.000   16.404    0.316    0.441   51.222
  474.250   16.402    0.323    0.450   51.836
  474.500   16.400    0.328    0.451   54.282
  474.750   15.508    0.330    0.449   56.118
  475.000   15.506    0.324    0.477   56.123
  475.250   15.505    0.321    0.484   55.519
  475.500   15.793    0.317    0.470   54.304
  475.750   15.792    0.313    0.462   56.142
  476.000   16.087    0.314    0.456   55.536
  476.250   16.085    0.322    0.449   53.712
  476.500   16.386    0.327    0.442   51.890
  476.750   16.384    0.323    0.437   51.285
  477.000   16.382    0.311    0.442   50.682
  477.250   16.381    0.305    0.471   50.690
  477.500   16.378    0.301    0.478   50.693
  477.750   16.075    0.296    0.445   51.309
  478.000   15.200    0.311    0.442   53.144
  478.250   13.094    0.318    0.439   54.369
  478.500   12.153    0.325    0.437   54.377
  478.750   13.092    0.329    0.431   54.993
  479.000   14.912    0.335    0.426   55.608
  479.250   16.064    0.322    0.421   56.224
  479.500   14.364    0.140    0.461   55.010
  479.750   12.375    0.067    0.351   53.796
  480.000   10.661    0.106    0.308   54.411
  480.250    9.712    0.217    0.334   58.688
  480.500    9.356    0.246    0.377   61.132
  480.750   10.461    0.254    0.406   62.967
  481.000   11.696    0.255    0.415   64.801
  481.250   13.573    0.252    0.420   66.638
  481.500   16.349    0.249    0.421   62.376
  481.750   19.329    0.245    0.420   57.503
  482.000   22.853    0.243    0.430   48.361
  482.250   26.520    0.256    0.438   41.659
  482.500   29.104    0.274    0.424   36.178
  482.750   27.013    0.290    0.401   34.353
  483.000   21.203    0.307    0.394   35.579
  483.250   18.610    0.314    0.390   38.635
  483.500   16.032    0.301    0.387   42.300
  483.750   14.606    0.291    0.378   46.575
  484.000   14.604    0.278    0.404   47.188
  484.250   16.027    0.278    0.422   45.365
  484.500   16.634    0.293    0.432   41.104
  484.750   17.263    0.309    0.427   38.672
  485.000   17.261    0.319    0.393   39.286
  485.250   14.870    0.319    0.378   46.001
  485.500   12.342    0.315    0.418   52.104
  485.750   10.633    0.310    0.431   56.987
  486.000    9.161    0.304    0.429   63.702
  486.250    8.192    0.290    0.428   67.975
  486.500    7.190    0.277    0.435   74.689
  486.750    8.343    0.267    0.447   78.354
  487.000    8.988    0.260    0.434   74.701
  487.250   10.430    0.258    0.417   71.049
  487.500   11.661    0.263    0.408   69.833
  487.750   12.330    0.257    0.407   72.889
  488.000   12.560    0.259    0.406   75.334
  488.250   12.327    0.270    0.405   74.120
  488.500   12.557    0.274    0.401   73.516
  488.750   12.792    0.268    0.400   77.791
  489.000   13.031    0.259    0.415   80.846
  489.250   13.778    0.269    0.431   80.851
  489.500   14.568    0.276    0.438   80.249
  489.750   15.119    0.282    0.451   80.254
  490.000   14.839    0.292    0.417   82.698
  490.250   14.294    0.240    0.429   85.753
  490.500   14.029    0.208    0.396   75.393
  490.750   14.291    0.227    0.378   68.692
  491.000   14.558    0.274    0.380   64.430
  491.250   14.556    0.301    0.379   61.995
  491.500   14.286    0.306    0.398   64.441
  491.750   13.014    0.306    0.410   67.497
  492.000   12.306    0.301    0.418   69.330
  492.250   11.004    0.288    0.401   72.997
  492.500    9.659    0.271    0.380   75.440
  492.750    8.168    0.242    0.363   78.495
  493.000    7.441    0.223    0.347   80.943
  493.250    7.303    0.220    0.339   82.167
  493.500    7.439    0.221    0.350   81.562
  493.750    7.865    0.214    0.359   78.520
