~VERSION INFORMATION
 VERS.                 2.0:   CWLS LOG ASCII STANDARD -VERSION 2.0
 WRAP.                  NO:   ONE LINE PER DEPTH STEP
~WELL INFORMATION BLOCK
#MNEM.UNIT           DATA                    DESCRIPTION OF MNEMONIC
#---------    -------------------            -------------------------------
# Generated from Intellog Unique Number	CS_77_79/WELL/995
WELL.         HOME LEISTER                   : Well_name    - WELL
LOC .         00/11-14-078-06W4/0            : Location     - LOCATION
UWI .         00/11-14-078-06W4/0            : Uwi          - UNIQUE WELL ID
ENTR.         JHS                            : Entered      - ENTERED BY
SRVC.         SCHLUMBERGER                   : Scn          - SERVICE COMPANY
STRT.M        140                            : top_depth    - START DEPTH
STOP.M        420                            : bot_depth    - STOP DEPTH
STEP.M        0.25                           : increment    - STEP LENGTH
 NULL. -999.2500:NULL Value
~CURVE INFORMATION BLOCK
#MNEM UNIT       ERCB CURVE CODE    CURVE DESCRIPTION
#-----------   ------------------   ----------------------------------
DEPT.M        00 001 00 00         : DEPTH        - DEPTH
DPHI.V/V      00 890 00 00         : PHID         - DENSITY POROSITY (LIMESTONE)
NPHI.V/V      00 330 00 00         : PHIN         - NEUTRON POROSITY (LIMESTONE)
GR  .API      00 310 00 00         : GR           - GAMMA RAY
ILD .OHMM     00 120 00 00         : RESD         - DEEP RESISTIVITY (DIL)
RHOB.KG/M3    00 350 00 00         : DENS         - BULK DENSITY
~PARAMETER INFORMATION
#MNEM.UNIT           DATA             DESCRIPTION OF MNEMONIC
#---------         -----------     ------------------------------
GL  .M        593.32               : gl           - GROUND LEVEL ELEVATION
EREF.M        596.32               : kb           - ELEVATION OF DEPTH REFERENCE
DATM.M        596.32               : datum        - DATUM ELEVATION
TDD .M        430                  : tdd          - TOTAL DEPTH DRILLER
RUN .         ONE                  : Run          - RUN NUMBER
ENG .         BILL                 : Engineer     - RECORDING ENGINEER
WIT .         JIM                  : Witness      - WITNESSED BY
MUD .         GEL                  : Mud_type     - MUD TYPE
MATR.         LIMESTONE            : Logunit      - NEUTRON MATRIX
TMAX.C        24                   : BHT          - MAXIMUM RECORDED TEMPERATURE
BHTD.M        430                  : BHTDEP       - MAXIMUM RECORDED TEMPERATURE
MATR.         1                    : LOGUNIT      - NEUTRON MATRIX
RMT .C        25                   : MDTP         - TEMPERATURE OF MUD
NEUT.         1                    : NEUTRON      - NEUTRON TYPE
RESI.         0                    : RESIST       - RESISTIVITY TYPE
RMC .OHMM     0.25                 : RMC          - RESISTIVITY OF MUD CAKE
RMF .OHMM     0.25                 : RMF          - RESISTIVITY OF MUD FILTRATE
SUFT.C        15                   : SUFT         - SURFACE TEMPERATURE
~A  DEPTH     PHID     PHIN       GR     RESD     DENS
# ...
  395.500    0.222    0.286   80.838    5.262 2329.700
  395.750    0.208    0.301   83.277    5.563 2354.790
  396.000    0.207    0.286   82.624    5.772 2356.750
  396.250    0.215    0.292   80.130    5.557 2341.990
  396.500    0.224    0.316   81.941    5.349 2327.190
  396.750    0.207    0.336   82.535    5.248 2356.450
  397.000    0.220    0.358   81.265    5.245 2333.310
  397.250    0.241    0.344   75.061    5.146 2297.560
  397.500    0.223    0.299   75.036    5.241 2328.910
  397.750    0.208    0.289   84.257    5.337 2353.990
  398.000    0.218    0.305   87.937    5.434 2337.070
  398.250    0.224    0.298   87.286    5.331 2326.520
  398.500    0.200    0.324   81.086    5.038 2368.370
  398.750    0.244    0.365   80.436    4.585 2292.750
  399.000    0.273    0.388   69.302    4.415 2242.330
  399.250    0.309    0.358   47.054    4.250 2181.380
  399.500    0.292    0.310   39.001    4.169 2210.660
  399.750    0.261    0.333   54.397    4.167 2263.000
  400.000    0.242    0.379   66.090    4.165 2296.460
  400.250    0.262    0.372   62.974    4.086 2262.790
  400.500    0.292    0.320   48.751    4.008 2210.260
  400.750    0.312    0.303   37.614    3.931 2176.600
  401.000    0.323    0.321   37.583    3.785 2157.620
  401.250    0.303    0.329   45.569    3.783 2191.090
  401.500    0.304    0.344   48.624    3.781 2190.970
  401.750    0.308    0.332   45.515    3.780 2182.490
  402.000    0.316    0.334   31.903    3.707 2169.790
  402.250    0.312    0.342   33.728    3.637 2175.980
  402.500    0.305    0.334   37.391    3.501 2188.490
  402.750    0.319    0.337   34.902    3.499 2165.290
  403.000    0.319    0.325   29.932    3.433 2165.190
  403.250    0.308    0.337   35.453    3.431 2183.980
  403.500    0.315    0.343   36.036    3.430 2171.280
  403.750    0.321    0.329   33.536    3.559 2160.720
  404.000    0.318    0.327   35.978    3.693 2166.920
  404.250    0.300    0.358   47.674    3.622 2196.180
  404.500    0.301    0.380   60.604    3.553 2196.070
  404.750    0.328    0.344   55.017    3.421 2149.830
  405.000    0.341    0.309   42.645    3.293 2126.650
  405.250    0.352    0.319   34.591    3.231 2107.690
  405.500    0.340    0.315   32.096    3.111 2128.530
  405.750    0.329    0.298   31.446    3.168 2147.330
  406.000    0.318    0.309   36.970    3.287 2166.100
  406.250    0.314    0.339   41.259    3.541 2172.270
  406.500    0.301    0.373   39.375    3.674 2195.280
  406.750    0.281    0.351   36.879    3.884 2228.740
  407.000    0.297    0.337   33.141    3.955 2201.380
  407.250    0.299    0.317   26.944    4.028 2199.160
  407.500    0.316    0.314   23.211    4.102 2169.710
  407.750    0.333    0.425   22.563    4.101 2140.240
  408.000    0.305    0.377   29.318    4.098 2188.380
  408.250    0.300    0.342   23.117    4.097 2196.690
  408.500    0.328    0.321   21.234    4.172 2148.330
  408.750    0.367    0.392   29.228    4.169 2083.210
  409.000    0.321    0.352   31.652    4.090 2160.730
  409.250    0.297    0.298   29.158    3.938 2202.550
  409.500    0.296    0.327   30.988    3.791 2204.570
  409.750    0.305    0.310   34.657    3.719 2187.680
  410.000    0.307    0.281   29.067    3.717 2185.490
  410.250    0.312    0.274   26.573    3.715 2177.000
  410.500    0.309    0.317   24.070    3.783 2181.100
  410.750    0.314    0.362   27.131    3.853 2172.600
  411.000    0.327    0.381   33.262    3.924 2151.540
  411.250    0.294    0.355   32.615    4.388 2208.060
  411.500    0.287    0.338   29.501    4.640 2218.430
  411.750    0.269    0.249   27.611    4.997 2249.820
  412.000    0.218    0.214   30.062    5.283 2337.830
  412.250    0.203    0.196   31.257    5.586 2362.870
  412.500    0.217    0.209   31.227    6.017 2339.710
  412.750    0.209    0.239   42.929    6.243 2352.200
  413.000    0.168    0.287   58.323    6.124 2423.420
  413.250    0.162    0.300   65.080    6.237 2433.790
  413.500    0.169    0.322   61.334    6.471 2421.110
  413.750    0.178    0.324   60.085    6.842 2406.320
  414.000    0.179    0.279   55.108    6.839 2404.150
  414.250    0.162    0.246   52.617    6.835 2433.410
  414.500    0.152    0.255   58.140    6.960 2450.080
  414.750    0.158    0.289   66.748    7.089 2439.490
  415.000    0.182    0.312   73.504    7.085 2399.550
  415.250    0.183    0.308   76.562    6.694 2397.350
  415.500    0.150    0.287   80.847    6.446 2453.890
  415.750    0.201    0.250   91.305    6.206 2365.690
  416.000    0.307    0.347  101.768    5.755 2185.190
  416.250    0.279    0.465  109.145    5.752    0.000
  416.500    0.152    0.489  115.283    6.196    0.000
  416.750    0.137    0.456  122.041    6.929    0.000
  417.000    0.118    0.424  121.388    8.197    0.000
  417.250    0.010    0.415   97.294   10.647    0.000
  417.500    0.074    0.565   84.922   12.833    0.000
  417.750    0.120    0.603   54.658   16.669    0.000
  418.000    0.049    0.095   24.387   20.468    0.000
  418.250    0.017    0.084   15.721   23.324    0.000
  418.500    0.014    0.082   13.833   27.075    0.000
  418.750    0.019    0.081   15.653   29.167    0.000
  419.000    0.017    0.079   16.860   31.415    0.000
  419.250    0.007    0.078   14.981   32.602    0.000
  419.500    0.000    0.076   13.094   35.113    0.000
  419.750    0.000    0.075   13.057   37.823    0.000
  420.000    0.002    0.071   19.205   40.743    0.000
