~VERSION INFORMATION
 VERS.                 2.0:   CWLS LOG ASCII STANDARD -VERSION 2.0
 WRAP.                  NO:   ONE LINE PER DEPTH STEP
~WELL INFORMATION BLOCK
#MNEM.UNIT           DATA                    DESCRIPTION OF MNEMONIC
#---------    -------------------            -------------------------------
# Generated from Intellog Unique Number	CS_77_79/WELL/997
WELL.         HOME OIL COMPANY LIMITED       : Well_name    - WELL
LOC .         00/11-21-077-07W4/0            : Location     - LOCATION
UWI .         00/11-21-077-07W4/0            : Uwi          - UNIQUE WELL ID
ENTR.         SP                             : Entered      - ENTERED BY
SRVC.         SCHLUMBERGER                   : Scn          - SERVICE COMPANY
STRT.M        124.968                        : top_depth    - START DEPTH
STOP.M        354.218                        : bot_depth    - STOP DEPTH
STEP.M        0.25                           : increment    - STEP LENGTH
 NULL. -999.2500:NULL Value
~CURVE INFORMATION BLOCK
#MNEM UNIT       ERCB CURVE CODE    CURVE DESCRIPTION
#-----------   ------------------   ----------------------------------
DEPT.M        00 001 00 00         : DEPTH        - DEPTH
RHOB.KG/M3    00 350 00 00         : DENS         - BULK DENSITY
GR  .API      00 310 00 00         : GR           - GAMMA RAY
DPHI.V/V      00 890 00 00         : PHID         - DENSITY POROSITY (SANDSTONE)
NPHI.V/V      00 330 00 00         : PHIN         - NEUTRON POROSITY (SANDSTONE)
ILD .OHMM     00 120 00 00         : RESD         - DEEP RESISTIVITY (DIL)
~PARAMETER INFORMATION
#MNEM.UNIT           DATA             DESCRIPTION OF MNEMONIC
#---------         -----------     ------------------------------
GL  .M        556.4                : gl           - GROUND LEVEL ELEVATION
EREF.M        560.4                : kb           - ELEVATION OF DEPTH REFERENCE
DATM.M        571.652              : datum        - DATUM ELEVATION
TDD .M        389.534              : tdd          - TOTAL DEPTH DRILLER
RUN .         ONE                  : Run          - RUN NUMBER
ENG .         BILL                 : Engineer     - RECORDING ENGINEER
WIT .         JIM                  : Witness      - WITNESSED BY
MUD .         GEL                  : Mud_type     - MUD TYPE
MATR.         SANDSTONE            : Logunit      - NEUTRON MATRIX
TMAX.C        23.3333              : BHT          - MAXIMUM RECORDED TEMPERATURE
BHTD.M        389.534              : BHTDEP       - MAXIMUM RECORDED TEMPERATURE
MATR.         1                    : LOGUNIT      - NEUTRON MATRIX
RMT .C        25                   : MDTP         - TEMPERATURE OF MUD
NEUT.         1                    : NEUTRON      - NEUTRON TYPE
RESI.         0                    : RESIST       - RESISTIVITY TYPE
RMC .OHMM     0.25                 : RMC          - RESISTIVITY OF MUD CAKE
RMF .OHMM     0.25                 : RMF          - RESISTIVITY OF MUD FILTRATE
SUFT.C        15                   : SUFT         - SURFACE TEMPERATURE
~A  DEPTH     DENS       GR     PHID     PHIN     RESD
  124.968    0.000   98.981    0.255    0.565    1.251
  125.218    0.000   97.794    0.244    0.532    1.800
  125.468    0.000   98.011    0.236    0.559    2.177
  125.718    0.000   92.545    0.220    0.597    2.347
  125.968    0.000   89.525    0.251    0.574    2.500
  126.218    0.000   88.254    0.250    0.566    2.588
  126.468    0.000   91.974    0.240    0.585    2.584
  126.718    0.000   94.190    0.242    0.607    2.583
  126.968    0.000   93.953    0.255    0.625    2.582
  127.218    0.000   92.389    0.253    0.610    2.611
  127.468    0.000   90.715    0.243    0.591    2.735
  127.718    0.000   89.096    0.228    0.609    2.782
  127.968    0.000   90.609    0.235    0.591    2.867
  128.218    0.000   93.255    0.240    0.588    2.955
  128.468    0.000   96.398    0.225    0.582    3.046
  128.718    0.000   96.010    0.224    0.562    3.176
  128.968    0.000   95.815    0.224    0.558    3.296
  129.218    0.000   95.811    0.209    0.540    3.394
  129.468    0.000   96.309    0.198    0.545    3.574
  129.718    0.000   99.247    0.180    0.549    3.678
  129.968    0.000  104.131    0.194    0.545    3.791
  130.218    0.000  101.782    0.204    0.549    3.911
  130.468    0.000   99.945    0.199    0.547    3.941
  130.718    0.000  100.398    0.200    0.508    3.824
  130.968    0.000  101.020    0.206    0.532    3.617
  131.218    0.000  101.211    0.213    0.550    3.267
  131.468    0.000  102.505    0.201    0.554    3.107
  131.718    0.000  102.679    0.189    0.558    3.106
  131.968    0.000  104.181    0.183    0.544    3.145
  132.218    0.000  103.549    0.174    0.511    3.241
  132.468    0.000  101.330    0.187    0.512    3.347
  132.718    0.000   97.659    0.189    0.510    3.564
  132.968    0.000   96.271    0.183    0.504    3.828
  133.218    0.000   94.861    0.180    0.508    4.016
  133.468    0.000   92.425    0.169    0.509    4.274
  133.718    0.000   86.751    0.116    0.476    4.513
  133.968    0.000   80.821    0.124    0.423    4.643
  134.218    0.000   73.852    0.149    0.441    4.708
  134.468    0.000   74.617    0.182    0.456    4.588
  134.718    0.000   80.332    0.182    0.479    4.229
  134.968    0.000   88.359    0.185    0.490    4.006
  135.218    0.000   92.115    0.192    0.515    4.101
  135.468    0.000   92.407    0.203    0.516    4.423
  135.718    0.000   95.226    0.197    0.517    5.323
  135.968    0.000   93.845    0.193    0.491    6.110
  136.218    0.000   87.488    0.185    0.420    7.473
  136.468    0.000   84.330    0.170    0.419    9.231
  136.718    0.000   94.291    0.191    0.453   10.351
  136.968    0.000  106.378    0.208    0.469   11.052
  137.218    0.000  102.719    0.215    0.445   10.862
  137.468    0.000   99.742    0.220    0.434   11.109
  137.718    0.000   96.074    0.226    0.451   12.017
  137.968    0.000   93.610    0.236    0.461   13.044
  138.218    0.000   85.421    0.241    0.460   15.150
  138.468    0.000   76.074    0.273    0.434   17.235
  138.718    0.000   66.174    0.294    0.415   21.282
  138.968    0.000   24.477    0.290    0.422   22.778
  139.218    0.000   23.713    0.307    0.442   24.537
  139.468    0.000   22.544    0.311    0.457   25.171
  139.718    0.000   22.419    0.301    0.432   25.536
  139.968    0.000   22.583    0.277    0.414   25.766
  140.218    0.000   21.914    0.257    0.432   26.624
  140.468    0.000   22.008    0.280    0.434   28.025
  140.718    0.000   21.300    0.275    0.410   28.241
  140.968    0.000   20.702    0.266    0.402   28.599
  141.218    0.000   20.313    0.277    0.402   28.532
  141.468    0.000   20.089    0.271    0.398   29.172
  141.718    0.000   20.065    0.274    0.401   29.080
  141.968    0.000   20.058    0.280    0.391   29.994
  142.218    0.000   20.045    0.260    0.397   30.156
  142.468    0.000   20.049    0.266    0.410   30.668
  142.718    0.000   20.256    0.269    0.408   30.728
  142.968    0.000   21.262    0.250    0.399   30.763
  143.218    0.000   21.164    0.240    0.383   31.313
  143.468    0.000   21.898    0.235    0.372   31.275
  143.718    0.000   21.825    0.254    0.376   31.259
  143.968    0.000   21.214    0.236    0.372   31.307
  144.218    0.000   23.423    0.234    0.395   30.593
  144.468    0.000   23.044    0.262    0.426   30.646
  144.718    0.000   22.015    0.273    0.434   30.628
  144.968    0.000   22.004    0.256    0.424   30.619
  145.218    0.000   23.509    0.268    0.423   30.612
  145.468    0.000   25.807    0.266    0.432   30.651
  145.718    0.000   27.335    0.257    0.441   29.975
  145.968    0.000   29.486    0.273    0.430   30.009
  146.218    0.000   29.802    0.253    0.411   29.982
  146.468    0.000   30.851    0.247    0.401   29.950
  146.718    0.000   30.517    0.271    0.379   29.366
  146.968    0.000   29.167    0.265    0.358   29.224
  147.218    0.000   28.981    0.276    0.358   28.845
  147.468    0.000   32.554    0.267    0.370   28.469
  147.718    0.000   37.153    0.296    0.411   28.173
  147.968    0.000   43.944    0.274    0.431   27.769
  148.218    0.000   42.953    0.290    0.445   26.938
  148.468    0.000   44.498    0.310    0.434   26.128
  148.718    0.000   46.524    0.298    0.444   25.339
  148.968    0.000   46.809    0.304    0.471   24.772
  149.218    0.000   47.100    0.283    0.485   24.241
  149.468    0.000   47.979    0.302    0.469   23.820
  149.718    0.000   49.766    0.276    0.452   23.660
  149.968    0.000   51.379    0.287    0.463   23.381
  150.218    0.000   54.009    0.289    0.478   22.960
  150.468    0.000   56.403    0.298    0.484   22.458
  150.718    0.000   57.361    0.287    0.480   22.517
  150.968    0.000   60.494    0.309    0.485   22.047
  151.218    0.000   61.083    0.291    0.490   22.072
  151.468    0.000   62.229    0.272    0.487   22.058
  151.718    0.000   61.315    0.251    0.473   21.839
  151.968    0.000   59.502    0.273    0.452   21.648
  152.218    0.000   56.950    0.252    0.440   21.628
  152.468    0.000   54.765    0.237    0.431   21.623
  152.718    0.000   52.489    0.271    0.441   21.617
  152.968    0.000   55.054    0.284    0.447   21.300
  153.218    0.000   57.182    0.290    0.446   21.202
  153.468    0.000   58.525    0.271    0.442   21.189
  153.718    0.000   60.520    0.295    0.443   20.521
  153.968    0.000   62.453    0.275    0.444   19.824
  154.218    0.000   65.058    0.286    0.443   18.934
  154.468    0.000   67.484    0.301    0.466   19.105
  154.718    0.000   69.056    0.287    0.450   19.148
  154.968    0.000   72.222    0.285    0.446   18.225
  155.218    0.000   73.011    0.280    0.465   18.182
  155.468    0.000   73.702    0.282    0.474   18.118
  155.718    0.000   75.188    0.255    0.472   16.284
  155.968    0.000   76.458    0.220    0.474   12.921
  156.218    0.000   82.945    0.214    0.488    9.562
  156.468    0.000   99.044    0.192    0.499    7.823
  156.718    0.000  115.689    0.176    0.527    7.069
  156.968    0.000  123.380    0.167    0.528    6.160
  157.218    0.000  118.848    0.175    0.533    5.494
  157.468    0.000  112.635    0.175    0.537    5.150
  157.718    0.000  108.179    0.148    0.537    4.751
  157.968    0.000  109.833    0.154    0.541    4.636
  158.218    0.000  114.500    0.182    0.554    4.642
  158.468    0.000  114.836    0.191    0.541    5.274
  158.718    0.000  111.632    0.207    0.500    6.058
  158.968    0.000  102.499    0.225    0.484    7.644
  159.218    0.000   88.606    0.242    0.459   10.310
  159.468    0.000   76.414    0.247    0.434   11.984
  159.718    0.000   71.642    0.255    0.429   12.441
  159.968    0.000   70.913    0.243    0.431   11.868
  160.218    0.000   73.795    0.221    0.425   11.080
  160.468    0.000   78.225    0.188    0.423   11.302
  160.718    0.000   78.959    0.180    0.432   11.786
  160.968    0.000   76.543    0.203    0.440   12.295
  161.218    0.000   72.392    0.239    0.438   13.513
