~VERSION INFORMATION
 VERS.                 2.0:   CWLS LOG ASCII STANDARD -VERSION 2.0
 WRAP.                  NO:   ONE LINE PER DEPTH STEP
~WELL INFORMATION BLOCK
#MNEM.UNIT           DATA                    DESCRIPTION OF MNEMONIC
#---------    -------------------            -------------------------------
# Generated from Intellog Unique Number	CS_73_76/WELL/833
WELL.         PACIFIC  CRIST                 : Well_name    - WELL
LOC .         00/10-24-073-08W4/0            : Location     - LOCATION
UWI .         00/10-24-073-08W4/0            : Uwi          - UNIQUE WELL ID
ENTR.         SP                             : Entered      - ENTERED BY
SRVC.         SCHLUMBERGER                   : Scn          - SERVICE COMPANY
STRT.M        310                            : top_depth    - START DEPTH
STOP.M        530                            : bot_depth    - STOP DEPTH
STEP.M        0.25                           : increment    - STEP LENGTH
 NULL. -999.2500:NULL Value
~CURVE INFORMATION BLOCK
#MNEM UNIT       ERCB CURVE CODE    CURVE DESCRIPTION
#-----------   ------------------   ----------------------------------
DEPT.M        00 001 00 00         : DEPTH        - DEPTH
ILD .OHMM     00 120 00 00         : RESD         - DEEP RESISTIVITY (DIL)
DPHI.V/V      00 890 00 00         : PHID         - DENSITY POROSITY (LIMESTONE)
NPHI.V/V      00 330 00 00         : PHIN         - NEUTRON POROSITY (LIMESTONE)
GR  .API      00 310 00 00         : GR           - GAMMA RAY
~PARAMETER INFORMATION
#MNEM.UNIT           DATA             DESCRIPTION OF MNEMONIC
#---------         -----------     ------------------------------
GL  .M        694.3                : gl           - GROUND LEVEL ELEVATION
EREF.M        697.6                : kb           - ELEVATION OF DEPTH REFERENCE
DATM.M        694.3                : datum        - DATUM ELEVATION
TDD .M        540                  : tdd          - TOTAL DEPTH DRILLER
RUN .         ONE                  : Run          - RUN NUMBER
ENG .         BILL                 : Engineer     - RECORDING ENGINEER
WIT .         JIM                  : Witness      - WITNESSED BY
MUD .         GEL                  : Mud_type     - MUD TYPE
MATR.         LIMESTONE            : Logunit      - NEUTRON MATRIX
TMAX.C        12.8                 : BHT          - MAXIMUM RECORDED TEMPERATURE
BHTD.M        540                  : BHTDEP       - MAXIMUM RECORDED TEMPERATURE
MATR.         1                    : LOGUNIT      - NEUTRON MATRIX
RMT .C        25                   : MDTP         - TEMPERATURE OF MUD
NEUT.         1                    : NEUTRON      - NEUTRON TYPE
RESI.         0                    : RESIST       - RESISTIVITY TYPE
RMC .OHMM     0.25                 : RMC          - RESISTIVITY OF MUD CAKE
RMF .OHMM     0.25                 : RMF          - RESISTIVITY OF MUD FILTRATE
SUFT.C        15                   : SUFT         - SURFACE TEMPERATURE
~A  DEPTH     RESD     PHID     PHIN       GR
# ...
  353.500    9.899    0.208    0.420  101.499
  353.750    9.378    0.206    0.428   99.681
  354.000    9.216    0.233    0.437   94.836
  354.250    8.891    0.250    0.436   93.019
  354.500    8.748    0.253    0.431   89.385
  354.750    8.762    0.238    0.419   86.962
  355.000    8.773    0.226    0.416   86.354
  355.250    8.946    0.224    0.420   94.212
  355.500    9.304    0.225    0.440  100.862
  355.750    9.489    0.183    0.469  108.115
  356.000    8.196    0.211    0.487  111.740
  356.250    7.617    0.213    0.503  113.551
  356.500    6.830    0.203    0.519  107.497
  356.750    6.466    0.224    0.506  103.865
  357.000    6.127    0.240    0.497  100.230
  357.250    5.909    0.232    0.501   98.412
  357.500    5.811    0.226    0.504   98.408
  357.750    6.040    0.225    0.511   99.010
  358.000    6.517    0.234    0.519   97.796
  358.250    6.900    0.234    0.506   97.186
  358.500    7.307    0.226    0.494   98.997
  358.750    7.736    0.238    0.475   97.782
  359.000    8.189    0.246    0.456   97.174
  359.250    9.180    0.248    0.440   97.171
  359.500    9.360    0.235    0.445   93.537
  359.750    9.916    0.241    0.450   90.510
  360.000    9.926    0.243    0.443   91.715
  360.250   10.322    0.259    0.439   91.711
  360.500   10.331    0.260    0.440   85.658
  360.750   10.937    0.269    0.445   81.420
  361.000   11.797    0.290    0.460   72.948
  361.250   12.968    0.289    0.468   72.945
  361.500   13.993    0.288    0.470   77.171
  361.750   14.816    0.251    0.473   79.588
  362.000   15.116    0.214    0.486   81.399
  362.250   14.584    0.186    0.491   84.418
  362.500   12.825    0.169    0.492   85.021
  362.750   10.873    0.192    0.488   85.622
  363.000    9.920    0.199    0.496   85.617
  363.250    8.570    0.205    0.516   87.428
  363.500    8.112    0.234    0.512   88.632
  363.750    7.138    0.228    0.511   88.629
  364.000    6.885    0.248    0.502   88.623
  364.250    6.645    0.219    0.488   88.621
  364.500    6.781    0.229    0.482   86.198
  364.750    7.313    0.244    0.475   80.144
  365.000    8.659    0.267    0.488   75.907
  365.250   10.066    0.275    0.475   72.879
  365.500   10.852    0.258    0.474   75.294
  365.750   11.929    0.264    0.487   78.313
  366.000   12.629    0.245    0.474   80.123
  366.250   13.124    0.228    0.461   80.724
  366.500   12.669    0.259    0.457   81.326
  366.750   12.232    0.246    0.481   81.927
  367.000   12.021    0.255    0.516   81.922
  367.250   11.816    0.252    0.502   81.918
  367.500   11.408    0.261    0.492   83.124
  367.750   11.213    0.252    0.484   82.514
  368.000   11.021    0.235    0.478   81.301
  368.250   10.833    0.228    0.469   80.691
  368.500   10.455    0.227    0.468   81.898
  368.750    9.731    0.201    0.479   84.313
  369.000    9.217    0.212    0.469   86.728
  369.250    8.891    0.223    0.474   86.724
  369.500    8.582    0.224    0.492   86.114
  369.750    8.432    0.278    0.495   84.901
  370.000    8.446    0.325    0.490   79.454
  370.250    8.778    0.320    0.481   79.449
  370.500    9.294    0.285    0.472   79.445
  370.750   10.027    0.268    0.463   78.232
  371.000   10.622    0.251    0.456   75.809
  371.250   11.043    0.231    0.466   72.779
  371.500   11.261    0.250    0.455   73.380
  371.750   11.492    0.269    0.446   76.401
  372.000   11.512    0.288    0.435   81.234
  372.250   11.319    0.229    0.432   83.650
  372.500   10.525    0.212    0.451   86.669
  372.750   10.153    0.227    0.470   88.481
  373.000    9.101    0.245    0.490   81.217
  373.250    8.781    0.270    0.497   77.586
  373.500    8.471    0.305    0.503   70.929
  373.750    8.181    0.308    0.501   64.876
  374.000    8.188    0.295    0.491   61.848
  374.250    8.834    0.302    0.473   61.238
  374.500    9.527    0.309    0.460   60.629
  374.750   10.277    0.319    0.463   58.810
  375.000   11.086    0.319    0.473   58.807
  375.250   11.742    0.322    0.491   55.779
  375.500   12.202    0.312    0.478   52.146
  375.750   12.933    0.310    0.444   49.117
  376.000   12.943    0.318    0.446   51.533
  376.250   13.214    0.331    0.449   53.343
  376.500   13.226    0.321    0.450   54.549
  376.750   13.004    0.315    0.456   56.359
  377.000   12.321    0.310    0.475   53.330
  377.250   11.882    0.306    0.463   50.303
  377.500   11.055    0.300    0.450   49.693
  377.750   10.863    0.304    0.432   49.689
  378.000   11.089    0.318    0.426   50.896
  378.250   11.531    0.326    0.428   53.914
  378.500   11.981    0.329    0.428   55.725
  378.750   12.222    0.330    0.466   56.326
  379.000   12.474    0.331    0.489   58.741
  379.250   12.486    0.365    0.554   61.157
  379.500   12.510    0.385    0.589   59.943
  379.750   12.308    0.326    0.622   51.470
  380.000   12.325    0.308    0.436   48.443
  380.250   12.116    0.313    0.444   46.624
  380.500   12.138    0.317    0.450   46.621
  380.750   12.153    0.336    0.456   49.035
  381.000   11.944    0.319    0.433   50.241
  381.250   11.960    0.327    0.426   50.840
  381.500   11.986    0.336    0.415   50.231
  381.750   12.002    0.338    0.418   49.018
  382.000   12.245    0.342    0.421   49.619
  382.250   12.259    0.331    0.426   50.825
  382.500   12.504    0.322    0.437   52.031
  382.750   12.760    0.314    0.454   53.236
  383.000   12.779    0.315    0.448   53.836
  383.250   13.036    0.325    0.439   52.623
  383.500   13.058    0.329    0.439   50.199
  383.750   13.090    0.317    0.445   47.775
  384.000   13.110    0.309    0.447   46.563
  384.250   12.886    0.305    0.447   45.953
  384.500   12.905    0.311    0.450   51.996
  384.750   12.685    0.323    0.450   54.413
  385.000   12.473    0.335    0.449   56.828
  385.250   12.492    0.339    0.448   53.798
  385.500   12.281    0.342    0.464   53.191
  385.750   12.304    0.342    0.475   52.582
  386.000   12.096    0.346    0.461   52.578
  386.250   12.112    0.347    0.453   51.363
  386.500   12.132    0.341    0.465   51.965
  386.750   12.149    0.335    0.467   52.566
  387.000   12.166    0.326    0.465   50.746
  387.250   11.960    0.319    0.464   50.137
  387.500   11.982    0.331    0.464   50.738
  387.750   12.004    0.345    0.471   51.339
  388.000   12.024    0.352    0.465   51.334
  388.250   12.036    0.336    0.465   51.332
  388.500   12.050    0.330    0.475   51.327
  388.750   12.294    0.329    0.470   51.928
  389.000   12.310    0.322    0.464   52.528
  389.250   12.558    0.295    0.471   51.314
  389.500   13.556    0.267    0.419   48.891
  389.750   14.615    0.179    0.337   46.468
  390.000   19.346    0.003    0.148   44.045
  390.250   25.123    0.013    0.145   42.831
  390.500   36.473    0.009    0.145   42.827
  390.750   64.960    0.012    0.145   45.241
  391.000   72.714    0.014    0.145   45.238
  391.250   74.191    0.024    0.149   43.419
  391.500   64.066    0.053    0.179   42.204
  391.750   56.362    0.080    0.220   42.806
  392.000   53.392    0.106    0.251   44.616
  392.250   52.477    0.061    0.173   45.217
  392.500   52.588    0.039    0.160   44.003
  392.750   51.675    0.044    0.196   44.603
  393.000   45.427    0.078    0.262   46.414
  393.250   31.975    0.160    0.326   49.435
  393.500   22.931    0.210    0.365   52.455
  393.750   18.723    0.256    0.426   54.870
  394.000   14.462    0.307    0.462   57.285
  394.250   12.480    0.326    0.457   61.514
  394.500   10.192    0.336    0.452   65.138
  394.750    8.961    0.317    0.462   67.553
  395.000    7.737    0.323    0.489   66.945
  395.250    7.898    0.338    0.482   62.708
  395.500    8.520    0.341    0.468   58.469
  395.750    8.854    0.322    0.459   55.441
  396.000    9.375    0.323    0.453   57.856
  396.250    9.565    0.312    0.458   62.688
  396.500    9.405    0.300    0.463   64.499
  396.750    9.074    0.303    0.475   65.707
