~VERSION INFORMATION
 VERS.                 2.0:   CWLS LOG ASCII STANDARD -VERSION 2.0
 WRAP.                  NO:   ONE LINE PER DEPTH STEP
~WELL INFORMATION BLOCK
#MNEM.UNIT           DATA                    DESCRIPTION OF MNEMONIC
#---------    -------------------            -------------------------------
# Generated from Intellog Unique Number	CS_71_72/WELL/928
WELL.         ET AL IPIATIK                  : Well_name    - WELL
LOC .         00/16-34-071-10W4/0            : Location     - LOCATION
UWI .         00/16-34-071-10W4/0            : Uwi          - UNIQUE WELL ID
ENTR.         SP                             : Entered      - ENTERED BY
SRVC.         SCHLUMBERGER                   : Scn          - SERVICE COMPANY
STRT.M        310                            : top_depth    - START DEPTH
STOP.M        518                            : bot_depth    - STOP DEPTH
STEP.M        0.25                           : increment    - STEP LENGTH
 NULL. -999.2500:NULL Value
~CURVE INFORMATION BLOCK
#MNEM UNIT       ERCB CURVE CODE    CURVE DESCRIPTION
#-----------   ------------------   ----------------------------------
DEPT.M        00 001 00 00         : DEPTH        - DEPTH
ILD .OHMM     00 120 00 00         : RESD         - DEEP RESISTIVITY (DIL)
DPHI.V/V      00 890 00 00         : PHID         - DENSITY POROSITY (LIMESTONE)
NPHI.V/V      00 330 00 00         : PHIN         - NEUTRON POROSITY (LIMESTONE)
GR  .API      00 310 00 00         : GR           - GAMMA RAY
~PARAMETER INFORMATION
#MNEM.UNIT           DATA             DESCRIPTION OF MNEMONIC
#---------         -----------     ------------------------------
GL  .M        658.64               : gl           - GROUND LEVEL ELEVATION
EREF.M        662.14               : kb           - ELEVATION OF DEPTH REFERENCE
DATM.M        653.64               : datum        - DATUM ELEVATION
TDD .M        523                  : tdd          - TOTAL DEPTH DRILLER
RUN .         ONE                  : Run          - RUN NUMBER
ENG .         BILL                 : Engineer     - RECORDING ENGINEER
WIT .         JIM                  : Witness      - WITNESSED BY
MUD .         GEL                  : Mud_type     - MUD TYPE
MATR.         LIMESTONE            : Logunit      - NEUTRON MATRIX
TMAX.C        24                   : BHT          - MAXIMUM RECORDED TEMPERATURE
BHTD.M        523                  : BHTDEP       - MAXIMUM RECORDED TEMPERATURE
MATR.         1                    : LOGUNIT      - NEUTRON MATRIX
RMT .C        25                   : MDTP         - TEMPERATURE OF MUD
NEUT.         1                    : NEUTRON      - NEUTRON TYPE
RESI.         0                    : RESIST       - RESISTIVITY TYPE
RMC .OHMM     0.25                 : RMC          - RESISTIVITY OF MUD CAKE
RMF .OHMM     0.25                 : RMF          - RESISTIVITY OF MUD FILTRATE
SUFT.C        15                   : SUFT         - SURFACE TEMPERATURE
~A  DEPTH     RESD     PHID     PHIN       GR
# ...
  397.000   16.208    0.333    0.403   56.722
  397.250   16.480    0.341    0.412   52.837
  397.500   16.946    0.346    0.409   50.106
  397.750   17.457    0.348    0.410   49.252
  398.000   18.219    0.350    0.394   49.550
  398.250   18.388    0.343    0.387   49.666
  398.500   18.314    0.340    0.387   49.902
  398.750   17.936    0.342    0.390   50.443
  399.000   16.762    0.342    0.400   51.953
  399.250   16.294    0.339    0.407   54.069
  399.500   15.897    0.337    0.403   56.125
  399.750   15.628    0.335    0.410   54.423
  400.000   15.362    0.339    0.427   51.750
  400.250   15.215    0.336    0.416   53.684
  400.500   15.126    0.337    0.409   56.892
  400.750   15.038    0.340    0.402   59.735
  401.000   14.810    0.328    0.414   62.395
  401.250   14.450    0.320    0.414   63.845
  401.500   13.811    0.316    0.401   65.597
  401.750   12.980    0.315    0.412   66.925
  402.000   11.360    0.316    0.433   67.829
  402.250    9.961    0.321    0.461   69.279
  402.500    9.051    0.313    0.449   73.515
  402.750    8.333    0.301    0.443   76.722
  403.000    7.861    0.279    0.447   78.717
  403.250    7.656    0.248    0.456   79.864
  403.500    7.842    0.273    0.449   78.465
  403.750    8.109    0.308    0.431   73.914
  404.000    8.544    0.323    0.424   70.030
  404.250    8.901    0.330    0.418   66.328
  404.500    9.169    0.315    0.433   68.868
  404.750    9.375    0.298    0.421   72.984
  405.000    9.444    0.286    0.421   76.130
  405.250    9.441    0.279    0.428   78.428
  405.500    9.421    0.277    0.423   79.937
  405.750    9.365    0.281    0.417   79.569
  406.000    9.310    0.285    0.413   78.593
  406.250    9.255    0.291    0.417   78.953
  406.500    9.626    0.286    0.425   80.463
  406.750    9.696    0.277    0.434   82.032
  407.000    9.675    0.270    0.442   83.663
  407.250    9.369    0.274    0.444   84.990
  407.500    8.905    0.261    0.428   85.531
  407.750    8.400    0.240    0.415   86.072
  408.000    8.120    0.227    0.408   87.340
  408.250    7.893    0.223    0.420   88.850
  408.500    7.832    0.226    0.430   86.359
  408.750    7.918    0.236    0.417   83.081
  409.000    8.006    0.233    0.408   80.956
  409.250    8.003    0.222    0.406   79.314
  409.500    7.883    0.212    0.411   79.732
  409.750    7.591    0.203    0.420   81.424
  410.000    7.147    0.200    0.424   83.419
  410.250    6.844    0.202    0.425   84.626
  410.500    6.578    0.208    0.423   84.075
  410.750    6.503    0.217    0.420   81.221
  411.000    6.637    0.221    0.415   79.519
  411.250    6.902    0.231    0.413   77.210
  411.500    7.150    0.231    0.416   75.145
  411.750    7.477    0.217    0.414   72.776
  412.000    7.688    0.148    0.397   71.923
  412.250    7.846    0.112    0.372   72.039
  412.500    7.873    0.098    0.357   74.155
  412.750    7.812    0.107    0.371   77.301
  413.000    7.753    0.140    0.388   80.689
  413.250    7.423    0.182    0.400   83.350
  413.500    7.216    0.209    0.411   85.164
  413.750    7.041    0.224    0.406   86.735
  414.000    6.973    0.232    0.399   87.335
  414.250    7.037    0.232    0.396   86.118
  414.500    7.141    0.226    0.399   84.960
  414.750    7.153    0.223    0.403   84.714
  415.000    7.031    0.225    0.411   86.344
  415.250    6.912    0.226    0.427   89.248
  415.500    6.656    0.228    0.437   91.122
  415.750    6.374    0.231    0.430   87.601
  416.000    6.092    0.236    0.432   84.322
  416.250    5.845    0.232    0.439   83.470
  416.500    5.534    0.219    0.437   86.313
  416.750    5.270    0.207    0.427   88.671
  417.000    5.268    0.204    0.425   90.302
  417.250    5.427    0.213    0.418   91.206
  417.500    5.644    0.218    0.410   90.595
  417.750    5.968    0.222    0.408   89.498
  418.000    6.148    0.223    0.418   88.888
  418.250    6.205    0.220    0.426   88.337
  418.500    6.192    0.216    0.419   87.543
  418.750    6.064    0.214    0.416   86.629
  419.000    5.928    0.214    0.424   85.837
  419.250    5.655    0.217    0.423   84.923
  419.500    5.110    0.217    0.420   85.402
  419.750    3.922    0.216    0.435   90.124
  420.000    3.051    0.225    0.453   93.331
  420.250    2.596    0.241    0.474   94.901
  420.500    2.363    0.248    0.495   96.472
  420.750    2.217    0.249    0.508   97.861
  421.000    2.200    0.248    0.533   98.340
  421.250    2.296    0.257    0.565   97.971
  421.500    2.516    0.248    0.557   96.996
  421.750    2.804    0.236    0.570   96.142
  422.000    3.137    0.226    0.576   95.228
  422.250    3.556    0.218    0.481   93.768
  422.500    4.091    0.220    0.442   91.096
  422.750    4.492    0.226    0.419   88.909
  423.000    4.941    0.220    0.413   90.601
  423.250    5.284    0.211    0.421   89.808
  423.500    5.536    0.207    0.427   85.379
  423.750    5.693    0.218    0.430   81.131
  424.000    5.799    0.240    0.417   78.339
  424.250    5.884    0.262    0.405   75.787
  424.500    5.906    0.272    0.400   74.085
  424.750    5.915    0.276    0.395   72.686
  425.000    5.891    0.282    0.399   72.075
  425.250    5.879    0.286    0.406   70.918
  425.500    5.789    0.288    0.412   70.003
  425.750    5.778    0.290    0.416   70.302
  426.000    5.733    0.283    0.421   69.387
  426.250    5.668    0.285    0.425   70.594
  426.500    5.645    0.295    0.417   73.740
  426.750    5.612    0.303    0.412   75.613
  427.000    5.632    0.311    0.419   76.517
  427.250    5.673    0.321    0.435   75.483
  427.500    5.735    0.329    0.447   72.205
  427.750    5.831    0.333    0.455   68.927
  428.000    5.918    0.323    0.467   69.163
  428.250    6.017    0.319    0.461   70.674
  428.500    6.129    0.313    0.448   72.608
  428.750    6.128    0.300    0.439   72.603
  429.000    6.137    0.285    0.433   71.203
  429.250    6.136    0.269    0.432   70.956
  429.500    6.169    0.253    0.430   72.041
  429.750    6.237    0.233    0.419   73.430
  430.000    6.294    0.222    0.405   75.121
  430.250    6.328    0.220    0.397   76.753
  430.500    6.327    0.229    0.397   77.899
  430.750    6.325    0.250    0.399   78.318
  431.000    6.229    0.267    0.409   75.343
  431.250    6.158    0.279    0.411   73.702
  431.500    6.008    0.277    0.406   74.060
  431.750    5.906    0.258    0.403   78.479
  432.000    5.741    0.247    0.401   80.777
  432.250    5.446    0.240    0.401   81.014
  432.500    5.235    0.233    0.401   80.463
  432.750    5.137    0.225    0.402   80.579
  433.000    4.992    0.214    0.410   80.089
  433.250    4.954    0.211    0.412   77.840
  433.500    4.870    0.221    0.422   76.198
  433.750    4.770    0.237    0.440   75.406
  434.000    4.576    0.248    0.454   76.129
  434.250    4.507    0.255    0.437   77.942
  434.500    4.472    0.258    0.436   79.027
  434.750    4.446    0.261    0.450   79.325
  435.000    4.470    0.260    0.455   78.351
  435.250    4.553    0.249    0.438   80.042
  435.500    4.638    0.243    0.440   83.188
  435.750    4.777    0.241    0.454   85.909
  436.000    4.894    0.239    0.467   87.481
  436.250    4.985    0.241    0.458   85.294
  436.500    5.069    0.248    0.430   81.348
  436.750    5.154    0.255    0.434   78.313
  437.000    5.320    0.259    0.451   75.762
  437.250    5.552    0.258    0.438   74.970
  437.500    5.741    0.250    0.418   74.723
  437.750    5.838    0.245    0.412   74.595
  438.000    5.957    0.240    0.424   74.773
  438.250    6.046    0.236    0.424   75.555
  438.500    6.158    0.237    0.409   78.033
  438.750    6.066    0.245    0.400   79.969
  439.000    6.041    0.252    0.403   82.024
  439.250    6.029    0.253    0.408   83.656
  439.500    5.960    0.246    0.410   82.559
  439.750    5.826    0.240    0.411   83.281
  440.000    5.486    0.235    0.409   85.337
  440.250    4.792    0.236    0.404   85.816
