~VERSION INFORMATION
 VERS.                 2.0:   CWLS LOG ASCII STANDARD -VERSION 2.0
 WRAP.                  NO:   ONE LINE PER DEPTH STEP
~WELL INFORMATION BLOCK
#MNEM.UNIT           DATA                    DESCRIPTION OF MNEMONIC
#---------    -------------------            -------------------------------
# Generated from Intellog Unique Number	CS_73_76/WELL/4783
WELL.         LANDBANK MINERALS LTD.         : Well_name    - WELL
LOC .         00/11-09-076-02W4/0            : Location     - LOCATION
UWI .         00/11-09-076-02W4/0            : Uwi          - UNIQUE WELL ID
ENTR.         JO                             : Entered      - ENTERED BY
SRVC.         SCHLUMBERGER                   : Scn          - SERVICE COMPANY
DATE.         05/25/92                       : Date         - LOG DATE
STRT.M        285                            : top_depth    - START DEPTH
STOP.M        560                            : bot_depth    - STOP DEPTH
STEP.M        0.25                           : increment    - STEP LENGTH
 NULL. -999.2500:NULL Value
~CURVE INFORMATION BLOCK
#MNEM UNIT       ERCB CURVE CODE    CURVE DESCRIPTION
#-----------   ------------------   ----------------------------------
DEPT.M        00 001 00 00         : DEPTH        - DEPTH
GR  .API      00 310 00 00         : GR           - GAMMA RAY
DELT.US/F     00 520 00 00         : DELT         - SONIC TRAVEL TIME
ILD .OHMM     00 120 00 00         : RESD         - DEEP RESISTIVITY (DIL)
~PARAMETER INFORMATION
#MNEM.UNIT           DATA             DESCRIPTION OF MNEMONIC
#---------         -----------     ------------------------------
GL  .M        654.8                : gl           - GROUND LEVEL ELEVATION
EREF.M        658.5                : kb           - ELEVATION OF DEPTH REFERENCE
DATM.M        658.5                : datum        - DATUM ELEVATION
TDD .M        568                  : tdd          - TOTAL DEPTH DRILLER
RUN .         ONE                  : Run          - RUN NUMBER
ENG .         BILL                 : Engineer     - RECORDING ENGINEER
WIT .         JIM                  : Witness      - WITNESSED BY
MUD .         GEL                  : Mud_type     - MUD TYPE
MATR.         SANDSTONE            : Logunit      - NEUTRON MATRIX
TMAX.C        20                   : BHT          - MAXIMUM RECORDED TEMPERATURE
BHTD.M        568                  : BHTDEP       - MAXIMUM RECORDED TEMPERATURE
MATR.         1                    : LOGUNIT      - NEUTRON MATRIX
RMT .C        12                   : MDTP         - TEMPERATURE OF MUD
NEUT.         1                    : NEUTRON      - NEUTRON TYPE
RESI.         0                    : RESIST       - RESISTIVITY TYPE
RMC .OHMM     3.95                 : RMC          - RESISTIVITY OF MUD CAKE
RMF .OHMM     3.95                 : RMF          - RESISTIVITY OF MUD FILTRATE
SUFT.C        5                    : SUFT         - SURFACE TEMPERATURE
~A  DEPTH       GR     DELT     RESD
# ...
  502.000   35.107  352.489    2.756
  502.250   34.434  351.733    2.804
  502.500   33.115  350.165    2.799
  502.750   30.530  350.219    2.797
  503.000   28.551  348.651    2.793
  503.250   27.892  347.097    2.789
  503.500   27.193  352.005    2.785
  503.750   26.520  364.240    2.676
  504.000   25.834  366.728    2.573
  504.250   25.768  365.174    2.429
  504.500   25.715  367.662    2.335
  504.750   27.562  375.003    2.245
  505.000   29.422  383.183    2.157
  505.250   31.268  380.006    2.155
  505.500   29.923  378.438    2.111
  505.750   29.870  380.926    2.067
  506.000   29.817  380.170    2.066
  506.250   29.778  376.979    2.102
  506.500   29.725  373.776    2.099
  506.750   28.406  364.907    2.136
  507.000   27.073  360.920    2.214
  507.250   27.641  360.163    2.254
  507.500   28.247  360.204    2.337
  507.750   30.081  359.461    2.378
  508.000   31.308  359.515    2.420
  508.250   31.228  362.003    2.460
  508.500   31.202  365.289    2.504
  508.750   31.136  370.210    2.502
  509.000   31.070  373.509    2.497
  509.250   30.384  361.396    2.492
  509.500   27.812  361.451    2.490
  509.750   26.480  363.939    2.487
  510.000   25.794  366.440    2.437
  510.250   25.741  361.641    2.432
  510.500   25.688  360.046    2.383
  510.750   25.648  356.856    2.379
  511.000   25.596  353.680    2.376
  511.250   26.783  353.720    2.371
  511.500   27.363  357.858    2.413
  511.750   27.337  357.912    2.455
  512.000   27.257  356.331    2.499
  512.250   27.231  355.588    2.495
  512.500   28.431  355.629    2.539
  512.750   29.012  357.305    2.534
  513.000   28.959  359.793    2.532
  513.250   28.273  360.659    2.527
  513.500   27.561  359.105    2.523
  513.750   28.167  357.537    2.521
  514.000   28.734  355.969    2.515
  514.250   29.315  354.401    2.512
  514.500   30.502  353.631    2.512
  514.750   31.095  353.685    2.457
  515.000   31.069  356.173    2.452
  515.250   31.003  357.877    2.403
  515.500   30.963  361.163    2.401
  515.750   30.264  368.517    2.353
  516.000   30.212  366.152    2.349
  516.250   31.438  365.395    2.347
  516.500   30.739  368.694    2.342
  516.750   29.433  372.791    2.338
  517.000   27.454  372.859    2.335
  517.250   26.149  371.278    2.331
  517.500   25.463  369.723    2.328
  517.750   24.764  368.967    2.368
  518.000   24.724  369.819    2.366
  518.250   24.645  370.698    2.407
  518.500   24.618  371.563    2.403
  518.750   25.186  373.240    2.354
  519.000   25.106  370.861    2.351
  519.250   25.713  366.049    2.303
  519.500   25.674  357.992    2.433
  519.750   26.241  353.179    2.525
  520.000   26.821  346.745    2.668
  520.250   27.401  341.107    2.668
  520.500   27.995  341.987    3.210
  520.750   28.549  347.719    3.088
  521.000   29.749  348.585    3.084
  521.250   30.356  347.828    3.022
  521.500   31.569  348.694    3.018
  521.750   35.315  359.293    3.013
  522.000   39.708  390.996    3.008
  522.250   44.720  398.351    3.004
  522.500   53.531  374.071    3.056
  522.750   67.407  368.447    3.111
  523.000   87.628  365.257    3.286
  523.250  111.015  371.801    3.408
  523.500  121.079  427.027    3.603
  523.750  118.507  436.815    3.880
  524.000  111.476  457.162    4.422
  524.250  106.345  452.363    4.669
  524.500  105.026  446.726    4.664
  524.750  107.506  436.249    4.658
  525.000  110.632  438.723    4.919
  525.250  116.264  418.485    5.202
  525.500  119.997  412.051    5.813
  525.750  121.237  396.693    5.918
  526.000  119.918  391.070    6.022
  526.250  115.420  382.215    6.125
  526.500  112.201  383.878    6.120
  526.750  109.629  377.444    6.111
  527.000  104.498  366.953    6.219
  527.250   99.380  353.204    6.328
  527.500   92.363  341.903    6.557
  527.750   87.245  334.657    6.929
  528.000   84.620  333.089    7.190
  528.250   85.227  338.024    7.456
  528.500   83.908  336.443    7.876
  528.750   76.877  334.064    7.867
  529.000   74.292  333.307    7.561
  529.250   76.125  338.242    7.273
  529.500   77.365  340.743    6.993
  529.750   83.644  336.742    6.849
  530.000   81.678  332.727    7.102
  530.250   81.639  335.215    7.362
  530.500   83.485  345.003    7.631
  530.750   85.965  345.896    7.771
  531.000   82.113  343.490    7.332
  531.250   70.018  341.124    6.412
  531.500   59.202  347.655    5.718
  531.750   48.372  359.890    4.383
  532.000   36.923  368.867    3.294
  532.250   29.906  375.411    2.937
  532.500   27.940  379.521    2.772
  532.750   32.966  377.142    3.407
  533.000   43.676  366.651    4.267
  533.250   53.754  352.105    4.683
  533.500   85.371  336.748    5.137
  533.750   94.169  327.880    5.231
  534.000   93.496  366.869    5.526
  534.250   97.875  364.490    5.625
  534.500  100.975  360.503    5.831
  534.750   94.591  358.124    6.049
  535.000   97.084  361.423    6.155
  535.250  102.083  366.344    6.146
  535.500  101.397  369.657    6.132
  535.750   91.860  386.732    6.125
  536.000   86.743  361.640    6.116
  536.250   87.943  360.100    5.993
  536.500   88.523  360.127    5.984
  536.750   89.737  360.195    5.975
  537.000   94.736  361.061    5.966
  537.250   98.508  359.479    5.843
  537.500   91.478  368.484    5.835
  537.750   88.892  370.133    5.826
  538.000   88.206  375.879    5.817
  538.250   87.520  372.689    5.809
  538.500   86.201  365.443    5.800
  538.750   80.437  359.806    5.902
  539.000   79.751  353.371    5.891
  539.250   82.877  363.984    5.884
  539.500   88.523  373.786    5.878
  539.750   95.434  368.960    5.869
  540.000   94.749  363.336    5.860
  540.250   91.530  360.957    5.852
  540.500   86.399  361.012    5.843
  540.750   85.080  360.255    5.834
  541.000   91.992  356.268    5.823
  541.250   93.825  353.077    5.815
  541.500   93.785  356.363    5.917
  541.750   95.632  359.662    5.906
  542.000   94.313  345.116    6.009
  542.250   69.555  333.003    6.115
  542.500   65.703  335.491    6.224
  542.750   82.125  330.692    6.211
  543.000   96.634  379.415    6.206
  543.250  108.611  391.637    6.315
  543.500  130.718  407.117    6.303
  543.750  128.766  423.394    6.294
  544.000  127.460  434.805    6.287
  544.250  126.774  433.237    6.277
  544.500  126.075  427.641    6.266
  544.750  126.035  426.046    6.256
  545.000  124.690  423.667    6.247
  545.250  122.724  418.070    6.238
  545.500  121.432  414.867    6.110
  545.750  117.580  412.474    6.103
  546.000   85.857  379.271    6.094
  546.250   61.099  319.287    5.971
  546.500   54.082  308.797    5.850
  546.750   50.863  331.563    5.844
  547.000   55.242  338.918    5.722
  547.250   60.888  339.784    5.499
  547.500   66.533  337.418    5.390
  547.750   74.078  338.270    5.283
  548.000   84.788  408.922    5.175
  548.250   75.239  387.062    5.266
  548.500   66.322  359.537    5.565
  548.750   52.327  310.909    6.109
  549.000   40.245  328.809    6.579
  549.250   29.415  337.016    6.091
  549.500   34.414  334.609    5.747
  549.750   35.628  328.188    5.847
  550.000   32.409  320.929    6.662
  550.250   29.204  288.524    7.314
  550.500   27.885  277.222   10.264
  550.750   30.352  261.851   10.643
  551.000   32.831  235.137   12.597
  551.250   31.512  226.269   14.352
  551.500   28.940  221.457   15.750
  551.750   30.140  214.211   17.291
  552.000   31.354  209.398   19.698
  552.250   31.934  207.831   22.458
  552.500   30.615  209.507   28.668
  552.750   28.030  212.806   27.048
  553.000   26.684  212.902   26.997
  553.250   26.645  211.307   27.471
  553.500   25.959  208.914   29.019
  553.750   25.919  204.926   29.550
  554.000   25.866  204.981   32.417
  554.250   25.800  207.469   33.628
  554.500   25.734  209.159   34.871
  554.750   25.708  209.186   34.154
  555.000   26.288  217.366   31.610
  555.250   30.021  219.056   31.586
  555.500   30.601  218.286   32.129
  555.750   32.448  226.452   33.316
  556.000   36.194  222.451   34.535
