~VERSION INFORMATION
 VERS.                 2.0:   CWLS LOG ASCII STANDARD -VERSION 2.0
 WRAP.                  NO:   ONE LINE PER DEPTH STEP
~WELL INFORMATION BLOCK
#MNEM.UNIT           DATA                    DESCRIPTION OF MNEMONIC
#---------    -------------------            -------------------------------
# Generated from Intellog Unique Number	CS_77_79/WELL/3008
WELL.         CDN OXY WINEFRED               : Well_name    - WELL
LOC .         00/11-34-077-03W4/0            : Location     - LOCATION
UWI .         00/11-34-077-03W4/0            : Uwi          - UNIQUE WELL ID
ENTR.         TIM                            : Entered      - ENTERED BY
SRVC.         SCHLUMBERGER                   : Scn          - SERVICE COMPANY
STRT.M        195                            : top_depth    - START DEPTH
STOP.M        455                            : bot_depth    - STOP DEPTH
STEP.M        0.25                           : increment    - STEP LENGTH
 NULL. -999.2500:NULL Value
~CURVE INFORMATION BLOCK
#MNEM UNIT       ERCB CURVE CODE    CURVE DESCRIPTION
#-----------   ------------------   ----------------------------------
DEPT.M        00 001 00 00         : DEPTH        - DEPTH
GR  .API      00 310 00 00         : GR           - GAMMA RAY
NPHI.V/V      00 330 00 00         : PHIN         - NEUTRON POROSITY (DOLOMITE)
DPHI.V/V      00 890 00 00         : PHID         - DENSITY POROSITY (DOLOMITE)
ILD .OHMM     00 120 00 00         : RESD         - DEEP RESISTIVITY (DIL)
~PARAMETER INFORMATION
#MNEM.UNIT           DATA             DESCRIPTION OF MNEMONIC
#---------         -----------     ------------------------------
GL  .M        588.9                : gl           - GROUND LEVEL ELEVATION
EREF.M        591.9                : kb           - ELEVATION OF DEPTH REFERENCE
DATM.M        591.9                : datum        - DATUM ELEVATION
TDD .M        457                  : tdd          - TOTAL DEPTH DRILLER
RUN .         ONE                  : Run          - RUN NUMBER
ENG .         BILL                 : Engineer     - RECORDING ENGINEER
WIT .         JIM                  : Witness      - WITNESSED BY
MUD .         GEL                  : Mud_type     - MUD TYPE
MATR.         DOLOMITE             : Logunit      - NEUTRON MATRIX
TMAX.C        13                   : BHT          - MAXIMUM RECORDED TEMPERATURE
BHTD.M        457                  : BHTDEP       - MAXIMUM RECORDED TEMPERATURE
MATR.         1                    : LOGUNIT      - NEUTRON MATRIX
RMT .C        20                   : MDTP         - TEMPERATURE OF MUD
NEUT.         1                    : NEUTRON      - NEUTRON TYPE
RESI.         2.8                  : RESIST       - RESISTIVITY TYPE
RMC .OHMM     2.6                  : RMC          - RESISTIVITY OF MUD CAKE
RMF .OHMM     2.6                  : RMF          - RESISTIVITY OF MUD FILTRATE
SUFT.C        15                   : SUFT         - SURFACE TEMPERATURE
~A  DEPTH       GR     PHIN     PHID     RESD
# ...
  238.500   87.009    0.430    0.292   17.775
  238.750   90.527    0.430    0.279   16.196
  239.000   99.362    0.433    0.271   15.317
  239.250  111.149    0.436    0.262   14.753
  239.500  112.889    0.437    0.251   13.950
  239.750  111.682    0.435    0.243   13.191
  240.000  110.475    0.430    0.236   12.705
  240.250  111.034    0.429    0.230   12.235
  240.500  111.606    0.431    0.225   11.783
  240.750  113.346    0.431    0.224   11.564
  241.000  113.911    0.431    0.225   11.137
  241.250  112.704    0.434    0.226   10.927
  241.500  110.906    0.444    0.231   10.720
  241.750  109.108    0.449    0.235   10.519
  242.000  105.539    0.449    0.239   10.318
  242.250   93.706    0.437    0.248   11.100
  242.500   90.130    0.425    0.279   11.514
  242.750   86.561    0.412    0.287   12.619
  243.000   88.307    0.420    0.290   13.577
  243.250   91.819    0.428    0.288   14.337
  243.500   93.572    0.436    0.282   14.600
  243.750   94.130    0.443    0.269   14.858
  244.000   94.105    0.416    0.260   14.851
  244.250   95.267    0.399    0.248   14.571
  244.500  101.148    0.401    0.232   14.562
  244.750  112.345    0.404    0.216   13.767
  245.000  115.273    0.414    0.219   13.016
  245.250  112.294    0.432    0.225   12.309
  245.500  101.039    0.447    0.231   12.533
  245.750   96.282    0.453    0.235   13.481
  246.000   91.537    0.451    0.242   13.981
  246.250   85.605    0.445    0.256   14.770
  246.500   80.263    0.438    0.279   15.602
  246.750   75.506    0.426    0.308   16.480
  247.000   74.299    0.413    0.337   17.089
  247.250   77.811    0.400    0.340   17.089
  247.500   80.745    0.398    0.335   19.775
  247.750   78.948    0.404    0.327   19.772
  248.000   76.553    0.416    0.331   20.884
  248.250   74.755    0.419    0.334   21.257
  248.500   74.736    0.419    0.336   21.634
  248.750   74.704    0.419    0.335   21.627
  249.000   75.263    0.420    0.321   21.611
  249.250   75.243    0.424    0.296   21.199
  249.500   75.815    0.426    0.292   21.193
  249.750   75.776    0.426    0.283   20.787
  250.000   75.751    0.426    0.275   20.777
  250.250   75.732    0.429    0.266   20.388
  250.500   78.069    0.431    0.257   20.003
  250.750   83.359    0.437    0.248   18.229
  251.000   86.878    0.446    0.246   16.607
  251.250   86.852    0.456    0.239   16.296
  251.500   86.229    0.466    0.236   16.281
  251.750   82.076    0.466    0.245   16.577
  252.000   70.827    0.450    0.248   17.192
  252.250   58.982    0.415    0.236   18.837
  252.500   50.687    0.398    0.219   19.900
  252.750   44.748    0.382    0.228   20.639
  253.000   45.307    0.388    0.256   22.200
  253.250   46.469    0.400    0.272   22.190
  253.500   47.040    0.396    0.314   22.173
  253.750   49.371    0.386    0.313   21.758
  254.000   51.124    0.378    0.301   20.570
  254.250   52.870    0.374    0.285   19.451
  254.500   55.207    0.363    0.277   18.735
  254.750   58.122    0.352    0.279   18.384
  255.000   60.459    0.355    0.282   18.031
  255.250   62.206    0.358    0.284   17.693
  255.500   62.771    0.368    0.286   17.042
  255.750   63.336    0.374    0.286   16.414
  256.000   63.316    0.382    0.283   16.712
  256.250   63.882    0.382    0.280   16.702
  256.500   62.084    0.377    0.274   17.001
  256.750   59.696    0.375    0.271   16.990
  257.000   57.898    0.375    0.269   16.362
  257.250   58.463    0.378    0.267   15.189
  257.500   60.203    0.383    0.276   14.904
  257.750   61.359    0.391    0.302   14.355
  258.000   61.333    0.396    0.309   15.163
  258.250   62.489    0.399    0.324   17.239
  258.500   64.813    0.400    0.335   18.212
  258.750   65.975    0.404    0.345   19.239
  259.000   64.178    0.405    0.347   20.698
  259.250   64.152    0.406    0.344   21.074
  259.500   65.302    0.398    0.344   21.055
  259.750   65.873    0.398    0.347   21.042
  260.000   65.847    0.403    0.350   20.645
  260.250   63.459    0.397    0.351   20.629
  260.500   61.661    0.395    0.349   20.245
  260.750   62.817    0.393    0.344   20.230
  261.000   63.973    0.387    0.339   20.218
  261.250   63.947    0.385    0.338   20.206
  261.500   61.546    0.387    0.332   20.197
  261.750   60.943    0.386    0.324   20.557
  262.000   59.729    0.384    0.308   21.317
  262.250   58.523    0.381    0.287   23.363
  262.500   57.913    0.375    0.262   26.565
  262.750   56.706    0.370    0.246   30.210
  263.000   59.627    0.360    0.228   31.915
  263.250   63.145    0.357    0.234   29.084
  263.500   64.295    0.358    0.249   25.544
  263.750   63.672    0.387    0.272   23.279
  264.000   63.653    0.441    0.289   21.609
  264.250   63.627    0.447    0.313   20.056
  264.500   63.011    0.435    0.318   19.680
  264.750   62.388    0.418    0.319   18.604
  265.000   62.376    0.417    0.322   18.255
  265.250   61.162    0.442    0.328   17.910
  265.500   59.364    0.450    0.340   17.570
  265.750   58.158    0.448    0.348   17.562
  266.000   58.132    0.440    0.351   17.548
  266.250   57.509    0.425    0.351   17.540
  266.500   55.121    0.406    0.351   17.856
  266.750   53.914    0.406    0.352   17.843
  267.000   53.304    0.412    0.350   18.167
  267.250   51.494    0.418    0.350   18.153
  267.500   50.884    0.421    0.349   18.139
  267.750   49.683    0.427    0.347   18.126
  268.000   50.242    0.431    0.346   17.786
  268.250   50.813    0.436    0.346   17.778
  268.500   51.379    0.439    0.347   17.767
  268.750   52.515    0.443    0.348   17.754
  269.000   53.093    0.447    0.350   17.746
  269.250   53.652    0.448    0.351   17.732
  269.500   53.626    0.447    0.351   17.398
  269.750   53.600    0.446    0.351   17.390
  270.000   54.159    0.445    0.355   17.059
  270.250   54.737    0.441    0.347   16.130
  270.500   57.074    0.439    0.326   13.653
  270.750   62.955    0.435    0.287   10.935
  271.000   79.468    0.429    0.270    9.427
  271.250   88.893    0.424    0.253    9.081
  271.500   93.002    0.421    0.241    8.587
  271.750   92.386    0.419    0.241    8.118
  272.000   91.173    0.427    0.242    7.820
  272.250   92.329    0.439    0.242    7.124
  272.500   93.484    0.448    0.242    6.863
  272.750   91.102    0.457    0.241    6.609
  273.000   88.714    0.465    0.240    6.485
  273.250   84.541    0.472    0.243    6.362
  273.500   89.247    0.478    0.246    6.243
  273.750   94.538    0.483    0.246    6.013
  274.000  101.009    0.483    0.246    5.281
  274.250  100.393    0.483    0.248    4.994
  274.500   96.823    0.478    0.251    4.550
  274.750   92.663    0.474    0.255    4.718
  275.000   92.638    0.468    0.255    5.171
  275.250   93.787    0.463    0.256    5.774
  275.500   93.761    0.457    0.258    6.446
  275.750   89.607    0.451    0.261    7.467
  276.000   83.078    0.447    0.269    8.973
  276.250   77.736    0.441    0.276   10.019
  276.500   69.441    0.433    0.290   11.606
  276.750   63.509    0.423    0.302   13.442
  277.000   61.705    0.410    0.311   14.735
  277.250   64.639    0.399    0.309   16.445
  277.500   64.016    0.394    0.304   15.550
  277.750   56.896    0.391    0.298   14.708
  278.000   62.784    0.392    0.290   13.403
  278.250   75.760    0.393    0.275   11.555
  278.500   84.003    0.404    0.261    9.963
  278.750   91.059    0.444    0.246    8.913
  279.000   92.215    0.486    0.236    7.974
  279.250   92.183    0.490    0.243    7.134
  279.500   91.567    0.483    0.243    6.746
  279.750   74.418    0.455    0.241    6.378
  280.000   73.205    0.428    0.236    6.493
  280.250   73.776    0.400    0.241    6.859
  280.500   74.932    0.397    0.252    7.656
  280.750   74.900    0.396    0.263    8.705
  281.000   72.505    0.395    0.282    9.720
  281.250   69.533    0.393    0.288   11.054
  281.500   65.957    0.395    0.299   12.570
  281.750   64.159    0.412    0.313   14.032
