~VERSION INFORMATION
 VERS.                 2.0:   CWLS LOG ASCII STANDARD -VERSION 2.0
 WRAP.                  NO:   ONE LINE PER DEPTH STEP
~WELL INFORMATION BLOCK
#MNEM.UNIT           DATA                    DESCRIPTION OF MNEMONIC
#---------    -------------------            -------------------------------
# Generated from Intellog Unique Number	CW_79_81/WELL/927
WELL.         14-14-079-22W4                 : Well_name    - WELL
LOC .         00/14-14-079-22W4/0            : Location     - LOCATION
UWI .         00/14-14-079-22W4/0            : Uwi          - UNIQUE WELL ID
ENTR.         MAX                            : Entered      - ENTERED BY
SRVC.         SCHLUMBERGER                   : Scn          - SERVICE COMPANY
STRT.M        220                            : top_depth    - START DEPTH
STOP.M        432                            : bot_depth    - STOP DEPTH
STEP.M        0.25                           : increment    - STEP LENGTH
 NULL. -999.2500:NULL Value
~CURVE INFORMATION BLOCK
#MNEM UNIT       ERCB CURVE CODE    CURVE DESCRIPTION
#-----------   ------------------   ----------------------------------
DEPT.M        00 001 00 00         : DEPTH        - DEPTH
ILD .OHMM     00 120 00 00         : RESD         - DEEP RESISTIVITY (DIL)
NPHI.V/V      00 330 00 00         : PHIN         - NEUTRON POROSITY (SANDSTONE)
DPHI.V/V      00 890 00 00         : PHID         - DENSITY POROSITY (SANDSTONE)
CALI.MM       00 280 01 00         : CAL          - CALIPER
GR  .API      00 310 00 00         : GR           - GAMMA RAY
~PARAMETER INFORMATION
#MNEM.UNIT           DATA             DESCRIPTION OF MNEMONIC
#---------         -----------     ------------------------------
GL  .M        570.7                : gl           - GROUND LEVEL ELEVATION
EREF.M        574.1                : kb           - ELEVATION OF DEPTH REFERENCE
DATM.M        570.7                : datum        - DATUM ELEVATION
TDD .M        441                  : tdd          - TOTAL DEPTH DRILLER
RUN .         ONE                  : Run          - RUN NUMBER
ENG .         BILL                 : Engineer     - RECORDING ENGINEER
WIT .         JIM                  : Witness      - WITNESSED BY
MUD .         GEL                  : Mud_type     - MUD TYPE
MATR.         SANDSTONE            : Logunit      - NEUTRON MATRIX
TMAX.C        32                   : BHT          - MAXIMUM RECORDED TEMPERATURE
BHTD.M        441                  : BHTDEP       - MAXIMUM RECORDED TEMPERATURE
RMT .C        17                   : MDTP         - TEMPERATURE OF MUD
MUDD.KG/M     1140                 : MWT          - MUD DENSITY
NEUT.         1                    : NEUTRON      - NEUTRON TYPE
RESI.         0                    : RESIST       - RESISTIVITY TYPE
RM  .OHMM     8.8                  : RM           - RESISTIVITY OF MUD
RMC .OHMM     0                    : RMC          - RESISTIVITY OF MUD CAKE
RMF .OHMM     10.7                 : RMF          - RESISTIVITY OF MUD FILTRATE
SUFT.C        -5                   : SUFT         - SURFACE TEMPERATURE
~A  DEPTH     RESD     PHIN     PHID      CAL       GR
  220.000    2.635    0.429    0.297  233.399   69.791
  220.250    2.807    0.444    0.297  231.421   67.416
  220.500    3.624    0.442    0.288  229.442   68.011
  220.750    5.126    0.435    0.285  227.958   70.090
  221.000    7.119    0.441    0.274  229.444   75.139
  221.250   10.348    0.448    0.272  229.940   78.407
  221.500   13.605    0.455    0.278  229.446   79.299
  221.750   13.974    0.463    0.272  229.447   77.814
  222.000   13.341    0.465    0.266  230.438   72.172
  222.250   11.946    0.461    0.251  230.934   67.718
  222.500   11.830    0.457    0.229  230.935   64.452
  222.750   12.374    0.453    0.243  230.441   60.889
  223.000   12.713    0.448    0.265  230.441   57.029
  223.250   12.703    0.445    0.291  229.948   54.653
  223.500   12.465    0.445    0.299  228.464   51.684
  223.750   12.233    0.453    0.310  228.465   49.012
  224.000   12.003    0.460    0.316  228.466   46.042
  224.250   11.996    0.455    0.317  227.477   43.073
  224.500   12.549    0.455    0.317  226.983   40.401
  224.750   15.195    0.450    0.320  226.489   39.214
  225.000   18.567    0.457    0.326  226.490   40.699
  225.250   25.087    0.460    0.331  226.986   42.185
  225.500   27.726    0.451    0.339  227.977   43.373
  225.750   31.204    0.442    0.313  228.968   44.265
  226.000   30.899    0.449    0.311  228.968   45.751
  226.250   28.180    0.461    0.300  228.971   47.533
  226.500   22.207    0.472    0.296  228.971   52.582
  226.750   18.151    0.477    0.279  229.962   60.602
  227.000   14.699    0.483    0.264  230.953   65.651
  227.250   11.476    0.492    0.227  230.954   71.591
  227.500    8.253    0.477    0.234  230.460   79.610
  227.750    6.213    0.444    0.254  228.976   81.393
  228.000    5.564    0.459    0.250  226.503   77.236
  228.250    5.410    0.455    0.254  226.009   68.921
  228.500    5.764    0.446    0.252  227.495   64.764
  228.750    7.932    0.434    0.227  231.455   63.279
  229.000    9.517    0.435    0.193  231.457   61.498
  229.250   10.139    0.465    0.200  233.437   61.498
  229.500   10.901    0.480    0.256  234.428   64.172
  229.750   10.995    0.481    0.284  230.470   65.955
  230.000   10.118    0.461    0.297  227.996   65.064
  230.250   10.113    0.464    0.299  227.996   60.610
  230.500   10.483    0.477    0.286  227.503   61.502
  230.750   11.479    0.474    0.274  227.999   61.502
  231.000   11.898    0.478    0.260  228.000   58.533
  231.250   11.784    0.476    0.262  228.001   54.376
  231.500   10.846    0.453    0.264  227.508   51.407
  231.750    9.891    0.414    0.254  227.013   53.486
  232.000    9.977    0.430    0.248  227.014   54.972
  232.250   10.727    0.431    0.238  228.500   57.051
  232.500   12.072    0.429    0.214  229.986   58.537
  232.750   12.628    0.446    0.200  230.977   57.943
  233.000   12.620    0.472    0.220  231.968   57.350
  233.250   11.831    0.474    0.301  232.464   60.023
  233.500   10.791    0.451    0.296  233.455   64.479
  233.750   10.784    0.448    0.293  231.476   62.401
  234.000   11.076    0.464    0.310  228.507   59.431
  234.250   11.170    0.463    0.318  224.053   55.274
  234.500   11.164    0.459    0.321  222.075   53.790
  234.750   11.156    0.458    0.318  222.075   54.978
  235.000   11.564    0.459    0.312  222.077   57.355
  235.250   12.898    0.463    0.304  224.552   60.325
  235.500   14.917    0.472    0.268  228.018   64.484
  235.750   14.772    0.482    0.231  231.484   69.830
  236.000   12.991    0.487    0.235  233.465   77.849
  236.250    9.779    0.466    0.251  233.961   82.008
  236.500    8.838    0.444    0.239  234.457   82.602
  236.750    8.061    0.443    0.229  237.428   79.930
  237.000    7.556    0.456    0.248  240.894   78.743
  237.250    7.556    0.460    0.238  241.885   77.555
  237.500    7.478    0.456    0.264  241.886   73.695
  237.750    7.967    0.421    0.300  237.432   61.223
  238.000    9.736    0.418    0.323  232.978   54.393
  238.250   10.759    0.395    0.325  235.454   47.859
  238.500   11.998    0.410    0.311  238.425   41.920
  238.750   15.347    0.420    0.316  238.426   39.248
  239.000   22.515    0.429    0.287  242.882   38.952
  239.250   25.569    0.433    0.293  242.388   44.892
  239.500   25.322    0.433    0.304  234.964   50.239
  239.750   24.399    0.436    0.268  228.036   52.615
  240.000   19.225    0.442    0.291  228.532   55.288
  240.250   16.447    0.447    0.300  231.008   57.368
  240.500   15.993    0.445    0.286  232.989   59.744
  240.750   15.983    0.437    0.262  232.989   63.012
  241.000   15.258    0.433    0.261  231.506   63.903
  241.250   14.173    0.440    0.268  231.507   65.092
  241.500   13.655    0.466    0.254  232.498   67.765
  241.750   13.398    0.475    0.246  233.984   71.627
  242.000   13.148    0.513    0.249  236.954   74.894
  242.250   12.438    0.533    0.226  237.450   79.053
  242.500   11.554    0.541    0.152  233.987   87.963
  242.750   10.069    0.527    0.185  231.018   94.794
  243.000    7.240    0.466    0.161  230.524   92.122
  243.250    5.758    0.438    0.128  231.515   88.262
  243.500    4.792    0.481    0.139  233.001   89.450
  243.750    4.493    0.537    0.199  233.002   97.172
  244.000    4.449    0.534    0.207  232.508  102.519
  244.250    4.365    0.519    0.190  233.004  104.004
  244.500    4.284    0.521    0.181  233.005  103.708
  244.750    4.127    0.548    0.180  232.511  102.818
  245.000    4.124    0.559    0.180  231.522  100.145
  245.250    4.159    0.568    0.190  230.533  101.037
  245.500    4.156    0.557    0.204  230.534  103.710
  245.750    4.079    0.543    0.259  232.020  104.899
  246.000    3.859    0.506    0.260  234.496  103.712
  246.250    3.488    0.472    0.245  234.992  101.039
  246.500    3.330    0.435    0.249  240.438   95.991
  246.750    3.515    0.422    0.223  239.944   92.428
  247.000    4.335    0.437    0.221  242.420   95.102
  247.250    5.444    0.451    0.233  243.906   97.478
  247.500    7.093    0.456    0.222  242.422   97.776
  247.750    7.419    0.464    0.210  237.968   97.182
  248.000    7.214    0.487    0.205  233.514   95.698
  248.250    6.701    0.492    0.207  233.020   93.026
  248.500    5.578    0.491    0.232  233.516   84.414
  248.750    5.088    0.499    0.242  234.012   81.147
  249.000    4.682    0.502    0.265  233.023   72.536
  249.250    4.679    0.498    0.292  232.035   66.299
  249.500    4.895    0.470    0.315  232.530   59.172
  249.750    6.923    0.480    0.322  233.027   53.530
  250.000    9.794    0.488    0.322  232.038   55.907
  250.250   16.631    0.485    0.324  231.049   58.283
  250.500   30.662    0.480    0.338  230.555   60.957
  250.750   42.974    0.475    0.343  229.566   61.551
  251.000   47.929    0.466    0.347  229.072   62.740
  251.250   55.951    0.456    0.342  228.578   62.147
  251.500   62.393    0.450    0.338  228.084   59.474
  251.750   65.864    0.447    0.337  228.085   57.099
  252.000   66.432    0.457    0.340  228.086   57.694
  252.250   65.776    0.473    0.342  227.592   59.476
  252.500   64.549    0.482    0.341  227.593   62.744
  252.750   61.062    0.485    0.330  228.584   64.526
  253.000   56.725    0.490    0.326  230.565   65.715
  253.250   50.800    0.499    0.332  232.051   66.012
  253.500   45.487    0.502    0.331  232.547   65.716
  253.750   43.435    0.505    0.316  231.063   63.341
  254.000   42.618    0.507    0.313  228.589   61.559
  254.250   43.380    0.508    0.305  227.105   60.075
  254.500   46.218    0.506    0.306  227.106   60.670
  254.750   52.012    0.499    0.305  228.097   62.452
  255.000   57.482    0.465    0.285  227.603   63.047
  255.250   62.371    0.444    0.302  226.119   61.562
  255.500   66.440    0.463    0.333  225.626   56.812
  255.750   67.003    0.469    0.341  225.626   58.000
  256.000   65.753    0.474    0.343  227.113   60.377
  256.250   64.527    0.478    0.348  231.073   62.753
