~VERSION INFORMATION
 VERS.                 2.0:   CWLS LOG ASCII STANDARD -VERSION 2.0
 WRAP.                  NO:   ONE LINE PER DEPTH STEP
~WELL INFORMATION BLOCK
#MNEM.UNIT           DATA                    DESCRIPTION OF MNEMONIC
#---------    -------------------            -------------------------------
# Generated from Intellog Unique Number	CW_70_72/WELL/1034
NULL.         -999.25                        : NULL_VALUE
WELL.         SUNDANCE ET AL SMITH 10-10     : Well_name    - WELL              
LOC .         10-10-071-23W4                 : Location     - LOCATION          
UWI .         00/10-10-071-23W4/0            : Uwi          - UNIQUE WELL ID    
ENTR.         J                              : Entered      - ENTERED BY        
SRVC.         SCHLUMBERGER                   : Scn          - SERVICE COMPANY   
DATE.         25 FEB 1976                    : Date         - LOG DATE          
STRT.M        423.672                        : top_depth    - START DEPTH       
STOP.M        612.672                        : bot_depth    - STOP DEPTH        
STEP.M        0.25                           : increment    - STEP LENGTH       
~CURVE INFORMATION BLOCK
#MNEM UNIT       ERCB CURVE CODE    CURVE DESCRIPTION
#-----------   ------------------   ----------------------------------
DEPT.M        00 001 00 00         : DEPTH        - DEPTH                       
DPHI.V/V      00 890 00 00         : PHID         - DENSITY POROSITY (SANDSTONE)
NPHI.V/V      00 330 00 00         : PHIN         - NEUTRON POROSITY (SANDSTONE)
GR  .API      00 310 00 00         : GR           - GAMMA RAY                   
CALI.MM       00 280 01 00         : CAL          - CALIPER                     
ILD .OHMM     00 120 00 00         : RESD         - DEEP RESISTIVITY (DIL)      
~PARAMETER INFORMATION       
#MNEM.UNIT           DATA             DESCRIPTION OF MNEMONIC
#---------         -----------     ------------------------------
GL  .M        662.026              : gl           - GROUND LEVEL ELEVATION      
EREF.M        665.683              : kb           - ELEVATION OF DEPTH REFERENCE
DATM.M        661.721              : datum        - DATUM ELEVATION             
TDD .M        620.268              : tdd          - TOTAL DEPTH DRILLER         
RUN .         ONE                  : Run          - RUN NUMBER                  
BASE.         EDM                  : Branch       - HOME BASE OF LOGGING UNIT   
MUD .         GEL CHEM             : Mud_type     - MUD TYPE                    
MATR.         SANDSTONE            : Logunit      - NEUTRON MATRIX              
TMAX.C        24.4444              : BHT          - MAXIMUM RECORDED TEMPERATURE
BHTD.M        620.268              : BHTDEP       - MAXIMUM RECORDED TEMPERATURE
RMT .C        -17.7778             : MDTP         - TEMPERATURE OF MUD          
MUDD.KG/M     0                    : MWT          - MUD DENSITY                 
NEUT.         1                    : NEUTRON      - NEUTRON TYPE                
RESI.         0                    : RESIST       - RESISTIVITY TYPE            
RM  .OHMM     0                    : RM           - RESISTIVITY OF MUD          
RMC .OHMM     0                    : RMC          - RESISTIVITY OF MUD CAKE     
RMF .OHMM     0                    : RMF          - RESISTIVITY OF MUD FILTRATE 
SUFT.C        0                    : SUFT         - SURFACE TEMPERATURE         
~A  DEPTH     PHID     PHIN       GR      CAL     RESD
# ...
  569.672    0.167    0.409  100.385  162.423    6.496
  569.922    0.162    0.400  101.953  162.127    6.502
  570.172    0.158    0.412   98.737  161.837    6.496
  570.422    0.154    0.411   93.346  161.441    6.466
  570.672    0.133    0.408   93.982  161.253    6.425
  570.922    0.097    0.403   98.532  161.171    6.361
  571.172    0.129    0.399  100.784  160.775    6.284
  571.422    0.180    0.413   99.867  160.694    6.256
  571.672    0.160    0.418   99.198  160.309    6.273
  571.922    0.123    0.423   99.336  160.217    6.312
  572.172    0.138    0.429  100.034  160.136    6.413
  572.422    0.130    0.446  102.347  159.957    6.478
  572.672    0.123    0.434  105.531  159.977    6.555
  572.922    0.116    0.425  102.687  160.211    6.671
  573.172    0.127    0.434  101.959  160.237    6.877
  573.422    0.103    0.442  103.712  160.473    7.181
  573.672    0.123    0.438  106.397  160.392    7.926
  573.922    0.107    0.430  111.072  160.420    8.762
  574.172    0.118    0.408  105.245  160.338    9.832
  574.422    0.144    0.388   98.612  158.784   10.973
  574.672    0.149    0.370   90.115  157.232   11.735
  574.922    0.140    0.354   77.640  157.045   12.459
  575.172    0.119    0.326   75.294  157.805   13.082
  575.422    0.080    0.300   79.160  158.671   13.788
  575.672    0.084    0.299   82.903  160.067   14.532
  575.922    0.159    0.346   80.059  161.456   15.342
  576.172    0.167    0.343   71.561  163.166   16.777
  576.422    0.124    0.320   62.070  164.663   18.281
  576.672    0.089    0.303   55.312  165.950   18.636
  576.922    0.043    0.255   55.886  166.292   14.787
  577.172    0.022    0.232   60.001  166.526   12.470
  577.422    0.009    0.255   68.839  166.338   11.031
  577.672    0.016    0.331   82.647  166.363   10.200
  577.922    0.067    0.389   83.905  165.971    9.483
  578.172    0.075    0.387   86.592  165.572    8.609
  578.422    0.067    0.357   91.390  165.598    8.034
  578.672    0.080    0.360   94.948  165.622    7.567
  578.922    0.113    0.377   96.763  165.859    7.220
  579.172    0.152    0.394   97.835  165.674    7.095
  579.422    0.120    0.406   97.229  165.805    7.035
  579.672    0.145    0.414   95.875  165.936    7.068
  579.922    0.154    0.418   91.231  165.746    7.206
  580.172    0.134    0.422   91.306  165.981    7.374
  580.422    0.095    0.411   93.620  165.269    7.602
  580.672    0.144    0.403   94.194  163.925    7.952
  580.922    0.133    0.392   91.972  161.005    8.182
  581.172    0.114    0.377   93.540  156.085    7.981
  581.422    0.098    0.362   97.966  153.374    7.699
  581.672    0.130    0.400  100.465  153.505    7.496
  581.922    0.181    0.414   96.007  153.739    7.713
  582.172    0.156    0.392   98.507  154.292    8.204
  582.422    0.147    0.407   99.888  155.894    8.584
  582.672    0.142    0.400   94.311  157.919    8.897
  582.922    0.133    0.372   86.993  159.943    9.172
  583.172    0.119    0.331   91.296  161.230    9.386
  583.422    0.098    0.372   89.632  162.097    9.446
  583.672    0.147    0.378   87.722  162.015    8.735
  583.922    0.132    0.359   91.588  162.038    7.813
  584.172    0.092    0.334   98.438  161.538    7.237
  584.422    0.056    0.369  103.920  161.356    6.880
  584.672    0.073    0.393  107.849  161.274    6.636
  584.922    0.097    0.386  109.541  161.193    6.631
  585.172    0.119    0.377  110.303  161.215    6.860
  585.422    0.141    0.383  111.745  161.453    7.085
  585.672    0.143    0.394  113.996  161.582    7.197
  585.922    0.137    0.381  108.172  161.817    7.230
  586.172    0.120    0.366  103.091  162.367    7.277
  586.422    0.101    0.346  103.479  162.815    7.351
  586.672    0.084    0.348  105.481  163.049    7.440
  586.922    0.106    0.385  109.409  163.178    7.406
  587.172    0.129    0.385  104.143  163.203    7.263
  587.422    0.146    0.371  100.492  163.017    6.753
  587.672    0.136    0.353   97.026  162.200    5.632
  587.922    0.134    0.340   95.674  161.804    4.560
  588.172    0.119    0.330  100.537  161.092    3.720
  588.422    0.101    0.370  105.521  161.748    3.390
  588.672    0.088    0.441  111.811  165.667    3.282
  588.922    0.122    0.472  115.306  170.846    3.340
  589.172    0.150    0.473  116.626  173.818    3.405
  589.422    0.167    0.459  116.205  174.368    3.358
  589.672    0.154    0.477  112.678  171.974    3.533
  589.922    0.132    0.504  107.722  165.896    3.877
  590.172    0.160    0.473  103.884  162.132    2.890
  590.422    0.173    0.449  102.097  161.002    2.473
  590.672    0.159    0.422   99.004  160.606    1.049
  590.922    0.143    0.440   94.235  160.736    0.820
  591.172    0.127    0.451   96.548  161.285    0.838
  591.422    0.131    0.438   97.184  162.572    1.017
  591.672    0.106    0.431   99.684  165.334    4.374
  591.922    0.091    0.434  104.359  166.621    5.187
  592.172    0.156    0.433  107.045  166.118    6.220
  592.422    0.146    0.432  103.270  163.727    7.322
  592.672    0.131    0.422   95.642  162.280    8.779
  592.922    0.108    0.413   88.573  161.672    9.547
  593.172    0.101    0.378   78.398  161.273    9.193
  593.422    0.078    0.315   82.327  161.195    8.314
  593.672    0.036    0.286   89.985  161.114    7.102
  593.922    0.041    0.335   90.186  161.142    5.698
  594.172    0.056    0.369   91.196  161.164    4.959
  594.422    0.075    0.388   92.950  161.291    4.653
  594.672    0.131    0.399   94.765  161.423    4.447
  594.922    0.119    0.412   95.898  161.765    4.266
  595.172    0.113    0.424   96.534  161.681    4.170
  595.422    0.083    0.422   96.300  162.021    4.181
  595.672    0.078    0.422   96.688  162.152    4.177
  595.922    0.051    0.437   99.312  162.393    4.143
  596.172    0.109    0.428  103.429  162.516    4.071
  596.422    0.122    0.432  103.319  162.543    3.963
  596.672    0.104    0.463  102.711  162.461    3.894
  596.922    0.110    0.440  102.850  162.382    3.920
  597.172    0.086    0.423  104.481  162.408    4.033
  597.422    0.097    0.444  105.987  162.537    4.165
  597.672    0.153    0.457  106.685  163.088    4.294
  597.922    0.137    0.464  106.639  163.430    4.459
  598.172    0.124    0.464  106.528  163.561    4.664
  598.422    0.150    0.448  104.429  163.688    4.782
  598.672    0.134    0.411  101.896  163.819    4.778
  598.922    0.108    0.409   98.369  163.737    4.764
  599.172    0.116    0.418   94.593  163.867    4.778
  599.422    0.112    0.409   95.292  164.102    4.800
  599.672    0.091    0.388  100.401  164.126    4.821
  599.922    0.068    0.384  101.410  164.258    4.808
  600.172    0.112    0.397  102.668  163.758    4.725
  600.422    0.131    0.416  106.286  163.571    4.559
  600.672    0.123    0.444  109.533  163.278    4.389
  600.922    0.111    0.450  110.665  165.303    4.266
  601.172    0.115    0.446  111.240  169.536    4.214
  601.422    0.139    0.441  111.565  170.089    4.165
  601.672    0.130    0.432  111.705  169.797    4.153
  601.922    0.116    0.430  111.033  169.822    4.180
  602.172    0.133    0.449  108.314  168.688    4.215
  602.422    0.122    0.446  107.771  164.509    4.226
  602.672    0.103    0.426  110.333  162.849    4.302
  602.922    0.083    0.418  113.702  163.396    4.385
  603.172    0.094    0.429  115.271  165.000    4.638
  603.422    0.114    0.437  115.099  167.022    5.262
  603.672    0.107    0.441  114.369  166.628    5.829
  603.922    0.108    0.441  113.390  164.758    5.612
  604.172    0.130    0.406  111.229  162.575    5.305
  604.422    0.118    0.373  113.230  161.021    5.080
  604.672    0.111    0.330  118.900  160.100    4.884
  604.922    0.106    0.317  117.175  159.390    4.816
  605.172    0.070    0.343  101.159  158.572    4.715
  605.422    0.054    0.364   89.554  158.177    4.591
  605.672    0.118    0.352   78.197  157.356    4.495
  605.922    0.140    0.319   83.680  154.966    4.424
