~VERSION INFORMATION
 VERS.                 2.0:   CWLS LOG ASCII STANDARD -VERSION 2.0
 WRAP.                  NO:   ONE LINE PER DEPTH STEP
~WELL INFORMATION BLOCK
#MNEM.UNIT           DATA                    DESCRIPTION OF MNEMONIC
#---------    -------------------            -------------------------------
# Generated from Intellog Unique Number	CW_70_72/WELL/3032
NULL.         -999.25                        : NULL_VALUE
WELL.         DECALTA ET AL SMITH 11-27      : Well_name    - WELL              
LOC .         11-27-070-01W5                 : Location     - LOCATION          
UWI .         00/11-27-070-01W5/0            : Uwi          - UNIQUE WELL ID    
ENTR.         JAYE                           : Entered      - ENTERED BY        
SRVC.         SCHLUMBERGER                   : Scn          - SERVICE COMPANY   
DATE.         7 FEB 78                       : Date         - LOG DATE          
STRT.M        384.048                        : top_depth    - START DEPTH       
STOP.M        634.048                        : bot_depth    - STOP DEPTH        
STEP.M        0.25                           : increment    - STEP LENGTH       
~CURVE INFORMATION BLOCK
#MNEM UNIT       ERCB CURVE CODE    CURVE DESCRIPTION
#-----------   ------------------   ----------------------------------
DEPT.M        00 001 00 00         : DEPTH        - DEPTH                       
ILD .OHMM     00 120 00 00         : RESD         - DEEP RESISTIVITY (DIL)      
CALI.MM       00 280 01 00         : CAL          - CALIPER                     
GR  .API      00 310 00 00         : GR           - GAMMA RAY                   
NPHI.V/V      00 330 00 00         : PHIN         - NEUTRON POROSITY (SANDSTONE)
DPHI.V/V      00 890 00 00         : PHID         - DENSITY POROSITY (SANDSTONE)
~PARAMETER INFORMATION       
#MNEM.UNIT           DATA             DESCRIPTION OF MNEMONIC
#---------         -----------     ------------------------------
GL  .M        559.918              : gl           - GROUND LEVEL ELEVATION      
EREF.M        562.966              : kb           - ELEVATION OF DEPTH REFERENCE
DATM.M        559.918              : datum        - DATUM ELEVATION             
TDD .M        642.214              : tdd          - TOTAL DEPTH DRILLER         
RUN .         ONE                  : Run          - RUN NUMBER                  
ENG .         GUNN                 : Engineer     - RECORDING ENGINEER          
WIT .         WALLGREN             : Witness      - WITNESSED BY                
BASE.         EDM                  : Branch       - HOME BASE OF LOGGING UNIT   
MUD .         GEL CHEM             : Mud_type     - MUD TYPE                    
MATR.         SANDSTONE            : Logunit      - NEUTRON MATRIX              
TMAX.C        -17.7778             : BHT          - MAXIMUM RECORDED TEMPERATURE
BHTD.M        641.604              : BHTDEP       - MAXIMUM RECORDED TEMPERATURE
RMT .C        15.5556              : MDTP         - TEMPERATURE OF MUD          
MUDD.KG/M     1152                 : MWT          - MUD DENSITY                 
NEUT.         1                    : NEUTRON      - NEUTRON TYPE                
RESI.         0                    : RESIST       - RESISTIVITY TYPE            
RM  .OHMM     2.61                 : RM           - RESISTIVITY OF MUD          
RMC .OHMM     0.25                 : RMC          - RESISTIVITY OF MUD CAKE     
RMF .OHMM     1.93                 : RMF          - RESISTIVITY OF MUD FILTRATE 
SUFT.C        -17.7778             : SUFT         - SURFACE TEMPERATURE         
~A  DEPTH     RESD      CAL       GR     PHIN     PHID
# ...
  566.548    1.939  178.074  124.579    0.474    0.159
  566.798    2.125  178.601  124.580    0.485    0.162
  567.048    2.514  181.439  122.162    0.494    0.186
  567.298    2.766  184.171  117.572    0.504    0.173
  567.548    3.333  183.438  112.796    0.515    0.150
  567.798    4.102  176.402  106.718    0.475    0.135
  568.048    4.462  169.890  102.811    0.419    0.120
  568.298    5.029  163.274  108.395    0.398    0.062
  568.548    5.116  162.330  114.227    0.387    0.066
  568.798    5.108  161.492  120.866    0.383    0.099
  569.048    5.196  161.598  116.586    0.396    0.122
  569.298    5.326  162.230  111.873    0.391    0.117
  569.548    5.407  162.967  108.710    0.384    0.070
  569.798    5.450  163.914  108.649    0.390    0.048
  570.048    5.432  164.126  114.047    0.386    0.054
  570.298    5.293  165.283  116.591    0.377    0.081
  570.548    5.159  166.020  113.924    0.388    0.151
  570.798    5.190  164.866  117.027    0.396    0.133
  571.048    5.339  164.342  114.733    0.395    0.115
  571.298    5.565  165.394  112.811    0.386    0.127
  571.548    6.133  165.606  110.826    0.371    0.113
  571.798    7.122  165.712  107.539    0.350    0.116
  572.048    8.102  165.924  101.337    0.340    0.050
  572.298    8.980  165.821   99.725    0.320    0.013
  572.548    9.394  165.612   99.540    0.321    0.025
  572.798    8.232  165.614   94.950    0.339    0.053
  573.048    6.597  165.406   99.046    0.309    0.053
  573.298    5.611  165.513  110.399    0.309    0.030
  573.548    5.114  165.619  125.412    0.365    0.070
  573.798    4.722  165.200  122.374    0.416    0.116
  574.048    4.619  164.782  109.595    0.405    0.129
  574.298    4.823  164.678  103.455    0.381    0.128
  574.548    5.296  164.680  105.317    0.353    0.124
  574.798    5.881  164.997  106.372    0.368    0.127
  575.048    6.542  165.208  106.187    0.383    0.113
  575.298    7.306  165.525   97.069    0.376    0.090
  575.548    7.757  166.052   96.760    0.320    0.031
  575.798    6.697  165.843  105.322    0.309    0.044
  576.048    6.013  165.845  108.734    0.322    0.073
  576.298    5.938  165.742  109.790    0.357    0.108
  576.548    6.177  165.848  107.123    0.352    0.127
  576.798    6.770  165.745  104.643    0.341    0.105
  577.048    7.337  165.431  103.838    0.337    0.097
  577.298    7.258  165.538  105.265    0.337    0.089
  577.548    6.517  165.645  109.857    0.351    0.083
  577.798    5.950  165.541  113.952    0.361    0.067
  578.048    5.576  165.438  117.303    0.371    0.107
  578.298    5.354  165.019  116.745    0.378    0.096
  578.548    5.297  164.916  118.174    0.384    0.116
  578.798    5.259  164.917  119.787    0.359    0.099
  579.048    5.290  164.709  121.525    0.351    0.099
  579.298    5.402  169.961  115.044    0.404    0.094
  579.548    6.687  170.834  108.990    0.386    0.074
  579.798    6.280  168.455   97.910    0.354    0.046
  580.048    5.195  164.194   79.142    0.326    0.054
  580.298    4.110  161.607   62.977    0.336    0.192
  580.548    3.029  159.548   52.149    0.350    0.249
  580.798    2.563  158.328   43.302    0.355    0.277
  581.048    2.407  157.938   39.979    0.363    0.265
  581.298    2.333  157.451   41.120    0.359    0.248
  581.548    2.275  156.653   42.999    0.351    0.257
  581.798    2.263  156.162   45.130    0.353    0.245
  582.048    2.252  155.573   47.141    0.352    0.249
  582.298    2.253  154.773   49.458    0.347    0.252
  582.548    2.254  153.556   50.595    0.337    0.230
  582.798    2.251  153.380   48.696    0.330    0.238
  583.048    2.265  154.782   45.679    0.340    0.260
  583.298    2.301  156.500   45.207    0.355    0.265
  583.548    2.337  158.121   50.006    0.364    0.258
  583.798    2.359  158.683   52.878    0.353    0.245
  584.048    2.388  159.348   53.152    0.341    0.235
  584.298    2.398  159.601   50.695    0.327    0.232
  584.548    2.418  159.429   49.416    0.330    0.245
  584.798    2.423  158.835   51.423    0.344    0.238
  585.048    2.434  158.033   55.290    0.353    0.235
  585.298    2.430  158.077   56.302    0.359    0.248
  585.548    2.441  158.004   54.590    0.366    0.240
  585.798    2.452  157.936   53.186    0.351    0.230
  586.048    2.467  158.191   54.636    0.350    0.226
  586.298    2.519  158.224   58.999    0.353    0.245
  586.548    2.587  157.218   59.146    0.355    0.231
  586.798    2.722  154.205   56.130    0.356    0.217
  587.048    2.822  152.146   60.246    0.357    0.201
  587.298    2.909  155.968   60.956    0.358    0.187
  587.548    3.067  158.740   58.617    0.360    0.176
  587.798    3.115  158.457   64.225    0.362    0.210
  588.048    3.163  156.084   64.369    0.358    0.225
  588.298    3.163  152.865   63.463    0.353    0.207
  588.548    3.174  150.488   64.603    0.348    0.200
  588.798    3.174  151.695   65.988    0.346    0.200
  589.048    3.188  153.617   69.297    0.345    0.198
  589.298    3.438  156.593   69.816    0.344    0.198
  589.548    3.576  159.153   71.330    0.336    0.200
  589.798    3.645  160.450   72.280    0.346    0.202
  590.048    3.613  161.017   72.990    0.335    0.202
  590.298    3.542  160.733   74.255    0.327    0.195
  590.548    3.492  159.727   75.078    0.325    0.185
  590.798    3.519  158.714   75.912    0.330    0.200
  591.048    3.683  158.652   76.243    0.334    0.201
  591.298    4.029  159.004   75.770    0.333    0.191
  591.548    4.560  159.565   74.859    0.325    0.159
  591.798    5.487  160.234   71.534    0.299    0.127
  592.048    7.207  162.161   65.605    0.267    0.000
  592.298    9.086  164.618   60.911    0.249   -0.016
  592.548    8.517  165.816   65.649    0.250    0.025
  592.798    7.301  165.434   70.569    0.268    0.075
  593.048    5.627  164.309   74.378    0.309    0.126
  593.298    4.673  162.891   76.572    0.329    0.160
  593.548    4.347  162.181   77.275    0.337    0.170
  593.798    4.457  161.799   78.974    0.337    0.174
  594.048    4.831  162.584   81.848    0.332    0.152
  594.298    5.257  163.566   87.081    0.325    0.125
  594.548    5.542  164.549   86.422    0.317    0.140
  594.798    5.734  165.004   84.458    0.310    0.154
  595.048    6.068  165.249   83.489    0.305    0.155
  595.298    6.278  165.814   86.054    0.308    0.126
  595.548    6.472  166.807   90.422    0.329    0.138
  595.798    6.660  167.260   92.557    0.328    0.149
  596.048    6.701  167.503   92.205    0.312    0.139
  596.298    6.630  167.128   93.281    0.301    0.108
  596.548    6.439  165.064   98.574    0.320    0.098
  596.798    6.289  162.894  102.752    0.334    0.123
  597.048    6.176  163.255  103.703    0.347    0.102
  597.298    6.008  164.242  102.241    0.361    0.107
  597.548    5.868  165.006  100.339    0.358    0.120
  597.798    5.937  166.203   94.780    0.337    0.144
  598.048    6.425  166.658   88.232    0.326    0.154
  598.298    7.448  167.441   83.663    0.343    0.125
  598.548    9.303  167.055   78.724    0.362    0.070
  598.798   11.685  164.891   72.668    0.300    0.052
  599.048   14.760  162.623   65.560    0.269    0.063
  599.298   16.795  163.074   64.404    0.256    0.074
  599.548   16.250  165.843   75.840    0.259    0.052
  599.798   12.760  167.246   84.795    0.281    0.065
  600.048   10.557  165.918   89.592    0.301    0.093
  600.298    9.392  161.862   94.761    0.323    0.124
  600.548    8.514  162.004   98.504    0.349    0.152
  600.798    7.936  165.408   94.313    0.365    0.173
  601.048    7.495  166.285   87.264    0.366    0.193
  601.298    7.402  164.645   86.230    0.355    0.205
  601.548    7.202  160.482   92.890    0.350    0.227
  601.798    6.877  158.207   96.202    0.358    0.206
  602.048    6.363  157.420   95.108    0.359    0.196
  602.298    5.965  156.814   99.906    0.357    0.187
  602.548    5.782  156.441  105.449    0.352    0.180
  602.798    6.028  156.578  105.593    0.346    0.169
