~VERSION INFORMATION
 VERS.                 2.0:   CWLS LOG ASCII STANDARD -VERSION 2.0
 WRAP.                  NO:   ONE LINE PER DEPTH STEP
~WELL INFORMATION BLOCK
#MNEM.UNIT           DATA                    DESCRIPTION OF MNEMONIC
#---------    -------------------            -------------------------------
# Generated from Intellog Unique Number	CW_82_90/WELL/2590
WELL.         SUN BA WABASCA 10-01           : Well_name    - WELL
LOC .         00/10-01-082-22W4/0            : Location     - LOCATION
UWI .         00/10-01-082-22W4/0            : Uwi          - UNIQUE WELL ID
ENTR.         JJ                             : Entered      - ENTERED BY
SRVC.         SCHLUMBERGER                   : Scn          - SERVICE COMPANY
DATE.         20 MAR 66                      : Date         - LOG DATE
STRT.M        295.656                        : top_depth    - START DEPTH
STOP.M        423.656                        : bot_depth    - STOP DEPTH
STEP.M        0.25                           : increment    - STEP LENGTH
 NULL. -999.2500:NULL Value
~CURVE INFORMATION BLOCK
#MNEM UNIT       ERCB CURVE CODE    CURVE DESCRIPTION
#-----------   ------------------   ----------------------------------
DEPT.M        00 001 00 00         : DEPTH        - DEPTH
DELT.US/F     00 520 00 00         : DELT         - SONIC TRAVEL TIME
GR  .API      00 310 00 00         : GR           - GAMMA RAY
ILD .OHMM     00 120 00 00         : RESD         - DEEP RESISTIVITY (DIL)
~PARAMETER INFORMATION
#MNEM.UNIT           DATA             DESCRIPTION OF MNEMONIC
#---------         -----------     ------------------------------
GL  .M        613.867              : gl           - GROUND LEVEL ELEVATION
EREF.M        617.891              : kb           - ELEVATION OF DEPTH REFERENCE
DATM.M        617.891              : datum        - DATUM ELEVATION
TDD .M        427.025              : tdd          - TOTAL DEPTH DRILLER
RUN .         ONE                  : Run          - RUN NUMBER
ENG .         BLACKBURN            : Engineer     - RECORDING ENGINEER
WIT .         BRADY & MOORE        : Witness      - WITNESSED BY
BASE.         EDMONTON             : Branch       - HOME BASE OF LOGGING UNIT
MUD .         GEL CHEM             : Mud_type     - MUD TYPE
MATR.         SANDSTONE            : Logunit      - NEUTRON MATRIX
TMAX.C        17.7778              : BHT          - MAXIMUM RECORDED TEMPERATURE
BHTD.M        426.72               : BHTDEP       - MAXIMUM RECORDED TEMPERATURE
RMT .C        13.8889              : MDTP         - TEMPERATURE OF MUD
MUDD.KG/M     1128                 : MWT          - MUD DENSITY
NEUT.         1                    : NEUTRON      - NEUTRON TYPE
RESI.         0                    : RESIST       - RESISTIVITY TYPE
RM  .OHMM     2.27                 : RM           - RESISTIVITY OF MUD
RMC .OHMM     0                    : RMC          - RESISTIVITY OF MUD CAKE
RMF .OHMM     0                    : RMF          - RESISTIVITY OF MUD FILTRATE
SUFT.C        5                    : SUFT         - SURFACE TEMPERATURE
~A  DEPTH     DELT       GR     RESD
# ...
  349.906  399.936   68.312   10.113
  350.156  377.817   66.132    9.873
  350.406  375.913   69.241    9.795
  350.656  388.116   72.727    9.576
  350.906  391.730   74.379    9.478
  351.156  389.298   70.670    9.218
  351.406  392.365   71.042    8.976
  351.656  397.502   73.881    8.633
  351.906  401.043   75.637    8.165
  352.156  403.519   73.469    7.677
  352.406  408.399   77.107    7.497
  352.656  403.805   74.048    7.896
  352.906  391.827   68.592    8.230
  353.156  387.315   65.577    8.917
  353.406  383.678   70.264    9.354
  353.656  390.234   74.900    9.937
  353.906  394.900   69.602   10.273
  354.156  396.435   69.120   10.175
  354.406  398.974   76.240    9.441
  354.656  402.783   85.053    8.789
  354.906  405.781   78.611    8.116
  355.156  408.115   76.595    7.688
  355.406  409.440   77.460    7.057
  355.656  411.559   81.203    6.527
  355.906  412.952   86.084    6.018
  356.156  409.180   86.193    5.881
  356.406  405.523   83.130    5.968
  356.656  392.560   78.182    6.243
  356.906  383.611   73.918    7.155
  357.156  369.418   73.535    8.437
  357.406  373.164   78.923    9.740
  357.656  343.932   79.531   11.435
  357.906  278.386   71.898   13.334
  358.156  233.322   61.473   17.395
  358.406  255.795   55.478   20.366
  358.656  291.492   55.048   23.564
  358.906  304.359   59.037   26.905
  359.156  303.915   58.353   25.964
  359.406  309.078   66.128   22.574
  359.656  319.001   68.225   18.277
  359.906  328.513   67.098   15.916
  360.156  365.896   70.494   14.439
  360.406  378.367   70.373   13.374
  360.656  385.655   66.898   12.331
  360.906  383.078   63.931   11.842
  361.156  378.308   68.685   11.355
  361.406  372.107   68.834   11.053
  361.656  369.400   64.685   11.078
  361.906  360.996   68.817   12.053
  362.156  358.559   72.266   12.964
  362.406  347.394   71.632   13.526
  362.656  364.626   68.324   13.718
  362.906  379.100   69.840   13.414
  363.156  387.081   71.681   12.783
  363.406  391.610   76.422   12.130
  363.656  393.171   73.210   11.498
  363.906  392.325   68.801   11.051
  364.156  391.430   65.530   10.707
  364.406  390.605   73.401   10.632
  364.656  390.044   72.770   10.618
  364.906  392.643   71.004   10.684
  365.156  395.046   75.541   10.773
  365.406  361.258   79.193   10.841
  365.656  378.221   79.838   10.889
  365.906  385.714   78.767   10.957
  366.156  385.705   81.312   10.983
  366.406  390.169   76.118   10.989
  366.656  393.044   71.205   10.995
  366.906  394.573   74.552   11.000
  367.156  390.632   75.362   11.192
  367.406  389.091   79.160   11.301
  367.656  389.003   80.472   11.060
  367.906  390.590   83.860   10.758
  368.156  393.863   84.327   10.517
  368.406  393.579   78.075   10.378
  368.656  390.265   76.855   10.241
  368.906  390.708   78.958   10.247
  369.156  390.504   80.313   10.253
  369.406  388.519   80.831   10.465
  369.656  387.101   80.638   10.780
  369.906  386.551   84.386   11.011
  370.156  388.335   85.154   11.285
  370.406  391.730   79.198   11.395
  370.656  373.794   70.769   11.524
  370.906  366.600   70.193   11.530
  371.156  376.715   75.180   11.475
  371.406  385.827   79.662   11.460
  371.656  391.650   78.236   11.405
  371.906  386.517   74.976   11.349
  372.156  376.891   74.737   11.273
  372.406  374.606   76.842   11.134
  372.656  383.639   78.946   11.038
  372.906  387.055   82.389   10.797
  373.156  387.556   83.652   10.515
  373.406  392.304   81.874   10.233
  373.656  394.572   77.266    9.951
  373.906  397.241   81.313    9.874
  374.156  398.296   87.150    9.984
  374.406  393.177   88.255   10.154
  374.656  390.677   82.310   10.531
  374.906  377.559   79.538   10.783
  375.156  379.754   79.604   10.954
  375.406  392.496   82.458   11.044
  375.656  394.814   84.847   10.987
  375.906  393.584   85.368   10.911
  376.156  401.156   83.250   10.753
  376.406  401.750   79.378   10.697
  376.656  384.274   79.606   10.682
  376.906  382.707   84.479   10.709
  377.156  406.918   89.911   10.591
  377.406  402.947   86.452   10.474
  377.656  381.443   80.007   10.007
  377.906  363.223   86.197    9.436
  378.156  381.738   90.636    8.702
  378.406  401.325   93.075    8.461
  378.656  396.807   91.852    8.282
  378.906  388.390   85.554    8.226
  379.156  382.593   85.069    8.293
  379.406  389.228   92.043    8.484
  379.656  397.535   91.365    9.005
  379.906  391.465   83.334   10.144
  380.156  378.563   77.928   11.467
  380.406  367.046   71.883   13.306
  380.656  361.463   68.433   15.597
  380.906  364.734   68.285   17.868
  381.156  371.833   67.507   20.653
  381.406  340.127   63.994   24.200
  381.656  297.879   60.534   26.944
  381.906  289.527   58.967   28.783
  382.156  310.322   61.510   30.497
  382.406  357.639   62.521   30.977
  382.656  423.014   60.791   30.942
  382.906  437.228   61.006   30.578
  383.156  277.881   59.834   30.172
  383.406  257.519   54.784   31.702
  383.656  242.328   50.523   33.396
  383.906  233.853   46.022   34.349
  384.156  237.714   43.308   34.664
  384.406  236.965   45.844   33.847
  384.656  247.078   54.766   32.021
  384.906  260.480   57.663   30.400
  385.156  270.604   60.759   27.586
  385.406  282.544   64.757   24.812
  385.656  291.913   65.160   22.183
  385.906  302.446   63.684   19.822
  386.156  286.037   58.782   20.323
  386.406  245.670   51.938   22.778
  386.656  235.713   47.679   24.802
  386.906  227.964   44.818   27.607
  387.156  222.583   44.386   30.084
  387.406  252.170   47.141   28.711
  387.656  277.123   59.024   23.961
  387.906  326.995   74.246   19.624
  388.156  343.088   79.034   15.265
  388.406  352.605   76.884   13.480
  388.656  357.878   75.339   12.539
  388.906  359.344   69.840   11.846
  389.156  355.767   65.729   11.687
  389.406  342.251   66.096   11.734
  389.656  349.478   70.238   11.863
  389.906  354.298   73.777   12.302
  390.156  303.251   62.417   13.028
  390.406  294.572   57.557   13.570
  390.656  314.556   67.973   13.781
  390.906  341.592   70.561   13.747
  391.156  356.011   70.235   13.341
  391.406  363.980   70.592   12.503
  391.656  363.138   69.468   11.727
  391.906  366.425   66.448   11.200
  392.156  365.728   65.936   11.061
  392.406  356.117   67.626   11.026
  392.656  346.826   68.944   11.113
  392.906  351.241   67.905   11.389
  393.156  365.521   71.601   11.537
  393.406  367.586   74.803   11.791
  393.656  359.838   70.287   11.878
  393.906  351.231   63.051   12.152
  394.156  347.108   64.570   12.695
  394.406  347.562   68.355   12.926
  394.656  350.291   74.127   12.893
  394.906  353.425   77.232   12.734
  395.156  358.318   72.223   12.450
  395.406  364.524   71.045   12.024
  395.656  368.065   74.589   11.331
  395.906  371.744   78.644   10.924
  396.156  376.020   81.826   10.437
  396.406  379.429   83.543   10.093
  396.656  382.832   82.951    9.853
  396.906  384.427   79.850    9.940
  397.156  379.033   73.108   10.544
  397.406  358.068   74.799   10.405
  397.656  348.654   83.517   10.205
  397.906  368.172   87.364    9.924
  398.156  384.531   91.646    9.621
  398.406  397.743   91.767    9.113
  398.656  395.029   86.119    8.810
  398.906  385.340   87.274    8.548
  399.156  377.593   90.868    8.266
  399.406  385.641   97.397    7.942
  399.656  392.072   99.098    7.805
  399.906  386.479   99.162    7.913
  400.156  374.362   90.230    8.826
  400.406  365.281   74.594   10.499
  400.656  316.461   64.079   14.066
  400.906  270.245   65.927   17.820
  401.156  272.849   72.308   21.532
  401.406  327.739   75.310   24.852
  401.656  346.519   75.824   24.693
  401.906  353.420   76.625   23.135
  402.156  358.769   79.083   21.988
  402.406  361.635   80.784   21.089
  402.656  360.807   79.308   20.744
  402.906  348.773   62.079   21.553
  403.156  360.040   53.501   24.339
  403.406  371.032   44.918   28.442
  403.656  384.289   37.926   35.262
  403.906  392.461   33.818   41.382
