~VERSION INFORMATION
 VERS.                 2.0:   CWLS LOG ASCII STANDARD -VERSION 2.0
 WRAP.                  NO:   ONE LINE PER DEPTH STEP
~WELL INFORMATION BLOCK
#MNEM.UNIT           DATA                    DESCRIPTION OF MNEMONIC
#---------    -------------------            -------------------------------
# Generated from Intellog Unique Number	CS_71_72/WELL/850
WELL.         BVX ET AL DIXON                : Well_name    - WELL
LOC .         00/10-03-072-15W4/0            : Location     - LOCATION
UWI .         00/10-03-072-15W4/0            : Uwi          - UNIQUE WELL ID
ENTR.         SP                             : Entered      - ENTERED BY
SRVC.         SCHLUMBERGER                   : Scn          - SERVICE COMPANY
STRT.M        290                            : top_depth    - START DEPTH
STOP.M        475                            : bot_depth    - STOP DEPTH
STEP.M        0.25                           : increment    - STEP LENGTH
 NULL. -999.2500:NULL Value
~CURVE INFORMATION BLOCK
#MNEM UNIT       ERCB CURVE CODE    CURVE DESCRIPTION
#-----------   ------------------   ----------------------------------
DEPT.M        00 001 00 00         : DEPTH        - DEPTH
ILD .OHMM     00 120 00 00         : RESD         - DEEP RESISTIVITY (DIL)
DPHI.V/V      00 890 00 00         : PHID         - DENSITY POROSITY (LIMESTONE)
NPHI.V/V      00 330 00 00         : PHIN         - NEUTRON POROSITY (LIMESTONE)
GR  .API      00 310 00 00         : GR           - GAMMA RAY
~PARAMETER INFORMATION
#MNEM.UNIT           DATA             DESCRIPTION OF MNEMONIC
#---------         -----------     ------------------------------
GL  .M        609.7                : gl           - GROUND LEVEL ELEVATION
EREF.M        613                  : kb           - ELEVATION OF DEPTH REFERENCE
DATM.M        609.7                : datum        - DATUM ELEVATION
TDD .M        476                  : tdd          - TOTAL DEPTH DRILLER
RUN .         ONE                  : Run          - RUN NUMBER
ENG .         BILL                 : Engineer     - RECORDING ENGINEER
WIT .         JIM                  : Witness      - WITNESSED BY
MUD .         GEL                  : Mud_type     - MUD TYPE
MATR.         LIMESTONE            : Logunit      - NEUTRON MATRIX
TMAX.C        23                   : BHT          - MAXIMUM RECORDED TEMPERATURE
BHTD.M        476                  : BHTDEP       - MAXIMUM RECORDED TEMPERATURE
MATR.         1                    : LOGUNIT      - NEUTRON MATRIX
RMT .C        25                   : MDTP         - TEMPERATURE OF MUD
NEUT.         1                    : NEUTRON      - NEUTRON TYPE
RESI.         0                    : RESIST       - RESISTIVITY TYPE
RMC .OHMM     0.25                 : RMC          - RESISTIVITY OF MUD CAKE
RMF .OHMM     0.25                 : RMF          - RESISTIVITY OF MUD FILTRATE
SUFT.C        15                   : SUFT         - SURFACE TEMPERATURE
~A  DEPTH     RESD     PHID     PHIN       GR
  290.000    3.794    0.202    0.519   97.174
  290.250    3.939    0.177    0.497   95.967
  290.500    4.014    0.163    0.457   99.012
  290.750    4.091    0.144    0.443  103.275
  291.000    3.944    0.183    0.457  101.466
  291.250    3.802    0.194    0.462   98.440
  291.500    3.532    0.205    0.451   99.665
  291.750    3.281    0.207    0.467  102.104
  292.000    3.163    0.197    0.488  102.720
  292.250    3.107    0.222    0.504  103.948
  292.500    3.166    0.253    0.527  104.566
  292.750    3.286    0.217    0.536  102.757
  293.000    3.412    0.223    0.491  102.763
  293.250    3.477    0.228    0.480  103.382
  293.500    3.543    0.236    0.480  105.216
  293.750    3.678    0.212    0.480  107.659
  294.000    3.749    0.231    0.505  108.884
  294.250    3.820    0.258    0.516  109.499
  294.500    3.822    0.246    0.499  110.114
  294.750    3.754    0.223    0.488  108.304
  295.000    3.686    0.220    0.474  104.063
  295.250    3.488    0.222    0.470  100.431
  295.500    3.362    0.225    0.469   94.369
  295.750    3.364    0.217    0.498   88.915
  296.000    3.557    0.223    0.515   84.671
  296.250    4.128    0.235    0.549   78.001
  296.500    4.364    0.208    0.436   69.511
  296.750    4.790    0.148    0.381   75.595
  297.000    5.257    0.244    0.399   81.680
  297.250    5.560    0.271    0.412   85.337
  297.500    5.561    0.260    0.418   88.382
  297.750    5.669    0.232    0.423   89.604
  298.000    5.670    0.237    0.431   91.437
  298.250    5.673    0.248    0.412   93.880
  298.500    5.571    0.248    0.425   93.887
  298.750    5.471    0.254    0.435   90.864
  299.000    5.473    0.259    0.442   86.626
  299.250    5.374    0.249    0.452   83.596
  299.500    5.376    0.262    0.458   80.571
  299.750    5.378    0.244    0.446   81.192
  300.000    5.584    0.209    0.419   86.063
  300.250    5.690    0.202    0.415   89.716
  300.500    5.907    0.221    0.417   92.758
  300.750    6.020    0.254    0.419   98.235
  301.000    6.023    0.236    0.415  101.888
  301.250    5.914    0.216    0.414  104.937
  301.500    5.703    0.239    0.436   97.054
  301.750    5.704    0.248    0.453   87.954
  302.000    5.202    0.239    0.472   75.819
  302.250    4.922    0.284    0.485   67.933
  302.500    4.326    0.319    0.435   60.049
  302.750    4.093    0.316    0.413   62.489
  303.000    3.803    0.308    0.395   75.862
  303.250    3.599    0.320    0.402   79.516
  303.500    3.469    0.314    0.408   83.776
  303.750    3.471    0.304    0.410   80.751
  304.000    3.473    0.314    0.399   73.474
  304.250    3.474    0.320    0.392   68.626
  304.500    3.411    0.331    0.395   69.246
  304.750    3.477    0.338    0.410   72.291
  305.000    3.609    0.317    0.414   75.945
  305.250    3.678    0.308    0.407   80.817
  305.500    3.818    0.304    0.416   83.256
  305.750    4.038    0.300    0.420   85.696
  306.000    4.115    0.304    0.417   87.527
  306.250    4.517    0.303    0.423   88.755
  306.500    4.688    0.270    0.427   83.296
  306.750    4.958    0.248    0.397   70.555
  307.000    5.342    0.225    0.377   60.849
  307.250    5.546    0.240    0.341   56.609
  307.500    5.547    0.248    0.341   63.906
  307.750    5.549    0.237    0.341   73.637
  308.000    5.450    0.222    0.341   78.504
  308.250    5.063    0.236    0.346   81.551
  308.500    4.791    0.259    0.354   79.739
  308.750    4.534    0.247    0.352   76.713
  309.000    4.291    0.256    0.374   73.688
  309.250    4.136    0.261    0.395   67.022
  309.500    3.844    0.277    0.417   65.205
  309.750    3.774    0.285    0.404   71.900
  310.000    3.775    0.271    0.395   76.765
  310.250    3.848    0.259    0.383   85.279
  310.500    3.994    0.242    0.395   92.584
  310.750    4.070    0.237    0.388   97.454
  311.000    4.225    0.255    0.394  101.104
  311.250    4.469    0.216    0.435  105.363
  311.500    4.640    0.224    0.459  110.231
  311.750    4.816    0.247    0.455  115.100
  312.000    4.909    0.152    0.458  118.147
  312.250    4.910    0.164    0.458  120.590
  312.500    4.822    0.186    0.461  121.815
  312.750    4.563    0.190    0.467  119.395
  313.000    4.319    0.232    0.475  120.012
  313.250    4.320    0.188    0.481  122.454
  313.500    4.243    0.209    0.469  119.426
  313.750    4.244    0.191    0.464  119.438
  314.000    4.168    0.181    0.478  123.699
  314.250    4.018    0.197    0.497  127.354
  314.500    3.803    0.206    0.508  130.403
  314.750    3.404    0.208    0.517  129.196
  315.000    3.221    0.235    0.537  126.778
  315.250    3.106    0.237    0.543  131.652
  315.500    3.165    0.226    0.550  131.658
  315.750    3.409    0.250    0.565  120.133
  316.000    3.955    0.274    0.451  116.496
  316.250    4.422    0.247    0.439  110.433
  316.500    4.943    0.249    0.436  109.232
  316.750    5.326    0.268    0.440  109.240
  317.000    5.529    0.250    0.450  108.039
  317.250    5.740    0.244    0.433  105.014
  317.500    5.742    0.245    0.426  101.984
  317.750    5.746    0.234    0.415   96.529
  318.000    5.856    0.224    0.423   91.683
  318.250    5.751    0.240    0.440   88.048
  318.500    5.753    0.231    0.426  101.423
  318.750    5.649    0.240    0.420  110.544
  319.000    5.547    0.201    0.422  114.802
  319.250    5.447    0.206    0.441  120.889
  319.500    4.967    0.195    0.473  122.113
  319.750    4.789    0.182    0.485  121.514
  320.000    4.791    0.191    0.490  120.310
  320.250    4.882    0.216    0.493  114.251
  320.500    5.068    0.206    0.457  106.976
  320.750    5.360    0.182    0.433  105.159
  321.000    5.462    0.199    0.434  107.601
  321.250    5.884    0.223    0.441  105.789
  321.500    5.569    0.242    0.425   97.297
  321.750    5.270    0.258    0.416   88.199
  322.000    5.081    0.278    0.406   83.349
  322.250    5.083    0.289    0.400   90.651
  322.500    5.181    0.289    0.395   96.126
  322.750    5.279    0.282    0.410   98.564
  323.000    5.379    0.280    0.414  102.219
  323.250    5.585    0.285    0.416  102.840
  323.500    5.906    0.267    0.400  103.456
  323.750    6.131    0.257    0.391  105.293
  324.000    6.248    0.219    0.411  107.129
  324.250    6.136    0.225    0.420  107.745
  324.500    6.139    0.222    0.436  108.358
  324.750    5.919    0.218    0.440  111.406
  325.000    5.920    0.208    0.451  113.843
  325.250    5.924    0.225    0.465  118.717
  325.500    5.925    0.248    0.443  119.937
  325.750    5.927    0.267    0.431  119.950
  326.000    5.931    0.243    0.449  109.030
  326.250    5.932    0.255    0.465  101.752
  326.500    5.935    0.246    0.446   98.116
  326.750    6.048    0.163    0.414  102.993
  327.000    6.050    0.128    0.392  107.251
  327.250    6.166    0.171    0.394  111.509
  327.500    6.283    0.211    0.396  112.737
  327.750    6.403    0.214    0.395  113.961
  328.000    6.526    0.199    0.406  116.405
  328.250    6.528    0.186    0.399  117.017
  328.500    6.531    0.189    0.396  119.458
  328.750    6.181    0.204    0.415  121.902
  329.000    5.958    0.211    0.439  123.127
  329.250    5.639    0.192    0.460  124.350
  329.500    5.238    0.195    0.475  124.967
  329.750    4.777    0.180    0.479  124.374
  330.000    4.605    0.225    0.469  123.775
  330.250    4.278    0.223    0.460  119.534
  330.500    4.201    0.244    0.472  114.077
  330.750    4.203    0.262    0.485  107.409
  331.000    4.283    0.280    0.481  103.171
  331.250    4.365    0.285    0.468  102.574
  331.500    4.366    0.254    0.469  103.190
  331.750    4.534    0.280    0.462  103.811
  332.000    4.706    0.255    0.449  103.822
  332.250    4.795    0.243    0.437  103.222
  332.500    5.071    0.247    0.424  102.626
  332.750    5.265    0.253    0.420  102.639
  333.000    5.466    0.241    0.415  103.254
  333.250    5.571    0.223    0.424  103.262
