~VERSION INFORMATION
 VERS.                 2.0:   CWLS LOG ASCII STANDARD -VERSION 2.0
 WRAP.                  NO:   ONE LINE PER DEPTH STEP
~WELL INFORMATION BLOCK
#MNEM.UNIT           DATA                    DESCRIPTION OF MNEMONIC
#---------    -------------------            -------------------------------
# Generated from Intellog Unique Number	CW_82_90/WELL/3440
WELL.         TEXACO CORN LAKE               : Well_name    - WELL
LOC .         00/10-21-088-25W4/0            : Location     - LOCATION
UWI .         00/10-21-088-25W4/0            : Uwi          - UNIQUE WELL ID
ENTR.         MAX                            : Entered      - ENTERED BY
SRVC.         SCHLUMBERGER                   : Scn          - SERVICE COMPANY
STRT.M        260                            : top_depth    - START DEPTH
STOP.M        462                            : bot_depth    - STOP DEPTH
STEP.M        0.25                           : increment    - STEP LENGTH
 NULL. -999.2500:NULL Value
~CURVE INFORMATION BLOCK
#MNEM UNIT       ERCB CURVE CODE    CURVE DESCRIPTION
#-----------   ------------------   ----------------------------------
DEPT.M        00 001 00 00         : DEPTH        - DEPTH
ILD .OHMM     00 120 00 00         : RESD         - DEEP RESISTIVITY (DIL)
NPHI.V/V      00 330 00 00         : PHIN         - NEUTRON POROSITY (SANDSTONE)
DPHI.V/V      00 890 00 00         : PHID         - DENSITY POROSITY (SANDSTONE)
CALI.MM       00 280 01 00         : CAL          - CALIPER
GR  .API      00 310 00 00         : GR           - GAMMA RAY
~PARAMETER INFORMATION
#MNEM.UNIT           DATA             DESCRIPTION OF MNEMONIC
#---------         -----------     ------------------------------
GL  .M        659.7                : gl           - GROUND LEVEL ELEVATION
EREF.M        663                  : kb           - ELEVATION OF DEPTH REFERENCE
DATM.M        659.7                : datum        - DATUM ELEVATION
TDD .M        465.5                : tdd          - TOTAL DEPTH DRILLER
RUN .         ONE                  : Run          - RUN NUMBER
ENG .         BILL                 : Engineer     - RECORDING ENGINEER
WIT .         JIM                  : Witness      - WITNESSED BY
MUD .         GEL                  : Mud_type     - MUD TYPE
MATR.         SANDSTONE            : Logunit      - NEUTRON MATRIX
TMAX.C        33.4                 : BHT          - MAXIMUM RECORDED TEMPERATURE
BHTD.M        465.5                : BHTDEP       - MAXIMUM RECORDED TEMPERATURE
MATR.         1                    : LOGUNIT      - NEUTRON MATRIX
RMT .C        15.6                 : MDTP         - TEMPERATURE OF MUD
NEUT.         1                    : NEUTRON      - NEUTRON TYPE
RESI.         0                    : RESIST       - RESISTIVITY TYPE
RMC .OHMM     2.17                 : RMC          - RESISTIVITY OF MUD CAKE
RMF .OHMM     2.17                 : RMF          - RESISTIVITY OF MUD FILTRATE
SUFT.C        -5                   : SUFT         - SURFACE TEMPERATURE
~A  DEPTH     RESD     PHIN     PHID      CAL       GR
  260.000    4.626    0.536    0.269  228.142  140.727
  260.250    4.543    0.507    0.264  225.682  138.361
  260.500    4.674    0.496    0.255  225.205  138.370
  260.750    4.808    0.495    0.261  224.729  139.275
  261.000    4.810    0.498    0.264  223.261  140.477
  261.250    4.812    0.504    0.266  223.778  141.082
  261.500    4.814    0.519    0.263  224.789  140.201
  261.750    4.728    0.555    0.256  227.286  136.940
  262.000    4.729    0.559    0.261  231.274  130.109
  262.250    5.003    0.557    0.267  233.773  115.245
  262.500    5.391    0.505    0.255  232.798   89.673
  262.750    9.679    0.366    0.268  220.917   68.857
  263.000   13.155    0.323    0.266  216.474   35.844
  263.250   16.142    0.314    0.260  214.512   32.583
  263.500   20.749    0.314    0.251  213.046   33.784
  263.750   25.700    0.331    0.249  213.068   37.070
  264.000   25.711    0.356    0.256  213.083   43.032
  264.250   23.444    0.370    0.277  214.096   47.210
  264.500   21.176    0.384    0.272  216.592   52.873
  264.750   19.307    0.391    0.266  217.604   58.240
  265.000   16.496    0.407    0.262  217.132   63.904
  265.250   11.491    0.430    0.254  217.146   69.866
  265.500    9.286    0.454    0.260  218.160   79.102
  265.750    6.967    0.479    0.300  220.661   87.741
  266.000    5.952    0.500    0.271  222.165  102.926
  266.250    5.685    0.465    0.277  222.187  100.260
  266.500    6.070    0.441    0.291  222.207   88.371
  266.750    7.110    0.426    0.310  221.232   83.029
  267.000    7.805    0.441    0.309  215.799   86.014
  267.250    7.956    0.455    0.299  215.821   91.085
  267.500    7.740    0.476    0.295  216.336   93.478
  267.750    7.461    0.455    0.304  216.847   94.384
  268.000    6.930    0.445    0.343  217.362   95.582
  268.250    6.869    0.451    0.309  220.852   95.594
  268.500    8.123    0.474    0.289  221.863   89.061
  268.750    8.834    0.484    0.309  222.386   76.874
  269.000    9.608    0.467    0.325  220.417   69.448
  269.250   11.048    0.448    0.308  216.965   69.760
  269.500   11.473    0.430    0.303  217.481   70.364
  269.750   11.162    0.429    0.314  217.009   72.162
  270.000   10.465    0.435    0.327  216.528   75.147
  270.250    9.365    0.444    0.319  216.051   81.109
  270.500    7.498    0.453    0.309  216.071   92.725
  270.750    6.587    0.467    0.295  219.561  100.174
  271.000    6.291    0.483    0.271  225.039  109.409
  271.250    6.412    0.503    0.257  228.029  111.505
  271.500    6.974    0.523    0.259  231.522  108.837
  271.750    7.445    0.470    0.306  225.591  102.603
  272.000    7.177    0.456    0.301  217.677  104.398
  272.250    6.364    0.451    0.277  217.203  111.849
  272.500    5.643    0.485    0.264  222.181  121.978
  272.750    5.194    0.510    0.249  226.169  128.830
  273.000    5.006    0.560    0.251  228.663  128.247
  273.250    4.962    0.561    0.261  232.649  124.390
  273.500    5.104    0.525    0.257  235.646  123.215
  273.750    5.301    0.494    0.262  237.151  123.521
  274.000    5.401    0.472    0.272  240.150  123.533
  274.250    5.609    0.487    0.283  243.144  124.142
  274.500    5.611    0.501    0.285  237.707  125.640
  274.750    5.459    0.509    0.273  230.787  127.139
  275.000    5.362    0.492    0.272  230.308  126.855
  275.250    5.265    0.481    0.259  227.352  127.759
  275.500    5.171    0.482    0.241  223.407  130.152
  275.750    5.125    0.472    0.224  220.452  129.566
  276.000    5.127    0.466    0.199  216.504  125.710
  276.250    5.130    0.473    0.185  211.563  125.128
  276.500    5.132    0.484    0.226  215.549  127.816
  276.750    5.182    0.476    0.267  218.050  132.886
  277.000    5.184    0.490    0.254  218.069  135.576
  277.250    5.187    0.507    0.259  220.568  133.207
  277.500    5.189    0.534    0.250  221.581  130.247
  277.750    5.096    0.540    0.248  223.088  131.743
  278.000    5.098    0.499    0.256  228.066  135.325
  278.250    5.006    0.495    0.258  232.548  136.825
  278.500    4.962    0.494    0.262  233.063  130.292
  278.750    4.919    0.491    0.264  232.587  130.898
  279.000    4.876    0.494    0.243  233.596  134.181
  279.250    4.788    0.506    0.246  236.094  139.847
  279.500    4.790    0.526    0.249  235.127  138.372
  279.750    4.837    0.500    0.243  233.661  136.005
  280.000    5.070    0.472    0.238  231.201  131.254
  280.250    5.214    0.466    0.235  230.722  123.233
  280.500    5.567    0.481    0.244  231.237  103.311
  280.750    6.111    0.494    0.271  228.778   84.578
  281.000    7.093    0.473    0.283  221.359   72.094
  281.250    8.704    0.417    0.296  218.406   67.347
  281.500   10.982    0.400    0.281  218.420   69.144
  281.750   11.726    0.411    0.282  218.938   75.701
  282.000   11.408    0.433    0.322  219.949   82.854
  282.250    9.305    0.456    0.343  223.935   85.245
  282.500    6.789    0.480    0.395  229.902   89.421
  282.750    5.487    0.551    0.382  241.825   92.111
  283.000    5.439    0.564    0.349  244.819   82.602
  283.250    5.699    0.519    0.335  240.872   73.391
  283.500    7.192    0.442    0.320  230.974   65.370
  283.750    7.895    0.431    0.332  223.556   60.920
  284.000   10.053    0.433    0.340  220.602   58.849
  284.250   11.998    0.433    0.343  220.123   58.562
  284.500   13.295    0.431    0.335  217.666   57.978
  284.750   13.549    0.431    0.341  217.187   57.692
  285.000   13.431    0.429    0.335  217.209   57.407
  285.250   12.946    0.426    0.334  216.234   58.311
  285.500   12.952    0.433    0.342  216.752   59.215
  285.750   12.839    0.438    0.349  217.763   58.335
  286.000   12.608    0.437    0.343  217.286   59.836
  286.250   11.823    0.433    0.339  217.306   61.335
  286.500   11.608    0.430    0.336  217.325   62.238
  286.750   11.505    0.425    0.332  217.345   62.547
  287.000   11.300    0.426    0.327  218.356   62.856
  287.250   11.199    0.430    0.321  218.375   63.165
  287.500   11.101    0.445    0.326  217.899   63.476
  287.750   11.106    0.456    0.336  217.920   64.975
  288.000   11.009    0.444    0.326  217.937   67.368
  288.250   11.013    0.419    0.312  217.957   70.057
  288.500   10.916    0.423    0.312  217.978   72.747
  288.750   10.721    0.432    0.316  218.499   76.029
  289.000   10.626    0.437    0.320  218.518   78.124
  289.250   10.631    0.426    0.322  218.535   78.436
  289.500   10.636    0.418    0.324  218.061   78.742
  289.750   10.641    0.415    0.323  218.075   78.754
  290.000   10.645    0.417    0.318  218.095   78.765
  290.250   10.649    0.419    0.308  218.116   79.671
  290.500   10.361    0.422    0.304  218.138   80.874
  290.750    8.935    0.426    0.308  218.649   82.669
  291.000    7.288    0.432    0.311  219.164   87.145
  291.250    6.056    0.448    0.317  220.671   92.213
  291.500    5.523    0.464    0.312  224.164  101.745
  291.750    5.628    0.501    0.284  228.150  121.988
  292.000    6.121    0.456    0.263  223.709  121.704
  292.250    7.511    0.449    0.250  221.745  120.229
  292.500    7.727    0.449    0.250  221.266  119.643
  292.750    7.730    0.451    0.251  221.285  117.871
  293.000    7.663    0.448    0.245  221.307  116.989
  293.250    8.105    0.443    0.237  220.828  117.002
  293.500    8.494    0.439    0.231  219.856  116.418
  293.750    8.577    0.425    0.242  218.886  113.454
  294.000    9.156    0.422    0.245  217.911  106.027
  294.250    8.909    0.428    0.225  217.931  100.388
  294.500    8.668    0.427    0.239  217.955  102.481
  294.750    8.512    0.425    0.249  218.966  107.254
  295.000    8.676    0.419    0.252  220.473  108.754
  295.250    8.599    0.419    0.251  220.988  111.146
  295.500    8.367    0.427    0.246  221.007  112.943
  295.750    8.371    0.439    0.247  221.027  112.655
  296.000    8.374    0.446    0.250  221.044  111.477
  296.250    8.457    0.443    0.257  221.066  109.704
