~VERSION INFORMATION
 VERS.                 2.0:   CWLS LOG ASCII STANDARD -VERSION 2.0
 WRAP.                  NO:   ONE LINE PER DEPTH STEP
~WELL INFORMATION BLOCK
#MNEM.UNIT           DATA                    DESCRIPTION OF MNEMONIC
#---------    -------------------            -------------------------------
# Generated from Intellog Unique Number	CW_73_75/WELL/3528
WELL.         GULF ET AL MITSUE              : Well_name    - WELL
LOC .         00/12-04-074-04W5/0            : Location     - LOCATION
UWI .         00/12-04-074-04W5/0            : Uwi          - UNIQUE WELL ID
ENTR.         T                              : Entered      - ENTERED BY
SRVC.         SCHLUMBERGER                   : Scn          - SERVICE COMPANY
STRT.M        345                            : top_depth    - START DEPTH
STOP.M        580                            : bot_depth    - STOP DEPTH
STEP.M        0.25                           : increment    - STEP LENGTH
 NULL. -999.2500:NULL Value
~CURVE INFORMATION BLOCK
#MNEM UNIT       ERCB CURVE CODE    CURVE DESCRIPTION
#-----------   ------------------   ----------------------------------
DEPT.M        00 001 00 00         : DEPTH        - DEPTH
ILD .OHMM     00 120 00 00         : RESD         - DEEP RESISTIVITY (DIL)
DPHI.V/V      00 890 00 00         : PHID         - DENSITY POROSITY (SANDSTONE)
NPHI.V/V      00 330 00 00         : PHIN         - NEUTRON POROSITY (SANDSTONE)
GR  .API      00 310 00 00         : GR           - GAMMA RAY
~PARAMETER INFORMATION
#MNEM.UNIT           DATA             DESCRIPTION OF MNEMONIC
#---------         -----------     ------------------------------
GL  .M        600                  : gl           - GROUND LEVEL ELEVATION
EREF.M        606                  : kb           - ELEVATION OF DEPTH REFERENCE
DATM.M        606                  : datum        - DATUM ELEVATION
TDD .M        1836                 : tdd          - TOTAL DEPTH DRILLER
RUN .         ONE                  : Run          - RUN NUMBER
ENG .         BILL                 : Engineer     - RECORDING ENGINEER
WIT .         JIM                  : Witness      - WITNESSED BY
MUD .         GEL                  : Mud_type     - MUD TYPE
MATR.         SANDSTONE            : Logunit      - NEUTRON MATRIX
TMAX.C        36                   : BHT          - MAXIMUM RECORDED TEMPERATURE
BHTD.M        1836                 : BHTDEP       - MAXIMUM RECORDED TEMPERATURE
MATR.         1                    : LOGUNIT      - NEUTRON MATRIX
RMT .C        17                   : MDTP         - TEMPERATURE OF MUD
NEUT.         1                    : NEUTRON      - NEUTRON TYPE
RESI.         0                    : RESIST       - RESISTIVITY TYPE
RMC .OHMM     1.3                  : RMC          - RESISTIVITY OF MUD CAKE
RMF .OHMM     0.89                 : RMF          - RESISTIVITY OF MUD FILTRATE
SUFT.C        15                   : SUFT         - SURFACE TEMPERATURE
~A  DEPTH     RESD     PHID     PHIN       GR
# ...
  519.000    4.294    0.297    0.443   69.710
  519.250    4.293    0.294    0.438   73.272
  519.500    4.135    0.294    0.438   76.238
  519.750    4.133    0.297    0.443   75.026
  520.000    4.131    0.302    0.444   73.823
  520.250    4.054    0.305    0.437   72.019
  520.500    4.205    0.302    0.432   72.596
  520.750    4.695    0.312    0.437   73.177
  521.000    4.961    0.326    0.440   72.566
  521.250    5.145    0.336    0.431   70.766
  521.500    5.239    0.334    0.399   66.570
  521.750    5.142    0.326    0.409   67.155
  522.000    4.685    0.311    0.426   70.717
  522.250    4.430    0.325    0.432   73.683
  522.500    4.112    0.381    0.398   76.052
  522.750    3.961    0.451    0.386   76.034
  523.000    3.886    0.477    0.392   74.226
  523.250    3.814    0.451    0.394   73.019
  523.500    3.955    0.297    0.400   72.411
  523.750    4.257    0.303    0.407   71.204
  524.000    4.934    0.323    0.413   68.208
  524.250    5.512    0.342    0.418   65.208
  524.500    5.611    0.353    0.411   66.389
  524.750    5.609    0.340    0.407   68.758
  525.000    5.607    0.310    0.410   71.128
  525.250    5.204    0.291    0.411   68.132
  525.500    4.921    0.282    0.447   62.155
  525.750    4.567    0.360    0.447   41.274
  526.000    4.240    0.443    0.436   26.351
  526.250    3.655    0.467    0.354   21.567
  526.500    3.209    0.266    0.300   32.879
  526.750    2.979    0.293    0.347   46.575
  527.000    2.922    0.407    0.395   53.714
  527.250    2.976    0.523    0.459   63.238
  527.500    2.975    0.421    0.451   72.758
  527.750    3.085    0.397    0.456   70.954
  528.000    3.260    0.375    0.462   68.554
  528.250    3.444    0.356    0.460   67.947
  528.500    3.707    0.337    0.449   66.739
  528.750    3.845    0.326    0.441   67.317
  529.000    4.062    0.312    0.432   69.690
  529.250    4.137    0.302    0.420   72.059
  529.500    4.135    0.307    0.410   73.833
  529.750    4.057    0.366    0.425   71.425
  530.000    3.836    0.377    0.445   67.833
  530.250    3.696    0.408    0.458   70.799
  530.500    3.305    0.429    0.461   73.765
  530.750    3.184    0.432    0.453   72.557
  531.000    3.182    0.370    0.454   74.331
  531.250    3.240    0.322    0.455   75.512
  531.500    3.553    0.297    0.449   77.285
  531.750    3.896    0.279    0.435   74.285
  532.000    4.116    0.282    0.436   70.697
  532.250    4.114    0.294    0.444   65.905
  532.500    4.037    0.311    0.452   66.490
  532.750    4.035    0.316    0.456   68.859
  533.000    4.108    0.316    0.454   67.652
  533.250    4.261    0.326    0.451   65.848
  533.500    4.503    0.356    0.446   64.633
  533.750    4.846    0.366    0.444   64.622
  534.000    4.844    0.368    0.442   64.611
  534.250    4.580    0.334    0.437   64.595
  534.500    4.494    0.315    0.427   63.984
  534.750    4.409    0.309    0.418   66.350
  535.000    4.327    0.312    0.430   68.716
  535.250    4.246    0.319    0.447   69.893
  535.500    4.166    0.316    0.451   69.878
  535.750    3.939    0.309    0.450   68.074
  536.000    3.795    0.314    0.452   67.459
  536.250    3.723    0.321    0.457   67.451
  536.500    3.791    0.327    0.457   68.629
  536.750    3.860    0.329    0.451   70.995
  537.000    4.154    0.335    0.447   73.364
  537.250    4.230    0.343    0.444   73.945
  537.500    4.638    0.348    0.449   72.141
  537.750    5.086    0.336    0.454   69.145
  538.000    5.680    0.321    0.449   66.742
  538.250    6.114    0.304    0.434   67.919
  538.500    6.112    0.291    0.413   67.904
  538.750    5.997    0.282    0.391   66.697
  539.000    5.670    0.288    0.408   66.681
  539.250    5.262    0.293    0.440   67.862
  539.500    5.070    0.287    0.460   70.232
  539.750    4.793    0.287    0.460   67.232
  540.000    4.618    0.292    0.457   64.836
  540.250    4.530    0.297    0.455   67.798
  540.500    4.699    0.303    0.449   71.356
  540.750    4.784    0.310    0.450   68.956
  541.000    4.782    0.313    0.451   70.137
  541.250    4.780    0.308    0.448   73.103
  541.500    4.690    0.318    0.442   76.065
  541.750    4.602    0.355    0.441   73.073
  542.000    4.516    0.382    0.445   69.481
  542.250    4.431    0.388    0.452   69.458
  542.500    4.348    0.390    0.458   70.639
  542.750    4.346    0.390    0.456   70.031
  543.000    4.592    0.347    0.443   68.224
  543.250    4.763    0.318    0.429   67.613
  543.500    5.126    0.279    0.432   71.175
  543.750    5.317    0.255    0.441   75.929
  544.000    5.314    0.264    0.452   81.279
  544.250    5.119    0.303    0.458   82.457
  544.500    4.664    0.325    0.456   80.057
  544.750    4.410    0.338    0.452   76.461
  545.000    4.328    0.359    0.455   73.469
  545.250    4.407    0.340    0.457   73.454
  545.500    4.655    0.335    0.454   74.631
  545.750    4.829    0.340    0.449   71.031
  546.000    5.198    0.332    0.445   68.635
  546.250    5.492    0.302    0.450   66.231
  546.500    5.803    0.291    0.457   70.393
  546.750    6.362    0.281    0.460   76.936
  547.000    6.848    0.264    0.455   81.690
  547.250    6.845    0.254    0.451   81.675
  547.500    6.717    0.261    0.446   68.544
  547.750    6.470    0.275    0.441   64.952
  548.000    6.349    0.287    0.435   69.110
  548.250    6.229    0.282    0.428   76.249
  548.500    6.227    0.274    0.420   72.057
  548.750    6.578    0.271    0.415   67.269
  549.000    6.824    0.279    0.420   64.276
  549.250    7.209    0.287    0.422   64.258
  549.500    7.341    0.287    0.400   63.054
  549.750    7.756    0.289    0.401   61.246
  550.000    8.045    0.295    0.414   63.616
  550.250    8.500    0.284    0.423   65.393
  550.500    8.818    0.249    0.399   68.355
  550.750    9.317    0.235    0.376   66.552
  551.000    9.663    0.214    0.361   64.748
  551.250   10.023    0.194    0.350   62.344
  551.500    9.477    0.197    0.358   59.944
  551.750    8.637    0.205    0.368   62.314
  552.000    7.445    0.213    0.376   66.476
  552.250    6.417    0.215    0.388   69.438
  552.500    5.635    0.215    0.384   70.615
  552.750    5.230    0.229    0.369   71.196
  553.000    4.945    0.298    0.364   69.989
  553.250    4.763    0.340    0.390   70.570
  553.500    4.587    0.372    0.395   72.347
  553.750    4.502    0.378    0.403   77.094
  554.000    4.337    0.364    0.406   80.063
  554.250    4.177    0.330    0.401   82.433
  554.500    4.023    0.324    0.396   77.648
  554.750    3.948    0.319    0.404   74.056
  555.000    3.732    0.281    0.445   72.249
  555.250    3.872    0.270    0.441   69.253
  555.500    4.744    0.248    0.431   68.641
  555.750    5.706    0.208    0.381   68.630
  556.000    6.991    0.146    0.334   70.396
  556.250    7.665    0.137    0.323   71.577
  556.500    7.247    0.175    0.344   72.150
  556.750    6.853    0.223    0.363   72.143
  557.000    6.480    0.250    0.374   72.124
  557.250    6.014    0.250    0.386   72.109
  557.500    5.901    0.250    0.396   72.094
  557.750    6.009    0.263    0.408   72.675
  558.000    6.232    0.279    0.413   73.259
  558.250    6.464    0.287    0.407   71.448
  558.500    6.583    0.290    0.395   69.652
  558.750    7.085    0.270    0.375   65.460
  559.000    7.769    0.254    0.366   67.826
  559.250    7.764    0.230    0.360   70.199
  559.500    7.480    0.217    0.362   73.757
  559.750    7.072    0.224    0.370   76.727
  560.000    6.812    0.227    0.391   75.519
  560.250    6.562    0.226    0.395   73.120
  560.500    6.204    0.223    0.400   73.701
  560.750    6.201    0.223    0.398   77.859
  561.000    6.313    0.231    0.392   80.824
  561.250    6.549    0.250    0.395   76.636
  561.500    6.668    0.260    0.421   70.659
  561.750    6.665    0.245    0.414   74.221
  562.000    6.421    0.228    0.388   73.602
  562.250    6.071    0.215    0.388   70.606
