~VERSION INFORMATION
 VERS.                 2.0:   CWLS LOG ASCII STANDARD -VERSION 2.0
 WRAP.                  NO:   ONE LINE PER DEPTH STEP
~WELL INFORMATION BLOCK
#MNEM.UNIT           DATA                    DESCRIPTION OF MNEMONIC
#---------    -------------------            -------------------------------
# Generated from Intellog Unique Number	CW_79_81/WELL/2470
NULL.         -999.25                        : NULL_VALUE
WELL.         CHEVRON FINA MUSKWA            : Well_name    - WELL              
LOC .         10-18-081-04W5                 : Location     - LOCATION          
UWI .         00/10-18-081-04W5/0            : Uwi          - UNIQUE WELL ID    
ENTR.         MAX                            : Entered      - ENTERED BY        
SRVC.         SCHLUMBERGER                   : Scn          - SERVICE COMPANY   
DATE.         06 MAR 74                      : Date         - LOG DATE
STRT.M        298.704                        : top_depth    - START DEPTH       
STOP.M        542.204                        : bot_depth    - STOP DEPTH        
STEP.M        0.25                           : increment    - STEP LENGTH       
~CURVE INFORMATION BLOCK
#MNEM UNIT       ERCB CURVE CODE    CURVE DESCRIPTION
#-----------   ------------------   ----------------------------------
DEPT.M        00 001 00 00         : DEPTH        - DEPTH                       
ILD .OHMM     00 120 00 00         : RESD         - DEEP RESISTIVITY (DIL)      
NPHI.V/V      00 330 00 00         : PHIN         - NEUTRON POROSITY (SANDSTONE)
DPHI.V/V      00 890 00 00         : PHID         - DENSITY POROSITY (SANDSTONE)
GR  .API      00 310 00 00         : GR           - GAMMA RAY                   
CALI.MM       00 280 01 00         : CAL          - CALIPER                     
~PARAMETER INFORMATION       
#MNEM.UNIT           DATA             DESCRIPTION OF MNEMONIC
#---------         -----------     ------------------------------
GL  .M        596.189              : gl           - GROUND LEVEL ELEVATION      
EREF.M        599.999              : kb           - ELEVATION OF DEPTH REFERENCE
DATM.M        596.189              : datum        - DATUM ELEVATION             
TDD .M        541.934              : tdd          - TOTAL DEPTH DRILLER         
RUN .         ONE                  : Run          - RUN NUMBER                  
ENG .         BILL                 : Engineer     - RECORDING ENGINEER          
WIT .         JIM                  : Witness      - WITNESSED BY                
MUD .         GEL                  : Mud_type     - MUD TYPE                    
MATR.         SANDSTONE            : Logunit      - NEUTRON MATRIX              
TMAX.C        28.3333              : BHT          - MAXIMUM RECORDED TEMPERATURE
BHTD.M        541.934              : BHTDEP       - MAXIMUM RECORDED TEMPERATURE
MATR.         1                    : LOGUNIT      - NEUTRON MATRIX              
RMT .C        20.5556              : MDTP         - TEMPERATURE OF MUD          
NEUT.         1                    : NEUTRON      - NEUTRON TYPE                
RESI.         0                    : RESIST       - RESISTIVITY TYPE            
RMC .OHMM     7.58                 : RMC          - RESISTIVITY OF MUD CAKE     
RMF .OHMM     8.19                 : RMF          - RESISTIVITY OF MUD FILTRATE 
SUFT.C        -15                  : SUFT         - SURFACE TEMPERATURE         
~A  DEPTH     RESD     PHIN     PHID       GR      CAL
# ...
  481.204    6.248    0.396    0.136   94.220  203.363
  481.454    6.242    0.390    0.136   90.752  202.741
  481.704    6.197    0.385    0.156   94.708  203.589
  481.954    6.201    0.386    0.165   97.323  203.600
  482.204    6.170    0.385    0.153   96.381  203.611
  482.454    6.150    0.383    0.142   94.136  203.623
  482.704    6.164    0.377    0.139   92.720  203.534
  482.954    6.232    0.365    0.135   94.249  203.228
  483.204    6.331    0.355    0.134   94.750  203.658
  483.454    6.474    0.351    0.125   92.623  203.670
  483.704    6.800    0.344    0.108   88.364  203.982
  483.954    7.087    0.318    0.088   86.118  204.595
  484.204    7.169    0.287    0.067   87.488  205.309
  484.454    6.953    0.307    0.057   92.364  205.722
  484.704    6.646    0.337    0.095   96.568  205.734
  484.954    6.131    0.346    0.092  102.737  205.345
  485.204    5.593    0.365    0.114  104.819  205.255
  485.454    5.148    0.374    0.125  105.536  205.266
  485.704    4.826    0.373    0.120  106.195  205.277
  485.954    4.565    0.375    0.119  107.023  205.290
  486.204    4.299    0.384    0.116  108.757  205.301
  486.454    4.055    0.388    0.114  112.318  206.116
  486.704    3.847    0.386    0.110  114.991  206.629
  486.954    3.685    0.386    0.107  115.354  207.041
  487.204    3.547    0.389    0.101  113.702  207.455
  487.454    3.393    0.392    0.085  113.038  207.869
  487.704    3.369    0.390    0.076  117.982  207.880
  487.954    3.321    0.378    0.081  123.677  208.694
  488.204    3.402    0.366    0.072  122.974  209.206
  488.454    3.580    0.355    0.055  118.240  209.418
  488.704    3.840    0.345    0.031  113.683  209.329
  488.954    4.192    0.338    0.012  116.585  208.941
  489.204    4.324    0.343    0.076  122.765  208.952
  489.454    4.327    0.360    0.109  123.247  208.963
  489.704    4.258    0.375    0.111  123.549  209.277
  489.954    4.183    0.386    0.107  123.792  209.490
  490.204    4.109    0.393    0.105  124.331  209.601
  490.454    3.943    0.395    0.096  126.206  210.099
  490.704    3.713    0.392    0.083  128.434  210.528
  490.954    3.634    0.396    0.081  127.257  210.940
  491.204    3.596    0.397    0.076  125.545  210.751
  491.454    3.598    0.396    0.085  124.366  210.160
  491.704    3.639    0.392    0.103  122.004  209.668
  491.954    3.756    0.388    0.108  111.435  210.166
  492.204    3.934    0.394    0.115   98.849  210.597
  492.454    4.292    0.398    0.098   90.322  210.206
  492.704    4.784    0.397    0.107   79.308  207.108
  492.954    5.453    0.393    0.124   69.003  202.303
  493.204    6.501    0.382    0.152   61.425  197.699
  493.454    9.313    0.362    0.217   57.303  196.021
  493.704   13.928    0.365    0.229   56.817  195.614
  493.954   16.657    0.363    0.224   56.823  195.626
  494.204   18.198    0.357    0.227   56.829  195.638
  494.454   19.095    0.355    0.230   56.837  195.650
  494.704   19.999    0.358    0.231   56.785  195.760
  494.954   21.318    0.365    0.231   56.505  196.090
  495.204   22.678    0.370    0.231   56.265  195.684
  495.454   24.393    0.372    0.232   54.138  195.694
  495.704   26.525    0.369    0.238   50.412  196.006
  495.954   28.774    0.364    0.249   47.811  196.419
  496.204   30.442    0.355    0.258   47.047  196.532
  496.454   29.627    0.342    0.258   46.817  195.493
  496.704   26.087    0.342    0.259   46.824  194.251
  496.954   22.662    0.345    0.249   48.252  194.661
  497.204   20.171    0.355    0.244   48.260  194.772
  497.454   18.156    0.359    0.243   47.911  194.984
  497.704   16.668    0.356    0.245   47.089  195.296
  497.954   15.765    0.348    0.252   44.489  195.311
  498.204   14.848    0.349    0.268   44.497  195.324
  498.454   14.319    0.350    0.256   47.346  195.332
  498.704   13.733    0.357    0.254   49.309  195.342
  498.954   13.150    0.364    0.256   49.790  195.354
  499.204   12.544    0.370    0.256   49.085  195.466
  499.454   11.657    0.374    0.242   47.887  195.880
  499.704   10.813    0.380    0.233   45.425  195.893
  499.954    9.681    0.382    0.244   43.061  195.904
  500.204    8.723    0.379    0.253   41.231  196.516
  500.454    8.032    0.376    0.263   40.289  197.130
  500.704    7.496    0.376    0.273   40.236  197.443
  500.954    6.807    0.366    0.282   41.212  197.373
  501.204    6.267    0.357    0.289   43.688  196.968
  501.454    5.868    0.363    0.286   45.117  194.569
  501.704    5.557    0.365    0.288   45.124  188.560
  501.954    5.243    0.362    0.288   44.539  177.336
  502.204    4.903    0.356    0.287   43.715  166.306
  502.454    4.506    0.351    0.290   42.389  169.761
  502.704    4.243    0.359    0.283   41.656  178.971
  502.954    4.032    0.359    0.274   41.899  185.002
  503.204    3.854    0.360    0.269   40.898  188.025
  503.454    3.718    0.360    0.267   40.075  189.442
  503.704    3.599    0.361    0.270   40.023  190.156
  503.954    3.442    0.362    0.280   40.505  190.654
  504.204    3.417    0.362    0.278   40.512  191.084
  504.454    3.369    0.365    0.271   40.281  191.095
  504.704    3.322    0.370    0.266   39.873  191.105
  504.954    3.287    0.376    0.264   39.643  190.916
  505.204    3.265    0.381    0.263   39.767  190.626
  505.454    3.243    0.380    0.262   40.497  190.641
  505.704    3.245    0.375    0.265   41.737  190.651
  505.954    3.270    0.360    0.262   43.402  193.874
  506.204    3.296    0.349    0.262   46.135  197.397
  506.454    3.321    0.346    0.261   47.446  199.815
  506.704    3.353    0.349    0.262   46.386  200.027
  506.954    3.425    0.348    0.271   43.697  197.067
  507.204    3.533    0.343    0.266   44.445  196.240
  507.454    3.746    0.335    0.266   48.006  196.251
  507.704    3.994    0.316    0.263   51.746  196.865
  507.954    4.297    0.297    0.250   55.664  197.277
  508.204    4.630    0.282    0.231   61.655  197.287
  508.454    4.855    0.280    0.208   75.885  197.133
  508.704    4.748    0.313    0.163   87.743  196.310
  508.954    4.445    0.382    0.172   98.415  196.321
  509.204    4.234    0.414    0.148  102.334  196.332
  509.454    4.146    0.414    0.127  103.051  196.544
  509.704    4.207    0.396    0.121  102.406  196.856
  509.954    4.550    0.387    0.121  100.172  196.869
  510.204    5.030    0.392    0.132   98.450  196.880
  510.454    5.608    0.396    0.116   96.324  197.695
  510.704    6.321    0.382    0.126   90.642  198.207
  510.954    7.326    0.361    0.142   85.198  198.418
  511.204    8.766    0.344    0.167   82.005  198.330
  511.454   10.789    0.333    0.222   81.449  197.860
  511.704   12.024    0.330    0.235   82.196  197.453
  511.954   11.941    0.325    0.231   83.862  196.661
  512.204   11.278    0.319    0.219   84.816  196.471
  512.454   10.447    0.311    0.205   86.482  196.282
  512.704    9.628    0.303    0.197   90.101  196.193
  512.954    8.651    0.300    0.194   97.389  197.426
  513.204    7.847    0.310    0.185  100.606  199.528
  513.454    7.293    0.322    0.177  100.614  202.348
  513.704    6.973    0.347    0.168  102.576  203.965
  513.954    6.877    0.378    0.166  103.175  204.780
  514.204    7.052    0.397    0.172  100.517  205.091
  514.454    7.923    0.367    0.172   91.065  205.020
  514.704    9.623    0.324    0.142   75.763  204.615
  514.954   12.580    0.224    0.091   67.235  203.422
  515.204   16.311    0.167    0.032   65.640  202.830
  515.454   23.482    0.156    0.009   67.424  202.640
  515.704   37.146    0.181    0.025   69.800  202.652
  515.954   32.636    0.226    0.042   71.103  202.499
  516.204   23.641    0.260    0.062   72.837  201.674
  516.454   20.381    0.292    0.101   79.242  199.278
  516.704   17.490    0.314    0.126   86.360  198.686
  516.954   14.944    0.325    0.139   91.820  199.498
  517.204   12.722    0.333    0.147   95.321  201.314
  517.454   10.468    0.356    0.157   99.044  204.489
