~VERSION INFORMATION
 VERS.                 2.0:   CWLS LOG ASCII STANDARD -VERSION 2.0
 WRAP.                  NO:   ONE LINE PER DEPTH STEP
~WELL INFORMATION BLOCK
#MNEM.UNIT           DATA                    DESCRIPTION OF MNEMONIC
#---------    -------------------            -------------------------------
# Generated from Intellog Unique Number	CW_76_78/WELL/993
WELL.         GULF POC DROWNED 11-03         : Well_name    - WELL
LOC .         00/11-03-077-21W4/0            : Location     - LOCATION
UWI .         00/11-03-077-21W4/0            : Uwi          - UNIQUE WELL ID
ENTR.         os                             : Entered      - ENTERED BY
SRVC.         SCHLUMBERGER                   : Scn          - SERVICE COMPANY
DATE.         FEB 1978                       : Date         - LOG DATE
STRT.M        417.576                        : top_depth    - START DEPTH
STOP.M        609.576                        : bot_depth    - STOP DEPTH
STEP.M        0.25                           : increment    - STEP LENGTH
 NULL. -999.2500:NULL Value
~CURVE INFORMATION BLOCK
#MNEM UNIT       ERCB CURVE CODE    CURVE DESCRIPTION
#-----------   ------------------   ----------------------------------
DEPT.M        00 001 00 00         : DEPTH        - DEPTH
ILD .OHMM     00 120 00 00         : RESD         - DEEP RESISTIVITY (DIL)
NPHI.V/V      00 330 00 00         : PHIN         - NEUTRON POROSITY (SANDSTONE)
DPHI.V/V      00 890 00 00         : PHID         - DENSITY POROSITY (SANDSTONE)
GR  .API      00 310 00 00         : GR           - GAMMA RAY
CALI.MM       00 280 01 00         : CAL          - CALIPER
~PARAMETER INFORMATION
#MNEM.UNIT           DATA             DESCRIPTION OF MNEMONIC
#---------         -----------     ------------------------------
GL  .M        745.541              : gl           - GROUND LEVEL ELEVATION
EREF.M        749.503              : kb           - ELEVATION OF DEPTH REFERENCE
DATM.M        749.503              : datum        - DATUM ELEVATION
TDD .M        622.706              : tdd          - TOTAL DEPTH DRILLER
RUN .         ONE                  : Run          - RUN NUMBER
ENG .         GUNN                 : Engineer     - RECORDING ENGINEER
WIT .         ROZENHART            : Witness      - WITNESSED BY
BASE.         EDMONTON             : Branch       - HOME BASE OF LOGGING UNIT
MUD .         GEL CHEM             : Mud_type     - MUD TYPE
MATR.         SANDSTONE            : Logunit      - NEUTRON MATRIX
TMAX.C        26.1111              : BHT          - MAXIMUM RECORDED TEMPERATURE
BHTD.M        623.011              : BHTDEP       - MAXIMUM RECORDED TEMPERATURE
RMT .C        20                   : MDTP         - TEMPERATURE OF MUD
MUDD.KG/M     1116                 : MWT          - MUD DENSITY
NEUT.         1                    : NEUTRON      - NEUTRON TYPE
RESI.         0                    : RESIST       - RESISTIVITY TYPE
RM  .OHMM     5.37                 : RM           - RESISTIVITY OF MUD
RMC .OHMM     0.25                 : RMC          - RESISTIVITY OF MUD CAKE
RMF .OHMM     0.25                 : RMF          - RESISTIVITY OF MUD FILTRATE
SUFT.C        4.5                  : SUFT         - SURFACE TEMPERATURE
~A  DEPTH     RESD     PHIN     PHID       GR      CAL
# ...
  527.076    4.551    0.477    0.198   60.168  151.921
  527.326    4.761    0.459    0.230   58.548  150.921
  527.576    5.028    0.469    0.238   58.328  150.852
  527.826    5.755    0.456    0.268   56.534  152.120
  528.076    6.122    0.431    0.259   56.737  154.001
  528.326    7.058    0.412    0.214   56.636  156.296
  528.576    8.541    0.335    0.079   55.323  157.466
  528.826   10.630    0.262    0.005   50.313  156.687
  529.076   13.057    0.248    0.026   53.669  154.670
  529.326   13.814    0.286    0.055   59.631  153.373
  529.576   11.949    0.328    0.082   65.835  153.809
  529.826    9.019    0.381    0.106   68.646  154.774
  530.076    7.713    0.459    0.168   69.998  155.322
  530.326    6.797    0.474    0.196   66.991  156.182
  530.576    6.218    0.379    0.174   68.587  158.066
  530.826    5.904    0.429    0.190   72.975  158.203
  531.076    5.744    0.454    0.210   71.659  156.291
  531.326    5.567    0.459    0.191   69.870  152.527
  531.576    5.345    0.453    0.216   70.129  150.713
  531.826    5.248    0.461    0.213   71.365  150.956
  532.076    5.212    0.473    0.182   72.109  153.865
  532.326    5.214    0.480    0.192   71.891  156.472
  532.576    5.206    0.478    0.204   70.337  156.300
  532.826    5.199    0.484    0.202   69.205  156.237
  533.076    5.172    0.491    0.191   69.591  156.782
  533.326    5.165    0.489    0.176   68.586  156.205
  533.576    5.177    0.478    0.186   68.360  156.657
  533.826    5.179    0.464    0.206   70.142  157.306
  534.076    5.162    0.470    0.218   71.009  157.650
  534.326    5.155    0.479    0.199   71.034  157.999
  534.576    5.147    0.464    0.189   71.294  157.832
  534.826    5.159    0.459    0.198   69.258  157.148
  535.076    5.171    0.448    0.197   67.762  156.868
  535.326    5.212    0.462    0.209   68.934  156.708
  535.576    5.224    0.470    0.206   67.259  157.870
  535.826    5.227    0.480    0.197   66.797  159.143
  536.076    5.229    0.466    0.184   67.849  159.480
  536.326    5.231    0.474    0.185   69.022  158.388
  536.576    5.262    0.469    0.199   68.803  157.708
  536.826    5.364    0.455    0.187   66.518  157.850
  537.076    5.477    0.428    0.167   60.238  157.779
  537.326    5.583    0.416    0.166   64.869  156.381
  537.576    5.596    0.428    0.153   66.947  155.286
  537.826    5.556    0.436    0.210   65.878  155.017
  538.076    5.416    0.445    0.195   66.145  155.767
  538.326    5.298    0.460    0.202   67.861  156.830
  538.576    5.222    0.456    0.223   71.154  156.870
  538.826    5.175    0.447    0.211   73.059  156.298
  539.076    5.130    0.450    0.193   73.079  156.017
  539.326    5.113    0.468    0.186   71.583  156.054
  539.576    5.115    0.454    0.206   68.091  156.707
  539.826    5.223    0.451    0.196   67.990  157.676
  540.076    5.537    0.460    0.174   65.406  158.225
  540.326    6.002    0.452    0.126   59.608  157.431
  540.576    6.458    0.362    0.067   49.447  156.855
  540.826    6.923    0.263    0.042   54.864  157.093
  541.076    7.109    0.323    0.056   65.672  157.752
  541.326    6.994    0.367    0.138   75.212  158.404
  541.576    6.470    0.419    0.178   74.748  158.432
  541.826    6.074    0.433    0.197   70.769  157.855
  542.076    5.383    0.441    0.214   71.036  157.789
  542.326    5.179    0.434    0.202   69.601  158.237
  542.576    5.171    0.436    0.185   70.348  158.989
  542.826    5.232    0.436    0.193   69.823  159.027
  543.076    5.313    0.447    0.193   71.481  159.267
  543.326    5.385    0.448    0.201   69.321  158.185
  543.576    5.448    0.436    0.190   70.075  158.317
  543.826    5.501    0.436    0.177   69.368  158.771
  544.076    5.576    0.436    0.176   68.052  159.212
  544.326    5.578    0.420    0.186   69.711  159.146
  544.576    5.437    0.428    0.184   71.070  158.973
  544.826    5.459    0.430    0.190   73.210  158.291
  545.076    5.617    0.419    0.187   76.503  157.307
  545.326    5.704    0.423    0.197   77.918  157.750
  545.576    5.685    0.433    0.201   80.002  159.430
  545.826    5.593    0.442    0.205   81.478  161.215
  546.076    5.451    0.479    0.188   76.713  162.067
  546.326    5.243    0.470    0.173   75.946  161.593
  546.576    4.735    0.455    0.173   75.723  161.425
  546.826    4.538    0.455    0.192   75.199  160.434
  547.076    4.540    0.463    0.182   75.949  159.962
  547.326    4.636    0.452    0.177   76.153  157.837
  547.576    4.814    0.430    0.195   71.263  155.206
  547.826    5.093    0.419    0.188   67.769  156.480
  548.076    5.689    0.412    0.187   68.523  157.440
  548.326    6.075    0.391    0.171   69.393  156.959
  548.576    6.067    0.358    0.145   69.713  157.614
  548.826    5.923    0.395    0.129   69.917  159.508
  549.076    5.709    0.402    0.155   67.878  160.452
  549.326    5.885    0.369    0.180   65.777  156.689
  549.576    5.987    0.389    0.162   68.102  155.396
  549.826    5.890    0.448    0.191   71.700  155.844
  550.076    5.687    0.468    0.234   71.418  155.269
  550.326    5.451    0.520    0.250   62.592  154.166
  550.576    5.253    0.537    0.268   58.797  155.234
  550.826    5.120    0.517    0.283   58.213  155.064
  551.076    4.972    0.497    0.280   55.992  155.309
  551.326    5.011    0.489    0.278   54.374  155.958
  551.576    5.117    0.493    0.274   56.277  157.024
  551.826    5.235    0.499    0.269   58.236  156.337
  552.076    5.367    0.499    0.254   56.925  154.939
  552.326    5.389    0.434    0.226   57.011  155.384
  552.576    5.361    0.386    0.185   59.398  156.548
  552.826    5.235    0.425    0.177   61.537  157.716
  553.076    5.092    0.457    0.227   60.890  156.624
  553.326    4.835    0.463    0.262   59.637  156.984
  553.576    4.465    0.484    0.252   61.481  157.524
  553.826    4.343    0.485    0.253   62.047  157.861
  554.076    4.296    0.482    0.266   60.430  156.672
  554.326    4.396    0.489    0.263   57.541  156.304
  554.576    4.430    0.475    0.254   58.717  156.535
  554.826    4.432    0.460    0.251   60.858  156.467
  555.076    4.360    0.458    0.257   59.001  156.508
  555.326    4.282    0.467    0.253   57.022  156.752
  555.576    4.260    0.469    0.258   56.381  156.585
  555.826    4.278    0.456    0.261   58.033  156.622
  556.076    4.303    0.451    0.243   58.785  156.859
  556.326    4.346    0.440    0.245   57.714  156.792
  556.576    4.429    0.437    0.243   57.735  156.724
  556.826    4.608    0.425    0.212   58.544  155.947
  557.076    4.768    0.422    0.198   57.356  155.973
  557.326    4.770    0.436    0.204   58.771  156.009
  557.576    4.745    0.455    0.220   59.761  155.844
  557.826    4.695    0.462    0.224   61.118  155.885
  558.076    4.697    0.454    0.231   60.597  156.129
  558.326    4.726    0.450    0.220   61.643  156.258
  558.576    4.807    0.460    0.224   61.179  156.705
  558.826    4.946    0.459    0.223   58.898  157.154
  559.076    5.361    0.413    0.205   52.618  157.392
  559.326    6.660    0.366    0.168   43.245  156.410
  559.576    7.480    0.196    0.087   37.204  156.551
  559.826   10.105    0.208    0.036   37.650  156.683
  560.076   11.781    0.229    0.047   41.312  156.103
  560.326   13.890    0.271    0.062   45.756  155.933
  560.576   13.562    0.323    0.090   55.171  156.696
  560.826   10.488    0.382    0.179   58.649  156.834
  561.076    8.388    0.395    0.193   59.699  156.969
  561.326    7.644    0.378    0.179   58.386  157.316
  561.576    7.381    0.340    0.133   57.196  157.657
  561.826    7.207    0.393    0.133   61.281  158.104
  562.076    6.933    0.428    0.191   64.636  157.832
  562.326    6.461    0.465    0.227   63.506  157.568
  562.576    5.726    0.468    0.233   61.042  157.493
  562.826    5.457    0.448    0.242   62.820  157.021
  563.076    5.399    0.448    0.255   64.053  156.751
  563.326    5.392    0.441    0.253   64.621  156.479
