~VERSION INFORMATION
 VERS.                 2.0:   CWLS LOG ASCII STANDARD -VERSION 2.0
 WRAP.                  NO:   ONE LINE PER DEPTH STEP
~WELL INFORMATION BLOCK
#MNEM.UNIT           DATA                    DESCRIPTION OF MNEMONIC
#---------    -------------------            -------------------------------
# Generated from Intellog Unique Number	nealta/WELL/2359
WELL.         HB MARTEN HILLS 10-34          : Well_name    - WELL              
LOC .         10-34-074-01W5                 : Location     - LOCATION          
UWI .         00/10-34-074-01W5/0            : Uwi          - UNIQUE WELL ID    
ENTR.         JAYE                           : Entered      - ENTERED BY        
SRVC.         SCHLUMBERGER                   : Scn          - SERVICE COMPANY   
DATE.         27 MAR 74                      : Date         - LOG DATE          
STRT.M        454.152                        : top_depth    - START DEPTH       
STOP.M        655.402                        : bot_depth    - STOP DEPTH        
STEP.M        0.25                           : increment    - STEP LENGTH       
NULL.         -999.250                       : null         - NULL VALUE       
~CURVE INFORMATION BLOCK
#MNEM UNIT       ERCB CURVE CODE    CURVE DESCRIPTION
#-----------   ------------------   ----------------------------------
DEPT.M        00 001 00 00         : DEPTH        - DEPTH                       
DPHI.V/V      00 890 00 00         : PHID         - DENSITY POROSITY (SANDSTONE)
CALI.MM       00 280 01 00         : CAL          - CALIPER                     
GR  .API      00 310 00 00         : GR           - GAMMA RAY                   
ILD .OHMM     00 120 00 00         : RESD         - DEEP RESISTIVITY (DIL)      
NPHI.V/V      00 330 00 00         : PHIN         - NEUTRON POROSITY (SANDSTONE)
~PARAMETER INFORMATION       
#MNEM.UNIT           DATA             DESCRIPTION OF MNEMONIC
#---------         -----------     ------------------------------
GL  .M        721.766              : gl           - GROUND LEVEL ELEVATION      
EREF.M        725.119              : kb           - ELEVATION OF DEPTH REFERENCE
DATM.M        721.766              : datum        - DATUM ELEVATION             
TDD .M        685.8                : tdd          - TOTAL DEPTH DRILLER         
RUN .         ONE                  : Run          - RUN NUMBER                  
ENG .         SIROIS/SMILEY        : Engineer     - RECORDING ENGINEER          
WIT .         FILLO/JASTER         : Witness      - WITNESSED BY                
BASE.         EDM                  : Branch       - HOME BASE OF LOGGING UNIT   
MUD .         GEL CHEM             : Mud_type     - MUD TYPE                    
MATR.         SANDSTONE            : Logunit      - NEUTRON MATRIX              
TMAX.C        26.6667              : BHT          - MAXIMUM RECORDED TEMPERATURE
BHTD.M        685.8                : BHTDEP       - MAXIMUM RECORDED TEMPERATURE
RMT .C        -12.3889             : MDTP         - TEMPERATURE OF MUD          
MUDD.KG/M     7800                 : MWT          - MUD DENSITY                 
NEUT.         1                    : NEUTRON      - NEUTRON TYPE                
RESI.         0                    : RESIST       - RESISTIVITY TYPE            
RM  .OHMM     4.1                  : RM           - RESISTIVITY OF MUD          
RMC .OHMM     2.5                  : RMC          - RESISTIVITY OF MUD CAKE     
RMF .OHMM     2.13                 : RMF          - RESISTIVITY OF MUD FILTRATE 
SUFT.C        -17.7778             : SUFT         - SURFACE TEMPERATURE         
~A  DEPTH     PHID      CAL       GR     RESD     PHIN
# ...
  490.652    0.257  213.902   71.898    4.936    0.479
  490.902    0.220  213.755   71.445    5.346    0.456
  491.152    0.172  213.503   71.484    4.776    0.346
  491.402    0.141  212.940   71.639    3.962    0.325
  491.652    0.116  212.484   72.228    3.640    0.319
  491.902    0.154  212.548   74.417    3.374    0.385
  492.152    0.193  212.925   79.550    3.216    0.405
  492.402    0.220  213.296   85.053    3.234    0.518
  492.652    0.250  213.985   79.257    3.332    0.493
  492.902    0.220  216.539   75.483    3.477    0.468
  493.152    0.192  219.207   73.800    3.589    0.456
  493.402    0.186  219.786   77.093    3.663    0.509
  493.652    0.210  214.127   79.280    3.697    0.535
  493.902    0.205  208.779   76.614    3.718    0.521
  494.152    0.202  205.410   71.551    3.698    0.496
  494.402    0.211  203.608   68.088    3.678    0.477
  494.652    0.219  203.038   68.372    3.624    0.468
  494.902    0.231  203.209   66.994    3.598    0.461
  495.152    0.242  202.859   62.915    3.565    0.453
  495.402    0.254  202.824   58.714    3.507    0.454
  495.652    0.264  202.882   56.109    3.482    0.462
  495.902    0.280  202.961   55.223    3.463    0.473
  496.152    0.273  202.903   54.339    3.425    0.485
  496.402    0.259  203.162   54.805    3.406    0.500
  496.652    0.274  203.445   57.054    3.381    0.506
  496.902    0.281  203.702   60.346    3.388    0.517
  497.152    0.291  203.767   60.443    3.389    0.459
  497.402    0.268  204.044   57.661    3.408    0.461
  497.652    0.242  204.312   55.050    3.465    0.495
  497.902    0.256  204.684   51.769    3.583    0.436
  498.152    0.253  204.850   47.261    3.753    0.392
  498.402    0.188  205.841   44.229    4.558    0.336
  498.652    0.168  207.881   44.207    5.180    0.281
  498.902    0.139  208.261   45.594    5.788    0.237
  499.152    0.073  205.936   47.722    5.725    0.301
  499.402    0.097  204.116   51.191    5.317    0.333
  499.652    0.107  202.835   55.961    4.629    0.454
  499.902    0.247  202.272   58.207    4.189    0.477
  500.152    0.255  202.647   58.551    3.806    0.495
  500.402    0.264  203.130   57.483    3.574    0.491
  500.652    0.272  203.489   59.059    3.561    0.503
  500.902    0.276  203.350   59.951    3.621    0.525
  501.152    0.279  203.206   60.542    3.696    0.513
  501.402    0.270  203.278   60.393    3.738    0.530
  501.652    0.276  203.115   60.307    3.787    0.513
  501.902    0.271  203.393   60.962    3.887    0.515
  502.152    0.240  203.870   61.856    4.041    0.511
  502.402    0.209  205.283   62.077    4.352    0.476
  502.652    0.160  207.009   59.904    4.964    0.411
  502.902    0.113  208.734   56.007    5.703    0.350
  503.152    0.036  210.459   52.665    6.433    0.215
  503.402    0.051  212.395   52.640    6.738    0.236
  503.652    0.125  208.503   53.606    6.627    0.269
  503.902    0.231  205.140   57.629    4.967    0.366
  504.152    0.250  203.950   60.921    4.053    0.423
  504.402    0.260  203.280   62.562    3.541    0.462
  504.652    0.246  201.890   63.577    3.193    0.501
  504.902    0.262  201.540   65.700    2.858    0.510
  505.152    0.283  201.700   69.547    2.749    0.508
  505.402    0.272  201.350   70.318    2.770    0.525
  505.652    0.269  201.096   69.865    2.781    0.546
  505.902    0.272  200.651   68.062    2.740    0.528
  506.152    0.257  199.986   66.191    2.651    0.519
  506.402    0.243  199.532   69.115    2.531    0.517
  506.652    0.235  199.578   74.867    2.471    0.520
  506.902    0.222  199.339   85.038    2.417    0.532
  507.152    0.237  199.394   86.487    2.386    0.523
  507.402    0.239  199.657   82.101    2.374    0.541
  507.652    0.230  200.142   80.910    2.396    0.590
  507.902    0.240  201.245   81.745    2.505    0.577
  508.152    0.238  202.861   84.298    2.614    0.555
  508.402    0.212  205.212   90.172    2.723    0.536
  508.652    0.198  210.062   94.325    2.895    0.516
  508.902    0.176  213.449   92.585    3.060    0.502
  509.152    0.185  209.049   90.161    3.241    0.486
  509.402    0.197  207.232   86.509    3.465    0.461
  509.652    0.198  208.436   86.180    3.643    0.451
  509.902    0.202  211.203   90.701    3.773    0.471
  510.152    0.181  213.449   94.978    3.880    0.465
  510.402    0.169  212.691   99.127    3.975    0.486
  510.652    0.172  210.561   95.481    4.057    0.514
  510.902    0.197  207.196   91.276    4.134    0.516
  511.152    0.217  204.659   83.819    4.172    0.505
  511.402    0.235  203.158   77.161    4.243    0.498
  511.652    0.238  202.181   71.790    4.236    0.495
  511.902    0.248  201.721   69.739    4.182    0.503
  512.152    0.256  201.673   72.664    4.090    0.490
  512.402    0.230  201.637   76.697    3.949    0.476
  512.652    0.215  201.395   79.680    3.806    0.475
  512.902    0.220  201.036   82.971    3.675    0.529
  513.152    0.227  200.782   82.332    3.516    0.516
  513.402    0.234  200.652   78.007    3.364    0.504
  513.652    0.234  200.499   75.895    3.272    0.518
  513.902    0.247  200.556   77.159    3.189    0.517
  514.152    0.246  200.508   77.999    3.160    0.508
  514.402    0.241  200.576   76.008    3.195    0.484
  514.652    0.258  200.637   71.617    3.268    0.467
  514.902    0.281  201.322   68.153    3.397    0.496
  515.152    0.314  203.264   67.946    3.659    0.524
  515.402    0.365  205.090   69.762    3.804    0.546
  515.652    0.438  206.916   70.536    3.854    0.568
  515.902    0.368  209.579   71.312    3.927    0.730
  516.152    0.345  212.759   75.465    3.986    0.629
  516.402    0.366  216.987   78.081    4.053    0.754
  516.652    0.413  218.089   70.130    4.106    0.792
  516.902    0.428  209.725   63.225    4.130    0.815
  517.152    0.511  206.354   55.525    4.145    0.646
  517.402    0.477  209.954   60.842    4.108    0.606
  517.652    0.327  214.173   68.680    4.085    0.598
  517.902    0.210  215.282   75.598    4.056    0.600
  518.152    0.199  213.987   79.873    3.989    0.602
  518.402    0.182  213.432   80.462    3.859    0.587
  518.652    0.222  214.005   81.611    3.733    0.571
  518.902    0.207  215.215   83.853    3.598    0.557
  519.152    0.188  216.737   82.661    3.410    0.569
  519.402    0.155  218.462   86.815    3.233    0.561
  519.652    0.159  220.400   90.537    3.127    0.564
  519.902    0.176  220.150   92.539    2.992    0.567
  520.152    0.187  217.294   88.032    3.009    0.548
  520.402    0.179  212.049   87.823    3.294    0.512
  520.652    0.162  208.891   86.383    3.688    0.496
  520.902    0.157  208.121   82.001    4.054    0.464
  521.152    0.147  209.336   77.614    4.615    0.442
  521.402    0.130  210.539   73.409    5.564    0.322
  521.652    0.063  211.424   70.131    6.058    0.327
  521.902    0.099  210.659   68.568    5.981    0.352
  522.152    0.097  209.367   69.651    5.797    0.351
  522.402    0.098  208.090   73.007    5.424    0.343
  522.652    0.144  207.202   76.114    4.846    0.465
  522.902    0.182  205.912   79.221    4.234    0.514
  523.152    0.207  205.879   81.714    3.825    0.492
  523.402    0.207  208.023   85.191    3.481    0.476
  523.652    0.196  210.991   88.668    3.367    0.478
  523.902    0.181  213.446   91.715    3.527    0.494
  524.152    0.167  213.087   95.313    3.674    0.513
  524.402    0.153  210.967   97.873    3.841    0.541
  524.652    0.145  209.484   95.884    4.001    0.493
  524.902    0.156  209.429   92.847    4.277    0.467
  525.152    0.135  210.739   88.951    4.480    0.389
  525.402    0.121  214.338   81.861    4.598    0.373
  525.652    0.108  216.068   79.073    4.424    0.383
  525.902    0.089  214.463   83.715    4.232    0.467
  526.152    0.155  213.283   89.651    4.041    0.455
  526.402    0.143  213.341   90.671    3.917    0.472
  526.652    0.139  214.231   90.462    3.831    0.512
  526.902    0.141  215.436   91.112    3.761    0.514
