~VERSION INFORMATION
 VERS.                 2.0:   CWLS LOG ASCII STANDARD -VERSION 2.0
 WRAP.                  NO:   ONE LINE PER DEPTH STEP
~WELL INFORMATION BLOCK
#MNEM.UNIT           DATA                    DESCRIPTION OF MNEMONIC
#---------    -------------------            -------------------------------
# Generated from Intellog Unique Number	CW_73_75/WELL/1054
WELL.         HOME UNIT MARTIN HILLS 16-21   : Well_name    - WELL
LOC .         00/16-21-074-24W4/0            : Location     - LOCATION
UWI .         00/16-21-074-24W4/0            : Uwi          - UNIQUE WELL ID
ENTR.         JAYE                           : Entered      - ENTERED BY
SRVC.         SCHLUMBERGER                   : Scn          - SERVICE COMPANY
DATE.         23 NOV 77                      : Date         - LOG DATE
STRT.M        374.904                        : top_depth    - START DEPTH
STOP.M        585.154                        : bot_depth    - STOP DEPTH
STEP.M        0.25                           : increment    - STEP LENGTH
 NULL. -999.2500:NULL Value
~CURVE INFORMATION BLOCK
#MNEM UNIT       ERCB CURVE CODE    CURVE DESCRIPTION
#-----------   ------------------   ----------------------------------
DEPT.M        00 001 00 00         : DEPTH        - DEPTH
ILD .OHMM     00 120 00 00         : RESD         - DEEP RESISTIVITY (DIL)
NPHI.V/V      00 330 00 00         : PHIN         - NEUTRON POROSITY (SANDSTONE)
DPHI.V/V      00 890 00 00         : PHID         - DENSITY POROSITY (SANDSTONE)
CALI.MM       00 280 01 00         : CAL          - CALIPER
GR  .API      00 310 00 00         : GR           - GAMMA RAY
~PARAMETER INFORMATION
#MNEM.UNIT           DATA             DESCRIPTION OF MNEMONIC
#---------         -----------     ------------------------------
GL  .M        649.224              : gl           - GROUND LEVEL ELEVATION
EREF.M        653.796              : kb           - ELEVATION OF DEPTH REFERENCE
DATM.M        649.224              : datum        - DATUM ELEVATION
TDD .M        585.216              : tdd          - TOTAL DEPTH DRILLER
RUN .         ONE                  : Run          - RUN NUMBER
BASE.         EDM                  : Branch       - HOME BASE OF LOGGING UNIT
MATR.         SANDSTONE            : Logunit      - NEUTRON MATRIX
TMAX.C        28.8889              : BHT          - MAXIMUM RECORDED TEMPERATURE
BHTD.M        585.826              : BHTDEP       - MAXIMUM RECORDED TEMPERATURE
RMT .C        13.8889              : MDTP         - TEMPERATURE OF MUD
MUDD.KG/M     0                    : MWT          - MUD DENSITY
NEUT.         1                    : NEUTRON      - NEUTRON TYPE
RESI.         0                    : RESIST       - RESISTIVITY TYPE
RM  .OHMM     6.22                 : RM           - RESISTIVITY OF MUD
RMC .OHMM     0                    : RMC          - RESISTIVITY OF MUD CAKE
RMF .OHMM     6.72                 : RMF          - RESISTIVITY OF MUD FILTRATE
SUFT.C        -17.7778             : SUFT         - SURFACE TEMPERATURE
~A  DEPTH     RESD     PHIN     PHID      CAL       GR
# ...
  411.404   13.486    0.421    0.309  172.954   53.110
  411.654   12.188    0.428    0.316  173.640   53.326
  411.904   11.076    0.430    0.322  174.109   53.293
  412.154    9.824    0.427    0.300  173.632   53.382
  412.404    8.979    0.424    0.288  173.255   53.785
  412.654    7.816    0.425    0.295  172.881   54.807
  412.904    6.855    0.427    0.287  172.620   56.081
  413.154    6.137    0.424    0.296  172.458   56.982
  413.404    5.485    0.423    0.301  172.080   57.321
  413.654    4.947    0.428    0.278  171.912   58.785
  413.904    4.573    0.448    0.238  172.174   61.427
  414.154    4.413    0.462    0.225  172.965   69.240
  414.404    4.259    0.452    0.258  173.641   77.239
  414.654    4.267    0.420    0.268  170.945   79.136
  414.904    4.275    0.386    0.244  169.203   75.802
  415.154    4.196    0.418    0.265  171.256   74.400
  415.404    4.080    0.428    0.279  171.618   72.808
  415.654    3.967    0.413    0.297  171.033   68.288
  415.904    3.871    0.408    0.294  172.979   63.150
  416.154    3.982    0.423    0.276  174.929   64.173
  416.404    4.260    0.419    0.229  175.296   66.009
  416.654    4.840    0.334    0.192  175.128   66.288
  416.904    5.266    0.316    0.104  177.074   62.640
  417.154    4.904    0.338    0.137  179.552   62.422
  417.404    4.309    0.445    0.185  179.913   67.556
  417.654    3.681    0.472    0.228  175.637   75.429
  417.904    2.995    0.498    0.256  174.210   84.488
  418.154    2.642    0.537    0.251  176.053   91.118
  418.404    2.410    0.519    0.257  181.372   92.206
  418.654    2.622    0.498    0.267  186.376   88.871
  418.904    2.880    0.478    0.299  181.678   77.877
  419.154    3.187    0.452    0.300  174.344   66.820
  419.404    3.366    0.429    0.313  172.389   50.283
  419.654    3.334    0.414    0.315  171.491   46.514
  419.904    3.254    0.418    0.319  171.327   47.229
  420.154    3.254    0.430    0.319  171.268   49.684
  420.404    3.373    0.427    0.285  171.429   57.060
  420.654    3.568    0.426    0.264  171.999   61.510
  420.904    3.697    0.432    0.255  172.897   65.528
  421.154    3.846    0.432    0.236  174.312   66.613
  421.404    4.023    0.442    0.259  175.938   66.703
  421.654    4.224    0.455    0.280  173.666   64.925
  421.904    4.461    0.444    0.264  173.930   59.535
  422.154    4.746    0.430    0.262  175.768   53.523
  422.404    4.863    0.408    0.260  174.448   54.362
  422.654    4.909    0.399    0.245  171.328   57.753
  422.904    4.909    0.404    0.231  170.324   65.504
  423.154    4.974    0.412    0.207  171.114   71.572
  423.404    4.956    0.416    0.208  172.106   77.268
  423.654    4.984    0.424    0.238  175.426   80.724
  423.904    5.060    0.425    0.225  175.157   80.874
  424.154    5.136    0.435    0.217  172.463   80.280
  424.404    5.323    0.448    0.199  171.562   80.620
  424.654    5.527    0.446    0.195  173.090   78.907
  424.904    5.847    0.399    0.189  174.400   75.508
  425.154    6.555    0.300    0.147  172.866   63.330
  425.404    7.517    0.271    0.119  176.606   58.999
  425.654    8.883    0.290    0.141  175.915   60.712
  425.904    9.206    0.326    0.163  174.490   65.597
  426.154    8.493    0.377    0.185  174.113   73.596
  426.404    7.393    0.422    0.200  172.474   80.227
  426.654    6.141    0.414    0.213  171.680   82.439
  426.904    5.325    0.415    0.203  171.727   82.903
  427.154    4.876    0.424    0.201  172.515   83.799
  427.404    4.584    0.436    0.173  174.566   87.377
  427.654    4.474    0.464    0.180  177.567   89.709
  427.904    4.407    0.474    0.255  181.625   82.762
  428.154    4.358    0.468    0.292  183.358   75.007
  428.404    4.367    0.448    0.297  174.970   64.948
  428.654    4.441    0.431    0.271  169.746   64.233
  428.904    4.628    0.428    0.271  169.588   64.692
  429.154    4.906    0.434    0.266  170.267   64.037
  429.404    5.268    0.427    0.262  170.946   63.505
  429.654    5.500    0.422    0.272  171.520   64.094
  429.904    5.647    0.430    0.246  175.050   64.183
  430.154    5.647    0.436    0.251  176.152   66.954
  430.404    5.563    0.444    0.262  173.570   72.772
  430.654    5.379    0.455    0.254  176.669   74.358
  430.904    5.191    0.457    0.251  182.095   73.266
  431.154    5.114    0.449    0.273  181.406   72.047
  431.404    5.201    0.439    0.282  178.290   71.768
  431.654    5.320    0.431    0.280  180.034   71.421
  431.904    5.575    0.433    0.281  180.397   69.517
  432.154    5.876    0.428    0.263  179.911   68.925
  432.404    5.988    0.417    0.245  179.855   70.823
  432.654    5.768    0.425    0.242  181.067   73.154
  432.904    5.535    0.439    0.224  180.483   75.175
  433.154    5.272    0.452    0.212  176.835   76.700
  433.404    5.106    0.460    0.211  178.359   79.404
  433.654    5.040    0.451    0.209  180.417   80.553
  433.904    5.078    0.439    0.221  182.045   80.584
  434.154    5.107    0.460    0.236  183.251   80.676
  434.404    5.079    0.453    0.229  181.930   80.577
  434.654    5.003    0.449    0.202  178.814   80.916
  434.904    4.975    0.446    0.207  180.762   82.129
  435.154    4.911    0.438    0.203  182.285   83.280
  435.404    4.874    0.429    0.188  182.962   83.744
  435.654    4.911    0.433    0.184  183.227   84.081
  435.904    4.921    0.436    0.219  183.168   84.298
  436.154    4.977    0.429    0.222  182.793   84.949
  436.404    5.024    0.417    0.205  182.635   85.974
  436.654    5.043    0.421    0.184  183.310   86.626
  436.904    5.024    0.431    0.191  184.732   86.468
  437.154    5.043    0.435    0.200  184.357   84.130
  437.404    5.043    0.442    0.217  183.881   83.846
  437.654    5.044    0.439    0.213  183.927   85.680
  437.904    5.025    0.420    0.208  184.186   87.701
  438.154    5.006    0.413    0.193  184.341   87.483
  438.404    4.997    0.424    0.182  184.180   86.388
  438.654    4.923    0.432    0.188  184.436   87.662
  438.904    4.923    0.427    0.197  185.539   89.747
  439.154    4.887    0.415    0.188  186.428   92.203
  439.404    4.832    0.438    0.179  186.584   93.726
  439.654    4.778    0.468    0.198  188.850   94.378
  439.904    4.887    0.474    0.229  188.155   92.350
  440.154    5.439    0.429    0.208  185.884   84.283
  440.404    5.819    0.377    0.189  184.351   75.468
  440.654    6.261    0.373    0.172  182.712   74.874
  440.904    6.203    0.383    0.182  175.166   78.514
  441.154    5.908    0.405    0.175  173.633   81.345
  441.404    5.766    0.424    0.174  177.058   82.246
  441.654    5.543    0.423    0.193  178.162   80.658
  441.904    5.390    0.412    0.196  178.843   79.688
  442.154    5.280    0.407    0.186  181.211   79.715
  442.404    5.251    0.405    0.183  182.626   80.370
  442.654    5.281    0.402    0.164  181.095   80.831
  442.904    5.411    0.392    0.170  180.297   81.669
  443.154    5.682    0.390    0.185  181.611   83.380
  443.404    5.735    0.401    0.192  182.611   82.413
  443.654    5.640    0.412    0.196  182.024   86.363
  443.904    5.412    0.412    0.206  181.548   86.892
  444.154    5.252    0.414    0.213  181.806   85.487
  444.404    5.059    0.438    0.206  182.277   83.711
  444.654    4.891    0.444    0.201  182.640   83.051
  444.904    4.783    0.441    0.202  182.692   83.143
  445.154    4.730    0.432    0.201  182.422   82.736
  445.404    4.703    0.430    0.199  182.680   83.200
  445.654    4.651    0.428    0.198  182.413   81.671
  445.904    4.634    0.427    0.193  181.299   82.010
  446.154    4.695    0.444    0.168  180.082   81.790
  446.404    5.137    0.462    0.179  177.283   73.537
  446.654    5.569    0.455    0.186  174.167   70.080
  446.904    6.209    0.441    0.196  171.791   66.431
  447.154    6.923    0.424    0.197  171.313   60.357
  447.404    7.762    0.409    0.215  172.628   57.836
  447.654    8.638    0.425    0.234  174.360   58.983
