~VERSION INFORMATION
 VERS.                 2.0:   CWLS LOG ASCII STANDARD -VERSION 2.0
 WRAP.                  NO:   ONE LINE PER DEPTH STEP
~WELL INFORMATION BLOCK
#MNEM.UNIT           DATA                    DESCRIPTION OF MNEMONIC
#---------    -------------------            -------------------------------
# Generated from Intellog Unique Number	CW_82_90/WELL/901
WELL.         HB ET AL MUSKWA 10-23          : Well_name    - WELL
LOC .         00/10-23-083-03W5/0            : Location     - LOCATION
UWI .         00/10-23-083-03W5/0            : Uwi          - UNIQUE WELL ID
ENTR.         JAYE                           : Entered      - ENTERED BY
SRVC.         WESTERN ATLAS                  : Scn          - SERVICE COMPANY
DATE.         14 MAR 77                      : Date         - LOG DATE
STRT.M        274.32                         : top_depth    - START DEPTH
STOP.M        472.32                         : bot_depth    - STOP DEPTH
STEP.M        0.25                           : increment    - STEP LENGTH
 NULL. -999.2500:NULL Value
~CURVE INFORMATION BLOCK
#MNEM UNIT       ERCB CURVE CODE    CURVE DESCRIPTION
#-----------   ------------------   ----------------------------------
DEPT.M        00 001 00 00         : DEPTH        - DEPTH
CALI.MM       00 280 01 00         : CAL          - CALIPER
GR  .API      00 310 00 00         : GR           - GAMMA RAY
NPHI.V/V      00 330 00 00         : PHIN         - NEUTRON POROSITY (SANDSTONE)
DPHI.V/V      00 890 00 00         : PHID         - DENSITY POROSITY (SANDSTONE)
ILD .OHMM     00 120 00 00         : RESD         - DEEP RESISTIVITY (DLL)
~PARAMETER INFORMATION
#MNEM.UNIT           DATA             DESCRIPTION OF MNEMONIC
#---------         -----------     ------------------------------
GL  .M        624.352              : gl           - GROUND LEVEL ELEVATION
EREF.M        627.522              : kb           - ELEVATION OF DEPTH REFERENCE
DATM.M        624.352              : datum        - DATUM ELEVATION
TDD .M        475.488              : tdd          - TOTAL DEPTH DRILLER
RUN .         ONE                  : Run          - RUN NUMBER
ENG .         GORDON               : Engineer     - RECORDING ENGINEER
WIT .         ROKOSH               : Witness      - WITNESSED BY
BASE.         EDMONTON             : Branch       - HOME BASE OF LOGGING UNIT
MUD .         GEL CHEM             : Mud_type     - MUD TYPE
MATR.         SANDSTONE            : Logunit      - NEUTRON MATRIX
TMAX.C        21.1111              : BHT          - MAXIMUM RECORDED TEMPERATURE
BHTD.M        475.488              : BHTDEP       - MAXIMUM RECORDED TEMPERATURE
RMT .C        18.3333              : MDTP         - TEMPERATURE OF MUD
MUDD.KG/M     9200                 : MWT          - MUD DENSITY
NEUT.         0                    : NEUTRON      - NEUTRON TYPE
RESI.         1                    : RESIST       - RESISTIVITY TYPE
RM  .OHMM     3.2                  : RM           - RESISTIVITY OF MUD
RMC .OHMM     2                    : RMC          - RESISTIVITY OF MUD CAKE
RMF .OHMM     2.2                  : RMF          - RESISTIVITY OF MUD FILTRATE
SUFT.C        -17.7778             : SUFT         - SURFACE TEMPERATURE
~A  DEPTH      CAL       GR     PHIN     PHID     RESD
# ...
  310.820  211.867   98.655    0.395    0.240    3.239
  311.070  209.964   96.445    0.401    0.240    3.473
  311.320  208.685   96.023    0.417    0.239    3.676
  311.570  206.783   97.451    0.408    0.240    3.803
  311.820  206.332   98.692    0.401    0.241    3.930
  312.070  203.388   94.142    0.386    0.240    3.978
  312.320  201.069   90.764    0.376    0.237    4.087
  312.570  201.450   89.293    0.372    0.232    4.238
  312.820  201.841   85.237    0.373    0.228    4.395
  313.070  199.832   81.056    0.372    0.230    4.515
  313.320  196.159   75.148    0.365    0.235    4.621
  313.570  194.250   68.194    0.370    0.243    4.758
  313.820  193.175   61.056    0.382    0.254    4.926
  314.070  192.422   59.094    0.388    0.259    5.031
  314.320  198.009   60.767    0.391    0.259    5.188
  314.570  205.156   61.947    0.388    0.264    5.401
  314.820  202.624   63.005    0.382    0.271    5.487
  315.070  202.074   62.214    0.379    0.270    5.543
  315.320  199.750   61.176    0.394    0.263    5.519
  315.570  196.906   62.109    0.393    0.243    5.305
  315.820  195.220   65.386    0.391    0.239    5.061
  316.070  194.668   69.586    0.389    0.246    4.767
  316.320  193.180   74.280    0.392    0.254    4.400
  316.570  192.734   77.740    0.392    0.249    4.097
  316.820  196.653   83.664    0.397    0.239    3.596
  317.070  202.966   92.794    0.405    0.236    3.116
  317.320  204.911   98.967    0.416    0.236    2.731
  317.570  210.497   99.594    0.428    0.239    2.557
  317.820  212.753   98.370    0.431    0.240    2.527
  318.070  215.213   98.010    0.425    0.241    2.573
  318.320  216.952   99.499    0.395    0.236    2.648
  318.570  219.001   97.721    0.373    0.236    2.834
  318.820  219.180   95.451    0.372    0.238    3.050
  319.070  217.377   93.056    0.366    0.239    3.264
  319.320  214.742   89.431    0.363    0.237    3.492
  319.570  212.629   83.216    0.364    0.236    3.814
  319.820  209.691   80.699    0.369    0.237    4.298
  320.070  208.935   82.435    0.370    0.239    4.747
  320.320  207.133   81.643    0.373    0.240    5.052
  320.570  205.223   81.839    0.375    0.240    5.248
  320.820  204.886   84.066    0.377    0.242    5.402
  321.070  205.892   87.718    0.380    0.244    5.530
  321.320  207.114   88.216    0.382    0.245    5.609
  321.570  205.938   87.853    0.384    0.245    5.646
  321.820  203.192   83.920    0.385    0.246    5.631
  322.070  202.441   81.340    0.385    0.248    5.587
  322.320  201.891   81.042    0.389    0.250    5.531
  322.570  202.061   81.485    0.398    0.249    5.485
  322.820  202.033   80.322    0.402    0.248    5.451
  323.070  202.210   78.298    0.397    0.247    5.387
  323.320  201.863   78.184    0.395    0.250    5.313
  323.570  201.102   77.825    0.395    0.259    5.089
  323.820  200.451   77.465    0.400    0.274    4.819
  324.070  201.347   80.494    0.402    0.272    4.374
  324.320  201.943   85.744    0.407    0.266    3.918
  324.570  202.854   88.710    0.416    0.258    3.530
  324.820  206.879   92.355    0.430    0.251    3.227
  325.070  210.384   95.013    0.449    0.246    3.149
  325.320  209.098   98.105    0.448    0.243    3.182
  325.570  210.109   99.657    0.443    0.243    3.167
  325.820  214.237  100.034    0.432    0.243    3.067
  326.070  217.644   98.689    0.426    0.241    2.862
  326.320  208.043   98.328    0.427    0.243    2.503
  326.570  203.845   99.449    0.478    0.244    2.141
  326.820  207.762  100.813    0.475    0.247    1.513
  327.070  213.980  101.132    0.474    0.250    1.341
  327.320  221.021  100.709    0.463    0.252    1.352
  327.570  222.443  101.704    0.436    0.254    1.477
  327.820  222.308  100.297    0.433    0.257    1.702
  328.070  221.864   96.178    0.428    0.258    2.073
  328.320  220.268   91.196    0.423    0.256    2.530
  328.570  216.595   87.076    0.422    0.253    3.210
  328.820  210.432   81.787    0.409    0.251    3.954
  329.070  203.010   76.866    0.396    0.252    4.981
  329.320  200.276   69.973    0.380    0.262    5.697
  329.570  199.726   57.843    0.380    0.286    6.187
  329.820  198.656   50.519    0.388    0.322    6.299
  330.070  198.203   48.681    0.391    0.322    6.145
  330.320  198.487   51.279    0.388    0.322    6.029
  330.570  199.181   53.259    0.384    0.321    6.035
  330.820  199.462   53.209    0.381    0.319    6.120
  331.070  199.432   53.958    0.379    0.317    6.008
  331.320  199.609   58.157    0.384    0.316    5.856
  331.570  200.202   60.324    0.394    0.314    6.028
  331.820  200.891   62.060    0.406    0.313    6.745
  332.070  201.178   63.547    0.411    0.311    7.324
  332.320  202.184   68.057    0.411    0.309    8.195
  332.570  203.093   67.944    0.407    0.306    9.252
  332.820  203.892   68.815    0.399    0.303   10.841
  333.070  204.486   71.413    0.388    0.298   11.754
  333.320  205.077   72.778    0.383    0.289   11.550
  333.570  205.464   73.342    0.381    0.275   10.483
  333.820  206.156   73.229    0.381    0.256    8.545
  334.070  206.953   72.992    0.378    0.225    6.927
  334.320  206.089   72.449    0.366    0.169    4.878
  334.570  204.287   71.965    0.360    0.157    3.999
  334.820  202.174   71.973    0.357    0.173    3.159
  335.070  200.792   76.482    0.369    0.216    2.589
  335.320  200.768   84.441    0.418    0.228    2.367
  335.570  201.255  109.778    0.435    0.235    2.276
  335.820  202.681  113.424    0.429    0.238    2.274
  336.070  204.937  111.648    0.413    0.239    2.345
  336.320  206.363  108.637    0.413    0.237    2.472
  336.570  207.062  102.915    0.442    0.235    2.876
  336.820  206.091   95.900    0.433    0.234    3.217
  337.070  205.436   94.245    0.411    0.234    3.293
  337.320  205.927   95.734    0.400    0.234    3.236
  337.570  207.976   98.025    0.407    0.235    3.088
  337.820  209.401  100.683    0.421    0.236    2.919
  338.070  210.925  103.836    0.422    0.238    2.765
  338.320  211.829  105.385    0.414    0.241    2.662
  338.570  211.487  104.841    0.409    0.243    2.549
  338.820  210.098  102.016    0.426    0.244    2.468
  339.070  208.928   98.266    0.422    0.245    2.386
  339.320  209.420   93.162    0.414    0.248    2.433
  339.570  209.906   92.248    0.407    0.251    2.533
  339.820  209.141   92.934    0.420    0.254    2.700
  340.070  207.652   92.573    0.417    0.258    3.271
  340.320  205.231   89.749    0.411    0.262    4.502
  340.570  203.745   82.794    0.403    0.266    6.005
  340.820  202.775   72.883    0.382    0.274    6.681
  341.070  202.957   66.237    0.379    0.283    7.271
  341.320  198.245   64.275    0.374    0.297    7.781
  341.570  198.938   66.071    0.372    0.300    8.127
  341.820  199.220   67.375    0.378    0.300    8.381
  342.070  199.598   68.617    0.382    0.300    8.515
  342.320  199.467   69.243    0.378    0.299    8.750
  342.570  199.226   68.636    0.367    0.297    8.857
  342.820  198.990   68.831    0.370    0.295    8.592
  343.070  200.201   70.011    0.383    0.295    7.784
  343.320  201.214   70.822    0.391    0.295    7.331
  343.570  202.323   71.265    0.392    0.294    7.021
  343.820  202.708   71.458    0.388    0.293    6.847
  344.070  203.294   71.529    0.379    0.292    6.719
  344.320  203.483   72.587    0.377    0.290    6.651
  344.570  203.868   74.445    0.382    0.289    6.597
  344.820  203.928   76.365    0.383    0.287    6.486
  345.070  203.592   78.408    0.386    0.287    6.455
  345.320  203.557   80.328    0.388    0.286    6.427
  345.570  203.526   81.940    0.387    0.285    6.377
  345.820  203.603   82.875    0.388    0.284    6.334
  346.070  203.874   81.529    0.405    0.283    6.307
  346.320  203.837   79.134    0.423    0.282    6.279
  346.570  203.819   76.494    0.432    0.281    6.332
  346.820  203.681   77.368    0.428    0.281    6.375
  347.070  203.651   75.527    0.423    0.281    6.409
