~VERSION INFORMATION
 VERS.                 2.0:   CWLS LOG ASCII STANDARD -VERSION 2.0
 WRAP.                  NO:   ONE LINE PER DEPTH STEP
~WELL INFORMATION BLOCK
#MNEM.UNIT           DATA                    DESCRIPTION OF MNEMONIC
#---------    -------------------            -------------------------------
# Generated from Intellog Unique Number	CW_70_72/WELL/2906
NULL.         -999.25                        : NULL_VALUE
WELL.         MIKAS CALLING LAKE             : Well_name    - WELL              
LOC .         10-36-070-20W4                 : Location     - LOCATION          
UWI .         00/10-36-070-20W4/0            : Uwi          - UNIQUE WELL ID    
ENTR.         MAX                            : Entered      - ENTERED BY        
SRVC.         SCHLUMBERGER                   : Scn          - SERVICE COMPANY   
STRT.M        316.992                        : top_depth    - START DEPTH       
STOP.M        484.742                        : bot_depth    - STOP DEPTH        
STEP.M        0.25                           : increment    - STEP LENGTH       
~CURVE INFORMATION BLOCK
#MNEM UNIT       ERCB CURVE CODE    CURVE DESCRIPTION
#-----------   ------------------   ----------------------------------
DEPT.M        00 001 00 00         : DEPTH        - DEPTH                       
ILD .OHMM     00 120 00 00         : RESD         - DEEP RESISTIVITY (DIL)      
NPHI.V/V      00 330 00 00         : PHIN         - NEUTRON POROSITY (SANDSTONE)
DPHI.V/V      00 890 00 00         : PHID         - DENSITY POROSITY (SANDSTONE)
CALI.MM       00 280 01 00         : CAL          - CALIPER                     
GR  .API      00 310 00 00         : GR           - GAMMA RAY                   
~PARAMETER INFORMATION       
#MNEM.UNIT           DATA             DESCRIPTION OF MNEMONIC
#---------         -----------     ------------------------------
GL  .M        583.265              : gl           - GROUND LEVEL ELEVATION      
EREF.M        586.435              : kb           - ELEVATION OF DEPTH REFERENCE
DATM.M        583.265              : datum        - DATUM ELEVATION             
TDD .M        490.423              : tdd          - TOTAL DEPTH DRILLER         
RUN .         ONE                  : Run          - RUN NUMBER                  
ENG .         BILL                 : Engineer     - RECORDING ENGINEER          
WIT .         JIM                  : Witness      - WITNESSED BY                
MUD .         GEL                  : Mud_type     - MUD TYPE                    
MATR.         SANDSTONE            : Logunit      - NEUTRON MATRIX              
TMAX.C        26.6667              : BHT          - MAXIMUM RECORDED TEMPERATURE
BHTD.M        490.423              : BHTDEP       - MAXIMUM RECORDED TEMPERATURE
RMT .C        4.44444              : MDTP         - TEMPERATURE OF MUD          
MUDD.KG/M     9000                 : MWT          - MUD DENSITY                 
NEUT.         1                    : NEUTRON      - NEUTRON TYPE                
RESI.         0                    : RESIST       - RESISTIVITY TYPE            
RM  .OHMM     4.66                 : RM           - RESISTIVITY OF MUD          
RMC .OHMM     2.9                  : RMC          - RESISTIVITY OF MUD CAKE     
RMF .OHMM     0.25                 : RMF          - RESISTIVITY OF MUD FILTRATE 
SUFT.C        -20.5556             : SUFT         - SURFACE TEMPERATURE         
~A  DEPTH     RESD     PHIN     PHID      CAL       GR
  316.992    3.003    0.592    0.265  181.365   86.806
  317.242    2.977    0.564    0.278  174.308   89.772
  317.492    2.950    0.539    0.294  168.255   88.280
  317.742    2.951    0.525    0.310  169.252   85.003
  317.992    2.951    0.542    0.292  167.733   82.619
  318.242    2.823    0.552    0.311  170.740   78.748
  318.492    2.748    0.526    0.343  173.249   78.146
  318.742    2.700    0.488    0.399  176.259   78.141
  318.992    2.799    0.516    0.416  183.799   76.946
  319.242    2.953    0.529    0.430  191.840   74.263
  319.492    3.259    0.533    0.480  190.826   71.284
  319.742    3.532    0.529    0.469  179.237   67.415
  319.992    4.040    0.497    0.400  167.145   54.029
  320.242    4.458    0.461    0.349  158.577   55.508
  320.492    4.264    0.455    0.351  155.544   56.991
  320.742    3.970    0.470    0.359  155.533   58.768
  320.992    3.730    0.506    0.330  155.524   61.139
  321.242    3.697    0.504    0.301  155.010   63.215
  321.492    3.764    0.482    0.300  153.994   63.803
  321.742    3.798    0.459    0.300  153.982   65.581
  321.992    3.867    0.451    0.286  154.477   68.250
  322.242    3.938    0.453    0.279  155.974   70.622
  322.492    4.082    0.430    0.282  157.474   72.400
  322.742    4.193    0.444    0.280  159.478   76.555
  322.992    4.308    0.459    0.262  161.479   77.440
  323.242    4.425    0.480    0.241  163.482   78.326
  323.492    4.466    0.490    0.239  164.481   80.698
  323.742    4.348    0.509    0.237  165.478   82.774
  323.992    4.234    0.530    0.223  166.977   83.065
  324.242    4.159    0.528    0.214  167.972   81.274
  324.492    4.160    0.546    0.221  167.962   81.863
  324.742    4.198    0.503    0.243  166.943   83.046
  324.992    4.351    0.473    0.258  165.927   83.634
  325.242    4.470    0.452    0.265  165.415   85.115
  325.492    4.592    0.446    0.252  163.892   86.892
  325.742    4.760    0.439    0.253  160.861   88.075
  325.992    4.934    0.454    0.248  159.341   90.446
  326.242    4.935    0.461    0.232  162.856   87.468
  326.492    4.805    0.440    0.248  165.360   84.489
  326.742    4.595    0.426    0.263  164.343   81.212
  326.992    4.395    0.420    0.255  160.808   77.639
  327.242    4.204    0.404    0.260  158.280   73.769
  327.492    3.985    0.411    0.284  158.272   70.193
  327.742    3.950    0.422    0.290  158.764   70.189
  327.992    3.950    0.413    0.287  158.752   72.264
  328.242    3.916    0.410    0.287  158.239   72.852
  328.492    3.881    0.414    0.289  157.726   72.846
  328.742    3.847    0.413    0.283  156.708   72.542
  328.992    3.780    0.416    0.284  155.691   72.239
  329.242    3.747    0.429    0.294  155.179   73.718
  329.492    3.747    0.457    0.304  154.664   75.496
  329.742    3.815    0.470    0.309  155.658   77.571
  329.992    3.919    0.478    0.313  156.153   80.240
  330.242    4.027    0.461    0.297  156.141   86.477
  330.492    4.027    0.453    0.295  156.131   91.524
  330.742    3.992    0.495    0.301  157.126   90.626
  330.992    3.852    0.528    0.335  160.138   88.242
  331.242    3.684    0.590    0.406  166.672   85.263
  331.492    3.620    0.615    0.381  168.675   83.474
  331.742    3.588    0.599    0.348  168.664   79.602
  331.992    3.431    0.592    0.344  163.118   79.298
  332.242    3.224    0.600    0.422  166.126   81.374
  332.492    3.002    0.610    0.459  171.653   85.827
  332.742    2.897    0.601    0.404  176.678   91.171
  332.992    2.697    0.593    0.373  196.300   91.165
  333.242    2.580    0.612    0.344  212.397   91.456
  333.492    2.534    0.610    0.315  191.748   94.126
  333.742    2.557    0.603    0.389  168.581   97.687
  333.992    2.675    0.586    0.435  192.731  101.841
  334.242    2.925    0.547    0.412  192.220  102.431
  334.492    3.257    0.504    0.339  209.828  101.829
  334.742    3.758    0.464    0.300  179.613   99.446
  334.992    4.222    0.458    0.279  172.555   92.900
  335.242    4.785    0.497    0.278  168.517   89.028
  335.492    5.141    0.492    0.304  166.997   89.319
  335.742    5.622    0.532    0.305  169.504   86.044
  335.992    6.149    0.539    0.293  169.996   81.578
  336.242    6.605    0.428    0.289  166.965   78.004
  336.492    6.786    0.415    0.275  164.436   78.295
  336.742    6.667    0.419    0.275  162.918   82.451
  336.992    6.319    0.433    0.275  161.396   84.822
  337.242    5.937    0.469    0.263  160.380   83.330
  337.492    5.781    0.491    0.249  160.368   81.541
  337.742    5.782    0.477    0.241  160.359   77.669
  337.992    5.887    0.462    0.271  160.348   75.880
  338.242    6.268    0.472    0.288  160.337   74.981
  338.492    6.978    0.474    0.278  160.326   72.597
  338.742    7.910    0.467    0.282  159.310   71.104
  338.992    7.911    0.453    0.275  159.298   71.694
  339.242    7.499    0.455    0.273  159.793   72.579
  339.492    6.982    0.451    0.281  160.286   73.464
  339.742    6.559    0.454    0.287  160.273   74.944
  339.992    6.274    0.464    0.282  160.767   76.126
  340.242    6.163    0.469    0.277  160.767   75.823
  340.492    6.164    0.461    0.256  160.743   75.520
  340.742    6.276    0.460    0.262  160.230   75.217
  340.992    6.803    0.457    0.264  159.718   75.210
  341.242    7.374    0.459    0.249  159.206   74.015
  341.492    8.137    0.460    0.249  159.192   70.738
  341.742    9.060    0.462    0.255  159.184   65.679
  341.992    9.908    0.459    0.252  158.166   63.889
  342.242   10.088    0.461    0.229  157.650   65.073
  342.492    9.310    0.456    0.233  157.640   67.146
  342.742    7.121    0.442    0.262  158.136   68.925
  342.992    6.173    0.447    0.270  161.647   74.567
  343.242    5.399    0.451    0.296  161.637   80.507
  343.492    4.982    0.490    0.317  162.635   82.284
  343.742    4.723    0.536    0.324  167.657   84.654
  343.992    4.681    0.538    0.298  187.783   87.028
  344.242    4.724    0.506    0.283  173.678   90.292
  344.492    4.941    0.464    0.264  160.076   94.448
  344.742    5.121    0.441    0.254  163.085   97.414
  344.992    5.168    0.445    0.278  163.578   99.787
  345.242    5.169    0.464    0.290  164.574  100.969
  345.492    5.078    0.486    0.303  165.570   97.396
  345.742    4.900    0.536    0.327  167.574   88.769
  345.992    4.563    0.502    0.316  174.611   78.952
  346.242    4.026    0.482    0.320  160.003   78.052
  346.492    3.398    0.506    0.324  158.481   80.722
  346.742    2.999    0.539    0.323  158.471   86.067
  346.992    2.743    0.591    0.332  161.983   91.115
  347.242    2.623    0.567    0.313  174.055   97.352
  347.492    2.623    0.547    0.314  185.623   97.941
  347.742    2.695    0.538    0.300  188.129   97.340
  347.992    2.844    0.542    0.358  197.178   94.657
  348.242    3.463    0.518    0.379  182.571   90.490
  348.492    3.687    0.516    0.353  187.091   83.943
  348.742    3.925    0.519    0.302  191.610   80.964
  348.992    4.255    0.515    0.254  172.471   78.878
  349.242    4.530    0.492    0.255  159.875   78.276
  349.492    4.696    0.494    0.255  156.844   78.568
  349.742    4.738    0.492    0.257  156.330   77.371
  349.992    4.738    0.483    0.255  156.318   77.663
  350.242    4.740    0.469    0.260  155.807   78.252
  350.492    4.574    0.480    0.254  155.290   79.138
  350.742    4.494    0.484    0.261  154.778   79.725
  350.992    4.415    0.474    0.253  155.271   79.422
  351.242    4.415    0.489    0.245  156.268   78.524
  351.492    4.416    0.516    0.269  156.258   76.438
  351.742    4.702    0.505    0.301  155.743   72.863
  351.992    5.051    0.513    0.316  155.731   68.101
  352.242    5.378    0.534    0.291  156.225   65.717
  352.492    6.205    0.507    0.292  156.215   63.926
  352.742    6.726    0.492    0.308  156.204   63.920
  352.992    7.035    0.475    0.313  156.194   64.805
  353.242    7.162    0.476    0.305  156.183   63.610
