~VERSION INFORMATION
 VERS.                 2.0:   CWLS LOG ASCII STANDARD -VERSION 2.0
 WRAP.                  NO:   ONE LINE PER DEPTH STEP
~WELL INFORMATION BLOCK
#MNEM.UNIT           DATA                    DESCRIPTION OF MNEMONIC
#---------    -------------------            -------------------------------
# Generated from Intellog Unique Number	CS_77_79/WELL/983
WELL.         HOME OIL COMPANY LIMITED       : Well_name    - WELL
LOC .         00/11-02-077-08W4/0            : Location     - LOCATION
UWI .         00/11-02-077-08W4/0            : Uwi          - UNIQUE WELL ID
ENTR.         SP                             : Entered      - ENTERED BY
SRVC.         SCHLUMBERGER                   : Scn          - SERVICE COMPANY
STRT.M        150                            : top_depth    - START DEPTH
STOP.M        380                            : bot_depth    - STOP DEPTH
STEP.M        0.25                           : increment    - STEP LENGTH
 NULL. -999.2500:NULL Value
~CURVE INFORMATION BLOCK
#MNEM UNIT       ERCB CURVE CODE    CURVE DESCRIPTION
#-----------   ------------------   ----------------------------------
DEPT.M        00 001 00 00         : DEPTH        - DEPTH
ILD .OHMM     00 120 00 00         : RESD         - DEEP RESISTIVITY (DIL)
DPHI.V/V      00 890 00 00         : PHID         - DENSITY POROSITY (LIMESTONE)
NPHI.V/V      00 330 00 00         : PHIN         - NEUTRON POROSITY (LIMESTONE)
GR  .API      00 310 00 00         : GR           - GAMMA RAY
~PARAMETER INFORMATION
#MNEM.UNIT           DATA             DESCRIPTION OF MNEMONIC
#---------         -----------     ------------------------------
GL  .M        575.6                : gl           - GROUND LEVEL ELEVATION
EREF.M        579.11               : kb           - ELEVATION OF DEPTH REFERENCE
DATM.M        575.61               : datum        - DATUM ELEVATION
TDD .M        400                  : tdd          - TOTAL DEPTH DRILLER
RUN .         ONE                  : Run          - RUN NUMBER
ENG .         BILL                 : Engineer     - RECORDING ENGINEER
WIT .         JIM                  : Witness      - WITNESSED BY
MUD .         GEL                  : Mud_type     - MUD TYPE
MATR.         LIMESTONE            : Logunit      - NEUTRON MATRIX
TMAX.C        36                   : BHT          - MAXIMUM RECORDED TEMPERATURE
BHTD.M        400                  : BHTDEP       - MAXIMUM RECORDED TEMPERATURE
MATR.         1                    : LOGUNIT      - NEUTRON MATRIX
RMT .C        25                   : MDTP         - TEMPERATURE OF MUD
NEUT.         1                    : NEUTRON      - NEUTRON TYPE
RESI.         0                    : RESIST       - RESISTIVITY TYPE
RMC .OHMM     0.25                 : RMC          - RESISTIVITY OF MUD CAKE
RMF .OHMM     0.25                 : RMF          - RESISTIVITY OF MUD FILTRATE
SUFT.C        15                   : SUFT         - SURFACE TEMPERATURE
~A  DEPTH     RESD     PHID     PHIN       GR
# ...
  280.500    8.052    0.333    0.396   59.335
  280.750    8.057    0.337    0.402   60.580
  281.000    7.911    0.337    0.414   63.064
  281.250    7.770    0.334    0.411   63.689
  281.500    7.629    0.332    0.394   64.317
  281.750    7.634    0.335    0.360   66.179
  282.000    7.495    0.333    0.356   68.664
  282.250    7.499    0.334    0.350   68.669
  282.500    7.502    0.330    0.344   64.980
  282.750    7.508    0.322    0.362   65.606
  283.000    7.511    0.322    0.408   60.060
  283.250    7.375    0.325    0.414   60.071
  283.500    7.378    0.329    0.394   60.699
  283.750    7.522    0.336    0.369   58.242
  284.000    7.386    0.339    0.375   57.636
  284.250    7.388    0.334    0.398   59.498
  284.500    7.392    0.337    0.418   61.976
  284.750    7.533    0.344    0.414   62.606
  285.000    7.400    0.343    0.387   63.236
  285.250    7.402    0.333    0.373   64.480
  285.500    7.407    0.329    0.387   66.340
  285.750    7.410    0.330    0.393   68.207
  286.000    7.276    0.336    0.365   69.449
  286.250    7.279    0.331    0.347   66.374
  286.500    7.282    0.326    0.358   63.916
  286.750    7.287    0.325    0.364   62.074
  287.000    7.427    0.326    0.359   62.701
  287.250    7.429    0.337    0.383   60.860
  287.500    7.434    0.340    0.419   61.488
  287.750    7.576    0.338    0.404   63.356
  288.000    7.580    0.337    0.383   62.744
  288.250    7.584    0.335    0.379   60.905
  288.500    7.587    0.331    0.402   60.917
  288.750    7.451    0.324    0.408   60.307
  289.000    7.453    0.319    0.402   59.701
  289.250    7.458    0.320    0.375   59.095
  289.500    7.460    0.337    0.367   59.105
  289.750    7.465    0.341    0.385   59.733
  290.000    7.467    0.341    0.375   60.362
  290.250    7.471    0.332    0.372   60.990
  290.500    7.474    0.328    0.381   61.000
  290.750    7.618    0.331    0.409   59.777
  291.000    7.765    0.332    0.429   57.935
  291.250    8.215    0.333    0.373   59.182
  291.500    8.373    0.247    0.219   58.574
  291.750    8.695    0.185    0.210   56.733
  292.000    8.862    0.241    0.246   60.447
  292.250    8.704    0.314    0.426   57.990
  292.500    8.389    0.333    0.388   56.768
  292.750    7.791    0.342    0.339   59.247
  293.000    7.650    0.351    0.314   61.725
  293.250    7.376    0.350    0.320   62.974
  293.500    7.378    0.337    0.346   63.600
  293.750    7.381    0.332    0.329   61.141
  294.000    7.384    0.327    0.317   61.151
  294.250    7.387    0.325    0.338   59.310
  294.500    7.393    0.326    0.355   58.705
  294.750    7.260    0.331    0.373   61.184
  295.000    7.262    0.338    0.350   59.344
  295.250    7.265    0.326    0.331   59.971
  295.500    7.268    0.323    0.315   62.452
  295.750    7.139    0.323    0.296   61.847
  296.000    7.141    0.322    0.302   63.090
  296.250    7.144    0.327    0.356   64.953
  296.500    7.149    0.334    0.349   64.349
  296.750    7.152    0.338    0.332   64.978
  297.000    7.154    0.338    0.353   63.132
  297.250    7.159    0.340    0.379   58.208
  297.500    7.161    0.335    0.390   58.217
  297.750    7.164    0.330    0.388   59.462
  298.000    7.167    0.330    0.381   58.242
  298.250    7.170    0.330    0.366   57.632
  298.500    7.174    0.344    0.356   58.261
  298.750    7.177    0.344    0.350   61.975
  299.000    7.181    0.336    0.380   61.985
  299.250    7.051    0.334    0.397   63.231
  299.500    7.055    0.334    0.374   64.475
  299.750    7.058    0.323    0.333   65.721
  300.000    7.062    0.312    0.376   62.645
  300.250    7.065    0.320    0.397   60.803
  300.500    7.068    0.330    0.423   62.048
  300.750    6.942    0.336    0.388   64.528
  301.000    6.816    0.325    0.363   65.776
  301.250    6.693    0.319    0.385   67.019
  301.500    6.573    0.323    0.377   72.587
  301.750    6.456    0.293    0.343   76.918
  302.000    6.339    0.264    0.353   83.101
  302.250    6.225    0.237    0.392   77.557
  302.500    6.345    0.272    0.402   78.186
  302.750    6.589    0.263    0.366   76.344
  303.000    6.842    0.240    0.331   72.651
  303.250    7.104    0.245    0.324   72.044
  303.500    7.108    0.253    0.323   76.376
  303.750    7.111    0.251    0.323   79.474
  304.000    6.854    0.234    0.321   81.337
  304.250    6.019    0.217    0.321   85.055
  304.500    5.695    0.224    0.312   88.149
  304.750    5.096    0.237    0.296   94.332
  305.000    4.732    0.240    0.302   92.491
  305.250    4.477    0.281    0.318   93.738
  305.500    4.479    0.325    0.387   92.513
  305.750    4.651    0.324    0.371   90.055
  306.000    5.401    0.338    0.353   96.238
  306.250    5.713    0.317    0.331   98.721
  306.500    5.933    0.229    0.364   98.112
  306.750    6.047    0.237    0.386   96.270
  307.000    5.939    0.252    0.412   95.664
  307.250    5.942    0.254    0.421   97.526
  307.500    5.944    0.252    0.412  100.008
  307.750    5.946    0.265    0.394  103.107
  308.000    5.949    0.244    0.361  104.967
  308.250    5.843    0.216    0.323  105.595
  308.500    5.845    0.227    0.351   96.964
  308.750    5.530    0.239    0.367   91.418
  309.000    5.041    0.258    0.360   90.195
  309.250    4.860    0.277    0.387   87.119
  309.500    4.683    0.292    0.406   87.748
  309.750    4.113    0.356    0.395   88.377
  310.000    3.680    0.335    0.365   87.768
  310.250    3.354    0.283    0.376   80.991
  310.500    2.891    0.323    0.406   78.531
  310.750    2.539    0.346    0.421   81.012
  311.000    2.402    0.332    0.417   83.490
  311.250    2.359    0.293    0.399   85.974
  311.500    2.317    0.287    0.382   84.747
  311.750    2.318    0.289    0.371   80.439
  312.000    2.363    0.299    0.417   78.594
  312.250    2.408    0.300    0.429   78.607
  312.500    2.409    0.293    0.441   79.855
  312.750    2.411    0.287    0.458   80.481
  313.000    2.457    0.290    0.500   79.876
  313.250    2.458    0.268    0.450   81.735
  313.500    2.505    0.256    0.469   86.685
  313.750    2.650    0.260    0.492   90.399
  314.000    2.965    0.257    0.504   87.942
  314.250    3.256    0.265    0.484   84.868
  314.500    3.575    0.274    0.420   82.406
  314.750    4.075    0.272    0.367   88.590
  315.000    4.475    0.234    0.369   95.394
  315.250    4.823    0.236    0.385   91.701
  315.500    5.102    0.233    0.358   85.539
  315.750    5.398    0.138    0.335   82.461
  316.000    5.400    0.183    0.328   83.707
  316.250    5.206    0.266    0.379   88.041
  316.500    5.017    0.311    0.343   90.518
  316.750    4.660    0.313    0.347   96.086
  317.000    4.248    0.297    0.386   98.569
  317.250    3.945    0.276    0.416   97.960
  317.500    3.874    0.222    0.416   94.884
  317.750    3.803    0.225    0.391   96.747
  318.000    3.667    0.229    0.369   99.843
  318.250    3.668    0.229    0.349   95.533
  318.500    3.602    0.223    0.329   96.781
  318.750    3.537    0.224    0.337   97.407
  319.000    3.474    0.226    0.348   98.652
  319.250    3.475    0.229    0.377   99.897
  319.500    3.413    0.232    0.409  100.525
  319.750    3.414    0.230    0.420  100.535
  320.000    3.416    0.220    0.398   98.076
  320.250    3.418    0.214    0.370  101.793
  320.500    3.419    0.229    0.380  104.271
  320.750    3.421    0.229    0.389   95.640
  321.000    3.422    0.197    0.414   90.094
  321.250    3.488    0.152    0.429   90.106
  321.500    3.556    0.196    0.429   93.823
  321.750    3.692    0.224    0.389   96.300
  322.000    3.763    0.235    0.364  100.016
  322.250    4.056    0.231    0.423   96.939
  322.500    4.537    0.243    0.406   92.631
  322.750    5.367    0.258    0.379   88.319
  323.000    7.100    0.227    0.275   82.774
  323.250    8.881    0.208    0.259   78.463
  323.500   11.320    0.226    0.258   71.683
  323.750   12.430    0.259    0.264   69.225
