~VERSION INFORMATION
 VERS.                 2.0:   CWLS LOG ASCII STANDARD -VERSION 2.0
 WRAP.                  NO:   ONE LINE PER DEPTH STEP
~WELL INFORMATION BLOCK
#MNEM.UNIT           DATA                    DESCRIPTION OF MNEMONIC
#---------    -------------------            -------------------------------
# Generated from Intellog Unique Number	CW_76_78/WELL/2822
WELL.         PELICAN EAST 11-36             : Well_name    - WELL
LOC .         00/11-36-078-21W4/0            : Location     - LOCATION
UWI .         00/11-36-078-21W4/0            : Uwi          - UNIQUE WELL ID
ENTR.         JJ                             : Entered      - ENTERED BY
SRVC.         WESTERN ATLAS                  : Scn          - SERVICE COMPANY
DATE.         15 MAR 77                      : Date         - LOG DATE
STRT.M        198.12                         : top_depth    - START DEPTH
STOP.M        399.37                         : bot_depth    - STOP DEPTH
STEP.M        0.25                           : increment    - STEP LENGTH
 NULL. -999.2500:NULL Value
~CURVE INFORMATION BLOCK
#MNEM UNIT       ERCB CURVE CODE    CURVE DESCRIPTION
#-----------   ------------------   ----------------------------------
DEPT.M        00 001 00 00         : DEPTH        - DEPTH
ILD .OHMM     00 120 00 00         : RESD         - DEEP RESISTIVITY (DIL)
CALI.MM       00 280 01 00         : CAL          - CALIPER
GR  .API      00 310 00 00         : GR           - GAMMA RAY
NPHI.V/V      00 330 00 00         : PHIN         - NEUTRON POROSITY (SANDSTONE)
DPHI.V/V      00 890 00 00         : PHID         - DENSITY POROSITY (SANDSTONE)
~PARAMETER INFORMATION
#MNEM.UNIT           DATA             DESCRIPTION OF MNEMONIC
#---------         -----------     ------------------------------
GL  .M        561.35               : gl           - GROUND LEVEL ELEVATION
EREF.M        565.343              : kb           - ELEVATION OF DEPTH REFERENCE
DATM.M        565.343              : datum        - DATUM ELEVATION
TDD .M        508.406              : tdd          - TOTAL DEPTH DRILLER
RUN .         ONE                  : Run          - RUN NUMBER
ENG .         OFFORD               : Engineer     - RECORDING ENGINEER
BASE.         BROOKS               : Branch       - HOME BASE OF LOGGING UNIT
MATR.         SANDSTONE            : Logunit      - NEUTRON MATRIX
TMAX.C        20                   : BHT          - MAXIMUM RECORDED TEMPERATURE
BHTD.M        505.054              : BHTDEP       - MAXIMUM RECORDED TEMPERATURE
RMT .C        20                   : MDTP         - TEMPERATURE OF MUD
MUDD.KG/M     1044                 : MWT          - MUD DENSITY
NEUT.         1                    : NEUTRON      - NEUTRON TYPE
RESI.         0                    : RESIST       - RESISTIVITY TYPE
RM  .OHMM     9                    : RM           - RESISTIVITY OF MUD
RMC .OHMM     0                    : RMC          - RESISTIVITY OF MUD CAKE
RMF .OHMM     0                    : RMF          - RESISTIVITY OF MUD FILTRATE
SUFT.C        5                    : SUFT         - SURFACE TEMPERATURE
~A  DEPTH     RESD      CAL       GR     PHIN     PHID
# ...
  344.120   14.784  211.017   75.485    0.279    0.272
  344.370   13.984  217.429   75.455    0.389    0.302
  344.620   13.496  226.152   74.873    0.417    0.319
  344.870   13.358  232.461   77.311    0.422    0.330
  345.120   13.246  237.222   77.160    0.425    0.331
  345.370   13.138  240.821   76.825    0.429    0.331
  345.620   13.051  243.895   78.027    0.433    0.325
  345.870   12.965  248.337   79.540    0.438    0.320
  346.120   12.811  253.094   78.771    0.434    0.314
  346.370   12.658  256.162   77.572    0.430    0.307
  346.620   12.506  259.980   77.483    0.428    0.299
  346.870   12.380  263.480   78.379    0.441    0.291
  347.120   12.253  266.248   77.552    0.448    0.284
  347.370   12.018  269.014   77.827    0.454    0.265
  347.620   11.704  270.949   79.401    0.456    0.265
  347.870   11.233  270.598   79.624    0.459    0.279
  348.120   11.220  271.583   77.254    0.460    0.291
  348.370   11.600  273.105   75.931    0.460    0.281
  348.620   11.600  273.475   75.776    0.460    0.270
  348.870   12.246  273.523   75.009    0.458    0.265
  349.120   12.053  273.059   77.570    0.458    0.287
  349.370   11.362  273.018   80.929    0.455    0.303
  349.620   10.924  272.751   82.379    0.457    0.304
  349.870   10.794  272.704   77.301    0.454    0.305
  350.120   10.939  272.133   77.646    0.451    0.303
  350.370   11.026  271.378   79.337    0.442    0.296
  350.620   10.992  269.976   78.144    0.424    0.291
  350.870   10.921  268.978   77.562    0.438    0.287
  351.120   10.889  267.990   77.344    0.448    0.285
  351.370   10.838  266.995   77.503    0.445    0.279
  351.620   10.982  265.278   76.978    0.433    0.272
  351.870   11.273  263.981   76.028    0.423    0.278
  352.120   11.739  261.955   76.430    0.418    0.274
  352.370   12.517  260.230   74.061    0.417    0.258
  352.620   13.641  257.474   72.801    0.411    0.204
  352.870   15.221  254.398   73.203    0.400    0.150
  353.120   16.436  251.653   75.338    0.399    0.133
  353.370   16.476  249.932   76.416    0.406    0.144
  353.620   15.475  247.905   77.495    0.424    0.168
  353.870   15.315  245.864   78.140    0.438    0.269
  354.120   19.226  243.938   79.161    0.447    0.271
  354.370   27.057  241.400   79.752    0.442    0.276
  354.620   35.095  239.672   80.038    0.438    0.281
  354.870   43.500  236.922   80.309    0.435    0.280
  355.120   50.142  234.780   80.589    0.432    0.272
  355.370   10.955  231.817   80.623    0.423    0.269
  355.620   10.824  228.632   79.488    0.425    0.265
  355.870   11.172  224.308   78.719    0.425    0.247
  356.120   11.549  219.883   76.842    0.422    0.220
  356.370   12.631  215.244   72.377    0.412    0.176
  356.620   13.689  212.280   74.936    0.399    0.098
  356.870   14.464  211.809   80.086    0.407    0.084
  357.120   14.766  216.253   83.755    0.387    0.076
  357.370   14.173  219.025   86.862    0.359    0.184
  357.620   13.627  221.375   90.837    0.392    0.204
  357.870   12.868  223.096   94.261    0.394    0.211
  358.120   12.151  224.303   97.814    0.398    0.204
  358.370   11.725  225.088   98.945    0.411    0.201
  358.620   11.357  225.660  100.156    0.409    0.195
  358.870   11.200  225.927  102.840    0.404    0.197
  359.120   10.988  226.296  105.701    0.407    0.217
  359.370   10.855  227.185  109.674    0.411    0.228
  359.620   10.689  229.745  111.255    0.414    0.246
  359.870   10.597  229.907  110.668    0.415    0.240
  360.120   10.470  227.147  107.310    0.418    0.126
  360.370   10.068  229.709  106.174    0.426    0.143
  360.620    9.421  232.159  112.366    0.438    0.183
  360.870    9.075  233.579  111.049    0.451    0.219
  361.120    8.966  233.741  111.573    0.449    0.235
  361.370    9.154  233.384  114.315    0.448    0.258
  361.620    9.446  233.642  113.243    0.437    0.240
  361.870    9.784  233.706  110.380    0.423    0.218
  362.120   10.116  233.136  107.887    0.410    0.228
  362.370   10.310  234.224  107.426    0.408    0.256
  362.620   10.278  236.585  104.009    0.405    0.410
  362.870   10.435  230.377   94.063    0.403    0.338
  363.120   10.827  229.076   96.623    0.402    0.118
  363.370   11.545  229.570  101.156    0.395    0.201
  363.620   12.111  230.038  107.165    0.404    0.216
  363.870   12.500  230.187  106.644    0.412    0.228
  364.120   12.690  230.869  101.134    0.420    0.249
  364.370   12.814  231.242   97.713    0.416    0.173
  364.620   12.846  230.982   97.692    0.403    0.132
  364.870   12.786  230.725  100.804    0.402    0.152
  365.120   12.747  230.362  103.295    0.412    0.164
  365.370   12.733  229.896  105.486    0.418    0.171
  365.620   12.649  229.431  107.059    0.420    0.182
  365.870   12.500  229.179  106.667    0.420    0.186
  366.120   12.439  228.717  107.436    0.419    0.186
  366.370   12.426  229.504  109.315    0.412    0.185
  366.620   12.546  229.663  103.683    0.403    0.187
  366.870   13.114  228.892   97.801    0.402    0.188
  367.120   13.832  227.689   96.050    0.406    0.192
  367.370   14.694  227.117   97.999    0.410    0.197
  367.620   15.470  228.217   99.258    0.418    0.206
  367.870   15.369  229.016  101.205    0.429    0.203
  368.120   14.966  228.644  102.283    0.438    0.194
  368.370   16.133  228.384  102.380    0.441    0.190
  368.620   18.664  227.825  101.115    0.441    0.183
  368.870   24.473  227.465   98.438    0.437    0.178
  369.120   29.842  227.523   94.898    0.430    0.132
  369.370   37.736  227.889   97.028    0.425    0.103
  369.620   42.025  228.564   99.893    0.417    0.140
  369.870   50.876  229.251  102.821    0.424    0.168
  370.120   57.911  230.559  103.473    0.436    0.175
  370.370   37.359  232.392  105.847    0.449    0.164
  370.620   18.032  234.214  103.109    0.458    0.094
  370.870   14.409  236.885  103.146    0.455    0.056
  371.120   11.620  239.755  106.253    0.438    0.110
  371.370    9.646  242.943  110.536    0.441    0.182
  371.620    8.721  246.022  114.458    0.456    0.193
  371.870    8.446  250.470  112.697    0.464    0.198
  372.120    8.270  253.545  108.362    0.467    0.224
  372.370    8.157  256.307   99.213    0.473    0.289
  372.620    7.929  260.436   96.604    0.476    0.279
  372.870    7.500  264.031   95.469    0.468    0.240
  373.120    6.980  267.745   94.512    0.462    0.239
  373.370    6.129  271.035   93.063    0.458    0.336
  373.620    5.491  275.467   89.895    0.466    0.394
  373.870    5.055  281.156   76.560    0.476    0.494
  374.120    5.439  292.999   64.460    0.475    0.438
  374.370    6.420  286.806   55.439    0.460    0.356
  374.620    7.899  288.538   50.421    0.449    0.314
  374.870   10.567  290.673   51.689    0.433    0.295
  375.120   15.391  292.919   53.384    0.429    0.292
  375.370   21.118  293.906   54.347    0.427    0.290
  375.620   22.516  294.488   55.176    0.421    0.288
  375.870   21.377  294.969   58.474    0.413    0.280
  376.120   19.787  295.121   63.312    0.404    0.275
  376.370   17.956  295.177   68.459    0.387    0.275
  376.620   16.679  295.022   72.246    0.398    0.276
  376.870   15.719  294.562   77.085    0.426    0.275
  377.120   14.238  294.208   79.088    0.444    0.275
  377.370   13.393  293.747   79.866    0.450    0.281
  377.620   12.152  293.587   81.683    0.452    0.357
  377.870   10.575  293.016   85.661    0.457    0.392
  378.120    9.321  292.659   88.092    0.453    0.329
  378.370    8.365  293.023   91.329    0.441    0.288
  378.620    7.956  294.539   95.182    0.430    0.289
  378.870    8.576  290.426   91.153    0.421    0.304
  379.120    9.959  287.558   85.828    0.419    0.295
  379.370   11.031  287.202   79.883    0.429    0.075
  379.620   12.086  287.575   86.570    0.430    0.062
  379.870   12.095  287.939   98.247    0.416    0.092
  380.120   11.568  287.993  103.577    0.422    0.148
  380.370   11.365  287.437  110.076    0.439    0.349
