~VERSION INFORMATION
 VERS.                 2.0:   CWLS LOG ASCII STANDARD -VERSION 2.0
 WRAP.                  NO:   ONE LINE PER DEPTH STEP
~WELL INFORMATION BLOCK
#MNEM.UNIT           DATA                    DESCRIPTION OF MNEMONIC
#---------    -------------------            -------------------------------
# Generated from Intellog Unique Number	CW_70_72/WELL/3029
NULL.         -999.25                        : NULL_VALUE
WELL.         CHIEFCO ET AL DANCING 11-12    : Well_name    - WELL              
LOC .         11-12-070-27W4                 : Location     - LOCATION          
UWI .         00/11-12-070-27W4/0            : Uwi          - UNIQUE WELL ID    
ENTR.         JAYE                           : Entered      - ENTERED BY        
SRVC.         SCHLUMBERGER                   : Scn          - SERVICE COMPANY   
DATE.         5 OCT 76                       : Date         - LOG DATE          
STRT.M        469.392                        : top_depth    - START DEPTH       
STOP.M        719.392                        : bot_depth    - STOP DEPTH        
STEP.M        0.25                           : increment    - STEP LENGTH       
~CURVE INFORMATION BLOCK
#MNEM UNIT       ERCB CURVE CODE    CURVE DESCRIPTION
#-----------   ------------------   ----------------------------------
DEPT.M        00 001 00 00         : DEPTH        - DEPTH                       
ILD .OHMM     00 120 00 00         : RESD         - DEEP RESISTIVITY (DIL)      
CALI.MM       00 280 01 00         : CAL          - CALIPER                     
GR  .API      00 310 00 00         : GR           - GAMMA RAY                   
NPHI.V/V      00 330 00 00         : PHIN         - NEUTRON POROSITY (SANDSTONE)
DPHI.V/V      00 890 00 00         : PHID         - DENSITY POROSITY (SANDSTONE)
~PARAMETER INFORMATION       
#MNEM.UNIT           DATA             DESCRIPTION OF MNEMONIC
#---------         -----------     ------------------------------
GL  .M        636.422              : gl           - GROUND LEVEL ELEVATION      
EREF.M        639.166              : kb           - ELEVATION OF DEPTH REFERENCE
DATM.M        636.422              : datum        - DATUM ELEVATION             
TDD .M        733.654              : tdd          - TOTAL DEPTH DRILLER         
RUN .         ONE                  : Run          - RUN NUMBER                  
ENG .         PAQUIN               : Engineer     - RECORDING ENGINEER          
WIT .         ERICKSON             : Witness      - WITNESSED BY                
BASE.         EDM                  : Branch       - HOME BASE OF LOGGING UNIT   
MUD .         GEL                  : Mud_type     - MUD TYPE                    
MATR.         SANDSTONE            : Logunit      - NEUTRON MATRIX              
TMAX.C        -17.7778             : BHT          - MAXIMUM RECORDED TEMPERATURE
BHTD.M        733.958              : BHTDEP       - MAXIMUM RECORDED TEMPERATURE
RMT .C        10.5556              : MDTP         - TEMPERATURE OF MUD          
MUDD.KG/M     1140                 : MWT          - MUD DENSITY                 
NEUT.         1                    : NEUTRON      - NEUTRON TYPE                
RESI.         0                    : RESIST       - RESISTIVITY TYPE            
RM  .OHMM     4.35                 : RM           - RESISTIVITY OF MUD          
RMC .OHMM     0.25                 : RMC          - RESISTIVITY OF MUD CAKE     
RMF .OHMM     3.86                 : RMF          - RESISTIVITY OF MUD FILTRATE 
SUFT.C        -17.7778             : SUFT         - SURFACE TEMPERATURE         
~A  DEPTH     RESD      CAL       GR     PHIN     PHID
# ...
  542.392    1.739  155.115   59.416    0.417    0.273
  542.642    1.830  155.103   61.953    0.416    0.268
  542.892    1.898  155.296   64.732    0.422    0.262
  543.142    1.899  155.898   67.995    0.439    0.233
  543.392    1.804  155.372   66.533    0.452    0.211
  543.642    1.635  154.949   61.378    0.449    0.225
  543.892    1.546  154.632   58.647    0.435    0.259
  544.142    1.456  154.516   57.910    0.439    0.280
  544.392    1.406  154.197   58.026    0.442    0.292
  544.642    1.356  153.876   58.504    0.444    0.307
  544.892    1.308  153.453   58.982    0.434    0.298
  545.142    1.277  153.645   57.399    0.422    0.306
  545.392    1.250  153.634   58.966    0.434    0.327
  545.642    1.236  153.725   58.475    0.452    0.320
  545.892    1.223  153.712   55.864    0.458    0.301
  546.142    1.219  154.005   54.645    0.449    0.300
  546.392    1.239  154.304   54.455    0.434    0.318
  546.642    1.287  154.087   54.629    0.427    0.308
  546.892    1.382  153.869   55.289    0.447    0.302
  547.142    1.452  153.751   56.494    0.472    0.315
  547.392    1.559  154.044   58.847    0.463    0.320
  547.642    1.643  154.038   62.110    0.453    0.317
  547.892    1.723  154.332   63.315    0.477    0.293
  548.142    1.752  154.319   62.642    0.489    0.302
  548.392    1.680  154.306   61.666    0.486    0.309
  548.642    1.626  154.294   61.780    0.495    0.312
  548.892    1.585  154.283   62.620    0.496    0.320
  549.142    1.606  154.373   62.674    0.456    0.308
  549.392    1.606  154.260   59.215    0.440    0.296
  549.642    1.665  153.936   61.083    0.444    0.286
  549.892    1.772  153.926   63.922    0.460    0.285
  550.142    1.858  153.913   67.126    0.478    0.295
  550.392    1.910  153.903   74.628    0.488    0.299
  550.642    1.999  154.609   78.739    0.480    0.295
  550.892    2.103  159.620   82.910    0.472    0.265
  551.142    2.209  160.429   79.450    0.489    0.218
  551.392    2.355  157.853   72.660    0.462    0.256
  551.642    2.705  154.866   66.295    0.445    0.268
  551.892    3.341  152.188   60.776    0.428    0.248
  552.142    4.280  150.844   56.046    0.384    0.235
  552.392    5.635  150.934   52.649    0.276    0.225
  552.642    8.008  152.561   48.705    0.238    0.185
  552.892   11.236  154.190   45.791    0.194    0.067
  553.142   14.186  158.485   43.785    0.158    0.011
  553.392   14.821  160.934   43.052    0.166    0.025
  553.642   13.313  157.743   45.345    0.189    0.081
  553.892   10.450  155.168   48.184    0.248    0.156
  554.142    8.218  156.283   50.599    0.278    0.193
  554.392    6.558  159.960   53.619    0.263    0.193
  554.642    4.982  162.409   55.732    0.247    0.158
  554.892    3.954  163.118   58.329    0.267    0.089
  555.142    3.143  162.490   63.772    0.329    0.156
  555.392    2.778  157.966   74.302    0.383    0.179
  555.642    2.693  154.671   78.593    0.407    0.206
  555.892    2.793  154.250   80.343    0.433    0.193
  556.142    3.099  157.107   81.608    0.426    0.176
  556.392    3.261  160.171   83.598    0.420    0.175
  556.642    3.315  161.493   85.711    0.419    0.173
  556.892    3.304  161.890   83.826    0.425    0.163
  557.142    3.256  161.059   80.548    0.435    0.175
  557.392    3.215  158.278   78.725    0.441    0.191
  557.642    3.198  155.702   76.538    0.431    0.213
  557.892    3.210  153.123   77.681    0.421    0.217
  558.142    3.287  152.498   79.733    0.413    0.190
  558.392    3.428  157.306   80.330    0.434    0.175
  558.642    3.523  160.061   80.990    0.424    0.167
  558.892    3.581  160.767   82.739    0.424    0.163
  559.142    3.627  160.651   84.125    0.430    0.170
  559.392    3.674  160.537   84.723    0.435    0.167
  559.642    3.708  160.626   85.442    0.423    0.161
  559.892    3.742  161.026   86.101    0.423    0.152
  560.142    3.750  161.424   87.002    0.419    0.135
  560.392    3.750  160.079   88.267    0.410    0.143
  560.642    3.743  158.837   88.442    0.407    0.141
  560.892    3.730  159.953   87.768    0.409    0.147
  561.142    3.710  161.374   87.337    0.435    0.153
  561.392    3.690  161.771   86.057    0.438    0.150
  561.642    3.630  161.761   86.414    0.427    0.148
  561.892    3.539  162.672   87.436    0.419    0.140
  562.142    3.450  163.582   89.306    0.414    0.126
  562.392    3.303  163.672   87.241    0.428    0.142
  562.642    3.162  163.249   80.390    0.447    0.159
  562.892    2.989  162.008   76.628    0.443    0.186
  563.142    2.825  159.123   68.628    0.426    0.219
  563.392    2.675  156.344   65.229    0.421    0.223
  563.642    2.538  153.767   67.523    0.420    0.201
  563.892    2.416  152.625   70.180    0.433    0.177
  564.142    2.386  152.100   72.777    0.425    0.208
  564.392    2.438  152.091   75.132    0.416    0.238
  564.642    2.594  151.566   77.547    0.413    0.226
  564.892    2.750  151.041   80.507    0.421    0.206
  565.142    2.910  150.619   84.434    0.437    0.192
  565.392    3.051  151.938   86.851    0.438    0.203
  565.642    3.247  153.466   90.356    0.424    0.179
  565.892    3.386  157.759   92.347    0.421    0.158
  566.142    3.518  161.848   90.705    0.429    0.153
  566.392    3.563  163.168   87.851    0.447    0.160
  566.642    3.570  163.466   86.451    0.458    0.162
  566.892    3.480  163.452   83.113    0.471    0.157
  567.142    3.308  163.439   77.232    0.484    0.162
  567.392    3.076  163.427   69.898    0.514    0.226
  567.642    2.541  163.314   62.200    0.479    0.271
  567.892    2.095  162.071   57.772    0.452    0.337
  568.142    1.782  160.316   55.403    0.440    0.377
  568.392    1.549  158.150   58.726    0.428    0.374
  568.642    1.373  155.778   59.507    0.419    0.347
  568.892    1.315  154.330   59.014    0.432    0.277
  569.142    1.344  153.907   60.946    0.441    0.283
  569.392    1.409  153.590   62.936    0.439    0.297
  569.642    1.464  153.063   60.507    0.432    0.287
  569.892    1.502  153.256   57.896    0.424    0.273
  570.142    1.513  153.449   57.404    0.430    0.262
  570.392    1.483  153.438   57.517    0.439    0.265
  570.642    1.462  153.937   58.418    0.446    0.249
  570.892    1.438  153.926   59.440    0.437    0.255
  571.142    1.418  153.298   60.887    0.433    0.282
  571.392    1.418  153.183   63.483    0.435    0.288
  571.642    1.454  152.965   64.022    0.445    0.280
  571.892    1.553  152.955   62.562    0.437    0.268
  572.142    1.680  152.735   60.738    0.425    0.263
  572.392    1.794  152.622   57.945    0.429    0.223
  572.642    1.837  152.610   53.275    0.439    0.201
  572.892    1.854  152.701   54.055    0.446    0.251
  573.142    1.807  153.095   55.197    0.445    0.290
  573.392    1.759  153.494   55.312    0.427    0.286
  573.642    1.749  154.100   55.486    0.409    0.261
  573.892    1.847  154.600   54.934    0.418    0.255
  574.142    2.057  155.306   53.474    0.414    0.254
  574.392    2.241  155.599   53.285    0.375    0.239
  574.642    2.459  155.792   54.852    0.313    0.183
  574.892    2.724  155.268   57.328    0.297    0.127
  575.142    2.930  153.511   59.985    0.337    0.137
  575.392    2.851  152.679   64.457    0.394    0.155
  575.642    2.622  152.566   67.903    0.435    0.177
  575.892    2.351  152.554   72.982    0.456    0.193
  576.142    2.186  152.952   73.824    0.453    0.221
  576.392    2.018  153.144   70.183    0.446    0.245
  576.642    1.928  153.030   67.571    0.434    0.238
  576.892    1.900  153.321   65.566    0.433    0.224
  577.142    1.890  153.310   67.859    0.430    0.245
  577.392    1.925  153.297   69.850    0.412    0.244
  577.642    2.000  153.286   71.115    0.405    0.236
  577.892    2.067  153.275   72.622    0.420    0.251
  578.142    2.183  153.262   73.886    0.431    0.249
  578.392    2.357  153.762   72.427    0.426    0.242
  578.642    2.601  154.059   67.877    0.433    0.239
