~VERSION INFORMATION
 VERS.                 2.0:   CWLS LOG ASCII STANDARD -VERSION 2.0
 WRAP.                  NO:   ONE LINE PER DEPTH STEP
~WELL INFORMATION BLOCK
#MNEM.UNIT           DATA                    DESCRIPTION OF MNEMONIC
#---------    -------------------            -------------------------------
# Generated from Intellog Unique Number	CW_82_90/WELL/903
WELL.         10-24-083-19W4                 : Well_name    - WELL
LOC .         00/10-24-083-19W4/0            : Location     - LOCATION
UWI .         00/10-24-083-19W400            : Uwi          - UNIQUE WELL ID
ENTR.         JAYE                           : Entered      - ENTERED BY
SRVC.         SCHLUMBERGER                   : Scn          - SERVICE COMPANY
DATE.         20 JAN 80                      : Date         - LOG DATE
STRT.M        95                             : top_depth    - START DEPTH
STOP.M        311                            : bot_depth    - STOP DEPTH
STEP.M        0.25                           : increment    - STEP LENGTH
 NULL. -999.2500:NULL Value
~CURVE INFORMATION BLOCK
#MNEM UNIT       ERCB CURVE CODE    CURVE DESCRIPTION
#-----------   ------------------   ----------------------------------
DEPT.M        00 001 00 00         : DEPTH        - DEPTH
CALI.MM       00 280 01 00         : CAL          - CALIPER
GR  .API      00 310 00 00         : GR           - GAMMA RAY
NPHI.V/V      00 330 00 00         : PHIN         - NEUTRON POROSITY (SANDSTONE)
DPHI.V/V      00 890 00 00         : PHID         - DENSITY POROSITY (SANDSTONE)
ILD .OHMM     00 120 00 00         : RESD         - DEEP RESISTIVITY (DIL)
~PARAMETER INFORMATION
#MNEM.UNIT           DATA             DESCRIPTION OF MNEMONIC
#---------         -----------     ------------------------------
GL  .M        567.28               : gl           - GROUND LEVEL ELEVATION
EREF.M        570.48               : kb           - ELEVATION OF DEPTH REFERENCE
DATM.M        567.28               : datum        - DATUM ELEVATION
TDD .M        314                  : tdd          - TOTAL DEPTH DRILLER
RUN .         ONE                  : Run          - RUN NUMBER
ENG .         MIDDLETON            : Engineer     - RECORDING ENGINEER
WIT .         COLLET               : Witness      - WITNESSED BY
BASE.         EDMONTON             : Branch       - HOME BASE OF LOGGING UNIT
MUD .         GEL                  : Mud_type     - MUD TYPE
MATR.         SANDSTONE            : Logunit      - NEUTRON MATRIX
TMAX.C        29                   : BHT          - MAXIMUM RECORDED TEMPERATURE
BHTD.M        314                  : BHTDEP       - MAXIMUM RECORDED TEMPERATURE
RMT .C        11.1                 : MDTP         - TEMPERATURE OF MUD
MUDD.KG/M     1125                 : MWT          - MUD DENSITY
NEUT.         1                    : NEUTRON      - NEUTRON TYPE
RESI.         0                    : RESIST       - RESISTIVITY TYPE
RM  .OHMM     4.12                 : RM           - RESISTIVITY OF MUD
RMC .OHMM     0                    : RMC          - RESISTIVITY OF MUD CAKE
RMF .OHMM     16.7                 : RMF          - RESISTIVITY OF MUD FILTRATE
SUFT.C        0                    : SUFT         - SURFACE TEMPERATURE
~A  DEPTH      CAL       GR     PHIN     PHID     RESD
# ...
  241.000  226.361   81.290    0.438   -0.347    9.723
  241.250  225.933   78.622    0.450   -0.343    9.490
  241.500  225.918   77.747    0.455   -0.350    9.133
  241.750  225.391   78.357    0.459   -0.354    8.667
  242.000  225.273   79.834    0.460   -0.367    8.257
  242.250  225.051   86.010    0.456   -0.377    8.011
  242.500  225.451   86.496    0.454   -0.373    7.850
  242.750  226.259   84.323    0.463   -0.368    7.833
  243.000  227.587   83.573    0.461   -0.359    7.847
  243.250  230.251   84.244    0.460   -0.361    7.877
  243.500  233.640   85.410    0.466   -0.352    7.923
  243.750  236.513   86.205    0.472   -0.355    7.953
  244.000  237.423   87.310    0.470   -0.364    7.777
  244.250  236.380   88.477    0.472   -0.373    7.395
  244.500  237.083   92.427    0.481   -0.369    7.046
  244.750  238.103   92.790    0.486   -0.349    6.822
  245.000  239.636   91.605    0.483   -0.357    6.645
  245.250  240.755   89.061    0.479   -0.374    6.551
  245.500  241.460   87.010    0.466   -0.357    6.642
  245.750  241.446   87.125    0.466   -0.371    6.858
  246.000  241.846   86.747    0.462   -0.375    7.325
  246.250  242.244   86.736    0.458   -0.375    7.936
  246.500  241.404   86.542    0.453   -0.380    8.755
  246.750  238.916   86.164    0.458   -0.388    9.813
  247.000  236.221   86.402    0.414   -0.380   10.111
  247.250  234.042   87.261    0.418   -0.340   10.191
  247.500  231.656   87.375    0.414   -0.352   10.189
  247.750  229.991   82.233    0.405   -0.378   10.248
  248.000  229.149   78.697    0.397   -0.398   10.349
  248.250  228.725   77.390    0.391   -0.403   10.621
  248.500  228.403   76.205    0.387   -0.418   12.026
  248.750  228.284   74.836    0.355   -0.448   14.755
  249.000  228.372   72.600    0.310   -0.476   17.530
  249.250  228.463   70.675    0.208   -0.516   18.171
  249.500  229.065   66.461    0.274   -0.579   18.351
  249.750  229.774   60.452    0.282   -0.514   17.947
  250.000  230.171   58.029    0.271   -0.511   16.726
  250.250  223.547   58.455    0.382   -0.436   15.935
  250.500  224.882   61.601    0.422   -0.376   13.842
  250.750  226.617   80.334    0.437   -0.380   13.621
  251.000  227.022   81.625    0.415   -0.387   13.267
  251.250  226.492   80.936    0.396   -0.394   13.318
  251.500  225.651   78.020    0.413   -0.390   12.998
  251.750  225.326   81.352    0.446   -0.378   12.261
  252.000  224.901   81.775    0.454   -0.387   11.519
  252.250  224.886   81.581    0.441   -0.394   10.799
  252.500  225.080   83.553    0.415   -0.371   10.583
  252.750  225.167   86.883    0.415   -0.361   10.730
  253.000  225.153   87.679    0.413   -0.354   11.123
  253.250  224.930   85.754    0.411   -0.363   11.599
  253.500  225.021   84.631    0.412   -0.370   11.597
  253.750  224.902   85.486    0.440   -0.373   11.617
  254.000  224.783   86.097    0.442   -0.384   11.732
  254.250  224.255   86.893    0.439   -0.361   11.824
  254.500  223.933   87.317    0.418   -0.361   11.870
  254.750  223.711   86.567    0.428   -0.371   11.796
  255.000  223.284   86.310    0.443   -0.382   11.722
  255.250  223.681   87.664    0.442   -0.377   11.838
  255.500  223.874   83.263    0.417   -0.377   12.124
  255.750  224.273   81.275    0.417   -0.389   12.442
  256.000  225.082   81.637    0.416   -0.399   12.975
  256.250  226.202   84.598    0.391   -0.421   13.103
  256.500  226.807   85.022    0.373   -0.431   12.892
  256.750  226.790   85.446    0.375   -0.377   12.507
  257.000  225.952   86.242    0.411   -0.387   12.109
  257.250  226.145   87.285    0.422   -0.406   11.375
  257.500  228.398   89.813    0.453   -0.383   11.102
  257.750  229.208   92.708    0.460   -0.372   10.902
  258.000  228.988   92.635    0.453   -0.380   10.683
  258.250  227.529   90.653    0.448   -0.388   10.574
  258.500  227.516   88.479    0.449   -0.373   10.404
  258.750  230.801   88.099    0.451   -0.373   10.339
  259.000  233.874   87.533    0.447   -0.366   10.379
  259.250  235.099   90.369    0.441   -0.370   10.418
  259.500  233.953   90.669    0.439   -0.365   10.395
  259.750  230.950   90.230    0.440   -0.367   10.248
  260.000  227.121   90.343    0.440   -0.374   10.164
  260.250  225.147   90.954    0.442   -0.389    9.940
  260.500  224.618   92.614    0.448   -0.388    9.740
  260.750  224.807   91.864    0.453   -0.394    9.545
  261.000  225.311   90.248    0.454   -0.376    9.297
  261.250  225.811   85.971    0.452   -0.375    9.056
  261.500  226.517   84.414    0.455   -0.378    8.821
  261.750  227.015   86.324    0.458   -0.383    8.821
  262.000  227.107   91.017    0.471   -0.383    8.368
  262.250  227.608   91.253    0.479   -0.378    8.233
  262.500  228.007   90.504    0.469   -0.361    8.101
  262.750  227.580   81.527    0.433   -0.363    7.938
  263.000  225.504   78.487    0.426   -0.381    7.937
  263.250  223.737   76.623    0.420   -0.387    8.444
  263.500  222.382   74.573    0.359   -0.396   11.004
  263.750  222.265   71.966    0.319   -0.418   14.167
  264.000  222.661   69.544    0.333   -0.435   15.409
  264.250  223.368   67.001    0.372   -0.418   15.782
  264.500  223.974   70.146    0.409   -0.388   15.874
  264.750  224.680   72.736    0.447   -0.320   15.493
  265.000  225.183   74.519    0.451   -0.327   14.038
  265.250  225.579   75.378    0.444   -0.330   13.456
  265.500  224.947   76.298    0.437   -0.332   12.899
  265.750  224.930   75.114    0.440   -0.335   12.438
  266.000  224.917   72.941    0.450   -0.338   12.286
  266.250  224.183   72.061    0.458   -0.342   12.309
  266.500  221.795   72.057    0.457   -0.330   12.991
  266.750  220.339   72.915    0.423   -0.340   15.529
  267.000  220.117   73.091    0.400   -0.362   16.424
  267.250  221.753   69.619    0.376   -0.387   17.404
  267.500  223.595   68.930    0.368   -0.411   17.824
  267.750  224.610   70.467    0.371   -0.427   17.749
  268.000  224.798   71.324    0.380   -0.432   16.776
  268.250  224.889   71.439    0.406   -0.411   15.140
  268.500  224.669   71.739    0.438   -0.357   14.426
  268.750  223.832   72.472    0.451   -0.326   13.579
  269.000  223.096   73.330    0.458   -0.339   12.939
  269.250  222.669   75.055    0.447   -0.348   12.058
  269.500  222.860   77.459    0.409   -0.352   10.752
  269.750  223.361   80.542    0.408   -0.356    9.511
  270.000  224.894   84.059    0.417   -0.379    8.670
  270.250  227.766   88.071    0.437   -0.385    8.600
  270.500  229.400   92.641    0.444   -0.393    8.719
  270.750  232.168   95.909    0.450   -0.397    9.390
  271.000  229.370   94.108    0.454   -0.391   10.568
  271.250  228.529   86.675    0.453   -0.405   11.472
  271.500  228.929   84.439    0.449   -0.438   12.732
  271.750  230.153   80.535    0.344   -0.465   15.066
  272.000  230.139   77.805    0.293   -0.512   15.965
  272.250  229.402   76.930    0.291   -0.522   15.181
  272.500  228.461   75.808    0.307   -0.501   13.867
  272.750  227.723   84.767    0.398   -0.417   12.316
  273.000  227.091   90.077    0.441   -0.410   11.318
  273.250  227.592   93.534    0.469   -0.414   10.719
  273.500  228.402   93.155    0.464   -0.427    9.969
  273.750  229.726   91.722    0.439   -0.430    9.518
  274.000  230.951   91.961    0.442   -0.434    9.068
  274.250  232.277   93.436    0.447   -0.406    8.886
  274.500  232.263   95.964    0.449   -0.411    8.831
  274.750  230.804   96.512    0.451   -0.401    8.829
  275.000  229.449   97.803    0.456   -0.395    8.952
  275.250  227.476   99.341    0.471   -0.416    9.004
  275.500  224.679   98.650    0.478   -0.423    9.057
  275.750  224.046   97.345    0.424   -0.420    9.128
  276.000  225.371   95.109    0.422   -0.420    9.330
  276.250  226.801   95.347    0.428   -0.451    9.291
  276.500  231.940   97.008    0.433   -0.419    8.995
  276.750  234.504   97.063    0.448   -0.379    8.727
  277.000  233.045   96.436    0.453   -0.394    8.133
  277.250  232.412   96.488    0.448   -0.418    7.827
