~V
VERS. 2.00: Ver 2.00
WRAP. NO:
VEND. PRIZM:GeoGraphix
~W
STRT.M 63.0000:START DEPTH
STOP.M 270.0000:STOP DEPTH
STEP.M 0.3000:STEP
NULL. -999.2500:NULL VALUE
WELL. 00/11-34-083-05W4/0 :WELL
COMP. :COMPANY
UWI. 00_11-34-083-05W4_0:UNIQUE WELL ID
FLD. :FIELD
CNTY. :COUNTY
STAT. :STATE
CTRY. :COUNTRY
PDAT. :PERMANENT DATUM
LMF. :LOG MEASURED FROM
DMF. :DRILLING MEASURED FROM
LOC1. :LOCATION LINE 1
LOC2. :LOCATION LINE 2
LOC3. :LOCATION LINE 3
SEC. :SECTION
TWP. :TOWNSHIP
RAN. :RANGE
SRVC. :Logging Company
BASE. :Logging Unit Location
ENG. :Logging Engineer
WITN. :Witnessed By
RUN. :Run No.
MUD_TYPE. :Type Fluid in Hole
MUDS. :Source of Mud Sample
RMFS. :Source of Mud Filtrate
RMCS. :Source of Mud Cake
LOC. :LOCATION
DATE. :LOG DATE
~C
DEPT.M :DEPTH
PHID. :Density Pososity
NPHI. :NPHI
RHOB.KGM3 :Bulk Density
GR.API :GR
ILD.Ohmm :ILD
~P
EKB. -999.2500:ELEVATION OF KELLY BUSHING
EDF. -999.2500:ELEVATION OF DRILLING FLOOR
EGL. -999.2500:ELEVATION OF GROUND LEVEL
EPD. -999.2500:ELEVATION OF PERMANENT DATUM
APD. -999.2500:LMF DISTANCE ABOVE PERMANENT DATUM
LAT. -999.2500:LATITUDE OF WELL LOCATION
LONG. -999.2500:LONGITUDE OF WELL LOCATION
TDD. -999.2500:Total Depth Driller
TDL. -999.2500:Total Depth Logger
LCSG1. -999.2500:Depth of Casing from Logger
CSIZE. -999.2500:Casing Size
CWT. -999.2500:Casing Weight
BS. -999.2500:Bit Size
TLI. 63.0000:Top Logged Interval
BLI. 270.0000:Bottom Logged Interval
MRT. 0.0000:Maximum Recorded Temperature
WMUD. -999.2500:Drilling Mud Density
DFV. -999.2500:Drilling Mud Viscosity
PH. -999.2500:Drilling Mud pH
DFL. -999.2500:Drilling Mud Fluid Loss
RM. -999.2500:Resistivity of Drilling Fluid
RMT. -999.2500:Measured Temp. of Drilling Fluid
RMF. -999.2500:Resistivity of Drilling Fluid Filtrate
RMFT. -999.2500:Measured Temp. of Drilling Fluid Filtrate
RMC. -999.2500:Resistivity of Mud Cake
RMCT. -999.2500:Measured Temp. of Mud Cake
PHImax.V/V 0.3900:Maximum allowable Porosity
RwBnd.OHMM 0.1500:Bound Water Resistivity
RhoHy.KG/MT 1000.0000:Hydrocarbon Bulk density
SwCutoff.V/V 0.7000:Water Saturation Cutoff
PHINsh.V/V 0.4800:New Description
Rw.OHMM 1.0000:Formation Water Resistivity
Rshl.OHMM 5.0000:Resistivity shale
Trw.DEGC 25.0000:Rw measured at Lab conditions
ShaleCutoff.V/V 0.4000:New Description
GRcln.API 45.0000:Gamma Ray clean
RhoM.KG/MT 2650.0000:Bulk Density Matrix
GRshl.API 90.0000:Gamma Ray shale
m. 2.0000:Archie "m"
n. 2.0000:Archie "n"
GasTol.V/V 0.0500:Gas Tollerance
BHTemp.DEGC 25.0000:Bottom Hole Temperature
BHTDepth.M 1000.0000:Bottom Hole Depth
PHIDsh.US/MT 0.1800:New Description
a. 1.0000:Archie "a"
Gas Tol.V/V 0.0500:Gas Tollerance
RhoF.KG/MT 1000.0000:Bulk Density Fluid
RhoShl.KG/MT 2300.0000:Bulk Density Shale
TarCutoff.V/V 0.0300:New Description
SurfTemp.DEGC 10.0000:New Description
HIshl.V/V 0.4000:Neutron Hydrogen Index shale
NULL. -999.2500:
~A
# ...
  243.0000     0.3031     0.3685  2149.8450    77.6184     1.3977 
  243.3000     0.3333     0.3472  2100.0483    59.0939     1.3786 
  243.6000     0.3378     0.3476  2092.5872    67.7025     1.3642 
  243.9000     0.3044     0.3538  2147.8137    76.7649     1.4074 
  244.2000     0.2809     0.3656  2186.5720    84.8257     1.6164 
  244.5000     0.2627     0.3799  2216.5835    94.5007     1.7847 
  244.8000     0.2693     0.3601  2205.6877    94.1066     1.7755 
  245.1000     0.2597     0.3647  2221.4954    87.9076     1.7663 
  245.4000     0.2617     0.3707  2218.2039    80.0827     1.6287 
  245.7000     0.3193     0.3745  2123.1865    56.9836     1.4037 
  246.0000     0.3661     0.3614  2046.0073    46.9462     1.1787 
  246.3000     0.3616     0.3595  2053.3945    48.6265     1.0800 
  246.6000     0.3520     0.3591  2069.2173    48.7262     1.0008 
  246.9000     0.3710     0.3590  2037.8325    45.5087     0.9217 
  247.2000     0.3930     0.3623  2001.4847    45.6197     0.8426 
  247.5000     0.3945     0.3718  1999.0892    49.4289     0.8452 
  247.8000     0.3819     0.3788  2019.9125    51.2071     0.8795 
  248.1000     0.3661     0.3601  2045.9741    52.4653     0.9138 
  248.4000     0.3510     0.3457  2070.8728    56.2783     0.9360 
  248.7000     0.3401     0.3451  2088.8994    66.3082     0.9371 
  249.0000     0.3286     0.3575  2107.8059    69.6545     0.9381 
  249.3000     0.3349     0.3651  2097.4092    71.0501     0.9391 
  249.6000     0.3503     0.3636  2071.9954    65.7350     0.9355 
  249.9000     0.3617     0.3595  2053.1738    54.9441     0.9010 
  250.2000     0.3690     0.3682  2041.1144    51.5783     0.8666 
  250.5000     0.3809     0.3665  2021.5306    51.7259     0.8322 
  250.8000     0.3693     0.3723  2040.6307    51.8735     0.7978 
  251.1000     0.3757     0.3884  2030.1324    52.1016     0.7633 
  251.4000     0.3814     0.3801  2020.6737    53.1481     0.7367 
  251.7000     0.3795     0.3712  2023.8162    55.3821     0.7424 
  252.0000     0.3755     0.3773  2030.4562    52.5232     0.7481 
  252.3000     0.3825     0.3765  2018.8529    52.6185     0.7538 
  252.6000     0.3919     0.3785  2003.3741    53.8088     0.7594 
  252.9000     0.3894     0.3750  2007.4386    54.9991     0.7651 
  253.2000     0.3851     0.3635  2014.6473    57.4856     0.7803 
  253.5000     0.3877     0.3598  2010.3160    60.0626     0.8006 
  253.8000     0.3780     0.3626  2026.3787    62.0978     0.8208 
  254.1000     0.3674     0.3665  2043.7887    63.7677     0.8411 
  254.4000     0.3664     0.3681  2045.4359    62.3357     0.8653 
  254.7000     0.3660     0.3728  2046.0591    62.4503     0.9305 
  255.0000     0.3659     0.3705  2046.2552    64.2026     0.9958 
  255.3000     0.3575     0.3503  2060.0610    69.9157     1.0611 
  255.6000     0.3354     0.3195  2096.5464    80.9841     1.2857 
  255.9000     0.2982     0.3343  2157.9368   103.6356     1.4777 
  256.2000     0.2521     0.3492  2234.0608   109.9601     1.4742 
  256.5000     0.2431     0.3750  2248.9260   108.9001     1.4454 
  256.8000     0.2683     0.3940  2207.3799   101.0728     1.2627 
  257.1000     0.2985     0.4100  2157.4185    92.4337     1.0799 
  257.4000     0.3573     0.4103  2060.4343    82.1751     0.9834 
  257.7000     0.3662     0.3864  2045.7401    64.9971     0.9140 
  258.0000     0.3679     0.3798  2042.9045    60.1350     0.8445 
  258.3000     0.3680     0.3670  2042.7223    55.8501     0.8803 
  258.6000     0.3611     0.3525  2054.1514    63.9404     1.0190 
  258.9000     0.3399     0.3520  2089.2244    94.0985     1.1577 
  259.2000     0.2671     0.3494  2209.3545    86.2239     1.5643 
  259.5000     0.2772     0.3492  2192.6794    76.5061     1.9930 
  259.8000     0.2014     0.3560  2317.7395    85.6915     2.4471 
  260.1000     0.1329     0.3500  2430.7241    88.5793     3.1233 
  260.4000     0.0853     0.2976  2509.2554    82.2094     3.9734 
  260.7000     0.0552     0.2848  2558.8845    78.1739     4.9305 
  261.0000     0.0592     0.2810  2552.2375    74.6687     6.1663 
  261.3000     0.0596     0.2752  2551.6521    72.4712     7.4240 
  261.6000     0.0481     0.2787  2570.5950    71.0704     8.1474 
  261.9000     0.0375     0.2858  2588.0469    72.4296     8.4096 
  262.2000     0.0385     0.2890  2586.4756    73.9156     8.2499 
  262.5000     0.0395     0.2855  2584.8269    75.4689     7.9827 
  262.8000     0.0349     0.2755  2592.3835    76.1184     7.7412 
  263.1000     0.0494     0.2791  2568.4578    76.3154     7.5679 
  263.4000     0.0638     0.2865  2544.7539    72.1368     7.3946 
  263.7000     0.0588     0.2927  2553.0081    70.1598     7.2214 
  264.0000     0.0547     0.2940  2559.7141    69.7981     7.2066 
  264.3000     0.0621     0.2928  2547.4944    70.0961     7.2461 
  264.6000     0.0749     0.2914  2526.3721    72.3625     7.2856 
  264.9000     0.0640     0.2948  2544.3301    74.6290     7.5429 
  265.2000     0.0653     0.3057  2542.2410    74.0495     8.0455 
  265.5000     0.0538     0.2606  2561.2810    73.8177     8.5481 
  265.8000     0.0210     0.1602  2615.3213    75.2336     9.6960 
  266.1000     0.0000     0.1616  2649.9917    77.3135    11.0915 
  266.4000     0.0145     0.1739  2626.0422    72.4073    12.2404 
  266.7000     0.0204     0.1846  2616.3936    65.8858    13.3638 
  267.0000     0.0187     0.1903  2619.1482    60.8932    13.2414 
  267.3000     0.0266     0.1926  2606.0950    81.9872    13.0563 
  267.6000     0.0313     0.1938  2598.3174    83.3224    12.7131 
  267.9000     0.0301     0.1950  2600.4050    85.2934    12.3154 
  268.2000     0.0264     0.1968  2606.4856    85.9230    11.9208 
  268.5000     0.0464     0.1961  2573.4907    85.9887    11.7757 
  268.8000     0.0589     0.1931  2552.8923    86.0970    11.6305 
  269.1000     0.0485     0.1906  2570.0264    86.5204    11.4507 
  269.4000     0.0264     0.1996  2606.5208    87.3245    11.2624 
  269.7000     0.0124     0.2526  2629.4609    87.6451    10.8795 
  270.0000     0.0160     0.3173  2623.6438    87.7593    10.2788 
