~VERSION INFORMATION
 VERS.                 2.0:   CWLS LOG ASCII STANDARD -VERSION 2.0
 WRAP.                  NO:   ONE LINE PER DEPTH STEP
~WELL INFORMATION BLOCK
#MNEM.UNIT           DATA                    DESCRIPTION OF MNEMONIC
#---------    -------------------            -------------------------------
# Generated from Intellog Unique Number	CS_77_79/WELL/948
LOC .         00/10-11-079-07W4/0            : Location     - LOCATION
UWI .         00/10-11-079-07W4/0            : Uwi          - UNIQUE WELL ID
ENTR.         JHS                            : Entered      - ENTERED BY
SRVC.         SCHLUMBERGER                   : Scn          - SERVICE COMPANY
STRT.M        110                            : top_depth    - START DEPTH
STOP.M        345                            : bot_depth    - STOP DEPTH
STEP.M        0.25                           : increment    - STEP LENGTH
 NULL. -999.2500:NULL Value
~CURVE INFORMATION BLOCK
#MNEM UNIT       ERCB CURVE CODE    CURVE DESCRIPTION
#-----------   ------------------   ----------------------------------
DEPT.M        00 001 00 00         : DEPTH        - DEPTH
DPHI.V/V      00 890 00 00         : PHID         - DENSITY POROSITY (LIMESTONE)
NPHI.V/V      00 330 00 00         : PHIN         - NEUTRON POROSITY (LIMESTONE)
GR  .API      00 310 00 00         : GR           - GAMMA RAY
ILD .OHMM     00 120 00 00         : RESD         - DEEP RESISTIVITY (DIL)
RHOB.KG/M3    00 350 00 00         : DENS         - BULK DENSITY
~PARAMETER INFORMATION
#MNEM.UNIT           DATA             DESCRIPTION OF MNEMONIC
#---------         -----------     ------------------------------
GL  .M        550.24               : gl           - GROUND LEVEL ELEVATION
EREF.M        553.62               : kb           - ELEVATION OF DEPTH REFERENCE
DATM.M        553.62               : datum        - DATUM ELEVATION
TDD .M        349                  : tdd          - TOTAL DEPTH DRILLER
RUN .         ONE                  : Run          - RUN NUMBER
ENG .         BILL                 : Engineer     - RECORDING ENGINEER
WIT .         JIM                  : Witness      - WITNESSED BY
MUD .         GEL                  : Mud_type     - MUD TYPE
MATR.         LIMESTONE            : Logunit      - NEUTRON MATRIX
TMAX.C        15                   : BHT          - MAXIMUM RECORDED TEMPERATURE
BHTD.M        349                  : BHTDEP       - MAXIMUM RECORDED TEMPERATURE
MATR.         1                    : LOGUNIT      - NEUTRON MATRIX
RMT .C        25                   : MDTP         - TEMPERATURE OF MUD
NEUT.         1                    : NEUTRON      - NEUTRON TYPE
RESI.         0                    : RESIST       - RESISTIVITY TYPE
RMC .OHMM     0.25                 : RMC          - RESISTIVITY OF MUD CAKE
RMF .OHMM     0.25                 : RMF          - RESISTIVITY OF MUD FILTRATE
SUFT.C        15                   : SUFT         - SURFACE TEMPERATURE
~A  DEPTH     PHID     PHIN       GR     RESD     DENS
# ...
  292.500    0.241    0.406  133.541   15.219 2297.480
  292.750    0.235    0.384  143.460   13.082 2308.060
  293.000    0.225    0.364  145.321   11.461 2324.980
  293.250    0.208    0.353  114.951   10.426 2354.600
  293.500    0.204    0.366   98.217    9.484 2360.950
  293.750    0.223    0.349  100.078    9.127 2329.220
  294.000    0.249    0.343  101.939    9.293 2284.790
  294.250    0.260    0.349  101.321    9.466 2265.750
  294.500    0.270    0.360   92.645   10.201 2248.830
  294.750    0.267    0.375   88.928   10.992 2253.060
  295.000    0.262    0.370   92.648   12.298 2261.520
  295.250    0.260    0.374   84.592   13.761 2265.750
  295.500    0.247    0.380   79.015   15.111 2286.910
  295.750    0.239    0.388   87.075   17.228 2301.720
  296.000    0.230    0.370   96.994   18.917 2316.520
  296.250    0.221    0.359  104.433   18.907 2331.330
  296.500    0.226    0.366  110.633   16.254 2322.870
  296.750    0.219    0.361  107.536   13.457 2335.560
  297.000    0.210    0.336  110.637   11.788 2350.370
  297.250    0.209    0.324  111.878   10.928 2352.490
  297.500    0.207    0.358  118.078   10.517 2356.720
  297.750    0.204    0.374  115.600   10.508 2360.950
  298.000    0.205    0.356  115.602   10.702 2358.830
  298.250    0.208    0.354  113.744   10.902 2354.600
  298.500    0.210    0.353  112.506   11.314 2350.370
  298.750    0.209    0.336  119.326   11.741 2352.490
  299.000    0.218    0.329  118.088   12.415 2337.680
  299.250    0.218    0.338  124.908   12.883 2337.680
  299.500    0.229    0.327  131.727   12.873 2318.640
  299.750    0.251    0.330  137.307   12.869 2280.560
  300.000    0.257    0.338  129.871   14.130 2269.980
  300.250    0.257    0.343  106.319   15.516 2269.980
  300.500    0.255    0.343   83.387   17.360 2274.220
  300.750    0.246    0.340   82.768   19.059 2289.020
  301.000    0.241    0.351   92.687   19.781 2297.480
  301.250    0.239    0.362  104.466   20.145 2301.720
  301.500    0.240    0.372  114.385   19.388 2299.600
  301.750    0.242    0.369  115.006   17.638 2295.370
  302.000    0.242    0.372  128.025   15.743 2295.370
  302.250    0.244    0.391  132.985   15.443 2293.250
  302.500    0.249    0.372  129.887   16.953 2284.790
  302.750    0.254    0.350  123.691   17.931 2276.330
  303.000    0.254    0.345  112.535   20.062 2276.330
  303.250    0.246    0.336   94.561   22.873 2289.020
  303.500    0.235    0.333   98.902   24.649 2308.060
  303.750    0.226    0.379  116.879   24.173 2322.870
  304.000    0.223    0.401  134.236   19.273 2329.220
  304.250    0.229    0.390  131.138   17.207 2318.640
  304.500    0.228    0.379  116.884   15.358 2320.750
  304.750    0.223    0.407  145.398   14.236 2329.220
  305.000    0.219    0.408  153.458   12.950 2335.560
  305.250    0.219    0.408  149.120   12.234 2335.560
  305.500    0.224    0.406  144.783   11.997 2327.100
  305.750    0.228    0.395  136.107   12.218 2320.750
  306.000    0.234    0.385  121.232   12.918 2310.180
  306.250    0.234    0.392  122.474   13.662 2310.180
  306.500    0.236    0.400  129.913   14.721 2305.950
  306.750    0.236    0.385  125.576   14.995 2305.950
  307.000    0.220    0.382  136.735   13.638 2333.450
  307.250    0.212    0.400  144.174   12.880 2348.260
  307.500    0.223    0.405  129.920   12.873 2329.220
  307.750    0.230    0.417  120.004   13.109 2316.520
  308.000    0.226    0.395  114.427   13.354 2322.870
  308.250    0.223    0.393  129.925   13.343 2329.220
  308.500    0.254    0.379  120.629   13.086 2276.330
  308.750    0.301    0.358  105.755   13.328 2195.940
  309.000    0.311    0.354   90.880   14.095 2179.020
  309.250    0.311    0.350   42.534   15.188 2179.020
  309.500    0.306    0.354   38.197   16.993 2187.480
  309.750    0.301    0.365   44.397   19.372 2195.940
  310.000    0.291    0.374   44.399   20.490 2212.870
  310.250    0.285    0.372   51.839   23.358 2223.440
  310.500    0.301    0.376   47.501   25.167 2195.940
  310.750    0.308    0.370   41.304   25.155 2183.250
  311.000    0.312    0.387   43.166   25.141 2176.900
  311.250    0.309    0.366   43.167   26.093 2181.130
  311.500    0.304    0.370   45.028   29.193 2189.600
  311.750    0.299    0.388   48.749   33.286 2198.060
  312.000    0.292    0.398   49.990   35.864 2210.750
  312.250    0.286    0.386   56.810   33.874 2221.330
  312.500    0.277    0.391   84.084   31.401 2236.140
  312.750    0.271    0.390   97.103   31.383 2246.710
  313.000    0.303    0.380   57.435   33.182 2191.710
  313.250    0.317    0.382   47.519   36.441 2168.440
  313.500    0.323    0.375   44.422   44.789 2157.860
  313.750    0.322    0.376   42.563   51.066 2159.980
  314.000    0.317    0.367   42.565   57.144 2168.440
  314.250    0.308    0.374   40.708   62.749 2183.250
  314.500    0.304    0.366   46.907   67.603 2189.600
  314.750    0.294    0.365   49.388   70.164 2206.520
  315.000    0.288    0.364   59.307   66.272 2217.100
  315.250    0.283    0.365   67.367   58.055 2225.560
  315.500    0.277    0.367   85.344   46.293 2236.140
  315.750    0.275    0.388  100.841   32.358 2240.370
  316.000    0.315    0.386   77.909   28.878 2170.560
  316.250    0.312    0.377   59.315   29.413 2176.900
  316.500    0.298    0.381   56.838   32.299 2200.170
  316.750    0.292    0.402   77.914   35.467 2210.750
  317.000    0.288    0.419   84.734   36.806 2217.100
  317.250    0.289    0.395   88.454   34.114 2214.980
  317.500    0.307    0.408   86.596   33.460 2185.370
  317.750    0.317    0.403   64.284   36.051 2168.440
  318.000    0.304    0.393   62.426   38.849 2189.600
  318.250    0.286    0.382   66.767   42.657 2221.330
  318.500    0.281    0.391   80.404   45.107 2229.790
  318.750    0.297    0.400   83.505   45.078 2202.290
  319.000    0.298    0.387   77.309   43.381 2200.170
  319.250    0.278    0.405   96.525   40.981 2234.020
  319.500    0.265    0.421  108.304   37.282 2257.290
  319.750    0.257    0.391   85.371   33.281 2269.980
  320.000    0.247    0.395  100.249   30.274 2286.910
  320.250    0.242    0.408  108.928   27.027 2295.370
  320.500    0.272    0.406   99.632   21.550 2244.600
  320.750    0.302    0.391   83.518   20.741 2193.830
  321.000    0.293    0.377   48.809   24.556 2208.630
  321.250    0.282    0.393   57.489   29.069 2227.670
  321.500    0.285    0.406   69.267   32.524 2223.440
  321.750    0.282    0.397   57.492   35.715 2227.670
  322.000    0.264    0.398   77.948   42.278 2259.410
  322.250    0.242    0.418   94.066   43.059 2295.370
  322.500    0.234    0.419  101.505   34.334 2310.180
  322.750    0.229    0.409  112.044   23.551 2318.640
  323.000    0.233    0.437  108.327   19.135 2312.290
  323.250    0.234    0.411   95.931   16.144 2310.180
  323.500    0.228    0.395  104.611   14.411 2320.750
  323.750    0.277    0.391  105.852   13.611 2236.140
  324.000    0.268    0.385   92.837   14.392 2250.940
  324.250    0.265    0.422   81.062   15.222 2257.290
  324.500    0.278    0.402   88.501   18.362 2234.020
  324.750    0.287    0.396   94.082   20.542 2219.210
  325.000    0.293    0.403   93.463   21.723 2208.630
  325.250    0.311    0.391   71.771   24.310 2179.020
  325.500    0.317    0.396   52.557   32.832 2168.440
  325.750    0.304    0.422   50.700   44.344 2189.600
  326.000    0.294    0.437   55.660   53.487 2206.520
  326.250    0.280    0.464   68.058   54.474 2231.900
  326.500    0.271    0.475   81.696   34.010 2246.710
  326.750    0.267    0.478   94.095   28.158 2253.060
  327.000    0.260    0.460  100.914   25.616 2265.750
  327.250    0.254    0.460  108.974   23.745 2276.330
  327.500    0.257    0.432   97.199   23.729 2269.980
  327.750    0.255    0.398   99.060   22.840 2274.220
  328.000    0.259    0.384   95.342   20.387 2267.870
  328.250    0.268    0.385   92.865   19.256 2250.940
  328.500    0.271    0.411   91.007   19.246 2246.710
  328.750    0.268    0.411   95.967   19.973 2250.940
