~VERSION INFORMATION
 VERS.                 2.0:   CWLS LOG ASCII STANDARD -VERSION 2.0
 WRAP.                  NO:   ONE LINE PER DEPTH STEP
~WELL INFORMATION BLOCK
#MNEM.UNIT           DATA                    DESCRIPTION OF MNEMONIC
#---------    -------------------            -------------------------------
# Generated from Intellog Unique Number	CN_91_93/WELL/3281
NULL.         -999.2500                      : Null_value
WELL.         PARAMOUNT RESOURCES LTD.       : Well_name    - WELL              
LOC .         00/11-31-093-18W4/0            : Location     - LOCATION          
UWI .         00/11-31-093-18W400            : Uwi          - UNIQUE WELL ID    
ENTR.         JOETTE                         : Entered      - ENTERED BY        
SRVC.         COMPUTALOG                     : Scn          - SERVICE COMPANY   
DATE.         04/29/92                       : Date         - LOG DATE          
STRT.M        85                             : top_depth    - START DEPTH       
STOP.M        240                            : bot_depth    - STOP DEPTH        
STEP.M        0.25                           : increment    - STEP LENGTH       
~CURVE INFORMATION BLOCK
#MNEM UNIT       ERCB CURVE CODE    CURVE DESCRIPTION
#-----------   ------------------   ----------------------------------
DEPT.M        00 001 00 00         : DEPTH        - DEPTH                       
CALI.MM       00 280 01 00         : CAL          - CALIPER                     
GR  .API      00 310 00 00         : GR           - GAMMA RAY                   
NPHI.V/V      00 330 00 00         : PHIN         - NEUTRON POROSITY (SANDSTONE)
DPHI.V/V      00 890 00 00         : PHID         - DENSITY POROSITY (SANDSTONE)
ILD .OHMM     00 120 00 00         : RESD         - DEEP RESISTIVITY (DIL)      
~PARAMETER INFORMATION       
#MNEM.UNIT           DATA             DESCRIPTION OF MNEMONIC
#---------         -----------     ------------------------------
GL  .M        521                  : gl           - GROUND LEVEL ELEVATION      
EREF.M        524.8                : kb           - ELEVATION OF DEPTH REFERENCE
DATM.M        524.8                : datum        - DATUM ELEVATION             
TDD .M        241.5                : tdd          - TOTAL DEPTH DRILLER         
RUN .         ONE                  : Run          - RUN NUMBER                  
ENG .         BILL                 : Engineer     - RECORDING ENGINEER          
WIT .         JIM                  : Witness      - WITNESSED BY                
MUD .         GEL                  : Mud_type     - MUD TYPE                    
MATR.         SANDSTONE            : Logunit      - NEUTRON MATRIX              
TMAX.C        21                   : BHT          - MAXIMUM RECORDED TEMPERATURE
BHTD.M        241.5                : BHTDEP       - MAXIMUM RECORDED TEMPERATURE
RMT .C        16                   : MDTP         - TEMPERATURE OF MUD          
MUDD.KG/M     1080                 : MWT          - MUD DENSITY                 
NEUT.         1                    : NEUTRON      - NEUTRON TYPE                
RESI.         0                    : RESIST       - RESISTIVITY TYPE            
RM  .OHMM     3.9                  : RM           - RESISTIVITY OF MUD          
RMC .OHMM     3.9                  : RMC          - RESISTIVITY OF MUD CAKE     
RMF .OHMM     3.9                  : RMF          - RESISTIVITY OF MUD FILTRATE 
SUFT.C        4                    : SUFT         - SURFACE TEMPERATURE         
~A  DEPTH      CAL       GR     PHIN     PHID     RESD
   85.000  169.840   78.346    0.415    0.249   12.706
   85.250  172.311   68.300    0.390    0.230   11.275
   85.500  165.420   65.642    0.375    0.213    9.045
   85.750  159.515   74.220    0.402    0.231    7.323
   86.000  155.581   83.981    0.437    0.248    6.680
   86.250  161.008   89.011    0.467    0.269    5.928
   86.500  163.972   87.538    0.493    0.272    5.261
   86.750  164.964   85.178    0.462    0.262    5.164
   87.000  164.972   83.408    0.460    0.266    5.163
   87.250  166.950   86.369    0.513    0.271    5.259
   87.500  167.942   88.442    0.523    0.275    5.763
   87.750  166.966   89.334    0.526    0.278    6.259
   88.000  164.016   87.860    0.510    0.278    6.986
   88.250  161.066   84.908    0.494    0.274    7.517
   88.500  166.002   80.773    0.470    0.261    8.015
   88.750  162.561   77.230    0.455    0.256    7.941
   89.000  165.031   75.461    0.451    0.255    7.047
   89.250  168.980   79.603    0.435    0.260    6.487
   89.500  169.480   84.338    0.455    0.254    6.486
   89.750  169.487   88.482    0.500    0.252    6.980
   90.000  169.495   84.939    0.488    0.253    7.580
   90.250  169.501   79.326    0.471    0.240    7.934
   90.500  169.509   73.713    0.461    0.220    7.440
   90.750  168.039   74.604    0.451    0.195    6.602
   91.000  166.076   81.409    0.471    0.223    5.967
   91.250  165.590   83.482    0.486    0.237    5.699
   91.500  164.119   87.331    0.497    0.252    5.594
   91.750  167.083   90.587    0.478    0.262    5.803
   92.000  169.554   88.226    0.473    0.260    6.244
   92.250  167.591   82.022    0.465    0.263    6.477
   92.500  166.120   79.661    0.456    0.248    6.300
   92.750  164.648   79.665    0.463    0.270    5.907
   93.000  162.193   81.740    0.457    0.276    5.488
   93.250  164.664   82.336    0.459    0.271    5.194
   93.500  167.626   87.365    0.476    0.276    4.915
   93.750  167.634   89.439    0.487    0.279    4.825
   94.000  167.148   87.670    0.478    0.275    4.913
   94.250  166.170   87.084    0.481    0.273    5.143
   94.500  165.192   87.384    0.490    0.274    5.484
   94.750  164.706   89.458    0.492    0.269    6.350
   95.000  165.208   90.939    0.487    0.264    6.587
   95.250  165.215   88.579    0.509    0.268    7.153
   95.500  165.221   84.148    0.514    0.266    7.985
   95.750  163.257   75.579    0.470    0.262    8.995
   96.000  158.830   75.880    0.450    0.261    8.831
   96.250  158.837   75.884    0.444    0.262    7.836
   96.500  161.310   74.115    0.453    0.263    7.348
   96.750  165.751   75.597    0.464    0.262    7.082
   97.000  169.208   79.150    0.485    0.262    6.763
   97.250  166.259   77.971    0.482    0.274    6.640
   97.500  165.282   80.341    0.466    0.285    6.700
   97.750  165.287   79.458    0.461    0.295    6.823
   98.000  165.295   80.053    0.454    0.293    6.822
   98.250  164.809   84.492    0.461    0.274    6.821
   98.500  170.236   88.636    0.481    0.257    6.820
   98.750  171.229   91.598    0.507    0.247    6.946
   99.000  170.251   88.350    0.493    0.229    7.073
   99.250  165.825   85.102    0.468    0.199    7.072
   99.500  162.382   88.654    0.454    0.204    6.880
   99.750  163.374   92.502    0.465    0.220    6.510
  100.000  165.353   97.828    0.452    0.223    6.332
  100.250  166.839   95.467    0.446    0.225    6.332
  100.500  166.355   93.402    0.455    0.238    6.159
  100.750  165.870   91.928    0.459    0.244    6.046
  101.000  166.862   92.820    0.456    0.239    6.045
  101.250  168.348   94.598    0.452    0.235    6.100
  101.500  168.847   96.080    0.455    0.242    6.269
  101.750  167.376   96.381    0.455    0.253    6.326
  102.000  165.907   93.133    0.463    0.251    6.325
  102.250  165.913   89.589    0.464    0.277    6.325
  102.500  166.413   84.863    0.452    0.269    6.324
  102.750  166.421   86.346    0.431    0.259    6.381
  103.000  164.455   87.533    0.427    0.258    6.499
  103.250  160.522   83.103    0.451    0.271    6.741
  103.500  161.514   76.898    0.445    0.282    6.864
  103.750  159.059   76.016    0.452    0.278    7.186
  104.000  156.602   76.316    0.462    0.275    7.875
  104.250  155.625   71.885    0.456    0.285    8.244
  104.500  154.645   61.247    0.431    0.299    8.630
  104.750  152.682   64.799    0.426    0.298    8.472
  105.000  153.182   66.578    0.426    0.292    7.871
  105.250  158.116   68.060    0.411    0.283    7.246
  105.500  161.082   77.525    0.428    0.277    6.984
  105.750  164.044   79.599    0.445    0.275    6.919
  106.000  162.573   82.855    0.452    0.272    6.793
  106.250  157.653   86.407    0.458    0.267    6.608
  106.500  158.646   81.682    0.440    0.281    6.310
  106.750  162.597   77.547    0.427    0.289    6.026
  107.000  164.081   76.665    0.425    0.291    5.703
  107.250  164.583   79.626    0.462    0.291    5.497
  107.500  165.082   83.178    0.458    0.282    5.298
  107.750  164.595   85.251    0.451    0.274    5.445
  108.000  164.110   85.256    0.453    0.272    5.913
  108.250  164.611   84.078    0.461    0.286    6.600
  108.500  164.619   81.718    0.466    0.294    7.368
  108.750  164.625   81.722    0.478    0.295    8.224
  109.000  164.633   78.769    0.481    0.290    9.524
  109.250  164.148   66.061    0.459    0.300   10.438
  109.500  162.676   53.057    0.435    0.320    7.569
  109.750  161.206   53.357    0.413    0.335    6.905
  110.000  161.214   56.318    0.409    0.329    6.415
  110.250  162.698   59.575    0.406    0.319    6.015
  110.500  165.663   63.422    0.395    0.304    5.537
  110.750  166.656   72.887    0.457    0.297    5.337
  111.000  166.663   86.195    0.494    0.302    5.239
  111.250  165.192   90.340    0.461    0.287    5.336
  111.500  165.199   93.892    0.516    0.279    5.848
  111.750  167.669   83.844    0.511    0.281    6.468
  112.000  167.676   71.431    0.513    0.280    6.960
  112.250  166.205   64.636    0.478    0.273    6.770
  112.500  156.358   75.283    0.438    0.265    6.585
  112.750  155.380   85.044    0.443    0.249    6.585
  113.000  162.780   88.892    0.451    0.255    6.463
  113.250  170.177   87.418    0.464    0.257    6.404
  113.500  170.185   86.535    0.475    0.259    6.403
  113.750  168.222   89.201    0.493    0.264    6.764
  114.000  168.228   90.387    0.505    0.268    7.212
  114.250  162.322   89.801    0.487    0.274    7.761
  114.500  155.431   86.553    0.472    0.277    7.145
  114.750  153.469   80.940    0.459    0.283    6.577
  115.000  152.490   77.692    0.460    0.288    6.224
  115.250  152.991   83.019    0.449    0.277    6.054
  115.500  152.505   82.136    0.447    0.279    5.998
  115.750  157.440   86.280    0.444    0.254    6.108
  116.000  163.853   87.467    0.445    0.258    6.221
  116.250  168.788   86.880    0.439    0.259    6.220
  116.500  167.810   86.885    0.430    0.258    6.220
  116.750  166.340   88.662    0.440    0.260    6.275
  117.000  166.346   90.736    0.481    0.268    6.332
  117.250  165.860   90.445    0.466    0.263    6.332
  117.500  165.867   88.085    0.453    0.254    6.331
  117.750  165.875   86.315    0.460    0.250    6.215
  118.000  165.390   85.728    0.456    0.258    6.215
  118.250  164.903   88.985    0.444    0.263    5.989
  118.500  164.418   93.719    0.450    0.254    5.772
  118.750  165.412   93.132    0.461    0.250    5.719
  119.000  166.405   91.954    0.461    0.256    5.614
  119.250  167.398   92.255    0.459    0.255    5.613
  119.500  167.898   92.554    0.467    0.251    5.665
  119.750  167.905   91.967    0.480    0.256    5.822
  120.000  168.899   91.676    0.496    0.262    5.822
  120.250  169.397   91.385    0.499    0.267    6.093
  120.500  168.420   91.390    0.494    0.269    6.497
  120.750  164.484   91.689    0.478    0.266    6.801
  121.000  165.970   91.990    0.454    0.261    7.185
  121.250  167.948   89.628    0.458    0.262    7.184
