~VERSION INFORMATION
 VERS.                 2.0:   CWLS LOG ASCII STANDARD -VERSION 2.0
 WRAP.                  NO:   ONE LINE PER DEPTH STEP
~WELL INFORMATION BLOCK
#MNEM.UNIT           DATA                    DESCRIPTION OF MNEMONIC
#---------    -------------------            -------------------------------
# Generated from Intellog Unique Number	CW_76_78/WELL/2587
WELL.         SCURRY ET AL MISTAHAE          : Well_name    - WELL
LOC .         00/13-06-078-01W5/0            : Location     - LOCATION
UWI .         00/13-06-078-01W5/0            : Uwi          - UNIQUE WELL ID
ENTR.         MAX                            : Entered      - ENTERED BY
SRVC.         WESTERN ATLAS                  : Scn          - SERVICE COMPANY
STRT.M        330                            : top_depth    - START DEPTH
STOP.M        585                            : bot_depth    - STOP DEPTH
STEP.M        0.25                           : increment    - STEP LENGTH
 NULL. -999.2500:NULL Value
~CURVE INFORMATION BLOCK
#MNEM UNIT       ERCB CURVE CODE    CURVE DESCRIPTION
#-----------   ------------------   ----------------------------------
DEPT.M        00 001 00 00         : DEPTH        - DEPTH
ILD .OHMM     00 120 00 00         : RESD         - DEEP RESISTIVITY (DIL)
NPHI.V/V      00 330 00 00         : PHIN         - NEUTRON POROSITY (SANDSTONE)
DPHI.V/V      00 890 00 00         : PHID         - DENSITY POROSITY (SANDSTONE)
CALI.MM       00 280 01 00         : CAL          - CALIPER
GR  .API      00 310 00 00         : GR           - GAMMA RAY
~PARAMETER INFORMATION
#MNEM.UNIT           DATA             DESCRIPTION OF MNEMONIC
#---------         -----------     ------------------------------
GL  .M        633.3                : gl           - GROUND LEVEL ELEVATION
EREF.M        637.67               : kb           - ELEVATION OF DEPTH REFERENCE
DATM.M        633.3                : datum        - DATUM ELEVATION
TDD .M        611                  : tdd          - TOTAL DEPTH DRILLER
RUN .         ONE                  : Run          - RUN NUMBER
ENG .         BILL                 : Engineer     - RECORDING ENGINEER
WIT .         JIM                  : Witness      - WITNESSED BY
MUD .         GEL                  : Mud_type     - MUD TYPE
MATR.         SANDSTONE            : Logunit      - NEUTRON MATRIX
TMAX.C        29                   : BHT          - MAXIMUM RECORDED TEMPERATURE
BHTD.M        611                  : BHTDEP       - MAXIMUM RECORDED TEMPERATURE
RMT .C        17                   : MDTP         - TEMPERATURE OF MUD
MUDD.KG/M     1220                 : MWT          - MUD DENSITY
NEUT.         1                    : NEUTRON      - NEUTRON TYPE
RESI.         0                    : RESIST       - RESISTIVITY TYPE
RM  .OHMM     3.7                  : RM           - RESISTIVITY OF MUD
RMC .OHMM     2                    : RMC          - RESISTIVITY OF MUD CAKE
RMF .OHMM     4                    : RMF          - RESISTIVITY OF MUD FILTRATE
SUFT.C        -10                  : SUFT         - SURFACE TEMPERATURE
~A  DEPTH     RESD     PHIN     PHID      CAL       GR
# ...
  439.500   10.743    0.381    0.284  206.213   72.030
  439.750   10.836    0.380    0.278  203.690   71.703
  440.000   10.929    0.384    0.283  203.151   69.894
  440.250   10.726    0.389    0.295  203.587   68.982
  440.500   10.057    0.386    0.294  204.500   69.534
  440.750    9.091    0.381    0.282  205.434   72.156
  441.000    8.523    0.377    0.275  206.367   80.367
  441.250    8.288    0.375    0.263  207.778   89.175
  441.500    8.284    0.382    0.259  207.717   95.332
  441.750    8.666    0.390    0.262  205.698   97.648
  442.000    9.318    0.401    0.269  204.661   92.317
  442.250   10.390    0.397    0.288  206.079   88.745
  442.500   11.275    0.371    0.263  207.013   90.475
  442.750   10.964    0.351    0.242  208.424   92.803
  443.000   10.001    0.327    0.182  210.333   87.762
  443.250    9.638    0.313    0.122  210.769   74.175
  443.500    8.874    0.297    0.077  209.234   71.781
  443.750    8.095    0.321    0.088  208.197   72.628
  444.000    7.119    0.343    0.126  210.590   78.785
  444.250    6.799    0.364    0.186  212.008   86.996
  444.500    6.799    0.392    0.199  209.491   88.440
  444.750    6.429    0.393    0.191  208.448   90.759
  445.000    5.502    0.388    0.185  210.854   93.676
  445.250    4.973    0.383    0.184  214.236   95.705
  445.500    4.749    0.383    0.184  215.661   93.017
  445.750    4.923    0.387    0.177  215.606   91.216
  446.000    5.293    0.393    0.172  215.544   96.191
  446.250    5.538    0.402    0.174  215.544   96.453
  446.500    5.385    0.402    0.181  215.918   97.005
  446.750    5.049    0.400    0.188  216.852   97.266
  447.000    4.166    0.404    0.191  217.288   96.939
  447.250    3.906    0.409    0.192  217.226   94.545
  447.500    3.763    0.416    0.195  216.674   90.969
  447.750    3.763    0.419    0.199  216.135   91.235
  448.000    3.759    0.416    0.201  215.582   94.737
  448.250    3.898    0.415    0.200  214.545  103.545
  448.500    4.152    0.420    0.202  211.544  103.218
  448.750    4.981    0.421    0.206  201.663   98.766
  449.000    5.164    0.416    0.223  185.898   89.892
  449.250    5.164    0.408    0.234  158.834   81.607
  449.500    5.498    0.396    0.242  156.801   80.093
  449.750    6.076    0.383    0.251  159.699   79.765
  450.000    6.415    0.372    0.265  173.384   80.035
  450.250    6.530    0.370    0.259  183.646   79.998
  450.500    6.530    0.370    0.220  195.872   80.260
  450.750    6.521    0.373    0.201  203.174   83.761
  451.000    6.228    0.379    0.205  203.119   86.379
  451.250    5.893    0.406    0.221  203.057   86.347
  451.500    5.730    0.410    0.225  203.002   85.712
  451.750    5.675    0.407    0.219  203.445   86.276
  452.000    5.673    0.403    0.211  204.849   88.596
  452.250    5.670    0.395    0.206  205.278   91.218
  452.500    5.771    0.381    0.201  206.219   90.882
  452.750    5.874    0.375    0.204  206.655   90.555
  453.000    6.033    0.373    0.209  206.593   90.821
  453.250    6.033    0.379    0.213  202.106   91.663
  453.500    6.028    0.391    0.213  200.592   91.041
  453.750    6.248    0.392    0.208  200.032   90.419
  454.000    6.477    0.381    0.215  200.468   91.274
  454.250    6.838    0.374    0.224  201.886   94.776
  454.500    7.352    0.367    0.233  202.813   92.677
  454.750    8.199    0.359    0.247  202.267   76.442
  455.000   12.357    0.342    0.246  202.690   68.448
  455.250   15.659    0.327    0.305  202.690   68.124
  455.500   18.279    0.315    0.329  202.559   71.332
  455.750   22.130    0.310    0.330  202.532   75.124
  456.000   24.678    0.314    0.314  202.961   74.498
  456.250   27.020    0.319    0.283  202.422   71.818
  456.500   28.268    0.332    0.261  201.378   68.839
  456.750   29.302    0.342    0.236  200.825   66.445
  457.000   29.021    0.345    0.210  201.752   68.765
  457.250   27.967    0.344    0.197  201.213   71.387
  457.500   22.656    0.345    0.185  201.158   76.951
  457.750   17.537    0.352    0.186  203.060   78.391
  458.000   13.088    0.363    0.213  204.969   80.412
  458.250   10.038    0.373    0.224  208.842   81.565
  458.500    8.992    0.378    0.231  209.264   82.412
  458.750    8.277    0.379    0.228  209.202   81.790
  459.000    8.124    0.375    0.224  209.652   80.873
  459.250    8.120    0.375    0.219  212.536   79.653
  459.500    8.190    0.376    0.223  210.019   79.625
  459.750    8.190    0.378    0.221  208.014   79.882
  460.000    9.467    0.380    0.205  208.450   80.442
  460.250    8.796    0.379    0.206  207.898   80.696
  460.500    8.554    0.377    0.217  204.399   77.418
  460.750    8.242    0.375    0.215  204.835   76.805
  461.000    7.870    0.373    0.215  202.809   79.124
  461.250    7.653    0.375    0.211  199.325   83.808
  461.500    7.511    0.378    0.221  198.288   86.128
  461.750    7.237    0.379    0.219  198.233   86.091
  462.000    6.974    0.379    0.206  198.662   86.054
  462.250    6.720    0.381    0.203  198.593   89.564
  462.500    6.596    0.382    0.197  198.545   92.477
  462.750    6.472    0.383    0.192  198.981   92.439
  463.000    6.410    0.390    0.192  199.417   95.062
  463.250    6.348    0.397    0.186  199.846   94.427
  463.500    6.288    0.395    0.183  200.282   92.336
  463.750    6.227    0.392    0.184  202.682   88.478
  464.000    6.224    0.385    0.179  205.573   87.844
  464.250    6.220    0.382    0.186  206.009   86.931
  464.500    6.217    0.387    0.200  206.431   84.546
  464.750    6.386    0.393    0.204  207.358   82.148
  465.000    6.559    0.393    0.202  208.299   82.115
  465.250    6.617    0.390    0.200  209.212   82.377
  465.500    6.553    0.388    0.203  209.648   82.053
  465.750    6.431    0.388    0.204  210.582   83.190
  466.000    6.369    0.392    0.201  211.018   85.219
  466.250    6.250    0.399    0.201  212.436   87.837
  466.500    6.190    0.403    0.194  212.851   90.746
  466.750    6.187    0.405    0.198  212.319   90.721
  467.000    6.298    0.402    0.204  212.257   86.855
  467.250    6.895    0.387    0.201  212.209   82.694
  467.500    7.903    0.381    0.223  210.177   81.773
  467.750   10.388    0.366    0.238  206.692   81.445
  468.000   13.164    0.332    0.222  199.259   78.176
  468.250   16.832    0.306    0.204  199.702   69.887
  468.500   18.098    0.265    0.144  203.575   65.141
  468.750   19.639    0.252    0.079  205.477   64.220
  469.000   20.734    0.255    0.084  203.942   66.548
  469.250   21.297    0.309    0.171  198.978   73.290
  469.500   21.284    0.333    0.253  194.511   75.605
  469.750   20.697    0.346    0.252  192.983   75.875
  470.000   19.585    0.357    0.241  193.896   77.021
  470.250   18.196    0.372    0.235  194.339   79.046
  470.500   17.217    0.366    0.225  196.241   78.423
  470.750   18.177    0.333    0.204  197.666   75.146
  471.000   22.823    0.180    0.184  199.575   65.392
  471.250   36.672    0.140    0.112  201.477   61.231
  471.500   47.327    0.123   -0.004  202.895   59.435
  471.750   54.243    0.121   -0.011  203.822   55.274
  472.000   54.243    0.124   -0.009  203.767   54.353
  472.250   57.225    0.133   -0.001  204.189   54.324
  472.500   56.683    0.145    0.008  204.141   55.465
  472.750   49.857    0.164    0.014  204.577   58.083
  473.000   32.744    0.190    0.035  205.504   61.880
  473.250   23.345    0.265    0.082  206.424   65.374
  473.500   18.742    0.308    0.135  204.889   68.589
  473.750   15.463    0.324    0.215  202.871   73.858
  474.000   13.600    0.352    0.238  202.332   80.306
  474.250   12.073    0.364    0.218  202.277   85.277
  474.500   10.521    0.361    0.194  201.724   87.011
  474.750    9.774    0.356    0.177  202.160   86.099
  475.000   10.237    0.349    0.174  206.010   83.286
  475.250    9.695    0.348    0.177  206.960   83.564
  475.500    9.519    0.350    0.179  207.911   86.180
  475.750    9.430    0.355    0.176  206.424   87.333
