~VERSION INFORMATION
 VERS.                 2.0:   CWLS LOG ASCII STANDARD -VERSION 2.0
 WRAP.                  NO:   ONE LINE PER DEPTH STEP
~WELL INFORMATION BLOCK
#MNEM.UNIT           DATA                    DESCRIPTION OF MNEMONIC
#---------    -------------------            -------------------------------
# Generated from Intellog Unique Number	CC_80_83/WELL/2440
NULL.         -999.25                        : NULL_VALUE
WELL.         GULF RESDELN                   : Well_name    - WELL              
LOC .         15-19-083-06W4                 : Location     - LOCATION          
UWI .         00/15-19-083-06W4/0            : Uwi          - UNIQUE WELL ID    
ENTR.         RJA                            : Entered      - ENTERED BY        
SRVC.         SCHLUMBERGER                   : Scn          - SERVICE COMPANY   
DATE.         13 DEC 80                      : Date         - LOG DATE
STRT.M        125                            : top_depth    - START DEPTH       
STOP.M        374.896                        : bot_depth    - STOP DEPTH        
STEP.M        0.3                            : increment    - STEP LENGTH       
~CURVE INFORMATION BLOCK
#MNEM UNIT       ERCB CURVE CODE    CURVE DESCRIPTION
#-----------   ------------------   ----------------------------------
DEPT.M        00 001 00 00         : DEPTH        - DEPTH                       
DPHI.V/V      00 890 00 00         : PHID         - DENSITY POROSITY (LIMESTONE)
NPHI.V/V      00 330 00 00         : PHIN         - NEUTRON POROSITY (LIMESTONE)
GR  .API      00 310 00 00         : GR           - GAMMA RAY                   
ILD .OHMM     00 120 00 00         : RESD         - DEEP RESISTIVITY (DIL)      
~PARAMETER INFORMATION       
#MNEM.UNIT           DATA             DESCRIPTION OF MNEMONIC
#---------         -----------     ------------------------------
GL  .M        588.35               : gl           - GROUND LEVEL ELEVATION      
EREF.M        592.9                : kb           - ELEVATION OF DEPTH REFERENCE
DATM.M        592.9                : datum        - DATUM ELEVATION             
TDD .M        418                  : tdd          - TOTAL DEPTH DRILLER         
RUN .         ONE                  : Run          - RUN NUMBER                  
ENG .         BILL                 : Engineer     - RECORDING ENGINEER          
WIT .         JIM                  : Witness      - WITNESSED BY                
MUD .         GEL                  : Mud_type     - MUD TYPE                    
MATR.         LIMESTONE            : Logunit      - NEUTRON MATRIX              
TMAX.C        20                   : BHT          - MAXIMUM RECORDED TEMPERATURE
BHTD.M        418                  : BHTDEP       - MAXIMUM RECORDED TEMPERATURE
MATR.         1                    : LOGUNIT      - NEUTRON MATRIX              
RMT .C        25                   : MDTP         - TEMPERATURE OF MUD          
NEUT.         1                    : NEUTRON      - NEUTRON TYPE                
RESI.         0                    : RESIST       - RESISTIVITY TYPE            
RMC .OHMM     0.25                 : RMC          - RESISTIVITY OF MUD CAKE     
RMF .OHMM     0.25                 : RMF          - RESISTIVITY OF MUD FILTRATE 
SUFT.C        4                    : SUFT         - SURFACE TEMPERATURE         
~A  DEPTH     PHID     PHIN       GR     RESD
# ...
  177.201    0.241    0.404   61.556   15.073
  177.501    0.242    0.417   63.998   14.266
  177.801    0.286    0.440   64.527   14.017
  178.101    0.318    0.473   65.700   14.027
  178.401    0.313    0.487   67.535   14.300
  178.701    0.231    0.490   71.845   14.049
  179.001    0.253    0.417   76.784   13.805
  179.301    0.271    0.404   78.601   13.069
  179.601    0.269    0.410   79.143   12.143
  179.901    0.270    0.413   82.206   10.869
  180.201    0.245    0.408   85.882    8.707
  180.501    0.231    0.417   92.086    7.793
  180.801    0.231    0.435  100.788    6.599
  181.101    0.226    0.454  102.567    6.019
  181.401    0.194    0.483  104.995    5.698
  181.701    0.211    0.498  108.092    6.868
  182.001    0.227    0.490   97.967    7.682
  182.301    0.227    0.461   91.635    9.433
  182.601    0.237    0.459   90.306   10.555
  182.901    0.238    0.463   91.455   10.959
  183.201    0.255    0.434   90.778   11.818
  183.501    0.278    0.426   85.694   12.738
  183.801    0.282    0.437   80.613   12.987
  184.101    0.252    0.422   83.047   12.066
  184.401    0.225    0.450   94.865   10.604
  184.701    0.213    0.463  101.702    9.492
  185.001    0.244    0.441   97.846    9.154
  185.301    0.273    0.424   90.894   10.630
  185.601    0.301    0.457   82.036   12.576
  185.901    0.319    0.484   83.810   13.557
  186.201    0.296    0.491   85.000   13.567
  186.501    0.307    0.479   84.953   13.328
  186.801    0.317    0.457   77.352   13.591
  187.101    0.310    0.449   72.891   13.598
  187.401    0.247    0.442   80.323   13.114
  187.701    0.233    0.429   84.635   11.962
  188.001    0.221    0.442   85.784   13.635
  188.301    0.039    0.457   84.502   16.125
  188.601    0.124    0.441   73.127   19.803
  188.901    0.167    0.441   62.413   21.340
  189.201    0.213    0.368   49.803   23.439
  189.501    0.247    0.392   47.849   25.264
  189.801    0.286    0.413   49.029   25.765
  190.101    0.309    0.402   42.663   26.271
  190.401    0.325    0.419   41.983   26.291
  190.701    0.338    0.419   43.777   25.835
  191.001    0.335    0.406   44.322   25.372
  191.301    0.314    0.425   42.372   24.467
  191.601    0.313    0.432   41.678   24.034
  191.901    0.315    0.406   45.372   26.402
  192.201    0.321    0.420   43.396   27.942
  192.501    0.336    0.420   38.943   27.955
  192.801    0.348    0.410   38.862   26.957
  193.101    0.350    0.426   39.425   26.978
  193.401    0.343    0.424   38.724   28.555
  193.701    0.346    0.407   41.153   29.115
  194.001    0.351    0.389   41.694   28.598
  194.301    0.336    0.397   39.705   26.574
  194.601    0.318    0.406   39.661   26.103
  194.901    0.317    0.398   43.959   27.622
  195.201    0.325    0.395   46.414   27.649
  195.501    0.331    0.431   46.966   26.659
  195.801    0.323    0.443   48.147   25.708
  196.101    0.322    0.446   49.340   24.789
  196.401    0.333    0.434   46.753   23.908
  196.701    0.308    0.441   52.942   23.054
  197.001    0.309    0.449   49.725   23.071
  197.301    0.324    0.426   53.417   22.248
  197.601    0.332    0.428   55.857   21.862
  197.901    0.337    0.447   48.875   20.695
  198.201    0.332    0.444   44.424   19.590
  198.501    0.300    0.419   50.599   19.969
  198.801    0.309    0.430   51.156   21.134
  199.101    0.333    0.447   46.669   21.548
  199.401    0.356    0.456   45.378   21.172
  199.701    0.375    0.444   45.927   20.041
  200.001    0.352    0.436   48.367   19.323
  200.301    0.342    0.437   47.026   18.633
  200.601    0.330    0.464   50.710   18.996
  200.901    0.330    0.476   48.767   20.100
  201.201    0.344    0.436   44.280   20.494
  201.501    0.353    0.430   47.973   19.403
  201.801    0.351    0.441   52.932   19.064
  202.101    0.346    0.434   52.838   19.074
  202.401    0.347    0.443   49.630   19.813
  202.701    0.360    0.488   50.195   20.579
  203.001    0.363    0.466   50.730   20.982
  203.301    0.353    0.464   52.540   21.394
  203.601    0.352    0.459   56.229   21.812
  203.901    0.352    0.451   56.796   21.831
  204.201    0.357    0.451   53.545   21.447
  204.501    0.365    0.410   53.514   20.687
  204.801    0.373    0.429   55.943   20.320
  205.101    0.358    0.454   55.865   20.715
  205.401    0.357    0.450   51.394   21.127
  205.701    0.359    0.461   53.187   22.353
  206.001    0.350    0.478   54.383   25.014
  206.301    0.335    0.446   49.297   25.972
  206.601    0.290    0.447   45.467   25.059
  206.901    0.293    0.453   44.736   25.072
  207.201    0.299    0.376   42.789   24.632
  207.501    0.318    0.417   41.481   23.750
  207.801    0.327    0.438   42.616   22.910
  208.101    0.331    0.441   43.202   22.509
  208.401    0.350    0.436   45.000   22.107
  208.701    0.358    0.414   44.944   22.536
  209.001    0.358    0.432   44.866   22.977
  209.301    0.349    0.462   43.529   22.996
  209.601    0.345    0.465   41.583   23.452
  209.901    0.346    0.449   44.625   23.464
  210.201    0.347    0.422   43.939   23.488
  210.501    0.347    0.409   43.862   23.944
  210.801    0.348    0.431   45.041   23.532
  211.101    0.354    0.435   41.200   23.115
  211.401    0.348    0.437   41.763   23.564
  211.701    0.343    0.436   44.180   23.587
  212.001    0.347    0.436   40.958   23.180
  212.301    0.334    0.436   39.628   23.191
  212.601    0.335    0.437   42.073   22.365
  212.901    0.345    0.443   43.885   22.380
  213.201    0.354    0.455   43.816   21.584
  213.501    0.361    0.464   47.486   21.201
  213.801    0.347    0.456   46.795   20.829
  214.101    0.350    0.453   50.472   21.238
  214.401    0.349    0.436   49.156   21.655
  214.701    0.360    0.433   45.312   22.492
  215.001    0.364    0.447   42.714   22.929
  215.301    0.333    0.446   42.020   22.113
  215.601    0.327    0.450   43.840   20.934
  215.901    0.333    0.426   46.901   20.564
  216.201    0.337    0.433   48.075   20.581
  216.501    0.290    0.444   50.516   20.982
  216.801    0.298    0.452   42.910   23.050
  217.101    0.325    0.452   39.707   24.388
  217.401    0.347    0.442   38.962   25.334
  217.701    0.333    0.418   38.302   25.353
  218.001    0.322    0.404   36.353   25.368
  218.301    0.323    0.406   34.377   24.469
  218.601    0.335    0.405   35.535   23.605
  218.901    0.337    0.419   36.752   23.186
  219.201    0.337    0.392   37.297   22.773
  219.501    0.343    0.391   38.473   21.957
  219.801    0.355    0.411   40.277   21.174
  220.101    0.360    0.427   42.725   20.423
  220.401    0.362    0.440   40.758   19.695
  220.701    0.351    0.452   41.315   18.986
  221.001    0.345    0.448   46.256   17.977
  221.301    0.274    0.433   44.308   18.325
  221.601    0.286    0.464   40.468   20.504
  221.901    0.332    0.455   40.369   20.520
  222.201    0.361    0.432   42.178   19.070
  222.501    0.375    0.442   42.720   18.048
  222.801    0.352    0.453   42.661   16.772
  223.101    0.345    0.434   45.733   16.782
  223.401    0.349    0.427   45.036   17.759
  223.701    0.350    0.442   45.587   19.871
  224.001    0.362    0.447   48.001   20.640
  224.301    0.377    0.436   47.301   21.052
  224.601    0.370    0.441   42.228   21.060
  224.901    0.321    0.443   33.372   20.693
  225.201    0.306    0.428   32.045   19.590
  225.501    0.324    0.407   35.108   18.887
  225.801    0.357    0.405   40.670   17.881
  226.101    0.368    0.421   43.725   17.241
  226.401    0.351    0.429   41.125   16.941
  226.701    0.345    0.437   37.924   16.334
  227.001    0.331    0.432   37.241   16.044
  227.301    0.333    0.429   41.532   15.188
  227.601    0.336    0.435   40.852   14.648
  227.901    0.334    0.453   40.147   14.934
  228.201    0.333    0.478   38.820   15.512
  228.501    0.339    0.421   39.358   16.111
  228.801    0.352    0.426   39.287   12.432
  229.101    0.362    0.450   39.853    4.083
