~VERSION INFORMATION
 VERS.                 2.0:   CWLS LOG ASCII STANDARD -VERSION 2.0
 WRAP.                  NO:   ONE LINE PER DEPTH STEP
~WELL INFORMATION BLOCK
#MNEM.UNIT           DATA                    DESCRIPTION OF MNEMONIC
#---------    -------------------            -------------------------------
# Generated from Intellog Unique Number	CW_82_90/WELL/3080
WELL.         11-32-086-22W4                 : Well_name    - WELL
LOC .         00/11-32-086-22W4/0            : Location     - LOCATION
UWI .         00/11-32-086-22W4/0            : Uwi          - UNIQUE WELL ID
ENTR.         MAX                            : Entered      - ENTERED BY
SRVC.         SCHLUMBERGER                   : Scn          - SERVICE COMPANY
STRT.M        152.4                          : top_depth    - START DEPTH
STOP.M        347.4                          : bot_depth    - STOP DEPTH
STEP.M        0.25                           : increment    - STEP LENGTH
 NULL. -999.2500:NULL Value
~CURVE INFORMATION BLOCK
#MNEM UNIT       ERCB CURVE CODE    CURVE DESCRIPTION
#-----------   ------------------   ----------------------------------
DEPT.M        00 001 00 00         : DEPTH        - DEPTH
ILD .OHMM     00 120 00 00         : RESD         - DEEP RESISTIVITY (DIL)
NPHI.V/V      00 330 00 00         : PHIN         - NEUTRON POROSITY (SANDSTONE)
DPHI.V/V      00 890 00 00         : PHID         - DENSITY POROSITY (SANDSTONE)
CALI.MM       00 280 01 00         : CAL          - CALIPER
GR  .API      00 310 00 00         : GR           - GAMMA RAY
~PARAMETER INFORMATION
#MNEM.UNIT           DATA             DESCRIPTION OF MNEMONIC
#---------         -----------     ------------------------------
GL  .M        563.88               : gl           - GROUND LEVEL ELEVATION
EREF.M        567.233              : kb           - ELEVATION OF DEPTH REFERENCE
DATM.M        563.88               : datum        - DATUM ELEVATION
TDD .M        350.52               : tdd          - TOTAL DEPTH DRILLER
RUN .         ONE                  : Run          - RUN NUMBER
ENG .         BILL                 : Engineer     - RECORDING ENGINEER
WIT .         JIM                  : Witness      - WITNESSED BY
MUD .         GEL                  : Mud_type     - MUD TYPE
MATR.         SANDSTONE            : Logunit      - NEUTRON MATRIX
TMAX.C        20.5556              : BHT          - MAXIMUM RECORDED TEMPERATURE
BHTD.M        2.56383e+06          : BHTDEP       - MAXIMUM RECORDED TEMPERATURE
MATR.         1                    : LOGUNIT      - NEUTRON MATRIX
RMT .C        15.5556              : MDTP         - TEMPERATURE OF MUD
NEUT.         1                    : NEUTRON      - NEUTRON TYPE
RESI.         0                    : RESIST       - RESISTIVITY TYPE
RMC .OHMM     4.28                 : RMC          - RESISTIVITY OF MUD CAKE
RMF .OHMM     3.31                 : RMF          - RESISTIVITY OF MUD FILTRATE
SUFT.C        -17.7778             : SUFT         - SURFACE TEMPERATURE
~A  DEPTH     RESD     PHIN     PHID      CAL       GR
  152.400    3.260    0.554    0.293  290.147   96.060
  152.650    3.320    0.579    0.293  288.211   94.916
  152.900    3.321    0.572    0.285  288.222   94.635
  153.150    3.322    0.565    0.262  287.749   94.643
  153.400    3.293    0.572    0.269  286.787   95.800
  153.650    3.294    0.556    0.291  286.315   98.109
  153.900    3.265    0.529    0.286  286.328  100.130
  154.150    3.236    0.546    0.287  285.365   98.412
  154.400    3.237    0.569    0.289  284.402   96.981
  154.650    3.238    0.564    0.295  283.440   98.426
  154.900    3.297    0.566    0.295  282.968   99.010
  155.150    3.358    0.587    0.289  282.495   99.016
  155.400    3.483    0.582    0.271  281.531   99.599
  155.650    3.644    0.558    0.259  280.569   97.017
  155.900    3.779    0.554    0.274  290.809   99.325
  156.150    3.919    0.548    0.293  288.873  103.072
  156.400    4.064    0.527    0.292  290.348  105.668
  156.650    4.139    0.557    0.286  291.820  105.965
  156.900    4.215    0.561    0.282  294.270  105.683
  157.150    4.292    0.539    0.279  294.769  104.541
  157.400    4.615    0.526    0.275  294.780  102.534
  157.650    5.006    0.515    0.268  294.792   96.789
  157.900    5.480    0.494    0.259  292.860   88.744
  158.150    6.220    0.471    0.263  293.844   81.274
  158.400    7.122    0.448    0.254  294.833   78.118
  158.650    8.456    0.436    0.256  294.842   77.837
  158.900   11.086    0.447    0.264  292.906   74.393
  159.150   12.696    0.451    0.286  289.997   72.964
  159.400   13.405    0.455    0.310  288.064   73.545
  159.650   14.283    0.469    0.306  288.075   76.718
  159.900   15.355    0.471    0.304  288.577   78.449
  160.150   16.360    0.467    0.316  286.642   76.732
  160.400   16.812    0.459    0.309  284.706   74.150
  160.650   16.969    0.451    0.296  284.715   71.281
  160.900   16.520    0.452    0.283  287.653   70.139
  161.150   13.921    0.430    0.255  289.125   72.448
  161.400   12.383    0.426    0.233  288.651   76.481
  161.650    9.885    0.485    0.269  291.097   81.952
  161.900    6.708    0.525    0.302  295.494   90.300
  162.150    5.552    0.545    0.285  295.506   88.871
  162.400    5.309    0.540    0.282  295.033   84.850
  162.650    5.555    0.512    0.282  296.019   84.284
  162.900    6.304    0.490    0.274  297.980   85.728
  163.150    6.777    0.477    0.269  299.941   88.613
  163.400    6.598    0.494    0.267  300.926   87.469
  163.650    6.482    0.495    0.268  301.913   87.477
  163.900    6.542    0.493    0.269  301.925   87.196
  164.150    7.161    0.494    0.271  299.014   83.177
  164.400    8.502    0.505    0.277  297.082   79.734
  164.650   10.371    0.510    0.274  295.631   77.153
  164.900   11.250    0.476    0.261  293.697   75.721
  165.150   13.237    0.461    0.284  292.248   72.278
  165.400   15.715    0.448    0.299  291.286   66.821
  165.650   19.696    0.440    0.304  290.813   59.925
  165.900   23.809    0.437    0.318  290.822   54.757
  166.150   29.572    0.431    0.332  291.323   51.888
  166.400   32.664    0.420    0.343  291.825   48.733
  166.650   32.381    0.427    0.351  292.322   46.439
  166.900   29.861    0.413    0.355  292.821   45.297
  167.150   27.291    0.408    0.354  292.346   46.455
  167.400   24.945    0.413    0.349  292.359   49.048
  167.650   25.633    0.423    0.344  292.373   53.658
  167.900   29.621    0.450    0.326  292.388   49.351
  168.150   35.166    0.438    0.322  291.910   41.881
  168.400   40.637    0.420    0.336  291.436   40.738
  168.650   41.762    0.410    0.348  290.962   41.321
  168.900   42.150    0.403    0.351  289.515   44.204
  169.150   42.160    0.394    0.350  290.012   45.076
  169.400   42.552    0.399    0.350  290.513   44.508
  169.650   42.950    0.417    0.352  291.011   44.515
  169.900   43.347    0.432    0.357  290.538   45.097
  170.150   43.357    0.443    0.361  290.550   44.529
  170.400   42.977    0.442    0.360  291.049   44.823
  170.650   42.990    0.429    0.351  291.062   45.407
  170.900   42.611    0.415    0.355  289.127   45.989
  171.150   42.624    0.397    0.351  290.113   48.873
  171.400   42.632    0.413    0.347  291.101   52.044
  171.650   42.644    0.435    0.353  291.113   50.613
  171.900   42.652    0.441    0.354  291.123   46.019
  172.150   42.661    0.436    0.349  292.112   46.026
  172.400   41.535    0.429    0.343  292.122   46.896
  172.650   41.543    0.422    0.340  291.650   46.329
  172.900   43.473    0.426    0.342  291.662   45.186
  173.150   43.090    0.439    0.345  291.673   44.617
  173.400   43.102    0.434    0.345  291.686   44.337
  173.650   43.111    0.407    0.345  291.699   44.059
  173.900   43.120    0.408    0.347  291.713   44.352
  174.150   43.522    0.416    0.347  292.699   43.210
  174.400   43.926    0.422    0.352  292.711   41.491
  174.650   44.334    0.418    0.348  291.749   39.772
  174.900   44.344    0.418    0.339  291.763   40.356
  175.150   44.356    0.405    0.335  292.261   43.815
  175.400   44.365    0.399    0.331  292.273   44.110
  175.650   43.583    0.402    0.337  291.802   44.405
  175.900   42.814    0.411    0.342  292.298   45.850
  176.150   41.681    0.428    0.348  292.800   46.720
  176.400   40.944    0.434    0.353  292.810   47.014
  176.650   39.860    0.427    0.360  292.824   45.584
  176.900   39.514    0.415    0.364  291.375   47.894
  177.150   39.167    0.408    0.363  291.876   48.188
  177.400   39.176    0.431    0.364  292.861   47.619
  177.650   38.833    0.453    0.367  292.873   48.202
  177.900   38.148    0.454    0.373  293.373   49.648
  178.150   37.138    0.450    0.367  293.872   49.655
  178.400   33.942    0.443    0.351  294.371   51.101
  178.650   30.193    0.441    0.334  294.871   53.408
  178.900   27.347    0.444    0.328  294.885   58.305
  179.150   21.831    0.447    0.288  295.385   66.940
  179.400   16.810    0.459    0.266  296.371   72.412
  179.650   11.827    0.462    0.249  296.384   74.146
  179.900   10.148    0.461    0.278  298.830   75.879
  180.150    9.969    0.485    0.300  301.278   79.624
  180.400    8.788    0.509    0.296  298.370   80.782
  180.650    8.479    0.481    0.296  297.408   78.201
  180.900    8.254    0.467    0.295  301.317   79.934
  181.150    8.794    0.467    0.285  300.353   78.216
  181.400    9.980    0.492    0.269  298.904   69.883
  181.650   11.957    0.506    0.269  295.510   61.550
  181.900   14.324    0.481    0.286  295.035   54.655
  182.150   17.791    0.453    0.322  294.073   51.211
  182.400   22.096    0.455    0.333  292.625   51.795
  182.650   27.198    0.474    0.318  293.124   52.377
  182.900   30.314    0.475    0.302  294.599   54.973
  183.150   30.324    0.452    0.300  295.098   58.144
  183.400   29.254    0.440    0.324  295.110   61.026
  183.650   25.789    0.432    0.330  295.611   62.473
  183.900   20.587    0.428    0.333  296.596   66.218
  184.150   18.149    0.465    0.327  297.095   72.553
  184.400   17.990    0.469    0.314  296.134   70.835
  184.650   18.996    0.453    0.309  296.148   65.377
  184.900   19.520    0.436    0.317  296.159   56.757
  185.150   20.061    0.420    0.317  296.173   55.615
  185.400   19.354    0.415    0.317  296.183   59.935
  185.650   17.689    0.425    0.312  296.684   70.584
  185.900   15.316    0.441    0.296  297.671   80.945
  186.150   13.023    0.461    0.288  297.683   81.816
  186.400   10.778    0.474    0.286  298.185   81.535
  186.650   10.030    0.478    0.276  298.682   87.295
  186.900    9.765    0.459    0.275  299.183   84.713
  187.150   10.035    0.474    0.280  299.196   79.832
  187.400   10.789    0.459    0.281  298.721   78.689
  187.650   11.494    0.442    0.280  298.731   78.984
  187.900   12.247    0.441    0.281  298.743   77.840
  188.150   12.472    0.460    0.284  298.758   77.273
  188.400   12.588    0.460    0.287  298.769   79.868
  188.650   12.255    0.471    0.281  299.270   81.027
