~VERSION INFORMATION
 VERS.                 2.0:   CWLS LOG ASCII STANDARD -VERSION 2.0
 WRAP.                  NO:   ONE LINE PER DEPTH STEP
~WELL INFORMATION BLOCK
#MNEM.UNIT           DATA                    DESCRIPTION OF MNEMONIC
#---------    -------------------            -------------------------------
# Generated from Intellog Unique Number	CS_67_68/WELL/2195
WELL.         10-14-067-03W4                 : Well_name    - WELL
LOC .         00/10-14-067-03W4/0            : Location     - LOCATION
UWI .         00/10-14-067-03W4/0            : Uwi          - UNIQUE WELL ID
ENTR.         SP                             : Entered      - ENTERED BY
SRVC.         SCHLUMBERGER                   : Scn          - SERVICE COMPANY
STRT.M        380                            : top_depth    - START DEPTH
STOP.M        610                            : bot_depth    - STOP DEPTH
STEP.M        0.25                           : increment    - STEP LENGTH
 NULL. -999.2500:NULL Value
~CURVE INFORMATION BLOCK
#MNEM UNIT       ERCB CURVE CODE    CURVE DESCRIPTION
#-----------   ------------------   ----------------------------------
DEPT.M        00 001 00 00         : DEPTH        - DEPTH
ILD .OHMM     00 120 00 00         : RESD         - DEEP RESISTIVITY (DIL)
DPHI.V/V      00 890 00 00         : PHID         - DENSITY POROSITY (LIMESTONE)
NPHI.V/V      00 330 00 00         : PHIN         - NEUTRON POROSITY (LIMESTONE)
GR  .API      00 310 00 00         : GR           - GAMMA RAY
CALI.MM       00 280 01 00         : CAL          - CALIPER
~PARAMETER INFORMATION
#MNEM.UNIT           DATA             DESCRIPTION OF MNEMONIC
#---------         -----------     ------------------------------
GL  .M        697.3                : gl           - GROUND LEVEL ELEVATION
EREF.M        700.96               : kb           - ELEVATION OF DEPTH REFERENCE
DATM.M        700.96               : datum        - DATUM ELEVATION
TDD .M        618.5                : tdd          - TOTAL DEPTH DRILLER
RUN .         ONE                  : Run          - RUN NUMBER
ENG .         BILL                 : Engineer     - RECORDING ENGINEER
WIT .         JIM                  : Witness      - WITNESSED BY
MUD .         GEL                  : Mud_type     - MUD TYPE
MATR.         LIMESTONE            : Logunit      - NEUTRON MATRIX
TMAX.C        21                   : BHT          - MAXIMUM RECORDED TEMPERATURE
BHTD.M        619                  : BHTDEP       - MAXIMUM RECORDED TEMPERATURE
MATR.         1                    : LOGUNIT      - NEUTRON MATRIX
RMT .C        25                   : MDTP         - TEMPERATURE OF MUD
NEUT.         1                    : NEUTRON      - NEUTRON TYPE
RESI.         0                    : RESIST       - RESISTIVITY TYPE
RMC .OHMM     0.25                 : RMC          - RESISTIVITY OF MUD CAKE
RMF .OHMM     0.25                 : RMF          - RESISTIVITY OF MUD FILTRATE
SUFT.C        15                   : SUFT         - SURFACE TEMPERATURE
~A  DEPTH     RESD     PHID     PHIN       GR      CAL
# ...
  453.000    7.873    0.280    0.387   71.582  205.937
  453.250    7.813    0.298    0.385   66.751  205.742
  453.500    7.768    0.306    0.382   70.554  205.757
  453.750    7.753    0.290    0.382   75.090  205.563
  454.000    7.767    0.264    0.390   81.463  205.573
  454.250    7.796    0.244    0.402   85.082  205.381
  454.500    7.869    0.230    0.400   87.230  205.387
  454.750    7.898    0.231    0.396   88.277  205.293
  455.000    7.883    0.232    0.393   88.834  205.098
  455.250    7.867    0.252    0.404   88.962  205.009
  455.500    7.807    0.278    0.412   82.356  205.018
  455.750    7.807    0.290    0.395   69.995  205.128
  456.000    7.806    0.304    0.387   61.551  205.140
  456.250    7.806    0.312    0.379   56.781  205.148
  456.500    7.820    0.314    0.377   61.625  205.159
  456.750    7.804    0.308    0.374   65.979  204.969
  457.000    7.789    0.301    0.372   63.412  204.976
  457.250    7.701    0.318    0.382   60.479  204.985
  457.500    7.585    0.329    0.392   57.974  204.994
  457.750    7.401    0.336    0.405   58.042  205.003
  458.000    7.262    0.329    0.423   64.354  204.707
  458.250    7.167    0.309    0.405   71.401  205.020
  458.500    7.139    0.289    0.387   76.916  207.888
  458.750    7.112    0.304    0.412   71.168  206.164
  459.000    7.111    0.322    0.426   67.255  203.929
  459.250    7.124    0.319    0.404   70.139  202.919
  459.500    7.151    0.307    0.387   73.695  202.214
  459.750    7.177    0.295    0.386   75.170  201.713
  460.000    7.190    0.300    0.382   69.666  201.723
  460.250    7.189    0.306    0.391   69.182  202.244
  460.500    7.216    0.310    0.403   66.127  202.560
  460.750    7.243    0.319    0.403   62.705  202.773
  461.000    7.269    0.320    0.380   69.384  202.986
  461.250    7.324    0.265    0.382   80.349  203.611
  461.500    7.337    0.242    0.412   86.845  204.231
  461.750    7.392    0.246    0.431   86.116  204.547
  462.000    7.433    0.249    0.435   85.938  204.863
  462.250    7.447    0.237    0.421   89.434  204.157
  462.500    7.460    0.233    0.437   85.889  201.617
  462.750    7.446    0.252    0.431   83.751  200.505
  463.000    7.417    0.254    0.415   85.288  200.107
  463.250    7.375    0.249    0.402   83.763  199.913
  463.500    7.319    0.279    0.412   81.627  199.922
  463.750    7.250    0.309    0.429   79.858  199.830
  464.000    7.181    0.310    0.451   79.373  199.839
  464.250    7.127    0.305    0.449   79.195  199.849
  464.500    7.099    0.299    0.433   78.834  199.859
  464.750    7.059    0.306    0.425   70.819  200.072
  465.000    7.018    0.309    0.420   67.703  200.593
  465.250    6.991    0.310    0.426   69.056  200.808
  465.500    6.965    0.310    0.436   70.471  201.228
  465.750    6.938    0.314    0.443   71.149  201.237
  466.000    6.911    0.320    0.447   71.032  201.350
  466.250    6.885    0.324    0.433   69.263  201.258
  466.500    6.858    0.332    0.414   68.290  201.268
  466.750    6.793    0.340    0.417   67.866  201.075
  467.000    6.729    0.343    0.423   67.262  200.978
  467.250    6.653    0.336    0.419   67.205  200.993
  467.500    6.541    0.335    0.412   67.884  200.998
  467.750    6.358    0.337    0.406   67.462  201.012
  468.000    6.122    0.318    0.403   65.814  201.016
  468.250    5.907    0.290    0.412   72.371  200.825
  468.500    5.741    0.270    0.413   82.174  200.734
  468.750    5.698    0.256    0.406   86.648  200.643
  469.000    5.751    0.269    0.423   83.899  200.755
  469.250    5.849    0.278    0.440   84.150  200.766
  469.500    6.051    0.274    0.443   85.993  200.777
  469.750    6.224    0.269    0.433   87.835  200.788
  470.000    6.282    0.269    0.436   79.086  200.798
  470.250    6.353    0.299    0.442   71.929  200.910
  470.500    6.413    0.319    0.425   66.547  201.124
  470.750    6.449    0.331    0.435   65.757  201.027
  471.000    6.485    0.337    0.437   66.681  201.035
  471.250    6.472    0.340    0.429   65.156  201.146
  471.500    6.447    0.348    0.443   66.939  201.155
  471.750    6.422    0.356    0.456   69.822  201.062
  472.000    6.386    0.362    0.440   70.990  200.462
  472.250    6.385    0.362    0.422   65.425  200.471
  472.500    6.360    0.360    0.405   63.594  200.277
  472.750    6.372    0.360    0.416   65.192  200.490
  473.000    6.360    0.369    0.439   66.116  200.398
  473.250    6.347    0.371    0.455   66.244  200.306
  473.500    6.419    0.372    0.446   65.883  200.417
  473.750    6.491    0.372    0.454   65.645  200.835
  474.000    6.614    0.362    0.441   65.833  201.355
  474.250    6.881    0.360    0.451   61.738  202.283
  474.500    7.051    0.365    0.466   59.417  203.008
  474.750    7.321    0.369    0.466   58.627  203.323
  475.000    7.474    0.366    0.455   58.755  203.435
  475.250    7.615    0.364    0.456   59.129  203.853
  475.500    7.760    0.360    0.455   60.482  203.965
  475.750    7.922    0.357    0.449   61.283  204.078
  476.000    8.087    0.352    0.441   62.207  204.394
  476.250    8.193    0.347    0.430   62.580  205.017
  476.500    8.224    0.352    0.414   62.465  205.740
  476.750    8.301    0.360    0.402   61.980  205.852
  477.000    8.379    0.351    0.422   60.578  205.964
  477.250    8.522    0.344    0.439   59.971  205.973
  477.500    8.634    0.343    0.452   60.712  205.575
  477.750    8.682    0.349    0.442   60.351  205.483
  478.000    8.764    0.352    0.430   62.438  205.492
  478.250    8.813    0.352    0.425   62.690  205.604
  478.500    8.796    0.350    0.442   58.777  205.615
  478.750    8.812    0.347    0.453   57.864  205.624
  479.000    8.761    0.345    0.459   60.196  205.531
  479.250    8.777    0.346    0.466   59.039  205.440
  479.500    8.809    0.351    0.458   57.453  205.146
  479.750    8.842    0.351    0.445   59.173  205.052
  480.000    8.908    0.350    0.432   62.302  205.163
  480.250    8.992    0.350    0.423   60.961  205.275
  480.500    9.059    0.351    0.412   55.824  205.489
  480.750    9.042    0.351    0.426   56.442  205.604
  481.000    9.007    0.351    0.450   59.693  205.611
  481.250    8.972    0.350    0.461   60.862  205.420
  481.500    8.921    0.345    0.477   57.562  205.122
  481.750    8.903    0.340    0.486   56.343  204.824
  482.000    8.903    0.342    0.462   57.267  204.731
  482.250    8.919    0.350    0.438   57.212  204.538
  482.500    8.918    0.355    0.423   56.851  204.548
  482.750    8.901    0.356    0.443   57.530  204.557
  483.000    8.867    0.349    0.461   59.434  204.159
  483.250    8.816    0.345    0.447   61.644  203.862
  483.500    8.749    0.345    0.440   59.997  203.669
  483.750    8.634    0.346    0.439   56.513  203.780
  484.000    8.440    0.347    0.439   55.845  203.790
  484.250    8.266    0.351    0.445   56.281  203.903
  484.500    8.020    0.353    0.452   56.286  204.218
  484.750    7.811    0.358    0.441   55.863  204.331
  485.000    7.636    0.351    0.429   59.114  204.442
  485.250    7.422    0.350    0.446   63.589  204.657
  485.500    7.324    0.358    0.468   66.656  204.665
  485.750    7.241    0.366    0.456   65.071  204.984
  486.000    7.200    0.360    0.414   63.974  205.095
  486.250    7.145    0.354    0.425   63.736  205.205
  486.500    7.091    0.357    0.456   64.292  205.217
  486.750    7.077    0.366    0.472   64.420  205.225
  487.000    7.063    0.358    0.461   62.345  205.132
  487.250    7.050    0.351    0.441   62.841  204.735
  487.500    6.996    0.356    0.435   64.316  204.744
  487.750    6.930    0.358    0.444   67.015  204.756
  488.000    6.929    0.362    0.443   67.083  204.663
  488.250    6.968    0.363    0.435   67.272  204.672
  488.500    6.994    0.364    0.430   66.666  204.784
  488.750    7.033    0.364    0.425   65.631  204.793
  489.000    7.059    0.358    0.418   64.412  204.601
  489.250    7.139    0.354    0.413   64.785  204.609
