~V
VERS. 2.00: Ver 2.00
WRAP. NO:
VEND. PRIZM:GeoGraphix
~W
STRT.M 97.5000:START DEPTH
STOP.M 344.5000:STOP DEPTH
STEP.M 0.2500:STEP
NULL. -999.2500:NULL VALUE
WELL. 00/10-19-083-05W4/0 :WELL
COMP. :COMPANY
UWI. 00_10-19-083-05W4_0:UNIQUE WELL ID
FLD. :FIELD
CNTY. :COUNTY
STAT. :STATE
CTRY. :COUNTRY
PDAT. :PERMANENT DATUM
LMF. :LOG MEASURED FROM
DMF. :DRILLING MEASURED FROM
LOC1. :LOCATION LINE 1
LOC2. :LOCATION LINE 2
LOC3. :LOCATION LINE 3
SEC. :SECTION
TWP. :TOWNSHIP
RAN. :RANGE
SRVC. :Logging Company
BASE. :Logging Unit Location
ENG. :Logging Engineer
WITN. :Witnessed By
RUN. :Run No.
MUD_TYPE. :Type Fluid in Hole
MUDS. :Source of Mud Sample
RMFS. :Source of Mud Filtrate
RMCS. :Source of Mud Cake
LOC. :LOCATION
DATE. :LOG DATE
~C
DEPT.M :DEPTH
NPHI. :NPHI
GR.API :GR
DPHI. :Created by graphical digitiser entry.
ILD.Ohmm :ILD
~P
EKB. -999.2500:ELEVATION OF KELLY BUSHING
EDF. -999.2500:ELEVATION OF DRILLING FLOOR
EGL. -999.2500:ELEVATION OF GROUND LEVEL
EPD. -999.2500:ELEVATION OF PERMANENT DATUM
APD. -999.2500:LMF DISTANCE ABOVE PERMANENT DATUM
LAT. -999.2500:LATITUDE OF WELL LOCATION
LONG. -999.2500:LONGITUDE OF WELL LOCATION
TDD. -999.2500:Total Depth Driller
TDL. -999.2500:Total Depth Logger
LCSG1. -999.2500:Depth of Casing from Logger
CSIZE. -999.2500:Casing Size
CWT. -999.2500:Casing Weight
BS. -999.2500:Bit Size
TLI. 97.5000:Top Logged Interval
BLI. 344.4000:Bottom Logged Interval
MRT. 0.0000:Maximum Recorded Temperature
WMUD. -999.2500:Drilling Mud Density
DFV. -999.2500:Drilling Mud Viscosity
PH. -999.2500:Drilling Mud pH
DFL. -999.2500:Drilling Mud Fluid Loss
RM. -999.2500:Resistivity of Drilling Fluid
RMT. -999.2500:Measured Temp. of Drilling Fluid
RMF. -999.2500:Resistivity of Drilling Fluid Filtrate
RMFT. -999.2500:Measured Temp. of Drilling Fluid Filtrate
RMC. -999.2500:Resistivity of Mud Cake
RMCT. -999.2500:Measured Temp. of Mud Cake
PHImax.V/V 0.3900:Maximum allowable Porosity
RwBnd.OHMM 0.1500:Bound Water Resistivity
RhoHy.KG/MT 1000.0000:Hydrocarbon Bulk density
SwCutoff.V/V 0.7000:Water Saturation Cutoff
PHINsh.V/V 0.4800:New Description
Rw.OHMM 1.0000:Formation Water Resistivity
Rshl.OHMM 5.0000:Resistivity shale
Trw.DEGC 25.0000:Rw measured at Lab conditions
ShaleCutoff.V/V 0.4000:New Description
GRcln.API 45.0000:Gamma Ray clean
RhoM.KG/MT 2650.0000:Bulk Density Matrix
GRshl.API 90.0000:Gamma Ray shale
m. 2.0000:Archie "m"
n. 2.0000:Archie "n"
GasTol.V/V 0.0500:Gas Tollerance
BHTemp.DEGC 25.0000:Bottom Hole Temperature
BHTDepth.M 1000.0000:Bottom Hole Depth
PHIDsh.US/MT 0.1800:New Description
a. 1.0000:Archie "a"
Gas Tol.V/V 0.0500:Gas Tollerance
RhoF.KG/MT 1000.0000:Bulk Density Fluid
RhoShl.KG/MT 2300.0000:Bulk Density Shale
TarCutoff.V/V 0.0300:New Description
SurfTemp.DEGC 10.0000:New Description
HIshl.V/V 0.4000:Neutron Hydrogen Index shale
NULL. -999.2500:
~A
# ...
  276.2500     0.4900    57.9681     0.2968     7.1702 
  276.5000     0.4877    57.3854     0.3068     7.3627 
  276.7500     0.4841    57.6900     0.2917     7.5017 
  277.0000     0.4829    60.0246     0.2614     7.6110 
  277.2500     0.4833    63.9707     0.2407     7.7096 
  277.5000     0.4756    63.7299     0.2588     7.7662 
  277.7500     0.4664    62.4201     0.2862     7.6049 
  278.0000     0.4675    62.1722     0.3039     7.4436 
  278.2500     0.4719    63.7892     0.2952     7.2823 
  278.5000     0.4769    67.0597     0.2656     7.1207 
  278.7500     0.4818    71.2164     0.2303     6.9586 
  279.0000     0.4846    75.3945     0.2011     6.7961 
  279.2500     0.4919    77.7089     0.1922     6.6335 
  279.5000     0.4979    80.3235     0.1876     6.5183 
  279.7500     0.4978    81.0704     0.1935     6.4297 
  280.0000     0.4960    79.6211     0.2066     6.3784 
  280.2500     0.4971    76.8849     0.2202     6.4135 
  280.5000     0.4963    74.4066     0.2294     6.6283 
  280.7500     0.4933    72.9446     0.2312     6.8867 
  281.0000     0.4918    71.3285     0.2370     7.3348 
  281.2500     0.4938    69.2878     0.2436     7.8302 
  281.5000     0.4991    66.7756     0.2462     8.2747 
  281.7500     0.5057    64.6505     0.2453     8.6191 
  282.0000     0.5079    65.3590     0.2520     8.8690 
  282.2500     0.5034    64.4758     0.2443     9.1188 
  282.5000     0.5012    62.2364     0.2562     8.9298 
  282.7500     0.4996    63.7158     0.2573     8.5177 
  283.0000     0.4959    66.9827     0.2522     8.0895 
  283.2500     0.4915    67.9931     0.2538     7.7504 
  283.5000     0.4978    65.4825     0.2584     7.4112 
  283.7500     0.4965    67.6943     0.2436     7.0747 
  284.0000     0.4938    64.6688     0.2587     6.8853 
  284.2500     0.4974    59.4642     0.2762     6.8055 
  284.5000     0.5069    57.0909     0.2773     7.0762 
  284.7500     0.5177    58.8526     0.2649     7.7886 
  285.0000     0.5239    56.6869     0.2762     8.4555 
  285.2500     0.5211    53.9706     0.2864     8.9767 
  285.5000     0.5262    52.4472     0.2917     9.4978 
  285.7500     0.5331    52.7223     0.2886     9.9464 
  286.0000     0.5318    55.2091     0.2821    10.2614 
  286.2500     0.5171    58.0625     0.2811    10.4476 
  286.5000     0.4985    55.1128     0.2934    10.6294 
  286.7500     0.5098    52.2746     0.2999    10.6916 
  287.0000     0.5243    50.1625     0.2918    10.7538 
  287.2500     0.5386    49.5687     0.2959    10.6936 
  287.5000     0.5513    49.3031     0.3084    10.4981 
  287.7500     0.5622    47.7988     0.3142    10.2773 
  288.0000     0.5695    44.7194     0.3061    10.2768 
  288.2500     0.5734    43.5772     0.2946    10.4509 
  288.5000     0.5785    45.7069     0.2904    10.5081 
  288.7500     0.5756    45.3372     0.2970    11.2782 
  289.0000     0.5676    42.4707     0.3105    12.8962 
  289.2500     0.5593    39.2850     0.3220    15.1247 
  289.5000     0.5488    36.5340     0.3217    17.6748 
  289.7500     0.5363    40.8279     0.3249    21.8376 
  290.0000     0.5437    40.0929     0.3288    24.3479 
  290.2500     0.5569    40.3368     0.3347    24.5134 
  290.5000     0.5710    43.0981     0.3389    23.3914 
  290.7500     0.5839    46.7296     0.3361    22.2865 
  291.0000     0.5905    47.6827     0.3223    21.2472 
  291.2500     0.5967    46.3174     0.3386    20.2050 
  291.5000     0.6102    44.7033     0.3500    19.1588 
  291.7500     0.6202    44.6645     0.3390    17.6301 
  292.0000     0.6247    48.4345     0.3035    15.7019 
  292.2500     0.6276    56.5270     0.2626    13.7998 
  292.5000     0.6365    65.6071     0.2642    12.4738 
  292.7500     0.6193    62.7667     0.2798    11.8296 
  293.0000     0.6013    54.8413     0.2951    11.7669 
  293.2500     0.5902    52.7904     0.3092    12.0596 
  293.5000     0.5835    57.1016     0.3081    12.4924 
  293.7500     0.5770    62.5587     0.2903    12.8652 
  294.0000     0.5736    63.0086     0.2930    12.9981 
  294.2500     0.5731    61.0077     0.3081    12.8848 
  294.5000     0.5688    60.6312     0.3314    12.3474 
  294.7500     0.5589    63.1861     0.3168    11.3145 
  295.0000     0.5458    65.6212     0.2876    10.1698 
  295.2500     0.5325    64.3552     0.2789     9.8130 
  295.5000     0.5183    59.1046     0.2806    11.7197 
  295.7500     0.5163    49.5961     0.3162    14.5464 
  296.0000     0.5196    41.9491     0.3300    18.5694 
  296.2500     0.5266    37.9558     0.3295    23.5282 
  296.5000     0.5313    37.8115     0.3211    27.6936 
  296.7500     0.5286    40.5788     0.3093    28.5394 
  297.0000     0.5197    44.6517     0.2942    23.4141 
  297.2500     0.5166    45.0096     0.3044    21.1349 
  297.5000     0.5167    44.7025     0.3106    21.8854 
  297.7500     0.5199    43.5108     0.3195    23.5302 
  298.0000     0.5256    40.5672     0.3285    25.8548 
  298.2500     0.5284    36.7952     0.3309    28.7367 
  298.5000     0.5135    37.3480     0.3203    30.3170 
  298.7500     0.4989    35.6411     0.3059    26.8173 
  299.0000     0.4815    31.4336     0.3140    30.0271 
  299.2500     0.4703    28.2153     0.3277    35.6152 
  299.5000     0.4612    27.3425     0.3341    41.8698 
  299.7500     0.4479    28.7613     0.3285    47.4804 
  300.0000     0.4335    31.7309     0.3193    49.3196 
  300.2500     0.4271    37.0431     0.3123    43.9999 
  300.5000     0.4294    45.0063     0.3052    33.0853 
  300.7500     0.4456    47.5706     0.3095    25.1991 
  301.0000     0.4736    44.8847     0.3214    22.3364 
  301.2500     0.5015    40.1470     0.3334    23.6754 
  301.5000     0.5053    34.4573     0.3450    29.3899 
  301.7500     0.5023    28.5091     0.3593    41.7226 
  302.0000     0.4948    27.2404     0.3589    53.2732 
  302.2500     0.4855    27.7883     0.3544    62.4533 
  302.5000     0.4736    28.2118     0.3523    69.6452 
  302.7500     0.4592    28.2341     0.3533    75.5313 
  303.0000     0.4486    29.9850     0.3529    79.4217 
  303.2500     0.4530    31.7614     0.3476    75.0639 
  303.5000     0.4749    33.9678     0.3402    64.1203 
  303.7500     0.4998    39.5570     0.3260    48.5515 
  304.0000     0.5115    47.9139     0.3078    32.4825 
  304.2500     0.5034    55.4381     0.2930    20.3346 
  304.5000     0.4897    56.1256     0.2902    14.9559 
  304.7500     0.4958    47.2519     0.3011    13.5336 
  305.0000     0.5045    45.9169     0.2987    11.9677 
  305.2500     0.5127    51.9739     0.2828    11.3937 
  305.5000     0.5149    54.9996     0.2732    12.5181 
  305.7500     0.5078    47.7540     0.2846    14.9389 
  306.0000     0.4940    39.6407     0.3019    16.4672 
  306.2500     0.4859    40.6652     0.2839    15.1811 
  306.5000     0.4858    52.4390     0.2410    13.8950 
  306.7500     0.4864    71.6179     0.2102    11.6369 
  307.0000     0.4843    83.3553     0.2044     8.8817 
  307.2500     0.4808    77.9790     0.2197     6.7540 
  307.5000     0.4818    67.6688     0.2418     6.2306 
  307.7500     0.4784    58.8163     0.2720     7.2964 
  308.0000     0.4843    50.1791     0.3079     8.4316 
  308.2500     0.4969    50.1158     0.3102     9.1183 
  308.5000     0.5129    55.0672     0.2815     8.9904 
  308.7500     0.5298    57.0841     0.2512     8.0374 
  309.0000     0.5467    51.3551     0.2620     6.8076 
  309.2500     0.5485    41.9207     0.2929     7.8466 
  309.5000     0.5495    38.4735     0.3239    10.4139 
  309.7500     0.5540    38.3043     0.3316    15.0903 
  310.0000     0.5609    36.8282     0.3307    19.0300 
  310.2500     0.5647    32.2346     0.3369    18.7673 
  310.5000     0.5562    30.1384     0.3293    13.0221 
  310.7500     0.5164    38.8689     0.3169     9.0231 
  311.0000     0.4874    54.2315     0.3030     5.9227 
  311.2500     0.4740    62.1655     0.2900     3.9744 
  311.5000     0.4761    61.6161     0.2801     2.8691 
  311.7500     0.4882    57.8734     0.2753     2.1944 
