~VERSION INFORMATION
 VERS.                 2.0:   CWLS LOG ASCII STANDARD -VERSION 2.0
 WRAP.                  NO:   ONE LINE PER DEPTH STEP
~WELL INFORMATION BLOCK
#MNEM.UNIT           DATA                    DESCRIPTION OF MNEMONIC
#---------    -------------------            -------------------------------
# Generated from Intellog Unique Number	CS_77_79/WELL/983
WELL.         HOME OIL COMPANY LIMITED       : Well_name    - WELL
LOC .         00/11-02-077-08W4/0            : Location     - LOCATION
UWI .         00/11-02-077-08W4/0            : Uwi          - UNIQUE WELL ID
ENTR.         SP                             : Entered      - ENTERED BY
SRVC.         SCHLUMBERGER                   : Scn          - SERVICE COMPANY
STRT.M        150                            : top_depth    - START DEPTH
STOP.M        380                            : bot_depth    - STOP DEPTH
STEP.M        0.25                           : increment    - STEP LENGTH
 NULL. -999.2500:NULL Value
~CURVE INFORMATION BLOCK
#MNEM UNIT       ERCB CURVE CODE    CURVE DESCRIPTION
#-----------   ------------------   ----------------------------------
DEPT.M        00 001 00 00         : DEPTH        - DEPTH
ILD .OHMM     00 120 00 00         : RESD         - DEEP RESISTIVITY (DIL)
DPHI.V/V      00 890 00 00         : PHID         - DENSITY POROSITY (LIMESTONE)
NPHI.V/V      00 330 00 00         : PHIN         - NEUTRON POROSITY (LIMESTONE)
GR  .API      00 310 00 00         : GR           - GAMMA RAY
~PARAMETER INFORMATION
#MNEM.UNIT           DATA             DESCRIPTION OF MNEMONIC
#---------         -----------     ------------------------------
GL  .M        575.6                : gl           - GROUND LEVEL ELEVATION
EREF.M        579.11               : kb           - ELEVATION OF DEPTH REFERENCE
DATM.M        575.61               : datum        - DATUM ELEVATION
TDD .M        400                  : tdd          - TOTAL DEPTH DRILLER
RUN .         ONE                  : Run          - RUN NUMBER
ENG .         BILL                 : Engineer     - RECORDING ENGINEER
WIT .         JIM                  : Witness      - WITNESSED BY
MUD .         GEL                  : Mud_type     - MUD TYPE
MATR.         LIMESTONE            : Logunit      - NEUTRON MATRIX
TMAX.C        36                   : BHT          - MAXIMUM RECORDED TEMPERATURE
BHTD.M        400                  : BHTDEP       - MAXIMUM RECORDED TEMPERATURE
MATR.         1                    : LOGUNIT      - NEUTRON MATRIX
RMT .C        25                   : MDTP         - TEMPERATURE OF MUD
NEUT.         1                    : NEUTRON      - NEUTRON TYPE
RESI.         0                    : RESIST       - RESISTIVITY TYPE
RMC .OHMM     0.25                 : RMC          - RESISTIVITY OF MUD CAKE
RMF .OHMM     0.25                 : RMF          - RESISTIVITY OF MUD FILTRATE
SUFT.C        15                   : SUFT         - SURFACE TEMPERATURE
~A  DEPTH     RESD     PHID     PHIN       GR
  150.000    3.614    0.286    0.398  100.006
  150.250    3.115    0.284    0.413  100.634
  150.500    3.059    0.277    0.411  103.731
  150.750    3.004    0.288    0.353  104.361
  151.000    3.006    0.294    0.370  100.668
  151.250    2.952    0.293    0.381  109.936
  151.500    2.953    0.296    0.406  118.591
  151.750    2.954    0.293    0.401  115.518
  152.000    2.901    0.288    0.386  110.587
  152.250    2.903    0.293    0.364  105.041
  152.500    2.850    0.288    0.348  110.609
  152.750    2.852    0.305    0.355  107.533
  153.000    2.853    0.315    0.350  105.693
  153.250    2.908    0.305    0.403  104.467
  153.500    2.909    0.294    0.392  102.012
  153.750    2.965    0.282    0.344  102.022
  154.000    2.912    0.275    0.347  102.647
  154.250    2.913    0.286    0.362  103.278
  154.500    2.861    0.287    0.402  106.379
  154.750    2.862    0.287    0.441  108.237
  155.000    2.917    0.283    0.407  115.038
  155.250    2.974    0.275    0.408  111.961
  155.500    2.975    0.276    0.395  108.270
  155.750    3.032    0.278    0.404  107.044
  156.000    3.091    0.277    0.390  103.969
  156.250    3.151    0.268    0.402  108.300
  156.500    3.211    0.256    0.418  104.608
  156.750    3.273    0.248    0.419  103.386
  157.000    3.463    0.250    0.384  104.013
  157.250    3.596    0.251    0.301  108.344
  157.500    3.665    0.242    0.313  107.123
  157.750    3.806    0.234    0.344  111.452
  158.000    3.952    0.229    0.395  118.870
  158.250    4.104    0.238    0.371  125.671
  158.500    4.183    0.244    0.335  116.425
  158.750    4.264    0.233    0.315  113.347
  159.000    4.346    0.227    0.301  110.274
  159.250    4.268    0.222    0.282  105.960
  159.500    4.269    0.215    0.293  103.502
  159.750    4.116    0.226    0.324  109.685
  160.000    4.117    0.227    0.370  107.846
  160.250    4.043    0.233    0.402  104.155
  160.500    3.971    0.238    0.379  109.720
  160.750    3.973    0.232    0.322  112.203
  161.000    3.974    0.234    0.322  113.446
  161.250    4.051    0.238    0.331  107.900
  161.500    4.129    0.228    0.337  107.294
  161.750    4.287    0.135    0.343  104.219
  162.000    4.708    0.121    0.266   95.586
  162.250    5.466    0.088    0.268   86.953
  162.500    5.572    0.213    0.297   83.260
  162.750    5.272    0.216    0.330  100.555
  163.000    4.988    0.222    0.270   99.331
  163.250    4.719    0.236    0.340  106.750
  163.500    4.548    0.237    0.369  102.439
  163.750    4.551    0.226    0.304   96.895
  164.000    6.132    0.247    0.306   93.820
  164.250    8.265    0.268    0.321   92.596
  164.500   10.148    0.273    0.343   99.396
  164.750   11.784    0.276    0.346  109.284
  165.000   12.700    0.245    0.333  117.320
  165.250   13.437    0.217    0.315  116.715
  165.500   13.195    0.220    0.303  121.047
  165.750   12.484    0.226    0.296  117.973
  166.000   12.491    0.242    0.284  114.278
  166.250   12.495    0.252    0.290  117.375
  166.500   12.976    0.241    0.311  111.829
  166.750   13.984    0.238    0.336  104.432
  167.000   15.941    0.258    0.349   90.245
  167.250   17.504    0.282    0.328   83.467
  167.500   18.866    0.294    0.300   80.388
  167.750   19.958    0.286    0.291   81.634
  168.000   21.916    0.274    0.289   87.201
  168.250   22.761    0.275    0.291   84.746
  168.500   23.195    0.286    0.293   83.519
  168.750   22.778    0.292    0.295   81.677
  169.000   21.552    0.297    0.315   88.479
  169.250   20.017    0.283    0.332   90.343
  169.500   19.291    0.273    0.356   90.972
  169.750   18.251    0.270    0.345   90.362
  170.000   17.267    0.271    0.320   89.139
  170.250   16.036    0.226    0.276   90.384
  170.500   14.892    0.241    0.283   97.804
  170.750   13.326    0.242    0.289  105.222
  171.000   12.375    0.238    0.303  106.469
  171.250   11.491    0.236    0.312  102.156
  171.500   11.078    0.222    0.317  109.576
  171.750   11.080    0.215    0.322  110.822
  172.000   11.294    0.226    0.321  104.659
  172.250   12.636    0.245    0.307   94.793
  172.500   15.516    0.289    0.302   88.633
  172.750   18.018    0.295    0.289   83.702
  173.000   18.708    0.291    0.291   80.626
  173.250   19.425    0.282    0.311   83.723
  173.500   19.803    0.279    0.345   93.612
  173.750   20.949    0.288    0.361   93.622
  174.000   22.579    0.291    0.355   84.990
  174.250   24.334    0.306    0.311   79.447
  174.500   26.722    0.311    0.306   75.754
  174.750   30.456    0.316    0.312   72.676
  175.000   33.447    0.323    0.293   70.218
  175.250   34.094    0.328    0.291   69.612
  175.500   34.745    0.330    0.300   66.538
  175.750   34.761    0.331    0.308   62.844
  176.000   33.504    0.331    0.331   61.001
  176.250   32.295    0.324    0.307   61.014
  176.500   29.991    0.323    0.318   57.319
  176.750   29.450    0.328    0.331   57.329
  177.000   25.386    0.331    0.356   62.279
  177.250   22.298    0.322    0.335   61.672
  177.500   21.097    0.319    0.292   60.449
  177.750   21.104    0.314    0.328   64.163
  178.000   20.725    0.308    0.347   70.348
  178.250   19.607    0.307    0.317   70.975
  178.500   15.983    0.308    0.265   94.445
  178.750   12.789    0.317    0.297  116.062
  179.000   10.233    0.323    0.325  121.010
  179.250    8.986    0.278    0.358  119.171
  179.500    7.463    0.192    0.334  116.711
  179.750    6.433    0.161    0.310  117.339
  180.000    5.545    0.157    0.337  122.292
  180.250    5.055    0.187    0.363  124.772
  180.500    4.607    0.184    0.374  126.016
  180.750    4.279    0.208    0.380  126.026
  181.000    4.281    0.235    0.398  121.714
  181.250    5.770    0.275    0.434  111.848
  181.500    8.222    0.294    0.408   89.017
  181.750   11.937    0.293    0.371   76.682
  182.000   16.391    0.299    0.331   70.520
  182.250   19.032    0.314    0.319   68.678
  182.500   20.898    0.310    0.331   74.245
  182.750   22.524    0.293    0.344   69.935
  183.000   22.536    0.287    0.361   68.712
  183.250   22.545    0.296    0.378   74.278
  183.500   22.144    0.302    0.353   70.588
  183.750   21.744    0.297    0.337   69.978
  184.000   21.751    0.303    0.305   69.995
  184.250   21.763    0.308    0.285   70.616
  184.500   21.371    0.309    0.286   74.332
  184.750   20.985    0.306    0.278   77.429
  185.000   19.855    0.304    0.297   79.291
  185.250   17.766    0.292    0.310   85.477
  185.500   16.497    0.301    0.321   84.253
  185.750   15.037    0.299    0.334   92.906
  186.000   13.964    0.287    0.343   99.090
  186.250   12.495    0.269    0.305  111.445
  186.500   11.179    0.251    0.266  125.656
  186.750   10.190    0.236    0.281  134.307
  187.000    9.288    0.221    0.298  135.553
  187.250    8.007    0.216    0.309  133.712
  187.500    7.164    0.191    0.344  129.405
  187.750    6.777    0.172    0.345  124.475
  188.000    6.412    0.178    0.335  134.979
  188.250    6.297    0.195    0.354  138.077
  188.500    6.419    0.199    0.360  136.857
  188.750    6.791    0.193    0.362  135.011
  189.000    7.456    0.215    0.358  128.232
  189.250    8.821    0.256    0.333  118.984
  189.500   10.053    0.268    0.296  114.673
  189.750   11.893    0.283    0.308  109.130
  190.000   13.554    0.301    0.333  106.052
  190.250   15.449    0.286    0.312  103.593
  190.500   16.042    0.266    0.290  106.692
  190.750   14.898    0.235    0.274  108.553
  191.000   13.836    0.241    0.269  111.652
  191.250   13.587    0.257    0.279  111.045
  191.500   13.848    0.260    0.278  115.379
  191.750   13.854    0.263    0.256  115.387
  192.000   14.659    0.256    0.291  117.868
  192.250   15.220    0.234    0.352  120.964
  192.500   16.407    0.201    0.353  114.802
  192.750   17.681    0.101    0.309   94.441
  193.000   20.155    0.123    0.286   68.525
  193.250   21.319    0.230    0.308   56.189
