~VERSION INFORMATION
 VERS.                 2.0:   CWLS LOG ASCII STANDARD -VERSION 2.0
 WRAP.                  NO:   ONE LINE PER DEPTH STEP
~WELL INFORMATION BLOCK
#MNEM.UNIT           DATA                    DESCRIPTION OF MNEMONIC
#---------    -------------------            -------------------------------
# Generated from Intellog Unique Number	CW_79_81/WELL/2473
WELL.         HB GODIN                       : Well_name    - WELL
LOC .         00/10-23-081-02W5/0            : Location     - LOCATION
UWI .         00/10-23-081-02W5/0            : Uwi          - UNIQUE WELL ID
ENTR.         MAX                            : Entered      - ENTERED BY
SRVC.         SCHLUMBERGER                   : Scn          - SERVICE COMPANY
STRT.M        243.84                         : top_depth    - START DEPTH
STOP.M        460.09                         : bot_depth    - STOP DEPTH
STEP.M        0.25                           : increment    - STEP LENGTH
 NULL. -999.2500:NULL Value
~CURVE INFORMATION BLOCK
#MNEM UNIT       ERCB CURVE CODE    CURVE DESCRIPTION
#-----------   ------------------   ----------------------------------
DEPT.M        00 001 00 00         : DEPTH        - DEPTH
ILD .OHMM     00 120 00 00         : RESD         - DEEP RESISTIVITY (DIL)
NPHI.V/V      00 330 00 00         : PHIN         - NEUTRON POROSITY (SANDSTONE)
DPHI.V/V      00 890 00 00         : PHID         - DENSITY POROSITY (SANDSTONE)
GR  .API      00 310 00 00         : GR           - GAMMA RAY
CALI.MM       00 280 01 00         : CAL          - CALIPER
~PARAMETER INFORMATION
#MNEM.UNIT           DATA             DESCRIPTION OF MNEMONIC
#---------         -----------     ------------------------------
GL  .M        586.435              : gl           - GROUND LEVEL ELEVATION
EREF.M        590.093              : kb           - ELEVATION OF DEPTH REFERENCE
DATM.M        586.435              : datum        - DATUM ELEVATION
TDD .M        445.008              : tdd          - TOTAL DEPTH DRILLER
RUN .         ONE                  : Run          - RUN NUMBER
ENG .         BILL                 : Engineer     - RECORDING ENGINEER
WIT .         JIM                  : Witness      - WITNESSED BY
MUD .         GEL                  : Mud_type     - MUD TYPE
MATR.         SANDSTONE            : Logunit      - NEUTRON MATRIX
TMAX.C        23.8889              : BHT          - MAXIMUM RECORDED TEMPERATURE
BHTD.M        445.008              : BHTDEP       - MAXIMUM RECORDED TEMPERATURE
MATR.         1                    : LOGUNIT      - NEUTRON MATRIX
RMT .C        18.8889              : MDTP         - TEMPERATURE OF MUD
NEUT.         1                    : NEUTRON      - NEUTRON TYPE
RESI.         0                    : RESIST       - RESISTIVITY TYPE
RMC .OHMM     3.22                 : RMC          - RESISTIVITY OF MUD CAKE
RMF .OHMM     3.22                 : RMF          - RESISTIVITY OF MUD FILTRATE
SUFT.C        -20.5556             : SUFT         - SURFACE TEMPERATURE
~A  DEPTH     RESD     PHIN     PHID       GR      CAL
# ...
  389.840    9.015    0.430    0.196   73.203  195.885
  390.090    9.273    0.427    0.184   72.508  197.279
  390.340    9.661    0.416    0.177   70.470  196.993
  390.590   10.646    0.398    0.185   65.728  194.552
  390.840   13.308    0.376    0.189   61.842  194.148
  391.090   15.989    0.356    0.199   57.411  194.952
  391.340   18.784    0.322    0.177   54.907  195.455
  391.590   22.767    0.291    0.124   53.161  196.057
  391.840   28.945    0.280    0.073   51.474  196.760
  392.090   35.815    0.308    0.090   49.418  197.332
  392.340   38.330    0.313    0.101   48.450  198.168
  392.590   40.002    0.314    0.114   48.457  198.968
  392.840   40.863    0.317    0.115   49.163  198.286
  393.090   37.177    0.337    0.123   50.220  196.912
  393.340   31.096    0.367    0.144   51.453  195.637
  393.590   25.303    0.375    0.173   53.056  195.254
  393.840   20.411    0.372    0.153   54.035  195.265
  394.090   18.266    0.386    0.162   54.274  194.880
  394.340   17.021    0.391    0.181   53.988  194.791
  394.590   16.473    0.391    0.181   54.112  194.800
  394.840   16.433    0.390    0.175   55.228  194.810
  395.090   16.931    0.392    0.211   57.668  194.905
  395.340   18.398    0.403    0.210   58.160  195.328
  395.590   21.056    0.384    0.188   55.831  197.712
  395.840   25.726    0.377    0.159   54.902  199.206
  396.090   29.701    0.364    0.140   55.959  199.809
  396.340   28.119    0.339    0.127   58.593  200.115
  396.590   19.050    0.323    0.109   63.105  201.397
  396.840   12.293    0.358    0.151   71.627  201.820
  397.090    9.170    0.418    0.191   79.340  202.621
  397.340    7.744    0.446    0.190   82.674  205.498
  397.590    7.143    0.454    0.178   83.498  206.101
  397.840    6.999    0.453    0.169   83.271  204.135
  398.090    7.087    0.450    0.168   83.093  203.769
  398.340    7.300    0.454    0.177   83.342  205.837
  398.590    7.673    0.450    0.198   83.815  205.848
  398.840    8.239    0.447    0.204   82.188  205.266
  399.090    8.826    0.442    0.205   79.391  203.893
  399.340    9.429    0.437    0.206   75.894  202.222
  399.590   10.858    0.433    0.203   70.821  201.279
  399.840   14.231    0.432    0.201   66.448  200.464
  400.090   15.834    0.415    0.197   64.119  198.498
  400.340   18.363    0.399    0.195   63.716  197.123
  400.590   21.966    0.386    0.186   64.072  196.934
  400.840   25.608    0.372    0.167   64.603  198.329
  401.090   24.272    0.349    0.123   66.138  201.672
  401.340   19.297    0.337    0.091   70.281  202.509
  401.590   14.285    0.368    0.112   73.090  202.518
  401.840   10.817    0.401    0.145   73.446  202.823
  402.090    8.979    0.423    0.166   73.918  203.229
  402.340    8.188    0.433    0.175   75.968  203.439
  402.590    8.135    0.431    0.194   80.092  202.805
  402.840    8.191    0.423    0.200   80.828  201.580
  403.090    8.427    0.426    0.205   78.733  201.195
  403.340    8.576    0.431    0.194   76.987  200.811
  403.590    8.633    0.432    0.183   75.008  200.426
  403.840    8.628    0.431    0.172   73.028  199.743
  404.090    8.608    0.431    0.151   72.393  198.008
  404.340    8.538    0.431    0.148   73.859  197.197
  404.590    8.656    0.440    0.156   73.865  197.207
  404.840    8.778    0.436    0.170   74.923  198.699
  405.090    8.901    0.424    0.178   74.579  199.894
  405.340    9.010    0.412    0.174   73.242  199.905
  405.590    9.054    0.410    0.161   74.671  198.239
  405.840    8.979    0.411    0.182   77.109  195.776
  406.090    8.973    0.408    0.187   78.749  194.994
  406.340    8.966    0.417    0.183   79.866  195.401
  406.590    8.961    0.424    0.183   79.872  195.807
  406.840    8.941    0.423    0.188   79.177  195.718
  407.090    8.870    0.411    0.186   79.573  195.336
  407.340    8.864    0.404    0.164   81.526  195.345
  407.590    8.923    0.417    0.167   81.065  196.937
  407.840    8.983    0.432    0.184   79.728  198.234
  408.090    9.009    0.441    0.195   79.033  198.837
  408.340    9.019    0.443    0.190   79.915  199.242
  408.590    9.093    0.440    0.174   83.163  200.836
  408.840    9.156    0.438    0.185   85.358  200.847
  409.090    9.150    0.426    0.178   86.066  200.857
  409.340    9.144    0.417    0.173   86.072  201.165
  409.590    8.972    0.413    0.173   84.911  201.571
  409.840    8.647    0.411    0.179   83.457  202.173
  410.090    8.334    0.405    0.185   84.417  203.784
  410.340    8.329    0.403    0.179   86.856  205.854
  410.590    9.869    0.417    0.193   84.760  206.261
  410.840   12.185    0.400    0.206   78.811  203.700
  411.090   14.945    0.381    0.206   73.445  202.128
  411.340   16.859    0.379    0.191   70.882  202.338
  411.590   15.325    0.403    0.164   70.977  201.706
  411.840   11.927    0.420    0.174   70.254  200.482
  412.090   11.077    0.434    0.181   68.859  200.492
  412.340   10.757    0.442    0.192   68.865  201.391
  412.590   10.635    0.444    0.196   69.221  201.994
  412.840   11.037    0.436    0.190   68.760  202.104
  413.090   13.880    0.399    0.166   65.517  202.430
  413.340   17.079    0.344    0.121   62.116  202.027
  413.590   18.603    0.311    0.070   57.685  202.434
  413.840   18.299    0.292    0.059   58.157  203.136
  414.090   15.786    0.300    0.092   61.550  203.344
  414.340   12.967    0.332    0.150   66.811  203.058
  414.590   11.247    0.380    0.189   73.679  203.069
  414.840   10.905    0.421    0.174   72.955  203.082
  415.090   11.381    0.415    0.154   70.859  203.091
  415.340   11.314    0.401    0.139   71.041  203.398
  415.590   10.981    0.388    0.129   72.215  203.409
  415.840   10.462    0.386    0.126   73.448  203.124
  416.090    9.554    0.406    0.139   74.059  202.969
  416.340    9.060    0.418    0.164   73.578  202.156
  416.590    8.923    0.421    0.174   72.650  200.980
  416.840    9.422    0.427    0.161   71.897  200.693
  417.090   10.129    0.425    0.140   70.035  200.703
  417.340   10.658    0.408    0.116   66.537  200.714
  417.590   10.696    0.367    0.077   61.640  200.809
  417.840   10.529    0.318    0.045   61.645  201.231
  418.090   10.446    0.330    0.088   65.388  201.637
  418.340   10.308    0.386    0.130   70.006  201.746
  418.590   10.153    0.421    0.154   73.516  201.756
  418.840   10.000    0.416    0.156   75.391  201.964
  419.090    9.849    0.401    0.147   76.810  202.272
  419.340    9.842    0.420    0.138   78.031  199.811
  419.590    9.553    0.434    0.157   78.038  202.985
  419.840    9.171    0.437    0.143   77.168  204.084
  420.090    9.101    0.439    0.135   75.189  203.699
  420.340    9.397    0.439    0.146   73.152  202.819
  420.590    9.883    0.431    0.167   73.831  202.667
  420.840   10.258    0.428    0.172   76.028  201.853
  421.090   10.477    0.424    0.173   76.266  201.072
  421.340   10.643    0.416    0.158   75.806  200.885
  421.590   10.675    0.410    0.140   75.462  201.884
  421.840   10.552    0.408    0.129   75.525  203.574
  422.090   10.207    0.413    0.130   76.009  204.377
  422.340    9.677    0.414    0.124   77.231  204.391
  422.590    9.189    0.427    0.123   80.041  204.796
  422.840    9.070    0.426    0.118   83.024  204.905
  423.090    9.097    0.422    0.138   86.534  205.114
  423.340    9.125    0.423    0.168   89.109  205.420
  423.590    9.065    0.431    0.148   87.043  205.431
  423.840    9.127    0.406    0.137   84.861  205.441
  424.090    8.924    0.402    0.141   86.268  205.452
  424.340    8.726    0.411    0.141   87.674  205.165
  424.590    8.564    0.420    0.146   89.082  203.791
  424.840    8.497    0.424    0.155   90.548  201.527
  425.090    8.692    0.421    0.149   92.142  199.562
  425.340    9.091    0.425    0.138   91.905  199.575
  425.590    9.420    0.420    0.126   88.641  199.979
  425.840    9.553    0.406    0.123   87.129  200.384
  426.090    9.582    0.393    0.126   87.835  200.789
