~VERSION INFORMATION
 VERS.                 2.0:   CWLS LOG ASCII STANDARD -VERSION 2.0
 WRAP.                  NO:   ONE LINE PER DEPTH STEP
~WELL INFORMATION BLOCK
#MNEM.UNIT           DATA                    DESCRIPTION OF MNEMONIC
#---------    -------------------            -------------------------------
# Generated from Intellog Unique Number	CS_67_68/WELL/2210
WELL.         INTER-CITY GAS ET AL TWEED     : Well_name    - WELL
LOC .         00/11-36-067-13W4/0            : Location     - LOCATION
UWI .         00/11-36-067-13W4/0            : Uwi          - UNIQUE WELL ID
ENTR.         SP                             : Entered      - ENTERED BY
SRVC.         SCHLUMBERGER                   : Scn          - SERVICE COMPANY
STRT.M        304.8                          : top_depth    - START DEPTH
STOP.M        480.050                        : bot_depth    - STOP DEPTH
STEP.M        0.25                           : increment    - STEP LENGTH
 NULL. -999.2500:NULL Value
~CURVE INFORMATION BLOCK
#MNEM UNIT       ERCB CURVE CODE    CURVE DESCRIPTION
#-----------   ------------------   ----------------------------------
DEPT.M        00 001 00 00         : DEPTH        - DEPTH
CALI.MM       00 280 01 00         : CAL          - CALIPER
GR  .API      00 310 00 00         : GR           - GAMMA RAY
DPHI.V/V      00 890 00 00         : PHID         - DENSITY POROSITY (SANDSTONE)
NPHI.V/V      00 330 00 00         : PHIN         - NEUTRON POROSITY (SANDSTONE)
ILD .OHMM     00 120 00 00         : RESD         - DEEP RESISTIVITY (DIL)
~PARAMETER INFORMATION
#MNEM.UNIT           DATA             DESCRIPTION OF MNEMONIC
#---------         -----------     ------------------------------
GL  .M        587.654              : gl           - GROUND LEVEL ELEVATION
EREF.M        590.398              : kb           - ELEVATION OF DEPTH REFERENCE
DATM.M        590.398              : datum        - DATUM ELEVATION
TDD .M        478.536              : tdd          - TOTAL DEPTH DRILLER
RUN .         ONE                  : Run          - RUN NUMBER
ENG .         BILL                 : Engineer     - RECORDING ENGINEER
WIT .         JIM                  : Witness      - WITNESSED BY
MUD .         GEL                  : Mud_type     - MUD TYPE
MATR.         SANDSTONE            : Logunit      - NEUTRON MATRIX
TMAX.C        60                   : BHT          - MAXIMUM RECORDED TEMPERATURE
BHTD.M        478.536              : BHTDEP       - MAXIMUM RECORDED TEMPERATURE
MATR.         1                    : LOGUNIT      - NEUTRON MATRIX
RMT .C        25                   : MDTP         - TEMPERATURE OF MUD
NEUT.         1                    : NEUTRON      - NEUTRON TYPE
RESI.         0                    : RESIST       - RESISTIVITY TYPE
RMC .OHMM     0.25                 : RMC          - RESISTIVITY OF MUD CAKE
RMF .OHMM     0.25                 : RMF          - RESISTIVITY OF MUD FILTRATE
SUFT.C        15                   : SUFT         - SURFACE TEMPERATURE
~A  DEPTH      CAL       GR     PHID     PHIN     RESD
  304.800  192.588  119.051    0.175    0.552    2.513
  305.050  192.356  119.411    0.197    0.549    2.547
  305.300  191.850  120.010    0.202    0.563    2.649
  305.550  190.903  120.936    0.195    0.548    2.714
  305.800  188.839  119.759    0.187    0.541    2.789
  306.050  187.216  118.426    0.198    0.546    2.887
  306.300  186.653  119.782    0.199    0.542    3.036
  306.550  186.499  123.449    0.186    0.534    2.949
  306.800  186.502  125.894    0.189    0.528    2.850
  307.050  186.779  123.489    0.195    0.517    2.769
  307.300  187.967  123.453    0.201    0.509    2.726
  307.550  189.086  122.462    0.204    0.505    2.758
  307.800  189.155  119.423    0.200    0.523    2.840
  308.050  188.943  115.116    0.170    0.536    2.898
  308.300  184.976  111.306    0.128    0.547    2.844
  308.550  179.695  108.030    0.102    0.548    2.736
  308.800  177.381  106.472    0.084    0.544    2.691
  309.050  179.383  112.695    0.057    0.540    2.748
  309.300  182.952  116.432    0.255    0.536    2.809
  309.550  186.021  112.122    0.302    0.554    3.009
  309.800  182.814  105.920    0.402    0.581    3.408
  310.050  173.859  101.611    0.424    0.590    3.795
  310.300  169.115   97.209    0.358    0.568    4.203
  310.550  166.697   98.364    0.326    0.417    4.501
  310.800  165.040  101.533    0.289    0.367    4.112
  311.050  164.027  112.006    0.230    0.349    3.914
  311.300  167.560  126.408    0.174    0.446    3.781
  311.550  171.268  130.719    0.163    0.465    3.781
  311.800  174.900  128.258    0.168    0.473    3.823
  312.050  176.434  124.013    0.180    0.471    3.946
  312.300  178.319  118.109    0.183    0.464    3.982
  312.550  178.726  108.007    0.254    0.455    3.777
  312.800  173.887   96.855    0.317    0.443    3.540
  313.050  164.341   83.285    0.343    0.344    3.316
  313.300  158.563   73.152    0.326    0.332    3.135
  313.550  157.693   79.678    0.300    0.357    3.032
  313.800  157.674   88.561    0.275    0.371    3.118
  314.050  158.639   92.416    0.265    0.389    3.415
  314.300  159.057   94.611    0.250    0.384    3.715
  314.550  159.724   97.155    0.239    0.388    3.861
  314.800  160.496   92.186    0.238    0.386    3.548
  315.050  161.021   86.550    0.269    0.381    3.232
  315.300  160.952   81.278    0.318    0.377    2.970
  315.550  159.773   79.307    0.313    0.398    2.828
  315.800  158.742   79.177    0.285    0.423    2.747
  316.050  158.477   85.870    0.264    0.431    2.765
  316.300  158.512   91.960    0.249    0.442    2.813
  316.550  159.035   95.686    0.259    0.457    2.842
  316.800  159.972   97.036    0.268    0.466    2.899
  317.050  160.903  101.525    0.260    0.451    2.964
  317.300  162.313  106.895    0.249    0.440    3.049
  317.550  163.572  111.291    0.238    0.447    3.187
  317.800  164.466  114.848    0.231    0.458    3.306
  318.050  165.268  116.916    0.214    0.443    3.512
  318.300  165.924  117.252    0.198    0.434    3.680
  318.550  167.655  119.265    0.183    0.437    3.841
  318.800  169.464  122.289    0.159    0.460    3.748
  319.050  170.982  123.184    0.142    0.495    3.428
  319.300  172.778  128.957    0.124    0.535    2.907
  319.550  175.046  133.810    0.154    0.560    2.533
  319.800  177.048  137.323    0.213    0.575    2.327
  320.050  179.108  137.851    0.224    0.590    2.212
  320.300  179.186  130.141    0.254    0.542    2.335
  320.550  173.270  118.771    0.272    0.497    2.527
  320.800  167.465  107.563    0.277    0.464    2.672
  321.050  165.057  101.916    0.274    0.441    2.837
  321.300  164.223   99.633    0.291    0.448    2.911
  321.550  164.429   98.471    0.300    0.458    2.876
  321.800  164.697   96.867    0.299    0.462    2.682
  322.050  164.839   94.017    0.292    0.466    2.462
  322.300  165.082   89.577    0.290    0.471    2.413
  322.550  165.325   86.275    0.289    0.476    2.427
  322.800  165.830   84.077    0.269    0.480    2.470
  323.050  166.373   83.591    0.247    0.496    2.527
  323.300  167.359   95.617    0.230    0.490    2.637
  323.550  168.083  104.321    0.214    0.474    2.825
  323.800  168.749  111.864    0.229    0.463    2.967
  324.050  169.137  115.072    0.219    0.476    3.164
  324.300  169.531  115.852    0.214    0.486    3.444
  324.550  169.857  115.586    0.214    0.497    3.621
  324.800  170.214  115.862    0.202    0.507    3.761
  325.050  171.520  116.352    0.186    0.503    3.778
  325.300  172.955  119.455    0.176    0.505    3.782
  325.550  174.926  121.777    0.177    0.498    3.774
  325.800  177.106  125.212    0.177    0.496    3.739
  326.050  179.093  129.971    0.188    0.498    3.659
  326.300  180.962  133.597    0.197    0.506    3.494
  326.550  182.514  135.868    0.181    0.519    3.231
  326.800  184.101  138.261    0.208    0.530    3.105
  327.050  184.767  140.252    0.229    0.533    3.225
  327.300  185.204  139.291    0.235    0.522    3.211
  327.550  184.245  132.699    0.223    0.506    2.993
  327.800  173.938  119.340    0.231    0.496    2.481
  328.050  168.177  110.748    0.244    0.484    2.199
  328.300  165.214   99.499    0.266    0.475    2.035
  328.550  163.154   92.163    0.288    0.467    1.976
  328.800  161.769   90.485    0.311    0.466    1.965
  329.050  160.036   90.320    0.306    0.459    2.030
  329.300  159.746   95.882    0.287    0.465    2.133
  329.550  159.759  103.882    0.265    0.475    2.289
  329.800  159.973  108.435    0.268    0.465    2.483
  330.050  160.346  110.207    0.269    0.464    2.620
  330.300  160.136  111.016    0.263    0.472    2.655
  330.550  158.922  107.306    0.258    0.464    2.659
  330.800  158.611  105.870    0.261    0.455    2.663
  331.050  159.301  109.845    0.259    0.449    2.639
  331.300  160.076  114.966    0.262    0.458    2.597
  331.550  161.624  120.714    0.271    0.472    2.569
  331.800  162.005  125.212    0.280    0.488    2.556
  332.050  162.622  131.049    0.285    0.499    2.570
  332.300  162.857  140.892    0.284    0.506    2.586
  332.550  163.361  169.202    0.274    0.513    2.606
  332.800  164.227  179.052    0.264    0.517    2.603
  333.050  165.414  183.724    0.260    0.514    2.635
  333.300  168.961  179.419    0.267    0.508    2.657
  333.550  171.290  178.425    0.278    0.503    2.667
  333.800  172.164  164.704    0.280    0.495    2.658
  334.050  170.979  157.760    0.275    0.503    2.619
  334.300  167.894  149.481    0.298    0.482    2.563
  334.550  166.142  139.088    0.305    0.475    2.527
  334.800  164.895  127.048    0.300    0.486    2.491
  335.050  164.815  133.366    0.306    0.497    2.486
  335.300  164.986  141.272    0.307    0.504    2.523
  335.550  164.955  149.459    0.302    0.496    2.560
  335.800  165.053  157.460    0.289    0.487    2.606
  336.050  165.134  162.130    0.284    0.479    2.641
  336.300  164.901  148.355    0.277    0.467    2.643
  336.550  164.045  135.576    0.283    0.458    2.569
  336.800  163.277  122.429    0.301    0.474    2.481
  337.050  162.547  116.133    0.319    0.483    2.433
  337.300  162.096  120.646    0.325    0.480    2.388
  337.550  162.005  119.250    0.313    0.471    2.341
  337.800  162.165  119.629    0.321    0.470    2.297
  338.050  162.549  124.774    0.321    0.477    2.278
  338.300  162.828  132.708    0.322    0.479    2.312
  338.550  163.548  142.345    0.311    0.485    2.369
  338.800  164.619  150.825    0.298    0.496    2.433
  339.050  166.589  172.169    0.283    0.512    2.473
  339.300  168.290  183.236    0.269    0.525    2.501
  339.550  169.986  190.787    0.274    0.528    2.505
  339.800  170.271  185.486    0.285    0.524    2.509
  340.050  169.294  184.288    0.276    0.534    2.522
  340.300  168.823  186.982    0.274    0.540    2.547
  340.550  168.678  191.183    0.260    0.548    2.441
  340.800  168.769  195.243    0.252    0.561    2.310
  341.050  168.666  199.173    0.250    0.572    2.220
