~VERSION INFORMATION
 VERS.                 2.0:   CWLS LOG ASCII STANDARD -VERSION 2.0
 WRAP.                  NO:   ONE LINE PER DEPTH STEP
~WELL INFORMATION BLOCK
#MNEM.UNIT           DATA                    DESCRIPTION OF MNEMONIC
#---------    -------------------            -------------------------------
# Generated from Intellog Unique Number	CS_77_79/WELL/1022
WELL.         C.W.W.E. HARDY                 : Well_name    - WELL
LOC .         00/15-07-078-04W4/0            : Location     - LOCATION
UWI .         00/15-07-078-04W4/0            : Uwi          - UNIQUE WELL ID
ENTR.         JHS                            : Entered      - ENTERED BY
SRVC.         SCHLUMBERGER                   : Scn          - SERVICE COMPANY
STRT.M        165                            : top_depth    - START DEPTH
STOP.M        420                            : bot_depth    - STOP DEPTH
STEP.M        0.25                           : increment    - STEP LENGTH
 NULL. -999.2500:NULL Value
~CURVE INFORMATION BLOCK
#MNEM UNIT       ERCB CURVE CODE    CURVE DESCRIPTION
#-----------   ------------------   ----------------------------------
DEPT.M        00 001 00 00         : DEPTH        - DEPTH
DPHI.V/V      00 890 00 00         : PHID         - DENSITY POROSITY (LIMESTONE)
NPHI.V/V      00 330 00 00         : PHIN         - NEUTRON POROSITY (LIMESTONE)
GR  .API      00 310 00 00         : GR           - GAMMA RAY
ILD .OHMM     00 120 00 00         : RESD         - DEEP RESISTIVITY (DIL)
RHOB.KG/M3    00 350 00 00         : DENS         - BULK DENSITY
~PARAMETER INFORMATION
#MNEM.UNIT           DATA             DESCRIPTION OF MNEMONIC
#---------         -----------     ------------------------------
GL  .M        579.2                : gl           - GROUND LEVEL ELEVATION
EREF.M        583.1                : kb           - ELEVATION OF DEPTH REFERENCE
DATM.M        583.1                : datum        - DATUM ELEVATION
TDD .M        425.3                : tdd          - TOTAL DEPTH DRILLER
RUN .         ONE                  : Run          - RUN NUMBER
ENG .         BILL                 : Engineer     - RECORDING ENGINEER
WIT .         JIM                  : Witness      - WITNESSED BY
MUD .         GEL                  : Mud_type     - MUD TYPE
MATR.         LIMESTONE            : Logunit      - NEUTRON MATRIX
TMAX.C        20                   : BHT          - MAXIMUM RECORDED TEMPERATURE
BHTD.M        425.3                : BHTDEP       - MAXIMUM RECORDED TEMPERATURE
MATR.         1                    : LOGUNIT      - NEUTRON MATRIX
RMT .C        25                   : MDTP         - TEMPERATURE OF MUD
NEUT.         1                    : NEUTRON      - NEUTRON TYPE
RESI.         0                    : RESIST       - RESISTIVITY TYPE
RMC .OHMM     0.25                 : RMC          - RESISTIVITY OF MUD CAKE
RMF .OHMM     0.25                 : RMF          - RESISTIVITY OF MUD FILTRATE
SUFT.C        15                   : SUFT         - SURFACE TEMPERATURE
~A  DEPTH     PHID     PHIN       GR     RESD     DENS
# ...
  274.500    0.233    0.504   96.500    5.519    0.000
  274.750    0.230    0.506   99.591    5.321    0.000
  275.000    0.234    0.495   97.771    5.225    0.000
  275.250    0.231    0.480   94.716    5.232    0.000
  275.500    0.235    0.474   92.282    5.337    0.000
  275.750    0.252    0.469   89.844    5.549    0.000
  276.000    0.286    0.490   82.488    5.878    0.000
  276.250    0.318    0.493   72.061    6.345    0.000
  276.500    0.330    0.465   64.090    6.979    0.000
  276.750    0.331    0.445   59.812    7.533    0.000
  277.000    0.329    0.431   56.146    8.132    0.000
  277.250    0.329    0.431   53.706    8.455    0.000
  277.500    0.332    0.441   56.806    8.627    0.000
  277.750    0.333    0.451   59.286    8.633    0.000
  278.000    0.328    0.448   58.693    8.641    0.000
  278.250    0.326    0.439   56.255    8.652    0.000
  278.500    0.326    0.443   56.280    8.657    0.000
  278.750    0.326    0.453   55.072    8.669    0.000
  279.000    0.321    0.450   55.709    8.678    0.000
  279.250    0.321    0.453   58.808    8.683    0.000
  279.500    0.329    0.457   58.832    8.693    0.000
  279.750    0.332    0.452   56.397    8.705    0.000
  280.000    0.328    0.452   57.029    8.710    0.000
  280.250    0.323    0.452   58.279    8.719    0.000
  280.500    0.326    0.448   58.303    8.894    0.000
  280.750    0.330    0.452   57.096    8.905    0.000
  281.000    0.329    0.447   57.736    8.745    0.000
  281.250    0.328    0.443   58.985    8.757    0.000
  281.500    0.324    0.444   57.778    8.762    0.000
  281.750    0.322    0.439   57.798    8.772    0.000
  282.000    0.320    0.434   59.050    8.780    0.000
  282.250    0.319    0.429   60.309    8.626    0.000
  282.500    0.321    0.433   59.710    8.636    0.000
  282.750    0.329    0.451   59.122    8.643    0.000
  283.000    0.334    0.453   59.144    8.656    0.000
  283.250    0.336    0.445   57.937    8.662    0.000
  283.500    0.325    0.450   59.801    8.674    0.000
  283.750    0.320    0.457   64.130    8.679    0.000
  284.000    0.316    0.466   64.149    8.688    0.000
  284.250    0.316    0.461   61.099    8.697    0.000
  284.500    0.320    0.455   61.122    8.706    0.000
  284.750    0.326    0.451   59.916    8.715    0.000
  285.000    0.324    0.452   61.778    8.725    0.000
  285.250    0.317    0.455   63.647    8.734    0.000
  285.500    0.311    0.450   63.052    8.742    0.000
  285.750    0.309    0.447   66.148    8.749    0.000
  286.000    0.308    0.456   70.474    8.597    0.000
  286.250    0.312    0.453   69.883    8.604    0.000
  286.500    0.320    0.453   67.449    8.614    0.000
  286.750    0.328    0.470   68.085    8.619    0.000
  287.000    0.327    0.488   68.108    8.629    0.000
  287.250    0.312    0.489   65.057    8.639    0.000
  287.500    0.308    0.475   64.463    8.648    0.000
  287.750    0.314    0.463   68.791    8.656    0.000
  288.000    0.309    0.453   70.656    8.503    0.000
  288.250    0.303    0.453   70.679    8.352    0.000
  288.500    0.302    0.452   71.314    8.206    0.000
  288.750    0.306    0.455   72.572    7.909    0.000
  289.000    0.305    0.461   76.278    7.341    0.000
  289.250    0.278    0.471   86.753    6.813    0.000
  289.500    0.247    0.487   95.380    6.209    0.000
  289.750    0.230    0.495   97.258    5.982    0.000
  290.000    0.225    0.492   96.656    5.450    0.000
  290.250    0.221    0.497   96.674    4.965    0.000
  290.500    0.220    0.517   99.157    4.696    0.000
  290.750    0.221    0.529  100.415    4.441    0.000
  291.000    0.230    0.525  100.430    4.122    0.000
  291.250    0.259    0.538  101.685    3.684    0.000
  291.500    0.267    0.549  102.322    3.232    0.000
  291.750    0.263    0.560  102.342    2.835    0.000
  292.000    0.253    0.566  104.208    2.681    0.000
  292.250    0.241    0.580  106.693    2.634    0.000
  292.500    0.238    0.597  105.487    2.637    0.000
  292.750    0.237    0.591  105.508    2.793    0.000
  293.000    0.229    0.599  106.759    2.959    0.000
  293.250    0.224    0.603  106.778    3.076    0.000
  293.500    0.219    0.585  105.574    3.080    0.000
  293.750    0.219    0.563  105.596    3.141    0.000
  294.000    0.235    0.548  107.461    3.391    0.000
  294.250    0.249    0.547  107.484    3.731    0.000
  294.500    0.240    0.551  103.818    4.182    0.000
  294.750    0.228    0.501   99.537    4.600    0.000
  295.000    0.224    0.489   95.877    5.060    0.000
  295.250    0.226    0.486   94.665    5.464    0.000
  295.500    0.242    0.495   93.456    6.012    0.000
  295.750    0.262    0.506   91.021    6.130    0.000
  296.000    0.267    0.500   85.510    6.371    0.000
  296.250    0.253    0.490   86.147    6.752    0.000
  296.500    0.243    0.491   83.710    7.152    0.000
  296.750    0.252    0.495   75.126    7.433    0.000
  297.000    0.263    0.475   75.151    7.874    0.000
  297.250    0.271    0.461   79.478    8.343    0.000
  297.500    0.274    0.450   80.113    8.507    0.000
  297.750    0.277    0.442   73.371    9.014    0.000
  298.000    0.279    0.441   74.012    9.196    0.000
  298.250    0.280    0.441   78.335    9.562    0.000
  298.500    0.283    0.437   77.131    9.749    0.000
  298.750    0.286    0.436   69.772    9.944    0.000
  299.000    0.290    0.439   67.956   10.145    0.000
  299.250    0.297    0.438   70.432   10.347    0.000
  299.500    0.302    0.451   72.913   10.359    0.000
  299.750    0.302    0.456   76.629   10.567    0.000
  300.000    0.302    0.427   77.263   11.268    0.000
  300.250    0.305    0.412   77.291   11.260    0.000
  300.500    0.302    0.406   78.539   11.042    0.000
  300.750    0.293    0.399   79.790   10.623    0.000
  301.000    0.292    0.400   77.965   10.418    0.000
  301.250    0.291    0.415   77.992   10.025    0.000
  301.500    0.276    0.449   76.788    9.831    0.000
  301.750    0.254    0.463   74.962    9.460    0.000
  302.000    0.238    0.457   79.907    9.452    0.000
  302.250    0.259    0.442   81.159    9.446    0.000
  302.500    0.272    0.433   80.562    9.263    0.000
  302.750    0.276    0.427   80.584    9.256    0.000
  303.000    0.278    0.425   80.605    9.427    0.000
  303.250    0.284    0.430   78.169    9.420    0.000
  303.500    0.293    0.436   79.422    9.416    0.000
  303.750    0.302    0.436   78.214    9.410    0.000
  304.000    0.303    0.431   77.625    9.052    0.000
  304.250    0.285    0.443   80.716    8.548    0.000
  304.500    0.261    0.461   86.888    7.920    0.000
  304.750    0.240    0.457   89.367    7.338    0.000
  305.000    0.225    0.468   94.311    6.798    0.000
  305.250    0.215    0.470   97.404    6.666    0.000
  305.500    0.211    0.460   96.811    6.661    0.000
  305.750    0.217    0.452   92.535    6.913    0.000
  306.000    0.227    0.456   93.169    7.177    0.000
  306.250    0.231    0.442   96.269    7.882    0.000
  306.500    0.226    0.428   94.441    8.180    0.000
  306.750    0.226    0.422   89.548    8.176    0.000
  307.000    0.244    0.432   82.809    7.866    0.000
  307.250    0.261    0.443   81.599    7.569    0.000
  307.500    0.254    0.457   89.003    7.013    0.000
  307.750    0.250    0.479   89.028    6.622    0.000
  308.000    0.249    0.496   89.662    6.252    0.000
  308.250    0.255    0.485   87.840    6.016    0.000
  308.500    0.262    0.481   86.016    5.899    0.000
  308.750    0.235    0.478   86.655    5.894    0.000
  309.000    0.213    0.486   88.522    6.004    0.000
  309.250    0.211    0.486   89.776    6.115    0.000
  309.500    0.216    0.485   90.411    6.466    0.000
  309.750    0.221    0.489   91.045    6.342    0.000
  310.000    0.216    0.479   93.530    6.102    0.000
  310.250    0.210    0.465   94.781    5.762    0.000
  310.500    0.208    0.456   96.651    5.338    0.000
  310.750    0.206    0.456   99.741    4.853    0.000
