~VERSION INFORMATION
 VERS.                 2.0:   CWLS LOG ASCII STANDARD -VERSION 2.0
 WRAP.                  NO:   ONE LINE PER DEPTH STEP
~WELL INFORMATION BLOCK
#MNEM.UNIT           DATA                    DESCRIPTION OF MNEMONIC
#---------    -------------------            -------------------------------
# Generated from Intellog Unique Number	CW_73_75/WELL/2752
WELL.         BRENDA ET AL MARTEN H 16-12    : Well_name    - WELL
LOC .         00/16-12-073-25W4/0            : Location     - LOCATION
UWI .         00/16-12-073-25W4/0            : Uwi          - UNIQUE WELL ID
ENTR.         JAYE                           : Entered      - ENTERED BY
SRVC.         SCHLUMBERGER                   : Scn          - SERVICE COMPANY
DATE.         3 MAR 81                       : Date         - LOG DATE
STRT.M        385                            : top_depth    - START DEPTH
STOP.M        615                            : bot_depth    - STOP DEPTH
STEP.M        0.25                           : increment    - STEP LENGTH
 NULL. -999.2500:NULL Value
~CURVE INFORMATION BLOCK
#MNEM UNIT       ERCB CURVE CODE    CURVE DESCRIPTION
#-----------   ------------------   ----------------------------------
DEPT.M        00 001 00 00         : DEPTH        - DEPTH
DPHI.V/V      00 890 00 00         : PHID         - DENSITY POROSITY (SANDSTONE)
NPHI.V/V      00 330 00 00         : PHIN         - NEUTRON POROSITY (SANDSTONE)
GR  .API      00 310 00 00         : GR           - GAMMA RAY
CALI.MM       00 280 01 00         : CAL          - CALIPER
ILD .OHMM     00 120 00 00         : RESD         - DEEP RESISTIVITY (DIL)
~PARAMETER INFORMATION
#MNEM.UNIT           DATA             DESCRIPTION OF MNEMONIC
#---------         -----------     ------------------------------
GL  .M        636.55               : gl           - GROUND LEVEL ELEVATION
EREF.M        640.15               : kb           - ELEVATION OF DEPTH REFERENCE
DATM.M        636.55               : datum        - DATUM ELEVATION
TDD .M        620                  : tdd          - TOTAL DEPTH DRILLER
RUN .         ONE                  : Run          - RUN NUMBER
ENG .         BRANDSTROM           : Engineer     - RECORDING ENGINEER
WIT .         CHRISTENSEN          : Witness      - WITNESSED BY
BASE.         EDM                  : Branch       - HOME BASE OF LOGGING UNIT
MUD .         GEL CHEN             : Mud_type     - MUD TYPE
MATR.         SANDSTONE            : Logunit      - NEUTRON MATRIX
TMAX.C        27.4                 : BHT          - MAXIMUM RECORDED TEMPERATURE
BHTD.M        621                  : BHTDEP       - MAXIMUM RECORDED TEMPERATURE
RMT .C        13.4                 : MDTP         - TEMPERATURE OF MUD
MUDD.KG/M     0                    : MWT          - MUD DENSITY
NEUT.         1                    : NEUTRON      - NEUTRON TYPE
RESI.         0                    : RESIST       - RESISTIVITY TYPE
RM  .OHMM     0.26                 : RM           - RESISTIVITY OF MUD
RMC .OHMM     0                    : RMC          - RESISTIVITY OF MUD CAKE
RMF .OHMM     0.36                 : RMF          - RESISTIVITY OF MUD FILTRATE
SUFT.C        0                    : SUFT         - SURFACE TEMPERATURE
~A  DEPTH     PHID     PHIN       GR      CAL     RESD
  385.000    0.288    0.629  116.738  258.601    2.712
  385.250    0.256    0.606  114.368  264.343    2.671
  385.500    0.283    0.568  111.811  252.055    2.580
  385.750    0.289    0.530  109.879  237.372    2.399
  386.000    0.291    0.548  109.385  228.732    2.214
  386.250    0.260    0.586  108.641  245.000    2.227
  386.500    0.327    0.603  109.647  255.640    2.422
  386.750    0.359    0.613  108.528  259.715    2.752
  387.000    0.369    0.570  105.846  250.450    3.377
  387.250    0.284    0.485  102.163  238.059    4.354
  387.500    0.240    0.442   96.917  225.878    5.072
  387.750    0.170    0.423   93.547  223.282    5.538
  388.000    0.256    0.430   90.052  233.297    5.966
  388.250    0.301    0.403   86.431  232.265    6.464
  388.500    0.306    0.380   80.998  227.066    7.004
  388.750    0.289    0.393   75.752  224.680    7.575
  389.000    0.260    0.380   72.381  222.918    7.990
  389.250    0.272    0.386   70.637  222.199    8.222
  389.500    0.346    0.403   72.394  222.105    8.097
  389.750    0.323    0.441   75.089  222.219    7.288
  390.000    0.323    0.458   77.034  222.022    6.585
  390.250    0.329    0.474   79.728  221.928    5.917
  390.500    0.314    0.476   82.486  222.980    5.533
  390.750    0.297    0.459   86.619  224.450    5.305
  391.000    0.276    0.460   85.749  227.169    4.961
  391.250    0.256    0.433   82.067  230.306    4.693
  391.500    0.231    0.391   87.639  230.838    4.331
  391.750    0.202    0.402   92.584  229.389    3.928
  392.000    0.296    0.458  100.156  231.276    3.667
  392.250    0.272    0.482  107.103  234.308    3.730
  392.500    0.240    0.478  115.175  237.966    3.942
  392.750    0.284    0.460  119.683  241.728    4.354
  393.000    0.286    0.488  120.440  251.742    4.727
  393.250    0.315    0.465  103.501  249.564    5.044
  393.500    0.336    0.423   92.377  232.276    5.270
  393.750    0.339    0.419   96.385  229.889    5.300
  394.000    0.325    0.468  102.645  230.004    5.189
  394.250    0.301    0.475  103.964  228.972    5.120
  394.500    0.278    0.431  106.409  226.481    5.061
  394.750    0.250    0.407  110.041  224.930    5.022
  395.000    0.239    0.414  114.862  224.732    5.002
  395.250    0.240    0.426  121.058  224.743    4.983
  395.500    0.247    0.437  123.315  224.960    5.049
  395.750    0.232    0.442  111.129  225.804    5.186
  396.000    0.239    0.431   97.379  233.317    5.336
  396.250    0.249    0.390   92.197  247.188    5.439
  396.500    0.233    0.402   91.640  242.509    5.480
  396.750    0.243    0.409   91.145  234.809    5.376
  397.000    0.255    0.412   90.026  232.317    5.204
  397.250    0.267    0.429   92.534  228.159    5.046
  397.500    0.238    0.424   98.230  229.629    4.848
  397.750    0.221    0.415  102.113  231.516    4.621
  398.000    0.240    0.422  103.932  239.758    4.533
  398.250    0.312    0.442  107.128  262.695    4.515
  398.500    0.338    0.447  111.135  289.904    4.524
  398.750    0.297    0.449  113.205  274.179    4.655
  399.000    0.252    0.452  106.584  253.555    4.873
  399.250    0.265    0.464  100.400  242.624    5.101
  399.500    0.284    0.454   91.590  235.339    5.371
  399.750    0.261    0.444   86.031  228.368    5.516
  400.000    0.264    0.439   90.102  225.981    5.579
  400.250    0.288    0.414   96.423  227.867    5.622
  400.500    0.291    0.425  105.245  234.547    5.697
  400.750    0.293    0.459  110.879  241.644    5.806
  401.000    0.274    0.437  104.382  231.963    5.975
  401.250    0.231    0.396   97.198  230.514    6.183
  401.500    0.241    0.397   90.326  233.234    6.486
  401.750    0.271    0.392   85.893  242.311    6.920
  402.000    0.308    0.381   83.336  233.464    7.441
  402.250    0.302    0.364   82.905  226.075    8.441
  402.500    0.311    0.338   82.724  224.835    9.686
  402.750    0.313    0.323   81.667  224.323   10.514
  403.000    0.305    0.344   78.109  224.231   11.349
  403.250    0.318    0.367   78.803  224.450   11.240
  403.500    0.323    0.402   86.812  224.879    9.757
  403.750    0.291    0.432   90.820  224.887    8.277
  404.000    0.269    0.457   92.014  225.316    6.850
  404.250    0.249    0.425   94.898  225.642    5.789
  404.500    0.210    0.390   99.093  225.648    4.673
  404.750    0.224    0.427  103.414  225.658    4.206
  405.000    0.274    0.433  104.420  225.668    3.979
  405.250    0.296    0.411  107.116  226.098    3.911
  405.500    0.276    0.410  110.122  226.107    3.963
  405.750    0.263    0.409  114.255  226.119    4.253
  406.000    0.260    0.420  117.951  226.441    4.487
  406.250    0.259    0.437  117.644  226.661    4.670
  406.500    0.245    0.475  111.586  226.877    4.769
  406.750    0.235    0.439  105.465  226.888    4.417
  407.000    0.216    0.409  101.656  226.169    3.642
  407.250    0.199    0.393  107.853  225.762    3.060
  407.500    0.293    0.437  116.613  226.087    2.818
  407.750    0.293    0.460  128.686  228.493    2.631
  408.000    0.256    0.493  135.320  233.818    2.522
  408.250    0.236    0.550  136.765  237.892    2.469
  408.500    0.252    0.570  133.770  239.778    2.455
  408.750    0.259    0.569  131.838  245.312    2.464
  409.000    0.258    0.554  132.219  257.828    2.488
  409.250    0.255    0.543  137.103  262.840    2.526
  409.500    0.236    0.569  141.486  257.431    2.747
  409.750    0.230    0.584  142.931  251.189    3.099
  410.000    0.260    0.561  142.748  261.517    3.603
  410.250    0.293    0.530  140.129  268.301    4.064
  410.500    0.287    0.502  133.507  266.124    4.328
  410.750    0.285    0.489  125.072  248.105    4.118
  411.000    0.300    0.510  117.825  248.636    4.411
  411.250    0.318    0.513  119.395  263.236    5.159
  411.500    0.292    0.487  120.027  262.204    6.293
  411.750    0.311    0.491  111.779  256.691    7.166
  412.000    0.307    0.484   98.217  244.301    8.006
  412.250    0.335    0.437   88.844  226.074    8.301
  412.500    0.343    0.380   80.284  222.542    8.332
  412.750    0.327    0.374   78.853  222.552    7.943
  413.000    0.290    0.407   82.235  224.856    7.601
  413.250    0.265    0.426   83.617  227.055    7.176
  413.500    0.289    0.424   85.812  228.106    6.660
  413.750    0.238    0.395   89.132  227.701    6.241
  414.000    0.196    0.368   93.577  227.295    5.881
  414.250    0.220    0.385   94.209  225.845    5.682
  414.500    0.258    0.423   89.901  226.481    5.510
  414.750    0.271    0.420   89.157  229.617    5.385
  415.000    0.283    0.411   88.475  228.899    5.313
  415.250    0.305    0.440   84.480  227.555    5.232
  415.500    0.311    0.462   77.921  225.899    5.122
  415.750    0.300    0.462   75.739  225.178    4.987
  416.000    0.292    0.465   75.745  224.670    4.809
  416.250    0.289    0.460   76.314  224.991    4.681
  416.500    0.289    0.440   77.633  225.420    4.471
  416.750    0.294    0.427   79.390  225.638    4.319
  417.000    0.308    0.442   83.523  225.649    4.229
  417.250    0.332    0.458   86.218  225.348    4.117
  417.500    0.323    0.464   86.287  225.460    3.978
  417.750    0.310    0.462   86.918  226.304    3.734
  418.000    0.297    0.455   93.615  226.835    3.539
  418.250    0.283    0.454  102.375  227.470    3.272
  418.500    0.275    0.468  110.760  233.525    3.090
  418.750    0.266    0.491  119.832  253.024    2.934
  419.000    0.261    0.513  124.278  237.090    2.923
  419.250    0.271    0.532  124.160  230.013    3.259
  419.500    0.249    0.558  122.727  245.135    3.790
  419.750    0.285    0.483  130.487  241.081    4.441
  420.000    0.264    0.435  136.058  233.796    4.980
  420.250    0.221    0.414  131.313  231.722    5.606
  420.500    0.213    0.421  120.752  235.798    5.824
  420.750    0.212    0.425  112.880  240.185    5.520
  421.000    0.229    0.436  107.946  238.319    4.865
  421.250    0.213    0.462  102.888  236.558    4.191
