~VERSION INFORMATION
 VERS.                 2.0:   CWLS LOG ASCII STANDARD -VERSION 2.0
 WRAP.                  NO:   ONE LINE PER DEPTH STEP
~WELL INFORMATION BLOCK
#MNEM.UNIT           DATA                    DESCRIPTION OF MNEMONIC
#---------    -------------------            -------------------------------
# Generated from Intellog Unique Number	CW_76_78/WELL/2586
WELL.         SCURRY ET AL DOUCETTE          : Well_name    - WELL
LOC .         00/12-22-078-02W5/0            : Location     - LOCATION
UWI .         00/12-22-078-02W5/0            : Uwi          - UNIQUE WELL ID
ENTR.         MAX                            : Entered      - ENTERED BY
SRVC.         WESTERN ATLAS                  : Scn          - SERVICE COMPANY
STRT.M        330                            : top_depth    - START DEPTH
STOP.M        585                            : bot_depth    - STOP DEPTH
STEP.M        0.25                           : increment    - STEP LENGTH
 NULL. -999.2500:NULL Value
~CURVE INFORMATION BLOCK
#MNEM UNIT       ERCB CURVE CODE    CURVE DESCRIPTION
#-----------   ------------------   ----------------------------------
DEPT.M        00 001 00 00         : DEPTH        - DEPTH
ILD .OHMM     00 120 00 00         : RESD         - DEEP RESISTIVITY (DIL)
NPHI.V/V      00 330 00 00         : PHIN         - NEUTRON POROSITY (SANDSTONE)
DPHI.V/V      00 890 00 00         : PHID         - DENSITY POROSITY (SANDSTONE)
CALI.MM       00 280 01 00         : CAL          - CALIPER
GR  .API      00 310 00 00         : GR           - GAMMA RAY
~PARAMETER INFORMATION
#MNEM.UNIT           DATA             DESCRIPTION OF MNEMONIC
#---------         -----------     ------------------------------
GL  .M        625.1                : gl           - GROUND LEVEL ELEVATION
EREF.M        629.33               : kb           - ELEVATION OF DEPTH REFERENCE
DATM.M        625.1                : datum        - DATUM ELEVATION
TDD .M        611.3                : tdd          - TOTAL DEPTH DRILLER
RUN .         ONE                  : Run          - RUN NUMBER
ENG .         BILL                 : Engineer     - RECORDING ENGINEER
WIT .         JIM                  : Witness      - WITNESSED BY
MUD .         GEL                  : Mud_type     - MUD TYPE
MATR.         SANDSTONE            : Logunit      - NEUTRON MATRIX
TMAX.C        29                   : BHT          - MAXIMUM RECORDED TEMPERATURE
BHTD.M        611.3                : BHTDEP       - MAXIMUM RECORDED TEMPERATURE
RMT .C        13                   : MDTP         - TEMPERATURE OF MUD
MUDD.KG/M     1170                 : MWT          - MUD DENSITY
NEUT.         1                    : NEUTRON      - NEUTRON TYPE
RESI.         0                    : RESIST       - RESISTIVITY TYPE
RM  .OHMM     5                    : RM           - RESISTIVITY OF MUD
RMC .OHMM     3.5                  : RMC          - RESISTIVITY OF MUD CAKE
RMF .OHMM     6                    : RMF          - RESISTIVITY OF MUD FILTRATE
SUFT.C        -5                   : SUFT         - SURFACE TEMPERATURE
~A  DEPTH     RESD     PHIN     PHID      CAL       GR
  330.000    2.445    0.474    0.239  209.834  100.688
  330.250    2.426    0.477    0.242  213.773  100.713
  330.500    2.473    0.474    0.249  209.444   96.073
  330.750    2.543    0.469    0.245  203.656   92.896
  331.000    2.638    0.465    0.249  201.765   89.128
  331.250    2.787    0.460    0.250  204.731   85.659
  331.500    3.024    0.457    0.245  208.183   80.432
  331.750    3.311    0.452    0.234  213.587   76.678
  332.000    3.561    0.445    0.252  213.635   77.576
  332.250    3.795    0.434    0.268  210.759   77.312
  332.500    3.868    0.431    0.273  206.442   75.882
  332.750    3.873    0.448    0.269  206.971   79.712
  333.000    3.775    0.461    0.269  208.478   85.864
  333.250    3.745    0.453    0.278  208.039   87.356
  333.500    3.817    0.438    0.298  202.258   79.510
  333.750    4.142    0.423    0.307  197.455   74.287
  334.000    5.139    0.421    0.325  195.546   71.978
  334.250    6.434    0.416    0.324  195.107   67.630
  334.500    7.771    0.413    0.316  195.642   62.990
  334.750    9.558    0.410    0.319  196.668   56.891
  335.000   12.966    0.405    0.321  197.689   51.668
  335.250   15.661    0.406    0.320  198.223   51.121
  335.500   19.786    0.406    0.320  199.742   49.687
  335.750   22.650    0.407    0.318  199.785   47.389
  336.000   25.469    0.406    0.318  198.374   45.951
  336.250   27.638    0.405    0.319  196.477   43.358
  336.500   28.677    0.405    0.325  196.038   43.383
  336.750   29.232    0.404    0.328  196.098   46.625
  337.000   29.262    0.403    0.333  195.660   47.241
  337.250   29.300    0.402    0.336  195.708   47.562
  337.500   30.683    0.399    0.338  196.741   47.591
  337.750   32.990    0.398    0.337  197.269   47.915
  338.000   37.096    0.399    0.333  197.311   49.691
  338.250   40.611    0.403    0.332  197.359   52.349
  338.500   43.282    0.402    0.334  197.912   53.841
  338.750   44.126    0.403    0.339  198.440   52.407
  339.000   42.626    0.408    0.345  200.427   52.728
  339.250   40.805    0.418    0.350  201.448   54.215
  339.500   37.695    0.417    0.355  201.995   58.625
  339.750   34.512    0.413    0.354  201.076   54.867
  340.000   31.317    0.410    0.357  200.632   54.021
  340.250   28.931    0.407    0.357  200.194   53.171
  340.500   26.726    0.403    0.350  200.260   52.620
  340.750   24.043    0.404    0.345  199.803   52.645
  341.000   22.013    0.417    0.345  199.857   53.844
  341.250   20.702    0.420    0.350  199.912   55.336
  341.500   19.469    0.418    0.353  199.960   55.952
  341.750   17.985    0.413    0.356  198.062   55.685
  342.000   17.069    0.406    0.355  196.658   53.960
  342.250   16.934    0.403    0.349  197.672   52.537
  342.500   17.257    0.396    0.337  199.185   51.107
  342.750   18.726    0.341    0.314  199.227   48.218
  343.000   22.217    0.285    0.206  201.713   43.283
  343.250   23.682    0.217    0.046  204.199   40.977
  343.500   21.490    0.227    0.053  203.754   49.471
  343.750   19.158    0.300    0.141  199.426   57.966
  344.000   19.015    0.369    0.278  195.103   60.333
  344.250   19.551    0.398    0.340  193.692   60.069
  344.500   20.465    0.370    0.338  194.226   57.181
  344.750   22.010    0.313    0.291  196.712   53.708
  345.000   22.230    0.284    0.223  198.705   48.481
  345.250   22.061    0.274    0.243  197.300   49.389
  345.500   21.314    0.322    0.286  194.911   54.378
  345.750   20.586    0.382    0.317  193.506   55.869
  346.000   19.887    0.403    0.332  192.576   54.439
  346.250   19.386    0.413    0.332  192.630   51.554
  346.500   19.408    0.413    0.331  192.684   49.245
  346.750   19.605    0.411    0.328  192.732   49.857
  347.000   20.342    0.415    0.328  193.260   52.224
  347.250   21.109    0.416    0.329  194.773   51.093
  347.500   22.298    0.412    0.325  196.280   49.947
  347.750   23.347    0.408    0.312  196.334   49.692
  348.000   23.584    0.396    0.303  196.881   50.300
  348.250   23.189    0.389    0.297  196.929   52.667
  348.500   21.818    0.389    0.304  195.518   55.319
  348.750   21.259    0.406    0.325  194.101   57.981
  349.000   20.721    0.417    0.332  193.182   58.301
  349.250   20.377    0.421    0.334  193.225   57.167
  349.500   20.377    0.420    0.331  193.273   56.313
  349.750   20.427    0.417    0.329  192.840   54.591
  350.000   20.823    0.410    0.332  193.387   52.584
  350.250   22.388    0.404    0.332  193.909   51.443
  350.500   26.569    0.391    0.322  195.416   50.600
  350.750   30.411    0.370    0.308  197.409   50.333
  351.000   35.765    0.344    0.274  200.874   48.618
  351.250   39.865    0.285    0.121  202.861   46.605
  351.500   39.905    0.240    0.105  206.800   45.175
  351.750   30.015    0.239    0.105  210.276   44.033
  352.000   23.611    0.254    0.105  209.826   44.649
  352.250   21.232    0.268    0.133  207.922   46.140
  352.500   18.928    0.299    0.220  203.594   49.087
  352.750   17.798    0.347    0.265  201.216   53.493
  353.000   16.891    0.386    0.337  201.757   56.735
  353.250   16.611    0.406    0.344  201.805   57.639
  353.500   16.482    0.408    0.343  200.880   57.088
  353.750   16.209    0.411    0.343  200.928   55.949
  354.000   15.945    0.418    0.345  200.988   53.057
  354.250   15.821    0.421    0.349  200.550   51.630
  354.500   15.696    0.420    0.351  199.613   53.702
  354.750   15.716    0.415    0.351  197.722   57.816
  355.000   15.737    0.419    0.349  196.317   60.186
  355.250   15.755    0.424    0.348  194.426   59.919
  355.500   15.773    0.428    0.348  193.976   57.034
  355.750   15.791    0.426    0.348  195.975   57.938
  356.000   16.093    0.420    0.346  196.996   57.380
  356.250   16.113    0.416    0.344  195.111   56.533
  356.500   16.132    0.412    0.342  193.214   55.110
  356.750   16.151    0.407    0.341  191.317   53.097
  357.000   15.742    0.401    0.335  190.872   49.620
  357.250   15.206    0.375    0.308  190.932   44.397
  357.500   13.925    0.376    0.282  191.467   39.758
  357.750   12.747    0.382    0.296  192.487   38.911
  358.000   10.673    0.398    0.318  192.536   40.402
  358.250    9.514    0.405    0.327  192.091   48.601
  358.500    8.560    0.405    0.339  191.653   51.551
  358.750    8.341    0.404    0.336  195.111   53.039
  359.000    8.425    0.404    0.326  196.144   55.114
  359.250    8.822    0.405    0.324  191.323   56.018
  359.500    9.234    0.407    0.332  189.906   57.218
  359.750    9.844    0.410    0.348  189.906   57.247
  360.000   10.493    0.412    0.358  189.054   54.062
  360.250   10.884    0.412    0.357  188.597   47.964
  360.500   10.707    0.411    0.353  187.673   45.658
  360.750    9.979    0.407    0.358  188.219   46.274
  361.000    8.507    0.406    0.361  190.213   53.310
  361.250    6.689    0.406    0.362  193.178   57.427
  361.500    4.684    0.409    0.356  199.074   62.121
  361.750    3.461    0.426    0.332  203.007   77.618
  362.000    2.872    0.459    0.307  206.459   91.364
  362.250    2.561    0.481    0.279  206.513   92.564
  362.500    2.474    0.496    0.262  205.583   92.297
  362.750    2.476    0.500    0.255  205.144   92.333
  363.000    2.479    0.498    0.259  205.192   91.487
  363.250    2.527    0.475    0.262  205.733   90.640
  363.500    2.622    0.472    0.254  205.300   89.502
  363.750    2.745    0.476    0.257  204.862   88.076
  364.000    2.874    0.470    0.264  203.932   87.809
  364.250    2.982    0.463    0.263  201.560   85.504
  364.500    3.122    0.458    0.259  200.143   83.202
  364.750    3.239    0.453    0.253  198.745   78.850
  365.000    3.453    0.446    0.261  197.808   79.174
  365.250    3.488    0.437    0.264  198.354   82.996
  365.500    3.430    0.441    0.261  199.381   86.534
  365.750    3.313    0.447    0.258  199.417   91.523
  366.000    3.201    0.452    0.256  200.438   92.132
  366.250    3.092    0.458    0.253  202.929   90.414
