~VERSION INFORMATION
 VERS.                 2.0:   CWLS LOG ASCII STANDARD -VERSION 2.0
 WRAP.                  NO:   ONE LINE PER DEPTH STEP
~WELL INFORMATION BLOCK
#MNEM.UNIT           DATA                    DESCRIPTION OF MNEMONIC
#---------    -------------------            -------------------------------
# Generated from Intellog Unique Number	CS_69_70/WELL/879
WELL.         GULF CANADA LIMITED            : Well_name    - WELL
LOC .         00/10-34-069-15W4/0            : Location     - LOCATION
UWI .         00/10-34-069-15W4/0            : Uwi          - UNIQUE WELL ID
ENTR.         SP                             : Entered      - ENTERED BY
SRVC.         SCHLUMBERGER                   : Scn          - SERVICE COMPANY
STRT.M        250                            : top_depth    - START DEPTH
STOP.M        465                            : bot_depth    - STOP DEPTH
STEP.M        0.25                           : increment    - STEP LENGTH
 NULL. -999.2500:NULL Value
~CURVE INFORMATION BLOCK
#MNEM UNIT       ERCB CURVE CODE    CURVE DESCRIPTION
#-----------   ------------------   ----------------------------------
DEPT.M        00 001 00 00         : DEPTH        - DEPTH
ILD .OHMM     00 120 00 00         : RESD         - DEEP RESISTIVITY (DIL)
DPHI.V/V      00 890 00 00         : PHID         - DENSITY POROSITY (LIMESTONE)
NPHI.V/V      00 330 00 00         : PHIN         - NEUTRON POROSITY (LIMESTONE)
GR  .API      00 310 00 00         : GR           - GAMMA RAY
~PARAMETER INFORMATION
#MNEM.UNIT           DATA             DESCRIPTION OF MNEMONIC
#---------         -----------     ------------------------------
GL  .M        559.6                : gl           - GROUND LEVEL ELEVATION
EREF.M        563.41               : kb           - ELEVATION OF DEPTH REFERENCE
DATM.M        559.6                : datum        - DATUM ELEVATION
TDD .M        465                  : tdd          - TOTAL DEPTH DRILLER
RUN .         ONE                  : Run          - RUN NUMBER
ENG .         BILL                 : Engineer     - RECORDING ENGINEER
WIT .         JIM                  : Witness      - WITNESSED BY
MUD .         GEL                  : Mud_type     - MUD TYPE
MATR.         LIMESTONE            : Logunit      - NEUTRON MATRIX
TMAX.C        18                   : BHT          - MAXIMUM RECORDED TEMPERATURE
BHTD.M        465                  : BHTDEP       - MAXIMUM RECORDED TEMPERATURE
MATR.         1                    : LOGUNIT      - NEUTRON MATRIX
RMT .C        25                   : MDTP         - TEMPERATURE OF MUD
NEUT.         1                    : NEUTRON      - NEUTRON TYPE
RESI.         0                    : RESIST       - RESISTIVITY TYPE
RMC .OHMM     0.25                 : RMC          - RESISTIVITY OF MUD CAKE
RMF .OHMM     0.25                 : RMF          - RESISTIVITY OF MUD FILTRATE
SUFT.C        15                   : SUFT         - SURFACE TEMPERATURE
~A  DEPTH     RESD     PHID     PHIN       GR
# ...
  380.500    3.780    0.230    0.451   93.269
  380.750    3.767    0.222    0.453   91.004
  381.000    3.740    0.216    0.452   89.166
  381.250    3.680    0.212    0.454   87.449
  381.500    3.501    0.216    0.465   85.975
  381.750    3.251    0.211    0.472   85.356
  382.000    3.093    0.206    0.463   86.196
  382.250    2.954    0.219    0.456   87.096
  382.500    2.874    0.257    0.457   86.476
  382.750    2.837    0.274    0.475   85.551
  383.000    2.897    0.276    0.478   83.591
  383.250    2.975    0.272    0.471   79.621
  383.500    3.014    0.266    0.468   75.773
  383.750    3.106    0.261    0.471   72.597
  384.000    3.255    0.254    0.473   66.923
  384.250    3.274    0.275    0.462   62.406
  384.500    3.233    0.287    0.445   58.681
  384.750    3.059    0.277    0.432   55.504
  385.000    2.851    0.267    0.430   55.857
  385.250    2.604    0.279    0.441   58.947
  385.500    2.478    0.305    0.450   61.000
  385.750    2.366    0.317    0.453   61.842
  386.000    2.302    0.325    0.453   61.408
  386.250    2.273    0.316    0.453   60.117
  386.500    2.273    0.312    0.448   59.677
  386.750    2.274    0.320    0.451   58.145
  387.000    2.309    0.333    0.443   56.854
  387.250    2.402    0.328    0.435   56.781
  387.500    2.550    0.319    0.441   57.986
  387.750    2.799    0.309    0.451   57.184
  388.000    3.010    0.289    0.452   56.014
  388.250    3.172    0.186    0.404   54.846
  388.500    3.233    0.140    0.306   56.049
  388.750    3.163    0.109    0.262   57.439
  389.000    2.965    0.211    0.293   60.227
  389.250    2.768    0.252    0.377   62.831
  389.500    2.595    0.312    0.437   61.478
  389.750    2.478    0.314    0.450   62.017
  390.000    2.362    0.306    0.455   64.073
  390.250    2.306    0.306    0.463   66.557
  390.500    2.269    0.307    0.458   67.701
  390.750    2.261    0.300    0.454   68.176
  391.000    2.258    0.297    0.451   67.677
  391.250    2.246    0.298    0.449   65.657
  391.500    2.243    0.300    0.448   68.563
  391.750    2.231    0.284    0.457   70.866
  392.000    2.228    0.273    0.466   72.984
  392.250    2.224    0.294    0.470   73.398
  392.500    2.271    0.307    0.464   73.872
  392.750    2.289    0.316    0.470   75.200
  393.000    2.324    0.306    0.474   77.258
  393.250    2.373    0.304    0.469   79.194
  393.500    2.431    0.291    0.466   83.138
  393.750    2.506    0.280    0.467   88.055
  394.000    2.621    0.267    0.470   91.696
  394.250    2.726    0.254    0.458   94.789
  394.500    2.894    0.234    0.449   97.332
  394.750    3.061    0.210    0.441   97.078
  395.000    3.261    0.228    0.448   94.204
  395.250    3.482    0.239    0.460   90.660
  395.500    3.601    0.236    0.459   87.910
  395.750    3.753    0.228    0.447   86.376
  396.000    3.868    0.207    0.436   88.128
  396.250    3.949    0.185    0.430   89.030
  396.500    4.054    0.176    0.440   82.626
  396.750    4.163    0.175    0.460   83.768
  397.000    4.282    0.147    0.457   87.651
  397.250    4.363    0.130    0.448   90.564
  397.500    4.422    0.170    0.444   94.810
  397.750    4.457    0.204    0.461   97.418
  398.000    4.417    0.219    0.462  100.449
  398.250    4.117    0.228    0.460  102.994
  398.500    3.684    0.231    0.484  106.512
  398.750    3.377    0.244    0.501  109.726
  399.000    3.177    0.249    0.516  110.871
  399.250    3.012    0.242    0.525  109.032
  399.500    2.828    0.234    0.518  107.312
  399.750    2.777    0.226    0.504  106.634
  400.000    2.752    0.220    0.494  107.291
  400.250    2.708    0.234    0.496  109.774
  400.500    2.669    0.247    0.519  108.788
  400.750    2.635    0.247    0.546  107.863
  401.000    2.563    0.238    0.557  107.910
  401.250    2.448    0.236    0.569  108.873
  401.500    2.342    0.247    0.555  110.930
  401.750    2.278    0.245    0.547  111.284
  402.000    2.233    0.233    0.556  107.193
  402.250    2.217    0.227    0.538  104.076
  402.500    2.264    0.217    0.524  101.628
  402.750    2.316    0.210    0.511  100.156
  403.000    2.468    0.211    0.501   98.014
  403.250    2.591    0.219    0.494   93.435
  403.500    2.730    0.222    0.485   89.772
  403.750    2.882    0.233    0.476   85.498
  404.000    3.117    0.224    0.469   80.981
  404.250    3.297    0.200    0.463   78.900
  404.500    3.435    0.178    0.459   77.913
  404.750    3.521    0.190    0.477   79.665
  405.000    3.522    0.211    0.484   79.836
  405.250    3.478    0.221    0.479   78.972
  405.500    3.505    0.199    0.465   80.178
  405.750    3.645    0.174    0.449   82.357
  406.000    3.899    0.176    0.446   80.214
  406.250    4.086    0.192    0.452   82.210
  406.500    4.218    0.186    0.431   83.903
  406.750    4.283    0.165    0.402   84.317
  407.000    4.143    0.159    0.404   86.311
  407.250    3.957    0.171    0.445   88.431
  407.500    3.878    0.207    0.467   90.184
  407.750    3.822    0.244    0.466   90.356
  408.000    3.781    0.214    0.450   88.821
  408.250    3.789    0.204    0.441   87.835
  408.500    3.833    0.191    0.448   90.379
  408.750    3.863    0.187    0.459   92.498
  409.000    3.908    0.195    0.471   93.581
  409.250    3.953    0.196    0.479   92.837
  409.500    4.013    0.190    0.472   91.911
  409.750    4.052    0.185    0.463   92.509
  410.000    4.091    0.198    0.458   93.958
  410.250    4.131    0.184    0.456   95.468
  410.500    4.156    0.171    0.455   96.856
  410.750    4.157    0.164    0.455   97.999
  411.000    4.158    0.179    0.457   99.084
  411.250    4.152    0.187    0.454  100.226
  411.500    4.146    0.187    0.456   99.058
  411.750    4.162    0.180    0.462   97.097
  412.000    4.219    0.189    0.463   97.148
  412.250    4.251    0.185    0.447   97.925
  412.500    4.349    0.176    0.427   98.767
  412.750    4.457    0.181    0.430   99.727
  413.000    4.551    0.168    0.431  100.690
  413.250    4.535    0.162    0.423  102.745
  413.500    4.461    0.189    0.420  104.500
  413.750    4.380    0.204    0.431  106.376
  414.000    4.278    0.198    0.432  103.258
  414.250    4.231    0.189    0.425  100.385
  414.500    4.209    0.201    0.419  100.677
  414.750    4.226    0.212    0.426  101.882
  415.000    4.268    0.216    0.441  100.348
  415.250    4.325    0.201    0.448   98.511
  415.500    4.407    0.194    0.445   99.349
  415.750    4.475    0.185    0.451  100.677
  416.000    4.543    0.185    0.459  102.308
  416.250    4.604    0.183    0.454  103.636
  416.500    4.683    0.177    0.439  105.267
  416.750    4.756    0.172    0.430  106.655
  417.000    4.793    0.182    0.421  107.433
  417.250    4.785    0.194    0.411  107.969
  417.500    4.699    0.195    0.405  104.244
  417.750    4.580    0.174    0.420   98.205
  418.000    4.414    0.157    0.436   97.948
  418.250    4.161    0.146    0.447   98.668
  418.500    3.835    0.176    0.445   99.386
  418.750    3.356    0.195    0.444   98.338
  419.000    2.981    0.195    0.445   97.658
  419.250    2.648    0.196    0.461   99.897
  419.500    2.338    0.200    0.476  102.624
  419.750    2.120    0.210    0.489  104.865
  420.000    1.976    0.218    0.509  102.175
  420.250    2.110    0.217    0.511  101.430
  420.500    2.294    0.210    0.516  103.549
  420.750    2.599    0.207    0.533  103.660
  421.000    3.040    0.217    0.539   98.838
  421.250    3.349    0.225    0.510   92.921
  421.500    4.165    0.227    0.478   87.613
  421.750    4.363    0.205    0.463   83.523
  422.000    4.897    0.174    0.451   80.465
  422.250    6.307    0.141    0.448   78.018
  422.500    8.322    0.121    0.435   76.058
  422.750    9.272    0.106    0.394   75.134
  423.000    8.485    0.118    0.358   78.773
  423.250    7.592    0.133    0.372   81.806
  423.500    6.831    0.153    0.420   86.114
  423.750    6.169    0.174    0.438   90.240
