~VERSION INFORMATION
 VERS.                 2.0:   CWLS LOG ASCII STANDARD -VERSION 2.0
 WRAP.                  NO:   ONE LINE PER DEPTH STEP
~WELL INFORMATION BLOCK
#MNEM.UNIT           DATA                    DESCRIPTION OF MNEMONIC
#---------    -------------------            -------------------------------
# Generated from Intellog Unique Number	CS_69_70/WELL/2902
WELL.         12-30-069-07W4                 : Well_name    - WELL
LOC .         00/12-30-069-07W4/0            : Location     - LOCATION
UWI .         00/12-30-069-07W4/0            : Uwi          - UNIQUE WELL ID
ENTR.         ANDERSEN                       : Entered      - ENTERED BY
SRVC.         SCHLUMBERGER                   : Scn          - SERVICE COMPANY
STRT.M        350                            : top_depth    - START DEPTH
STOP.M        540                            : bot_depth    - STOP DEPTH
STEP.M        0.25                           : increment    - STEP LENGTH
 NULL. -999.2500:NULL Value
~CURVE INFORMATION BLOCK
#MNEM UNIT       ERCB CURVE CODE    CURVE DESCRIPTION
#-----------   ------------------   ----------------------------------
DEPT.M        00 001 00 00         : DEPTH        - DEPTH
GR  .API      00 310 00 00         : GR           - GAMMA RAY
CALI.MM       00 280 01 00         : CAL          - CALIPER
NPHI.V/V      00 330 00 00         : PHIN         - NEUTRON POROSITY (SANDSTONE)
DPHI.V/V      00 890 00 00         : PHID         - DENSITY POROSITY (SANDSTONE)
ILD .OHMM     00 120 00 00         : RESD         - DEEP RESISTIVITY (DIL)
~PARAMETER INFORMATION
#MNEM.UNIT           DATA             DESCRIPTION OF MNEMONIC
#---------         -----------     ------------------------------
GL  .M        656.9                : gl           - GROUND LEVEL ELEVATION
EREF.M        660.6                : kb           - ELEVATION OF DEPTH REFERENCE
DATM.M        660.6                : datum        - DATUM ELEVATION
TDD .M        543                  : tdd          - TOTAL DEPTH DRILLER
RUN .         ONE                  : Run          - RUN NUMBER
ENG .         BILL                 : Engineer     - RECORDING ENGINEER
WIT .         JIM                  : Witness      - WITNESSED BY
MUD .         GEL                  : Mud_type     - MUD TYPE
MATR.         SANDSTONE            : Logunit      - NEUTRON MATRIX
TMAX.C        23                   : BHT          - MAXIMUM RECORDED TEMPERATURE
BHTD.M        543                  : BHTDEP       - MAXIMUM RECORDED TEMPERATURE
MATR.         1                    : LOGUNIT      - NEUTRON MATRIX
RMT .C        17                   : MDTP         - TEMPERATURE OF MUD
NEUT.         1                    : NEUTRON      - NEUTRON TYPE
RESI.         0                    : RESIST       - RESISTIVITY TYPE
RMC .OHMM     3.24                 : RMC          - RESISTIVITY OF MUD CAKE
RMF .OHMM     8.92                 : RMF          - RESISTIVITY OF MUD FILTRATE
SUFT.C        15                   : SUFT         - SURFACE TEMPERATURE
~A  DEPTH       GR      CAL     PHIN     PHID     RESD
# ...
  459.500   79.035  176.853    0.412    0.110    5.991
  459.750   72.234  176.944    0.357    0.087    4.908
  460.000   81.415  177.017    0.307    0.147    4.095
  460.250   90.585  177.071    0.413    0.208    3.611
  460.500   97.484  176.194    0.451    0.222    3.241
  460.750   98.098  176.266    0.482    0.222    3.073
  461.000   96.430  175.425    0.508    0.221    2.915
  461.250   93.633  174.529    0.508    0.221    2.864
  461.500   93.095  173.651    0.508    0.223    2.817
  461.750   97.702  172.773    0.518    0.227    2.821
  462.000   99.468  171.913    0.503    0.232    2.877
  462.250   99.501  172.937    0.487    0.229    3.160
  462.500  101.277  172.991    0.474    0.230    3.403
  462.750  100.740  172.132    0.488    0.231    3.875
  463.000   96.791  170.303    0.521    0.231    4.251
  463.250   92.271  168.475    0.527    0.221    5.112
  463.500   84.329  167.597    0.509    0.203    6.147
  463.750   75.806  166.719    0.419    0.175    8.097
  464.000   57.598  166.792    0.389    0.071    9.562
  464.250   57.071  166.865    0.334    0.072    9.577
  464.500   78.230  165.987    0.302    0.198    9.768
  464.750   81.126  166.059    0.340    0.224   10.525
  465.000   73.184  165.200    0.381    0.238   11.979
  465.250   60.668  164.304    0.378    0.218   13.145
  465.500   55.578  163.444    0.332    0.191   13.418
  465.750   55.062  163.499    0.307    0.198   13.439
  466.000   57.958  162.639    0.288    0.245   13.216
  466.250   61.424  162.712    0.296    0.288   12.997
  466.500   61.468  162.785    0.302    0.306   12.782
  466.750   61.511  162.875    0.308    0.303   12.342
  467.000   60.414  162.948    0.311    0.303   12.133
  467.250   57.617  163.972    0.316    0.299   11.508
  467.500   55.379  164.063    0.322    0.291   11.113
  467.750   54.271  163.148    0.320    0.285   10.536
  468.000   53.766  162.271    0.324    0.292    9.805
  468.250   54.380  161.429    0.326    0.288    8.485
  468.500   55.565  161.484    0.319    0.281    6.826
  468.750   57.879  161.575    0.307    0.267    6.127
  469.000   63.056  161.647    0.325    0.238    5.916
  469.250   67.674  161.702    0.363    0.230    5.818
  469.500   72.280  161.811    0.394    0.240    5.934
  469.750   81.450  161.848    0.420    0.246    6.635
  470.000   87.220  161.920    0.444    0.251    7.414
  470.250   82.689  161.079    0.485    0.261    8.918
  470.500   76.448  161.133    0.449    0.272   10.146
  470.750   73.650  160.274    0.403    0.284   11.761
  471.000   70.853  159.378    0.372    0.285   12.447
  471.250   68.615  159.487    0.362    0.294   11.806
  471.500   65.807  158.591    0.342    0.307   11.610
  471.750   67.551  158.645    0.334    0.311   11.628
  472.000   80.143  158.755    0.369    0.305   12.524
  472.250   80.187  160.710    0.388    0.293   13.997
  472.500   73.386  161.752    0.365    0.254   17.461
  472.750   66.585  162.757    0.308    0.266   20.993
  473.000   65.488  161.916    0.282    0.281   24.792
  473.250   59.257  161.952    0.283    0.273   26.702
  473.500   50.175  162.025    0.200    0.308   26.764
  473.750   46.226  162.098    0.152    0.339   24.447
  474.000   53.114  162.170    0.197    0.364   21.156
  474.250   64.006  162.261    0.228    0.350   18.989
  474.500   69.183  161.384    0.269    0.316   18.004
  474.750   73.230  160.542    0.299    0.254   18.718
  475.000   72.704  160.597    0.313    0.237   20.160
  475.250   66.462  159.737    0.310    0.248   21.722
  475.500   57.380  159.773    0.295    0.273   22.981
  475.750   52.860  159.864    0.271    0.278   22.191
  476.000   46.630  159.937    0.250    0.291   18.856
  476.250   40.969  160.010    0.229    0.316   15.168
  476.500   41.013  160.083    0.256    0.323   11.980
  476.750   38.775  160.155    0.282    0.325   10.757
  477.000   38.248  160.228    0.293    0.329   10.968
  477.250   38.873  160.301    0.298    0.331   11.818
  477.500   42.339  161.343    0.306    0.329   13.704
  477.750   45.805  161.415    0.310    0.322   14.760
  478.000   47.560  161.506    0.315    0.307   15.067
  478.250   51.026  161.543    0.320    0.297   14.286
  478.500   61.918  162.566    0.327    0.275   13.295
  478.750   61.402  163.626    0.339    0.243   11.505
  479.000   56.872  161.797    0.355    0.255   10.517
  479.250   53.493  162.803    0.378    0.291    9.791
  479.500   37.555  162.875    0.371    0.301    9.283
  479.750   31.895  162.948    0.351    0.310    9.129
  480.000   33.080  163.021    0.345    0.316    9.312
  480.250   39.408  163.094    0.342    0.310   10.034
  480.500   38.882  163.167    0.345    0.308   11.213
  480.750   34.933  163.239    0.349    0.310   12.531
  481.000   34.976  161.447    0.347    0.312   14.010
  481.250   35.020  161.520    0.347    0.315   16.239
  481.500   35.064  161.593    0.354    0.314   17.820
  481.750   34.537  161.666    0.361    0.314   19.915
  482.000   34.581  162.707    0.370    0.315   22.684
  482.250   35.776  162.744    0.359    0.315   23.989
  482.500   35.249  163.803    0.341    0.308   26.810
  482.750   34.152  164.790    0.334    0.310   28.364
  483.000   33.625  168.702    0.361    0.314   31.125
  483.250   36.532  170.658    0.366    0.316   34.167
  483.500   35.435  172.632    0.361    0.315   39.605
  483.750   36.608  174.606    0.343    0.315   46.754
  484.000   33.230  176.580    0.335    0.313   57.247
  484.250   27.570  179.505    0.346    0.316   71.415
  484.500   27.613  182.466    0.364    0.318   87.443
  484.750   22.534  184.458    0.361    0.322  103.228
  485.000   21.997  184.495    0.348    0.321  121.909
  485.250   24.344  186.469    0.336    0.312  119.888
  485.500   29.510  187.510    0.346    0.313  109.593
  485.750   34.698  187.583    0.358    0.315   88.157
  486.000   34.160  188.606    0.359    0.319   77.696
  486.250   33.063  188.679    0.359    0.321   72.333
  486.500   31.966  189.721    0.363    0.322   71.134
  486.750   32.021  189.775    0.371    0.320   71.244
  487.000   33.205  189.866    0.379    0.316   71.355
  487.250   35.530  189.957    0.385    0.319   72.782
  487.500   39.578  189.994    0.379    0.324   78.451
  487.750   39.040  190.085    0.374    0.325   81.496
  488.000   38.513  190.176    0.372    0.322   81.623
  488.250   37.438  190.230    0.375    0.317   77.420
  488.500   35.189  190.321    0.377    0.311   74.758
  488.750   31.811  190.394    0.372    0.315   72.188
  489.000   28.432  190.449    0.370    0.321   72.300
  489.250   26.775  190.540    0.370    0.326   73.718
  489.500   29.660  190.594    0.371    0.323   73.832
  489.750   33.696  190.685    0.373    0.321   71.294
  490.000   40.585  190.776    0.376    0.318   74.090
  490.250   41.791  190.812    0.374    0.315   71.515
  490.500   38.972  191.872    0.365    0.304   69.056
  490.750   37.875  191.927    0.362    0.305   75.778
  491.000   37.348  192.968    0.345    0.305   96.275
  491.250   33.969  193.041    0.368    0.308  107.634
  491.500   30.020  193.114    0.371    0.315  107.801
  491.750   26.642  193.187    0.375    0.321  107.968
  492.000   27.256  193.260    0.377    0.328  106.178
  492.250   29.021  193.332    0.378    0.331  104.377
  492.500   27.354  194.374    0.379    0.332   98.965
  492.750   26.257  194.429    0.375    0.328   92.134
  493.000   25.160  194.520    0.382    0.326   82.698
  493.250   25.774  194.592    0.389    0.326   71.565
  493.500   26.388  194.665    0.396    0.327   61.955
  493.750   28.724  194.738    0.393    0.324   58.742
  494.000   31.049  193.860    0.384    0.321   56.723
  494.250   33.363  194.883    0.354    0.319   56.788
  494.500   35.700  196.857    0.350    0.321   61.212
  494.750   34.602  198.831    0.381    0.323   68.408
  495.000   31.213  203.676    0.377    0.322   79.294
  495.250   28.975  205.632    0.344    0.318   95.333
  495.500   33.022  208.556    0.360    0.316  112.629
  495.750   31.355  214.369    0.377    0.323  114.883
