~VERSION INFORMATION
 VERS.                 2.0:   CWLS LOG ASCII STANDARD -VERSION 2.0
 WRAP.                  NO:   ONE LINE PER DEPTH STEP
~WELL INFORMATION BLOCK
#MNEM.UNIT           DATA                    DESCRIPTION OF MNEMONIC
#---------    -------------------            -------------------------------
# Generated from Intellog Unique Number	CS_67_68/WELL/2189
WELL.         10-02-067-04W4                 : Well_name    - WELL
LOC .         00/10-02-067-04W4/0            : Location     - LOCATION
UWI .         00/10-02-067-04W4/0            : Uwi          - UNIQUE WELL ID
ENTR.         SP                             : Entered      - ENTERED BY
SRVC.         SCHLUMBERGER                   : Scn          - SERVICE COMPANY
STRT.M        370                            : top_depth    - START DEPTH
STOP.M        590                            : bot_depth    - STOP DEPTH
STEP.M        0.25                           : increment    - STEP LENGTH
 NULL. -999.2500:NULL Value
~CURVE INFORMATION BLOCK
#MNEM UNIT       ERCB CURVE CODE    CURVE DESCRIPTION
#-----------   ------------------   ----------------------------------
DEPT.M        00 001 00 00         : DEPTH        - DEPTH
CALI.MM       00 280 01 00         : CAL          - CALIPER
ILD .OHMM     00 120 00 00         : RESD         - DEEP RESISTIVITY (DIL)
DPHI.V/V      00 890 00 00         : PHID         - DENSITY POROSITY (LIMESTONE)
NPHI.V/V      00 330 00 00         : PHIN         - NEUTRON POROSITY (LIMESTONE)
GR  .API      00 310 00 00         : GR           - GAMMA RAY
~PARAMETER INFORMATION
#MNEM.UNIT           DATA             DESCRIPTION OF MNEMONIC
#---------         -----------     ------------------------------
GL  .M        693.26               : gl           - GROUND LEVEL ELEVATION
EREF.M        697.11               : kb           - ELEVATION OF DEPTH REFERENCE
DATM.M        697.11               : datum        - DATUM ELEVATION
TDD .M        598                  : tdd          - TOTAL DEPTH DRILLER
RUN .         ONE                  : Run          - RUN NUMBER
ENG .         BILL                 : Engineer     - RECORDING ENGINEER
WIT .         JIM                  : Witness      - WITNESSED BY
MUD .         GEL                  : Mud_type     - MUD TYPE
MATR.         LIMESTONE            : Logunit      - NEUTRON MATRIX
TMAX.C        24.5                 : BHT          - MAXIMUM RECORDED TEMPERATURE
BHTD.M        598.6                : BHTDEP       - MAXIMUM RECORDED TEMPERATURE
MATR.         1                    : LOGUNIT      - NEUTRON MATRIX
RMT .C        25                   : MDTP         - TEMPERATURE OF MUD
NEUT.         1                    : NEUTRON      - NEUTRON TYPE
RESI.         0                    : RESIST       - RESISTIVITY TYPE
RMC .OHMM     0.25                 : RMC          - RESISTIVITY OF MUD CAKE
RMF .OHMM     0.25                 : RMF          - RESISTIVITY OF MUD FILTRATE
SUFT.C        15                   : SUFT         - SURFACE TEMPERATURE
~A  DEPTH      CAL     RESD     PHID     PHIN       GR
# ...
  406.500  166.218    6.031    0.282    0.408   96.750
  406.750  166.114    6.181    0.278    0.397   95.182
  407.000  165.908    7.159    0.290    0.422   92.711
  407.250  165.603    8.973    0.300    0.445   87.168
  407.500  165.197   11.205    0.269    0.458   79.578
  407.750  165.093   13.551    0.223    0.473   70.362
  408.000  164.788   15.345    0.192    0.422   63.375
  408.250  164.381   16.176    0.213    0.361   60.602
  408.500  163.674   15.289    0.253    0.338   62.948
  408.750  162.767   13.203    0.256    0.351   66.980
  409.000  161.960   11.488    0.157    0.390   73.661
  409.250  161.855   10.457    0.134    0.329   77.573
  409.500  162.753    9.555    0.239    0.405   81.304
  409.750  163.553    8.681    0.289    0.477   85.095
  410.000  164.451    8.083    0.311    0.473   80.636
  410.250  165.150    7.385    0.315    0.462   81.597
  410.500  166.048    6.980    0.307    0.463   86.652
  410.750  166.545    6.585    0.297    0.476   89.119
  411.000  166.943    6.224    0.281    0.468   86.828
  411.250  167.140    6.699    0.273    0.459   85.380
  411.500  167.235    8.026    0.283    0.452   88.027
  411.750  167.030    9.909    0.289    0.444   85.375
  412.000  166.926   12.098    0.290    0.457   72.305
  412.250  166.721   14.714    0.301    0.484   61.524
  412.500  166.516   17.235    0.325    0.500   56.644
  412.750  166.410   19.774    0.341    0.461   52.727
  413.000  166.004   22.056    0.353    0.436   50.497
  413.250  165.900   23.120    0.343    0.449   52.782
  413.500  165.796   25.023    0.343    0.460   48.263
  413.750  166.193   28.442    0.351    0.423   45.310
  414.000  167.091   31.486    0.356    0.416   44.103
  414.250  168.191   29.985    0.361    0.442   45.967
  414.500  168.789   28.341    0.370    0.454   50.901
  414.750  169.186   26.687    0.367    0.438   52.947
  415.000  169.283   24.847    0.364    0.445   55.173
  415.250  168.977   21.097    0.367    0.457   59.144
  415.500  168.270   14.924    0.368    0.479   64.019
  415.750  167.363   13.713    0.358    0.467   68.051
  416.000  166.455   12.864    0.345    0.421   72.625
  416.250  165.849   12.114    0.327    0.408   75.573
  416.500  165.543   11.450    0.313    0.426   76.835
  416.750  165.238   11.027    0.300    0.454   71.654
  417.000  164.632   11.408    0.300    0.482   65.991
  417.250  163.925   11.648    0.351    0.459   62.134
  417.500  163.318   11.870    0.339    0.445   60.145
  417.750  162.812   12.051    0.326    0.433   65.321
  418.000  162.507   11.917    0.315    0.441   68.871
  418.250  161.900   11.806    0.327    0.453   66.159
  418.500  161.595   11.785    0.332    0.438   63.145
  418.750  161.390   11.830    0.325    0.438   66.334
  419.000  160.984   12.331    0.317    0.457   69.944
  419.250  160.276   12.950    0.315    0.471   70.062
  419.500  159.771   13.372    0.331    0.470   63.737
  419.750  159.264   13.449    0.343    0.458   60.603
  420.000  159.160   13.100    0.341    0.443   59.577
  420.250  159.657   12.476    0.341    0.430   60.297
  420.500  160.356   12.061    0.354    0.437   61.137
  420.750  161.254   10.897    0.360    0.454   60.532
  421.000  161.953    9.919    0.352    0.462   56.977
  421.250  162.450    9.063    0.339    0.452   56.854
  421.500  162.647    8.173    0.327    0.435   65.643
  421.750  163.043    7.595    0.317    0.422   69.555
  422.000  163.140    7.111    0.310    0.412   70.455
  422.250  163.737    6.953    0.305    0.427   66.719
  422.500  164.034    6.889    0.319    0.440   66.415
  422.750  164.131    6.799    0.317    0.446   70.447
  423.000  163.122    6.748    0.306    0.434   75.142
  423.250  162.115    6.749    0.293    0.423   79.475
  423.500  161.207    6.762    0.295    0.437   82.242
  423.750  161.805    7.009    0.300    0.452   84.588
  424.000  163.005    7.375    0.280    0.465   81.996
  424.250  163.703    7.701    0.259    0.413   74.948
  424.500  163.999    8.149    0.250    0.390   71.513
  424.750  163.794    8.431    0.244    0.377   76.147
  425.000  163.590    8.705    0.235    0.366   76.928
  425.250  163.785    8.855    0.252    0.375   70.121
  425.500  163.882    8.939    0.268    0.376   66.686
  425.750  163.877    8.991    0.260    0.372   76.377
  426.000  163.974    8.924    0.247    0.377   80.289
  426.250  163.769    8.742    0.233    0.380   82.575
  426.500  164.366    8.547    0.216    0.380   82.572
  426.750  164.863    8.357    0.202    0.382   81.967
  427.000  165.161    8.295    0.227    0.389   79.797
  427.250  166.261    8.406    0.243    0.388   73.773
  427.500  167.059    8.696    0.242    0.384   68.953
  427.750  166.652    9.047    0.237    0.393   64.133
  428.000  166.247    9.627    0.249    0.418   60.879
  428.250  165.942   10.558    0.248    0.433   66.897
  428.500  166.339   11.088    0.121    0.433   72.676
  428.750  166.335   10.841    0.080    0.319   68.278
  429.000  164.524   10.501    0.068    0.266   58.580
  429.250  161.910   10.057    0.198    0.237   51.713
  429.500  160.099    9.488    0.248    0.211   55.925
  429.750  158.690    9.036    0.280    0.399   62.065
  430.000  157.983    8.686    0.302    0.445   67.602
  430.250  157.076    8.241    0.331    0.458   71.152
  430.500  156.369    7.967    0.336    0.470   73.739
  430.750  155.762    7.616    0.343    0.478   73.014
  431.000  156.159    7.363    0.353    0.440   66.809
  431.250  156.958    7.065    0.354    0.426   62.411
  431.500  157.958    6.792    0.356    0.444   60.481
  431.750  158.655    6.554    0.362    0.458   57.829
  432.000  158.951    6.348    0.365    0.438   53.731
  432.250  159.249    6.137    0.357    0.428   51.742
  432.500  159.245    6.000    0.351    0.435   56.677
  432.750  159.241    5.933    0.352    0.434   57.276
  433.000  160.039    5.956    0.357    0.423   56.009
  433.250  161.439    6.002    0.354    0.426   59.318
  433.500  163.241    5.980    0.348    0.441   60.400
  433.750  164.743    5.958    0.358    0.453   57.507
  434.000  165.240    5.947    0.358    0.466   53.710
  434.250  163.530    5.936    0.352    0.447   52.444
  434.500  161.518    5.914    0.354    0.436   56.415
  434.750  160.009    5.904    0.360    0.432   58.700
  435.000  160.004    5.937    0.367    0.422   59.963
  435.250  161.305    5.938    0.371    0.422   61.225
  435.500  163.107    5.850    0.370    0.442   60.861
  435.750  164.106    5.623    0.364    0.444   60.377
  436.000  163.901    5.226    0.359    0.434   62.240
  436.250  162.290    4.902    0.346    0.435   70.789
  436.500  160.379    4.530    0.330    0.421   80.060
  436.750  158.167    4.339    0.312    0.420   87.163
  437.000  156.959    4.758    0.295    0.468  107.092
  437.250  157.155    5.787    0.273    0.507  107.872
  437.500  159.660    7.065    0.288    0.534   99.499
  437.750  161.864    8.260    0.324    0.506   82.034
  438.000  162.060    9.371    0.344    0.467   74.022
  438.250  159.546   10.009    0.351    0.445   69.142
  438.500  157.434    9.991    0.338    0.428   70.343
  438.750  156.025    9.533    0.327    0.421   71.967
  439.000  154.917    9.147    0.316    0.436   73.470
  439.250  154.209    9.516    0.310    0.445   67.445
  439.500  154.206    9.975    0.312    0.475   63.349
  439.750  155.004   10.052    0.326    0.472   58.347
  440.000  156.605    9.681    0.345    0.455   54.190
  440.250  157.003    9.048    0.364    0.452   55.091
  440.500  157.299    8.377    0.367    0.444   57.316
  440.750  157.195    7.611    0.355    0.442   59.361
  441.000  157.693    6.941    0.356    0.451   62.008
  441.250  157.989    6.402    0.352    0.442   64.956
  441.500  156.680    5.817    0.327    0.425   71.276
  441.750  152.962    5.305    0.285    0.421   77.536
  442.000  151.151    4.967    0.266    0.440   84.579
  442.250  151.749    5.951    0.243    0.476   92.525
  442.500  155.357    7.862    0.281    0.509   97.460
  442.750  157.763    9.929    0.316    0.540   91.316
