~VERSION INFORMATION
 VERS.                 2.0:   CWLS LOG ASCII STANDARD -VERSION 2.0
 WRAP.                  NO:   ONE LINE PER DEPTH STEP
~WELL INFORMATION BLOCK
#MNEM.UNIT           DATA                    DESCRIPTION OF MNEMONIC
#---------    -------------------            -------------------------------
# Generated from Intellog Unique Number	CW_76_78/WELL/2779
WELL.         ASHLAND ET AL PELICAN          : Well_name    - WELL
LOC .         00/10-28-077-20W4/0            : Location     - LOCATION
UWI .         00/10-28-077-20W4/0            : Uwi          - UNIQUE WELL ID
ENTR.         JOE                            : Entered      - ENTERED BY
SRVC.         SCHLUMBERGER                   : Scn          - SERVICE COMPANY
STRT.M        228.6                          : top_depth    - START DEPTH
STOP.M        466.35                         : bot_depth    - STOP DEPTH
STEP.M        0.25                           : increment    - STEP LENGTH
 NULL. -999.2500:NULL Value
~CURVE INFORMATION BLOCK
#MNEM UNIT       ERCB CURVE CODE    CURVE DESCRIPTION
#-----------   ------------------   ----------------------------------
DEPT.M        00 001 00 00         : DEPTH        - DEPTH
ILD .OHMM     00 120 00 00         : RESD         - DEEP RESISTIVITY (DIL)
DPHI.V/V      00 890 00 00         : PHID         - DENSITY POROSITY (SANDSTONE)
NPHI.V/V      00 330 00 00         : PHIN         - NEUTRON POROSITY (SANDSTONE)
GR  .API      00 310 00 00         : GR           - GAMMA RAY
CALI.MM       00 280 01 00         : CAL          - CALIPER
~PARAMETER INFORMATION
#MNEM.UNIT           DATA             DESCRIPTION OF MNEMONIC
#---------         -----------     ------------------------------
GL  .M        571.195              : gl           - GROUND LEVEL ELEVATION
EREF.M        574.853              : kb           - ELEVATION OF DEPTH REFERENCE
DATM.M        574.853              : datum        - DATUM ELEVATION
TDD .M        499.872              : tdd          - TOTAL DEPTH DRILLER
RUN .         ONE                  : Run          - RUN NUMBER
ENG .         McNAUGHTON           : Engineer     - RECORDING ENGINEER
WIT .         LINKE                : Witness      - WITNESSED BY
MUD .         GEL                  : Mud_type     - MUD TYPE
MATR.         SANDSTONE            : Logunit      - NEUTRON MATRIX
TMAX.C        22.7778              : BHT          - MAXIMUM RECORDED TEMPERATURE
BHTD.M        499.872              : BHTDEP       - MAXIMUM RECORDED TEMPERATURE
RMT .C        16.1111              : MDTP         - TEMPERATURE OF MUD
MUDD.KG/M     61000                : MWT          - MUD DENSITY
NEUT.         1                    : NEUTRON      - NEUTRON TYPE
RESI.         0                    : RESIST       - RESISTIVITY TYPE
RM  .OHMM     1.1                  : RM           - RESISTIVITY OF MUD
RMC .OHMM     1.34                 : RMC          - RESISTIVITY OF MUD CAKE
RMF .OHMM     2.87                 : RMF          - RESISTIVITY OF MUD FILTRATE
SUFT.C        -12.2222             : SUFT         - SURFACE TEMPERATURE
~A  DEPTH     RESD     PHID     PHIN       GR      CAL
# ...
  447.600    5.460    0.217    0.369  105.536  158.646
  447.850    5.552    0.228    0.335   92.046  159.703
  448.100    5.642    0.240    0.313   90.574  161.289
  448.350    5.734    0.201    0.319   97.817  162.359
  448.600    5.727    0.170    0.323  107.475  163.429
  448.850    5.720    0.151    0.318  111.104  163.997
  449.100    5.715    0.161    0.338  118.355  164.565
  449.350    5.709    0.180    0.339  125.293  164.618
  449.600    5.606    0.170    0.332  116.610  164.670
  449.850    5.504    0.154    0.325  101.617  163.203
  450.100    5.497    0.166    0.321   94.136  162.225
  450.350    5.395    0.181    0.314   87.556  160.249
  450.600    5.387    0.191    0.310   81.874  158.273
  450.850    5.382    0.201    0.306   77.999  157.301
  451.100    5.377    0.207    0.302   75.330  156.845
  451.350    5.370    0.202    0.297   73.862  155.880
  451.600    5.364    0.203    0.290   74.494  155.939
  451.850    5.455    0.195    0.282   78.728  155.998
  452.100    5.544    0.175    0.280   85.975  156.044
  452.350    5.539    0.156    0.285   92.917  156.103
  452.600    5.533    0.145    0.289   98.962  156.156
  452.850    5.527    0.143    0.302  102.899  156.717
  453.100    5.616    0.148    0.321  109.244  158.296
  453.350    5.707    0.148    0.356  110.778  159.373
  453.600    5.702    0.150    0.343  102.095  160.437
  453.850    5.793    0.161    0.327   83.792  161.514
  454.100    5.884    0.188    0.304   82.621  162.082
  454.350    5.877    0.185    0.302   90.769  162.128
  454.600    5.968    0.177    0.342   96.810  162.702
  454.850    6.058    0.199    0.358  101.957  163.257
  455.100    6.053    0.212    0.347  103.495  163.818
  455.350    6.143    0.192    0.323   98.710  163.878
  455.600    6.234    0.168    0.304   95.440  163.924
  455.850    6.228    0.155    0.298   93.664  162.959
  456.100    6.222    0.140    0.296   91.892  159.958
  456.350    6.216    0.148    0.295   93.730  154.936
  456.600    6.016    0.163    0.294   98.569  156.006
  456.850    5.817    0.174    0.295  107.618  158.087
  457.100    5.714    0.161    0.302  117.565  160.182
  457.350    5.708    0.153    0.311  115.497  162.779
  457.600    5.702    0.165    0.313  110.420  164.371
  457.850    5.792    0.171    0.315  105.042  165.943
  458.100    5.884    0.153    0.331   99.360  167.014
  458.350    5.877    0.154    0.336   92.784  167.568
  458.600    5.870    0.173    0.329   88.909  167.125
  458.850    5.864    0.189    0.322   86.240  166.160
  459.100    5.859    0.197    0.312   86.271  165.195
  459.350    5.756    0.191    0.310   86.903  163.721
  459.600    5.750    0.161    0.316   87.831  162.247
  459.850    5.647    0.160    0.321   88.163  160.787
  460.100    5.642    0.176    0.325   88.799  160.317
  460.350    5.538    0.182    0.328   90.933  160.370
  460.600    5.434    0.171    0.330   93.969  160.423
  460.850    5.333    0.167    0.340  101.516  160.482
  461.100    5.133    0.185    0.364  116.876  160.541
  461.350    4.932    0.196    0.390  123.818  159.576
  461.600    4.830    0.205    0.379  131.966  158.102
  461.850    4.727    0.226    0.389  139.509  158.161
  462.100    4.625    0.217    0.437  167.493  158.201
  462.350    4.521    0.221    0.523  178.642  159.284
  462.600    4.515    0.214    0.546  185.592  160.354
  462.850    4.510    0.219    0.583  186.224  159.911
  463.100    4.600    0.220    0.553  183.848  159.435
  463.350    4.788    0.208    0.502  175.465  157.975
  463.600    4.975    0.187    0.467  135.828  157.016
  463.850    5.162    0.155    0.438  104.902  156.560
  464.100    5.350    0.137    0.373   75.786  156.090
  464.350    5.538    0.108    0.321   55.684  156.150
  464.600    5.629    0.088    0.382   62.923  156.202
  464.850    5.815    0.086    0.406   74.981  155.753
  465.100    5.907    0.094    0.372   68.698  154.781
  465.350    5.997    0.098    0.339   51.898  154.325
  465.600    5.992    0.103    0.318   45.623  153.875
  465.850    5.887    0.101    0.318   55.273  153.412
  466.100    5.688    0.080    0.330   63.418  152.963
  466.350    5.683    0.078    0.407   70.660  153.537
