~VERSION INFORMATION
 VERS.                 2.0:   CWLS LOG ASCII STANDARD -VERSION 2.0
 WRAP.                  NO:   ONE LINE PER DEPTH STEP
~WELL INFORMATION BLOCK
#MNEM.UNIT           DATA                    DESCRIPTION OF MNEMONIC
#---------    -------------------            -------------------------------
# Generated from Intellog Unique Number	CS_69_70/WELL/873
WELL.         ET AL HEART LAKE               : Well_name    - WELL
LOC .         00/10-29-069-10W4/0            : Location     - LOCATION
UWI .         00/10-29-069-10W4/0            : Uwi          - UNIQUE WELL ID
ENTR.         SP                             : Entered      - ENTERED BY
SRVC.         SCHLUMBERGER                   : Scn          - SERVICE COMPANY
STRT.M        250                            : top_depth    - START DEPTH
STOP.M        460                            : bot_depth    - STOP DEPTH
STEP.M        0.25                           : increment    - STEP LENGTH
 NULL. -999.2500:NULL Value
~CURVE INFORMATION BLOCK
#MNEM UNIT       ERCB CURVE CODE    CURVE DESCRIPTION
#-----------   ------------------   ----------------------------------
DEPT.M        00 001 00 00         : DEPTH        - DEPTH
ILD .OHMM     00 120 00 00         : RESD         - DEEP RESISTIVITY (DIL)
DPHI.V/V      00 890 00 00         : PHID         - DENSITY POROSITY (LIMESTONE)
NPHI.V/V      00 330 00 00         : PHIN         - NEUTRON POROSITY (LIMESTONE)
GR  .API      00 310 00 00         : GR           - GAMMA RAY
~PARAMETER INFORMATION
#MNEM.UNIT           DATA             DESCRIPTION OF MNEMONIC
#---------         -----------     ------------------------------
GL  .M        598                  : gl           - GROUND LEVEL ELEVATION
EREF.M        601.5                : kb           - ELEVATION OF DEPTH REFERENCE
DATM.M        598                  : datum        - DATUM ELEVATION
TDD .M        500                  : tdd          - TOTAL DEPTH DRILLER
RUN .         ONE                  : Run          - RUN NUMBER
ENG .         BILL                 : Engineer     - RECORDING ENGINEER
WIT .         JIM                  : Witness      - WITNESSED BY
MUD .         GEL                  : Mud_type     - MUD TYPE
MATR.         LIMESTONE            : Logunit      - NEUTRON MATRIX
TMAX.C        22                   : BHT          - MAXIMUM RECORDED TEMPERATURE
BHTD.M        500                  : BHTDEP       - MAXIMUM RECORDED TEMPERATURE
MATR.         1                    : LOGUNIT      - NEUTRON MATRIX
RMT .C        25                   : MDTP         - TEMPERATURE OF MUD
NEUT.         1                    : NEUTRON      - NEUTRON TYPE
RESI.         0                    : RESIST       - RESISTIVITY TYPE
RMC .OHMM     0.25                 : RMC          - RESISTIVITY OF MUD CAKE
RMF .OHMM     0.25                 : RMF          - RESISTIVITY OF MUD FILTRATE
SUFT.C        15                   : SUFT         - SURFACE TEMPERATURE
~A  DEPTH     RESD     PHID     PHIN       GR
  250.000    2.796    0.226    0.512  105.223
  250.250    2.704    0.228    0.532  107.757
  250.500    2.685    0.229    0.544  106.841
  250.750    2.681    0.226    0.551  105.986
  251.000    2.702    0.228    0.521  105.070
  251.250    2.724    0.224    0.497  105.184
  251.500    2.745    0.214    0.485  106.205
  251.750    2.731    0.223    0.513  104.443
  252.000    2.698    0.233    0.535  103.406
  252.250    2.693    0.236    0.544  103.459
  252.500    2.664    0.234    0.541  104.783
  252.750    2.645    0.240    0.538  106.833
  253.000    2.631    0.252    0.536  108.094
  253.250    2.623    0.264    0.535  108.572
  253.500    2.595    0.270    0.526  104.873
  253.750    2.571    0.274    0.520  101.597
  254.000    2.544    0.272    0.538  100.139
  254.250    2.512    0.269    0.536  100.010
  254.500    2.485    0.275    0.552   99.215
  254.750    2.458    0.274    0.576   97.935
  255.000    2.431    0.271    0.557   96.960
  255.250    2.428    0.268    0.549   95.985
  255.500    2.456    0.268    0.545   96.280
  255.750    2.485    0.272    0.529   98.088
  256.000    2.519    0.275    0.519  100.742
  256.250    2.553    0.278    0.524  101.159
  256.500    2.569    0.274    0.534   99.456
  256.750    2.570    0.262    0.555   99.207
  257.000    2.542    0.253    0.575   98.532
  257.250    2.505    0.260    0.552   96.407
  257.500    2.483    0.268    0.530   97.429
  257.750    2.452    0.274    0.514   99.539
  258.000    2.444    0.272    0.528  101.226
  258.250    2.435    0.261    0.549  103.638
  258.500    2.423    0.255    0.538  103.751
  258.750    2.415    0.258    0.527   98.054
  259.000    2.407    0.260    0.513   95.083
  259.250    2.399    0.261    0.490   92.957
  259.500    2.386    0.253    0.473   93.132
  259.750    2.401    0.238    0.496   95.060
  260.000    2.420    0.235    0.532   94.024
  260.250    2.434    0.233    0.534   92.321
  260.500    2.422    0.232    0.524   94.795
  260.750    2.405    0.240    0.530   99.931
  261.000    2.401    0.245    0.540  101.919
  261.250    2.389    0.230    0.545  103.666
  261.500    2.372    0.229    0.552  104.385
  261.750    2.377    0.237    0.542  105.527
  262.000    2.378    0.242    0.526  103.522
  262.250    2.406    0.244    0.533  101.517
  262.500    2.425    0.258    0.542   99.209
  262.750    2.482    0.249    0.534   98.719
  263.000    2.520    0.232    0.536  100.042
  263.250    2.578    0.235    0.534  101.486
  263.500    2.638    0.242    0.520  102.870
  263.750    2.725    0.222    0.511  103.348
  264.000    2.835    0.222    0.513  104.369
  264.250    2.922    0.230    0.520  100.972
  264.500    3.081    0.132    0.490   96.729
  264.750    3.212    0.145    0.443   93.212
  265.000    3.274    0.174    0.434   94.778
  265.250    3.275    0.194    0.490  100.639
  265.500    3.162    0.207    0.491  102.568
  265.750    3.019    0.213    0.491  102.560
  266.000    2.898    0.239    0.507  101.766
  266.250    2.803    0.252    0.518  100.911
  266.500    2.706    0.239    0.532  101.085
  266.750    2.652    0.240    0.548  102.408
  267.000    2.653    0.250    0.539  103.307
  267.250    2.710    0.251    0.530  100.577
  267.500    2.783    0.238    0.514  100.025
  267.750    2.863    0.233    0.502  104.797
  268.000    2.908    0.232    0.507  107.029
  268.250    2.947    0.213    0.519  105.508
  268.500    2.999    0.228    0.507   99.692
  268.750    3.040    0.238    0.492   97.083
  269.000    3.041    0.219    0.490  100.705
  269.250    3.037    0.208    0.491  101.000
  269.500    2.998    0.206    0.487   97.483
  269.750    2.949    0.203    0.481  104.857
  270.000    2.923    0.204    0.472  105.878
  270.250    2.930    0.211    0.463   98.852
  270.500    2.975    0.219    0.514   94.547
  270.750    3.073    0.227    0.535   94.298
  271.000    3.401    0.287    0.510   87.937
  271.250    3.974    0.352    0.373   57.252
  271.500    5.295    0.377    0.214   39.575
  271.750    7.338    0.388    0.140   31.642
  272.000   10.980    0.363    0.118   31.997
  272.250   22.045    0.352    0.154   33.017
  272.500   52.978    0.354    0.186   34.160
  272.750   70.059    0.361    0.202   38.267
  273.000   68.659    0.333    0.223   48.363
  273.250   51.190    0.310    0.248   59.731
  273.500   32.491    0.279    0.275   67.529
  273.750   21.169    0.251    0.309   76.658
  274.000   13.360    0.231    0.335   83.912
  274.250   10.093    0.227    0.354   91.407
  274.500    8.436    0.222    0.365   97.753
  274.750    7.486    0.219    0.368  102.646
  275.000    6.923    0.219    0.386  105.844
  275.250    6.609    0.224    0.408  106.503
  275.500    6.501    0.232    0.405  107.766
  275.750    6.443    0.233    0.393  108.302
  276.000    6.386    0.221    0.384  103.272
  276.250    6.341    0.213    0.407  100.058
  276.500    6.238    0.211    0.425  102.350
  276.750    6.090    0.218    0.437  107.485
  277.000    6.036    0.227    0.426  102.455
  277.250    6.164    0.229    0.408   96.760
  277.500    6.330    0.252    0.396   91.368
  277.750    6.404    0.271    0.377   81.073
  278.000    6.407    0.230    0.359   79.370
  278.250    6.303    0.203    0.358   87.350
  278.500    5.950    0.182    0.401   95.209
  278.750    5.627    0.174    0.433   94.233
  279.000    5.494    0.202    0.390   83.394
  279.250    5.814    0.223    0.365   75.762
  279.500    6.376    0.237    0.348   69.099
  279.750    6.659    0.200    0.360   83.372
  280.000    6.838    0.191    0.387   92.379
  280.250    6.504    0.202    0.393   96.910
  280.500    6.094    0.197    0.409   99.200
  280.750    5.593    0.192    0.435  102.944
  281.000    5.134    0.201    0.460  104.268
  281.250    4.765    0.203    0.443   99.057
  281.500    4.609    0.207    0.412   94.330
  281.750    4.787    0.227    0.401   89.300
  282.000    5.142    0.239    0.410   83.907
  282.250    5.442    0.214    0.407   82.931
  282.500    5.652    0.204    0.406   89.095
  282.750    5.881    0.212    0.441   90.418
  283.000    6.096    0.223    0.395   86.054
  283.250    6.273    0.227    0.373   83.020
  283.500    6.370    0.230    0.369   81.864
  283.750    6.505    0.226    0.373   82.340
  284.000    6.668    0.224    0.384   78.036
  284.250    6.939    0.248    0.394   70.647
  284.500    7.220    0.274    0.399   64.710
  284.750    7.657    0.288    0.388   59.378
  285.000    7.760    0.233    0.372   69.354
  285.250    7.835    0.215    0.361   75.335
  285.500    7.855    0.213    0.361   77.749
  285.750    7.827    0.217    0.365   73.687
  286.000    7.714    0.225    0.373   74.587
  286.250    7.574    0.238    0.386   74.942
  286.500    7.437    0.251    0.394   70.517
  286.750    7.412    0.255    0.399   68.876
  287.000    7.485    0.238    0.376   72.015
  287.250    7.629    0.260    0.387   58.272
  287.500    7.969    0.302    0.401   43.197
  287.750    8.245    0.333    0.375   38.651
  288.000    8.548    0.304    0.364   39.612
  288.250    8.745    0.275    0.357   41.782
  288.500    8.847    0.255    0.351   43.288
  288.750    8.198    0.259    0.346   54.534
  289.000    7.566    0.261    0.359   67.173
  289.250    6.893    0.238    0.370   76.786
  289.500    6.232    0.218    0.395   88.940
  289.750    5.479    0.207    0.422  100.187
  290.000    5.114    0.201    0.406  101.994
  290.250    4.938    0.191    0.388   98.962
  290.500    4.940    0.185    0.398   97.260
  290.750    5.054    0.206    0.412   94.590
  291.000    5.369    0.211    0.393   89.498
  291.250    5.513    0.218    0.380   85.800
  291.500    5.726    0.227    0.386   82.223
  291.750    5.793    0.233    0.380   81.852
  292.000    5.796    0.231    0.379   86.504
  292.250    5.734    0.233    0.395   79.235
  292.500    5.693    0.240    0.389   73.418
  292.750    5.825    0.247    0.371   72.503
  293.000    6.141    0.254    0.384   67.110
  293.250    6.499    0.267    0.395   60.507
