~VERSION INFORMATION
 VERS.                 2.0:   CWLS LOG ASCII STANDARD -VERSION 2.0
 WRAP.                  NO:   ONE LINE PER DEPTH STEP
~WELL INFORMATION BLOCK
#MNEM.UNIT           DATA                    DESCRIPTION OF MNEMONIC
#---------    -------------------            -------------------------------
# Generated from Intellog Unique Number	CC_80_83/WELL/2352
NULL.         -999.25                        : NULL_VALUE
WELL.         ARCO ET AL PONY                : Well_name    - WELL              
LOC .         10-14-080-08W4                 : Location     - LOCATION          
UWI .         00/10-14-080-08W400            : Uwi          - UNIQUE WELL ID    
ENTR.         DW                             : Entered      - ENTERED BY        
SRVC.         SCHLUMBERGER                   : Scn          - SERVICE COMPANY   
DATE.         17 feb 70                      : Date         - LOG DATE
STRT.M        198.12                         : top_depth    - START DEPTH       
STOP.M        420.933                        : bot_depth    - STOP DEPTH        
STEP.M        0.305                          : increment    - STEP LENGTH       
~CURVE INFORMATION BLOCK
#MNEM UNIT       ERCB CURVE CODE    CURVE DESCRIPTION
#-----------   ------------------   ----------------------------------
DEPT.M        00 001 00 00         : DEPTH        - DEPTH                       
DPHI.V/V      00 890 00 00         : PHID         - DENSITY POROSITY (LIMESTONE)
GR  .API      00 310 00 00         : GR           - GAMMA RAY                   
NPHI.V/V      00 330 00 00         : PHIN         - NEUTRON POROSITY (LIMESTONE)
ILD .OHMM     00 120 00 00         : RESD         - DEEP RESISTIVITY (DIL)      
~PARAMETER INFORMATION       
#MNEM.UNIT           DATA             DESCRIPTION OF MNEMONIC
#---------         -----------     ------------------------------
GL  .M        652.577              : gl           - GROUND LEVEL ELEVATION      
EREF.M        655.625              : kb           - ELEVATION OF DEPTH REFERENCE
DATM.M        655.625              : datum        - DATUM ELEVATION             
TDD .M        427.025              : tdd          - TOTAL DEPTH DRILLER         
RUN .         ONE                  : Run          - RUN NUMBER                  
ENG .         BILL                 : Engineer     - RECORDING ENGINEER          
WIT .         JIM                  : Witness      - WITNESSED BY                
MUD .         GEL                  : Mud_type     - MUD TYPE                    
MATR.         LIMESTONE            : Logunit      - NEUTRON MATRIX              
TMAX.C        20                   : BHT          - MAXIMUM RECORDED TEMPERATURE
BHTD.M        427.025              : BHTDEP       - MAXIMUM RECORDED TEMPERATURE
MATR.         1                    : LOGUNIT      - NEUTRON MATRIX              
RMT .C        25                   : MDTP         - TEMPERATURE OF MUD          
NEUT.         0                    : NEUTRON      - NEUTRON TYPE                
RESI.         0                    : RESIST       - RESISTIVITY TYPE            
RMC .OHMM     0.25                 : RMC          - RESISTIVITY OF MUD CAKE     
RMF .OHMM     0.25                 : RMF          - RESISTIVITY OF MUD FILTRATE 
SUFT.C        4                    : SUFT         - SURFACE TEMPERATURE         
~A  DEPTH     PHID       GR     PHIN     RESD
# ...
  251.154    0.200   99.437    0.319   14.908
  251.459    0.171   95.165    0.318   13.087
  251.764    0.163   95.810    0.316   13.864
  252.069    0.158   97.678    0.334   15.244
  252.373    0.156   95.249    0.331   16.759
  252.678    0.178   74.413    0.328   19.497
  252.983    0.165   67.694    0.319   23.121
  253.288    0.159   57.289    0.315   24.946
  253.593    0.168   42.592    0.313   27.430
  253.897    0.198   27.891    0.308   30.743
  254.202    0.225   25.466    0.314   32.562
  254.507    0.219   25.493    0.288   31.992
  254.812    0.206   21.841    0.287   31.424
  255.117    0.202   22.481    0.291   29.728
  255.421    0.221   28.648    0.317   28.672
  255.726    0.223   41.561    0.335   28.157
  256.031    0.198   47.113    0.345   26.646
  256.336    0.207   42.845    0.343   26.178
  256.641    0.222   53.306    0.313   25.236
  256.945    0.239   63.153    0.326   22.154
  257.250    0.242   67.475    0.358   19.810
  257.555    0.223   77.321    0.376   17.061
  257.860    0.238   81.647    0.372   13.892
  258.165    0.270   77.994    0.335   11.965
  258.469    0.262   93.974    0.336    9.741
  258.774    0.237  101.982    0.343    8.711
  259.079    0.215  100.787    0.333    8.399
  259.384    0.206   98.355    0.341    8.731
  259.689    0.197   93.478    0.332   10.350
  259.993    0.200   87.981    0.361   12.739
  260.298    0.245   76.966    0.363   18.225
  260.603    0.272   72.698    0.358   19.305
  260.908    0.269   69.046    0.365   18.964
  261.213    0.251   70.302    0.378   17.944
  261.517    0.230   74.009    0.424   16.048
  261.822    0.213   81.407    0.376   14.083
  262.127    0.183   84.499    0.373   11.466
  262.432    0.188   90.048    0.386   10.447
  262.737    0.178  102.348    0.402    9.701
  263.042    0.164  103.606    0.407    9.356
  263.346    0.157   98.111    0.408    9.189
  263.651    0.151  100.593    0.391    9.374
  263.956    0.163  101.850    0.372   10.118
  264.261    0.194   95.740    0.386   11.337
  264.566    0.205   89.635    0.379   12.704
  264.870    0.217   78.616    0.358   14.503
  265.175    0.239   80.485    0.353   16.254
  265.480    0.220   86.650    0.347   17.540
  265.785    0.199   81.769    0.328   17.562
  266.090    0.180   68.910    0.322   17.248
  266.394    0.139   67.100    0.341   16.320
  266.699    0.125   76.333    0.358   14.874
  267.004    0.120   89.859    0.380   13.555
  267.309    0.122   97.253    0.385   12.823
  267.614    0.147   92.991    0.404   11.685
  267.918    0.138   93.626    0.416   10.258
  268.223    0.133   95.497    0.369    9.176
  268.528    0.134   91.846    0.368    8.846
  268.833    0.129   90.032    0.358    8.691
  269.138    0.150   90.674    0.357    8.863
  269.443    0.187   89.476    0.372    8.873
  269.747    0.216   83.980    0.383    8.883
  270.052    0.235   76.642    0.373    9.407
  270.357    0.255   66.240    0.350   10.342
  270.662    0.277   52.768    0.342   13.218
  270.967    0.269   45.432    0.367   15.672
  271.271    0.267   43.007    0.399   17.562
  271.576    0.300   48.559    0.377   19.310
  271.881    0.302   56.562    0.339   20.451
  272.186    0.245   58.439    0.341   21.670
  272.491    0.267   57.234    0.380   22.094
  272.795    0.299   51.741    0.407   22.121
  273.100    0.317   51.154    0.415   22.143
  273.405    0.305   56.092    0.386   22.167
  273.710    0.274   48.144    0.365   22.187
  274.015    0.269   50.627    0.350   21.805
  274.319    0.271   54.951    0.351   21.022
  274.624    0.277   58.046    0.315   20.648
  274.929    0.307   57.465    0.317   19.908
  275.234    0.308   63.012    0.342   18.488
  275.539    0.292   65.493    0.362   17.490
  275.844    0.289   58.774    0.373   16.866
  276.148    0.301   60.644    0.380   15.957
  276.453    0.309   61.899    0.388   15.674
  276.758    0.310   57.017    0.386   15.112
  277.063    0.304   61.341    0.362   15.132
  277.368    0.294   60.141    0.363   15.150
  277.672    0.288   60.785    0.362   15.450
  277.977    0.293   64.493    0.357   15.178
  278.282    0.302   62.684    0.348   14.633
  278.587    0.327   61.483    0.341   14.108
  278.892    0.311   65.194    0.362   13.859
  279.196    0.300   67.068    0.366   14.139
  279.501    0.293   63.410    0.334   14.699
  279.806    0.287   59.755    0.334   15.273
  280.111    0.284   57.329    0.351   16.795
  280.416    0.285   62.880    0.368   17.136
  280.720    0.284   61.681    0.357   17.150
  281.025    0.286   58.642    0.346   16.233
  281.330    0.300   54.373    0.344   16.246
  281.635    0.303   48.266    0.383   15.958
  281.940    0.297   48.907    0.401   15.679
  282.245    0.291   55.688    0.382   15.405
  282.549    0.291   56.941    0.375   15.132
  282.854    0.290   53.289    0.379   15.148
  283.159    0.284   54.543    0.376   15.748
  283.464    0.280   53.962    0.375   16.366
  283.769    0.288   51.532    0.402   19.401
  284.073    0.303   49.723    0.387   21.337
  284.378    0.321   52.205    0.382   20.576
  284.683    0.310   53.459    0.343   19.464
  284.988    0.288   48.576    0.350   17.736
  285.293    0.291   53.518    0.367   15.864
  285.597    0.319   55.388    0.381   15.294
  285.902    0.316   54.188    0.367   14.203
  286.207    0.317   51.764    0.363   12.701
  286.512    0.307   50.559    0.383   12.715
  286.817    0.284   54.889    0.388   12.969
  287.121    0.283   56.143    0.373   13.739
  287.426    0.286   54.940    0.395   14.279
  287.731    0.311   46.991    0.366   15.124
  288.036    0.308   46.408    0.384   15.716
  288.341    0.312   50.732    0.398   16.030
  288.646    0.308   56.285    0.388   15.456
  288.950    0.308   56.924    0.382   15.767
  289.255    0.314   49.587    0.389   16.087
  289.560    0.339   49.005    0.404   16.100
  289.865    0.331   50.259    0.393   15.232
  290.170    0.324   50.904    0.398   13.370
  290.474    0.312   52.156    0.405   12.183
  290.779    0.287   55.865    0.382   11.529
  291.084    0.291   50.984    0.375   10.706
  291.389    0.309   55.922    0.366    9.941
  291.694    0.284   60.861    0.350    9.584
  291.998    0.267   54.753    0.361    9.240
  292.303    0.286   59.075    0.359    8.264
  292.608    0.274   71.378    0.375    7.532
  292.913    0.222   81.836    0.396    7.400
  293.218    0.220   80.023    0.365    7.547
  293.522    0.235   82.506    0.389    7.992
  293.827    0.238   81.926    0.375    8.789
  294.132    0.236   68.452    0.354    9.308
  294.437    0.241   71.548    0.352    9.319
  294.742    0.218   77.715    0.348    8.654
  295.047    0.218   78.356    0.367    7.885
  295.351    0.220   82.064    0.383    6.920
  295.656    0.210   88.227    0.423    6.672
  295.961    0.210   80.895    0.420    7.067
  296.266    0.228   81.538    0.385    7.344
  296.571    0.237   80.338    0.387    7.353
  296.875    0.232   76.681    0.383    6.958
  297.180    0.232   76.102    0.408    6.341
  297.485    0.239   77.969    0.461    5.565
  297.790    0.247   82.292    0.469    5.168
  298.095    0.238   92.136    0.409    4.982
  298.399    0.190  104.440    0.430    4.986
  298.704    0.212   98.329    0.436    5.184
  299.009    0.191   89.155    0.462    5.288
  299.314    0.192   89.181    0.437    5.293
  299.619    0.206   84.915    0.407    5.103
  299.923    0.209   78.195    0.409    5.108
  300.228    0.204   78.841    0.423    5.309
  300.533    0.211   84.387    0.415    5.838
  300.838    0.201   86.871    0.309    7.187
  301.143    0.232   74.010    0.309    7.194
  301.448    0.250   70.358    0.346    6.682
  301.752    0.257   80.819    0.407    5.648
  302.057    0.220   96.803    0.443    4.513
  302.362    0.180   96.832    0.439    3.960
  302.667    0.162   88.883    0.456    3.609
  302.972    0.175   87.681    0.486    3.415
  303.276    0.190   92.004    0.511    3.232
  303.581    0.195   92.036    0.542    3.235
  303.886    0.210   87.769    0.552    3.363
