~VERSION INFORMATION
 VERS.                 2.0:   CWLS LOG ASCII STANDARD -VERSION 2.0
 WRAP.                  NO:   ONE LINE PER DEPTH STEP
~WELL INFORMATION BLOCK
#MNEM.UNIT           DATA                    DESCRIPTION OF MNEMONIC
#---------    -------------------            -------------------------------
# Generated from Intellog Unique Number	CS_77_79/WELL/998
WELL.         MESA HB THORNBURY              : Well_name    - WELL
LOC .         00/11-25-078-13W4/0            : Location     - LOCATION
UWI .         00/11-25-078-13W4/0            : Uwi          - UNIQUE WELL ID
ENTR.         JHS                            : Entered      - ENTERED BY
SRVC.         SCHLUMBERGER                   : Scn          - SERVICE COMPANY
STRT.M        253.234                        : top_depth    - START DEPTH
STOP.M        475.234                        : bot_depth    - STOP DEPTH
STEP.M        0.25                           : increment    - STEP LENGTH
 NULL. -999.2500:NULL Value
~CURVE INFORMATION BLOCK
#MNEM UNIT       ERCB CURVE CODE    CURVE DESCRIPTION
#-----------   ------------------   ----------------------------------
DEPT.M        00 001 00 00         : DEPTH        - DEPTH
RHOB.KG/M3    00 350 00 00         : DENS         - BULK DENSITY
GR  .API      00 310 00 00         : GR           - GAMMA RAY
DPHI.V/V      00 890 00 00         : PHID         - DENSITY POROSITY (SANDSTONE)
NPHI.V/V      00 330 00 00         : PHIN         - NEUTRON POROSITY (SANDSTONE)
ILD .OHMM     00 120 00 00         : RESD         - DEEP RESISTIVITY (DIL)
~PARAMETER INFORMATION
#MNEM.UNIT           DATA             DESCRIPTION OF MNEMONIC
#---------         -----------     ------------------------------
GL  .M        669.127              : gl           - GROUND LEVEL ELEVATION
EREF.M        673.349              : kb           - ELEVATION OF DEPTH REFERENCE
DATM.M        673.349              : datum        - DATUM ELEVATION
TDD .M        486.156              : tdd          - TOTAL DEPTH DRILLER
RUN .         ONE                  : Run          - RUN NUMBER
ENG .         BILL                 : Engineer     - RECORDING ENGINEER
WIT .         JIM                  : Witness      - WITNESSED BY
MUD .         GEL                  : Mud_type     - MUD TYPE
MATR.         SANDSTONE            : Logunit      - NEUTRON MATRIX
TMAX.C        60                   : BHT          - MAXIMUM RECORDED TEMPERATURE
BHTD.M        486.156              : BHTDEP       - MAXIMUM RECORDED TEMPERATURE
MATR.         1                    : LOGUNIT      - NEUTRON MATRIX
RMT .C        25                   : MDTP         - TEMPERATURE OF MUD
NEUT.         1                    : NEUTRON      - NEUTRON TYPE
RESI.         0                    : RESIST       - RESISTIVITY TYPE
RMC .OHMM     0.25                 : RMC          - RESISTIVITY OF MUD CAKE
RMF .OHMM     0.25                 : RMF          - RESISTIVITY OF MUD FILTRATE
SUFT.C        15                   : SUFT         - SURFACE TEMPERATURE
~A  DEPTH     DENS       GR     PHID     PHIN     RESD
# ...
  435.734 2399.680  107.426    0.180    0.408    8.137
  435.984 2436.630  110.736    0.160    0.429    7.347
  436.234 2435.310  109.715    0.161    0.465    7.793
  436.484 2405.820  110.747    0.178    0.469    8.376
  436.734 2402.000  109.144    0.180    0.455    9.488
  436.984 2391.650  104.749    0.186    0.437   10.726
  437.234 2368.440   98.695    0.200    0.431   12.144
  437.484 2397.160   91.797    0.183    0.419   13.066
  437.734 2422.810   85.847    0.168    0.407   13.460
  437.984 2400.650   83.754    0.181    0.395   13.633
  438.234 2390.750   82.875    0.187    0.385   14.022
  438.484 2383.010   85.935    0.191    0.384   14.801
  438.734 2412.060   86.498    0.174    0.384   16.836
  438.984 2382.520   82.199    0.192    0.382   18.196
  439.234 2362.560   72.232    0.203    0.376   19.161
  439.484 2321.900   67.774    0.227    0.361   19.847
  439.734 2371.140   73.796    0.198    0.352   19.490
  439.984 2418.720   81.924    0.170    0.355   19.147
  440.234 2441.930   86.662    0.157    0.367   19.088
  440.484 2432.790   88.499    0.162    0.361   20.056
  440.734 2387.440   83.431    0.189    0.366   20.237
  440.984 2374.180   82.547    0.196    0.384   20.321
  441.234 2352.450   84.870    0.209    0.408   19.088
  441.484 2334.850   89.653    0.219    0.407   17.894
  441.734 2361.390   90.886    0.204    0.395   17.017
  441.984 2392.070   90.473    0.186    0.391   15.803
  442.234 2390.800   90.809    0.187    0.391   14.804
  442.484 2410.800   94.265    0.175    0.395   15.455
  442.734 2453.530   94.077    0.150    0.395   18.508
  442.984 2489.540   85.344    0.129    0.378   22.533
  443.234 2516.680   74.423    0.113    0.344   26.984
  443.484 2529.570   67.414    0.106    0.308   34.807
  443.734 2209.200   65.017    0.293    0.289   40.004
  443.984 2192.300   63.906    0.303    0.283   40.517
  444.234 2207.840   65.760    0.294    0.290   38.656
  444.484 2276.020   66.337    0.254    0.389   35.410
  444.734 2305.790   67.099    0.236    0.395   31.008
  444.984 2331.630   72.861    0.221    0.386   33.166
  445.234 2341.230   71.744    0.216    0.405   59.272
  445.484 2270.560   64.983    0.257    0.431   87.271
  445.734 2228.570   56.180    0.282    0.418  100.139
  445.984 2227.310   53.561    0.282    0.400   98.079
  446.234 2247.660   58.722    0.270    0.391   89.611
  446.484 2251.330   63.096    0.268    0.404   73.173
  446.734 2224.580   64.475    0.284    0.423   61.344
  446.984 2247.950   67.084    0.270    0.436   56.068
  447.234 2264.110   71.534    0.261    0.443   55.934
  447.484 2282.600   72.611    0.250    0.449   57.214
  447.734 2308.220   71.038    0.235    0.453   56.182
  447.984 2282.330   68.977    0.250    0.432   54.203
  448.234 2321.710   69.261    0.227    0.423   48.598
  448.484 2307.420   71.184    0.235    0.423   43.280
  448.734 2267.520   74.970    0.259    0.427   33.662
  448.984 2273.670   79.632    0.255    0.424   26.190
  449.234 2295.340   85.000    0.242    0.403   23.004
  449.484 2314.530   89.727    0.231    0.399   20.075
  449.734 2306.120   92.940    0.236    0.405   16.232
  449.984 2338.350   96.796    0.217    0.410   13.992
  450.234 2357.570   98.450    0.206    0.411   11.966
  450.484 2355.280  103.682    0.207    0.397   10.204
  450.734 2392.630  110.498    0.186    0.387    9.171
  450.984 2435.110  113.832    0.161    0.389    8.684
  451.234 2462.260  110.679    0.145    0.406    9.223
  451.484 2474.250  106.967    0.138    0.411   10.947
  451.734 2426.760  102.473    0.166    0.420   14.683
  451.984 2392.070   92.995    0.186    0.430   17.707
  452.234 2343.520   80.154    0.214    0.422   20.151
  452.484 2287.670   69.116    0.247    0.399   21.456
  452.734 2307.080   81.763    0.236    0.388   20.345
  452.984 2340.530   87.137    0.216    0.382   17.862
  453.234 2378.810   91.073    0.194    0.377   15.628
  453.484 2348.600   93.180    0.211    0.375   14.155
  453.734 2390.610  101.950    0.187    0.378   12.284
  453.984 2401.810  108.297    0.180    0.376   11.413
  454.234 2416.990  109.300    0.171    0.379   10.873
  454.484 2445.580  114.343    0.155    0.388   10.899
  454.734 2430.720  118.226    0.163    0.403   10.884
  454.984 2428.250  122.637    0.165    0.398   11.193
  455.234 2416.670  120.937    0.172    0.386   11.536
  455.484 2447.090  111.102    0.154    0.379   11.684
  455.734 2532.620  102.421    0.104    0.374   11.688
  455.984 2554.410   96.698    0.091    0.366   11.323
  456.234 2527.490   95.353    0.107    0.357   11.117
  456.484 2430.800  103.122    0.163    0.420   10.887
  456.734 2402.550   98.781    0.180    0.412   10.723
  456.984 2372.340   96.327    0.197    0.404   10.479
  457.234 2395.480  100.395    0.184    0.412   10.468
  457.484 2423.250  104.310    0.168    0.423   10.300
  457.734 2424.940  106.466    0.167    0.425   10.386
  457.984 2402.660  103.738    0.180    0.410   10.482
  458.234 2409.780   99.558    0.176    0.405   10.275
  458.484 2395.530   98.398    0.184    0.412   10.524
  458.734 2415.840  104.082    0.172    0.422   10.504
  458.984 2430.170  101.709    0.164    0.432   10.692
  459.234 2431.270  100.501    0.163    0.423   10.926
  459.484 2392.480  101.543    0.186    0.418   10.901
  459.734 2368.380  103.546    0.200    0.419   10.774
  459.984 2402.390  105.556    0.180    0.413   10.663
  460.234 2429.650  107.056    0.164    0.417   10.518
  460.484 2423.420  106.821    0.168    0.426    9.998
  460.734 2397.440  105.757    0.183    0.417    9.734
  460.984 2430.330  105.768    0.164    0.414    9.589
  461.234 2461.110  104.580    0.146    0.428    9.489
  461.484 2463.160  101.538    0.144    0.439    9.381
  461.734 2390.950  104.380    0.187    0.431    9.434
  461.984 2419.310  106.324    0.170    0.427    8.811
  462.234 2433.770  106.478    0.162    0.423    8.866
  462.484 2431.350  108.060    0.163    0.412    8.862
  462.734 2441.970  110.850    0.157    0.405    8.828
  462.984 2446.620  113.803    0.154    0.428    8.698
  463.234 2445.000  114.100    0.155    0.424    8.701
  463.484 2436.250  115.094    0.160    0.418    8.703
  463.734 2455.490  115.153    0.149    0.413    8.694
  463.984 2462.550  113.435    0.145    0.422    9.004
  464.234 2439.400  109.361    0.158    0.424    9.810
  464.484 2437.280  105.643    0.159    0.419   10.685
  464.734 2414.600  100.199    0.173    0.424   13.088
  464.984 2357.480   94.765    0.206    0.443   17.630
  465.234 2311.910   85.724    0.233    0.443   27.167
  465.484 2295.270   72.974    0.243    0.423   32.095
  465.734 2300.750   65.489    0.239    0.412   35.036
  465.984 2272.810   66.137    0.256    0.401   32.181
  466.234 2265.230   67.151    0.260    0.393   28.591
  466.484 2284.440   64.609    0.249    0.399   22.599
  466.734 2312.140   59.446    0.233    0.407   12.279
  466.984 2280.710   57.507    0.251    0.414   12.075
  467.234 2281.830   58.713    0.250    0.386   10.254
  467.484 2308.650   57.539    0.235    0.376    7.893
  467.734 2291.600   53.061    0.245    0.376    6.393
  467.984 2214.750   49.532    0.290    0.390    5.492
  468.234 2222.930   49.367    0.285    0.384    5.044
  468.484 2258.510   50.184    0.264    0.383    4.767
  468.734 2270.920   42.127    0.257    0.396    4.594
  468.984 2239.080   37.282    0.275    0.413    4.386
  469.234 2251.860   33.845    0.268    0.402    4.266
  469.484 2213.310   31.654    0.290    0.390    4.189
  469.734 2204.490   34.120    0.296    0.385    4.010
  469.984 2196.900   36.162    0.301    0.391    4.029
  470.234 2201.940   35.875    0.307    0.377    4.093
  470.484 2315.120   44.240    0.263    0.361    4.381
  470.734  467.744   50.579    0.215    0.346    5.310
  470.984   66.747   59.626    0.157    0.335    6.543
  471.234    1.041   63.502    0.080    0.320    8.404
  471.484   -0.817   54.605    0.017    0.303   16.454
  471.734   -0.091   50.816    0.002    0.233   23.705
  471.984    0.002   60.418   -0.000    0.214   25.422
