~VERSION INFORMATION
 VERS.                 2.0:   CWLS LOG ASCII STANDARD -VERSION 2.0
 WRAP.                  NO:   ONE LINE PER DEPTH STEP
~WELL INFORMATION BLOCK
#MNEM.UNIT           DATA                    DESCRIPTION OF MNEMONIC
#---------    -------------------            -------------------------------
# Generated from Intellog Unique Number	CS_73_76/WELL/2200
WELL.         PEX KIRBY                      : Well_name    - WELL
LOC .         AA/11-10-074-08W4/0            : Location     - LOCATION
UWI .         AA/11-10-074-08W4/0            : Uwi          - UNIQUE WELL ID
ENTR.         SP                             : Entered      - ENTERED BY
SRVC.         SCHLUMBERGER                   : Scn          - SERVICE COMPANY
STRT.M        310                            : top_depth    - START DEPTH
STOP.M        533                            : bot_depth    - STOP DEPTH
STEP.M        0.25                           : increment    - STEP LENGTH
 NULL. -999.2500:NULL Value
~CURVE INFORMATION BLOCK
#MNEM UNIT       ERCB CURVE CODE    CURVE DESCRIPTION
#-----------   ------------------   ----------------------------------
DEPT.M        00 001 00 00         : DEPTH        - DEPTH
ILD .OHMM     00 120 00 00         : RESD         - DEEP RESISTIVITY (DIL)
DPHI.V/V      00 890 00 00         : PHID         - DENSITY POROSITY (LIMESTONE)
NPHI.V/V      00 330 00 00         : PHIN         - NEUTRON POROSITY (LIMESTONE)
GR  .API      00 310 00 00         : GR           - GAMMA RAY
~PARAMETER INFORMATION
#MNEM.UNIT           DATA             DESCRIPTION OF MNEMONIC
#---------         -----------     ------------------------------
GL  .M        692.3                : gl           - GROUND LEVEL ELEVATION
EREF.M        695.8                : kb           - ELEVATION OF DEPTH REFERENCE
DATM.M        692.3                : datum        - DATUM ELEVATION
TDD .M        538                  : tdd          - TOTAL DEPTH DRILLER
RUN .         ONE                  : Run          - RUN NUMBER
ENG .         BILL                 : Engineer     - RECORDING ENGINEER
WIT .         JIM                  : Witness      - WITNESSED BY
MUD .         GEL                  : Mud_type     - MUD TYPE
MATR.         LIMESTONE            : Logunit      - NEUTRON MATRIX
TMAX.C        23                   : BHT          - MAXIMUM RECORDED TEMPERATURE
BHTD.M        538                  : BHTDEP       - MAXIMUM RECORDED TEMPERATURE
MATR.         1                    : LOGUNIT      - NEUTRON MATRIX
RMT .C        25                   : MDTP         - TEMPERATURE OF MUD
NEUT.         1                    : NEUTRON      - NEUTRON TYPE
RESI.         0                    : RESIST       - RESISTIVITY TYPE
RMC .OHMM     0.25                 : RMC          - RESISTIVITY OF MUD CAKE
RMF .OHMM     0.25                 : RMF          - RESISTIVITY OF MUD FILTRATE
SUFT.C        15                   : SUFT         - SURFACE TEMPERATURE
~A  DEPTH     RESD     PHID     PHIN       GR
# ...
  397.000    8.827    0.332    0.469   66.453
  397.250    9.168    0.320    0.472   68.879
  397.500    9.171    0.317    0.474   67.038
  397.750    8.672    0.320    0.482   67.636
  398.000    6.188    0.326    0.493   77.378
  398.250    4.253    0.318    0.507   84.074
  398.500    3.661    0.304    0.520   88.936
  398.750    3.397    0.289    0.538   90.144
  399.000    3.529    0.276    0.549   90.131
  399.250    4.026    0.263    0.540   88.293
  399.500    4.681    0.280    0.451   81.572
  399.750    5.649    0.291    0.441   76.073
  400.000    6.445    0.302    0.445   76.061
  400.250    6.950    0.297    0.451   80.318
  400.500    7.495    0.284    0.438   80.303
  400.750    7.639    0.274    0.434   80.293
  401.000    7.787    0.270    0.437   80.885
  401.250    7.790    0.266    0.409   81.487
  401.500    7.367    0.256    0.411   82.085
  401.750    6.836    0.257    0.411   82.682
  402.000    6.711    0.266    0.416   80.841
  402.250    7.103    0.275    0.440   78.998
  402.500    7.377    0.277    0.450   75.934
  402.750    7.955    0.277    0.444   77.145
  403.000    8.741    0.268    0.445   83.230
  403.250    9.605    0.254    0.467   85.657
  403.500    9.977    0.252    0.489   78.936
  403.750    9.612    0.274    0.478   69.779
  404.000    6.732    0.287    0.425   69.156
  404.250    5.905    0.289    0.424   76.460
  404.500    5.278    0.273    0.437   81.935
  404.750    4.544    0.256    0.452   89.240
  405.000    4.139    0.242    0.493   96.544
  405.250    3.988    0.255    0.518  100.191
  405.500    3.842    0.256    0.542   99.569
  405.750    3.633    0.256    0.541   94.679
  406.000    3.501    0.262    0.532   94.666
  406.250    3.437    0.270    0.550   94.652
  406.500    3.311    0.280    0.556   93.421
  406.750    3.251    0.283    0.526   92.193
  407.000    3.572    0.283    0.529   90.961
  407.250    4.311    0.271    0.550   92.777
  407.500    5.716    0.266    0.566   94.594
  407.750    6.399    0.245    0.563   89.095
  408.000    7.031    0.238    0.501   84.814
  408.250    7.873    0.250    0.445   82.970
  408.500    8.333    0.249    0.457   82.961
  408.750    8.655    0.244    0.463   83.558
  409.000    8.822    0.242    0.453   83.545
  409.250    8.991    0.251    0.439   82.922
  409.500    9.168    0.262    0.435   79.252
  409.750    9.345    0.266    0.457   77.409
  410.000    9.348    0.271    0.482   78.619
  410.250    9.351    0.259    0.485   81.652
  410.500    9.181    0.257    0.452   81.642
  410.750    9.183    0.256    0.434   79.192
  411.000    9.016    0.247    0.433   78.568
  411.250    9.019    0.245    0.435   80.995
  411.500    8.691    0.241    0.425   81.591
  411.750    8.531    0.252    0.429   81.582
  412.000    9.376    0.265    0.451   76.689
  412.250    9.556    0.261    0.456   71.191
  412.500    9.926    0.239    0.462   65.690
  412.750   10.117    0.213    0.459   62.632
  413.000    9.935    0.184    0.373   60.179
  413.250    9.939    0.159    0.299   69.310
  413.500    9.756    0.200    0.343   76.005
  413.750    8.719    0.219    0.423   80.871
  414.000    7.649    0.230    0.477   83.300
  414.250    6.838    0.230    0.488   84.502
  414.500    6.465    0.227    0.497   85.103
  414.750    5.999    0.244    0.503   85.700
  415.000    5.674    0.247    0.514   86.905
  415.250    5.570    0.228    0.510   87.507
  415.500    5.572    0.217    0.492   90.539
  415.750    5.787    0.228    0.485   90.531
  416.000    6.011    0.246    0.486   87.468
  416.250    6.013    0.233    0.485   85.018
  416.500    5.686    0.233    0.492   86.224
  416.750    4.627    0.234    0.481   90.479
  417.000    3.559    0.244    0.455   93.518
  417.250    3.007    0.261    0.463   94.112
  417.500    2.589    0.266    0.507   95.323
  417.750    2.590    0.268    0.518   94.092
  418.000    2.690    0.260    0.504   87.368
  418.250    2.794    0.251    0.496   88.578
  418.500    3.013    0.248    0.548   92.220
  418.750    3.374    0.240    0.579   92.211
  419.000    3.638    0.245    0.579   93.420
  419.250    3.923    0.250    0.542   93.408
  419.500    4.311    0.252    0.506   89.124
  419.750    4.736    0.245    0.491   85.453
  420.000    5.204    0.242    0.484   82.395
  420.250    5.507    0.243    0.465   85.430
  420.500    5.829    0.242    0.441   88.468
  420.750    6.054    0.241    0.445   89.674
  421.000    6.171    0.258    0.457   86.614
  421.250    6.410    0.280    0.469   82.332
  421.500    6.535    0.276    0.464   78.663
  421.750    6.660    0.266    0.461   80.476
  422.000    6.789    0.260    0.462   79.858
  422.250    6.791    0.265    0.473   75.578
  422.500    6.923    0.279    0.482   79.219
  422.750    7.057    0.290    0.461   79.819
  423.000    7.059    0.292    0.463   77.978
  423.250    7.196    0.292    0.483   76.138
  423.500    7.336    0.279    0.488   73.077
  423.750    7.476    0.268    0.462   69.404
  424.000    7.621    0.281    0.412   69.392
  424.250    7.769    0.290    0.438   71.210
  424.500    7.772    0.279    0.445   73.029
  424.750    7.775    0.281    0.421   70.573
  425.000    7.925    0.297    0.426   68.731
  425.250    7.928    0.308    0.421   69.943
  425.500    7.783    0.302    0.431   74.809
  425.750    7.500    0.286    0.457   77.234
  426.000    7.226    0.270    0.475   79.049
  426.250    7.094    0.252    0.479   78.429
  426.500    7.097    0.242    0.467   78.417
  426.750    7.101    0.251    0.450   79.013
  427.000    7.238    0.262    0.456   76.564
  427.250    7.379    0.265    0.466   80.210
  427.500    7.381    0.257    0.459   83.247
  427.750    7.523    0.267    0.438   81.406
  428.000    7.668    0.271    0.433   75.906
  428.250    7.816    0.262    0.427   73.454
  428.500    7.968    0.255    0.420   74.052
  428.750    7.970    0.261    0.410   75.868
  429.000    7.974    0.262    0.392   78.904
  429.250    7.828    0.255    0.393   79.501
  429.500    7.686    0.253    0.413   78.271
  429.750    7.405    0.261    0.408   77.038
  430.000    7.001    0.270    0.405   76.415
  430.250    6.259    0.259    0.413   77.625
  430.500    6.030    0.242    0.435   79.441
  430.750    5.493    0.240    0.457   82.475
  431.000    5.393    0.244    0.466   82.465
  431.250    5.394    0.239    0.480   80.010
  431.500    5.396    0.247    0.492   80.611
  431.750    5.502    0.241    0.493   83.645
  432.000    5.607    0.227    0.486   84.854
  432.250    5.609    0.245    0.485   80.572
  432.500    5.611    0.263    0.490   77.514
  432.750    5.719    0.272    0.491   76.891
  433.000    5.830    0.269    0.498   79.925
  433.250    5.943    0.270    0.513   78.087
  433.500    6.172    0.325    0.514   72.587
  433.750    6.291    0.342    0.485   67.696
  434.000    6.535    0.319    0.467   66.465
  434.250    6.917    0.309    0.436   67.063
  434.500    7.184    0.309    0.425   68.876
  434.750    7.323    0.301    0.413   71.305
  435.000    7.464    0.288    0.414   76.167
  435.250    7.466    0.284    0.438   76.769
  435.500    7.612    0.284    0.462   74.926
  435.750    7.615    0.284    0.478   73.695
  436.000    7.617    0.280    0.460   73.073
  436.250    7.338    0.273    0.449   73.668
  436.500    5.971    0.268    0.430   74.265
  436.750    4.860    0.269    0.416   76.085
  437.000    4.029    0.269    0.433   80.339
  437.250    3.810    0.261    0.456   83.986
  437.500    3.884    0.270    0.482   85.802
  437.750    4.035    0.284    0.504   82.740
  438.000    4.190    0.280    0.544   79.071
  438.250    4.435    0.257    0.489   76.621
  438.500    4.965    0.260    0.488   77.826
  438.750    5.354    0.306    0.512   78.426
  439.000    6.709    0.340    0.538   75.363
  439.250    8.894    0.365    0.553   70.474
  439.500   12.014    0.322    0.531   59.487
  439.750   13.452    0.159    0.180   51.549
  440.000   13.972    0.018    0.167   46.660
  440.250   13.717    0.095    0.208   53.964
