~VERSION INFORMATION
 VERS.                 2.0:   CWLS LOG ASCII STANDARD -VERSION 2.0
 WRAP.                  NO:   ONE LINE PER DEPTH STEP
~WELL INFORMATION BLOCK
#MNEM.UNIT           DATA                    DESCRIPTION OF MNEMONIC
#---------    -------------------            -------------------------------
# Generated from Intellog Unique Number	CN_91_93/WELL/3069
WELL.         CANADIAN SUPERIOR OIL LTD.     : Well_name    - WELL
LOC .         00/12-23-092-21W4/0            : Location     - LOCATION
UWI .         00/12-23-092-21W4/0            : Uwi          - UNIQUE WELL ID
ENTR.         JOETTE                         : Entered      - ENTERED BY
SRVC.         SCHLUMBERGER                   : Scn          - SERVICE COMPANY
DATE.         04/10/92                       : Date         - LOG DATE
STRT.M        50                             : top_depth    - START DEPTH
STOP.M        252                            : bot_depth    - STOP DEPTH
STEP.M        0.25                           : increment    - STEP LENGTH
 NULL. -999.2500:NULL Value
~CURVE INFORMATION BLOCK
#MNEM UNIT       ERCB CURVE CODE    CURVE DESCRIPTION
#-----------   ------------------   ----------------------------------
DEPT.M        00 001 00 00         : DEPTH        - DEPTH
CALI.MM       00 280 01 00         : CAL          - CALIPER
GR  .API      00 310 00 00         : GR           - GAMMA RAY
NPHI.V/V      00 330 00 00         : PHIN         - NEUTRON POROSITY (SANDSTONE)
DPHI.V/V      00 890 00 00         : PHID         - DENSITY POROSITY (SANDSTONE)
ILD .OHMM     00 120 00 00         : RESD         - DEEP RESISTIVITY (DIL)
~PARAMETER INFORMATION
#MNEM.UNIT           DATA             DESCRIPTION OF MNEMONIC
#---------         -----------     ------------------------------
GL  .M        534.92               : gl           - GROUND LEVEL ELEVATION
EREF.M        538.77               : kb           - ELEVATION OF DEPTH REFERENCE
DATM.M        538.77               : datum        - DATUM ELEVATION
TDD .M        253.1                : tdd          - TOTAL DEPTH DRILLER
RUN .         ONE                  : Run          - RUN NUMBER
ENG .         BILL                 : Engineer     - RECORDING ENGINEER
WIT .         JIM                  : Witness      - WITNESSED BY
MUD .         GEL                  : Mud_type     - MUD TYPE
MATR.         SANDSTONE            : Logunit      - NEUTRON MATRIX
TMAX.C        20                   : BHT          - MAXIMUM RECORDED TEMPERATURE
BHTD.M        253.1                : BHTDEP       - MAXIMUM RECORDED TEMPERATURE
RMT .C        14                   : MDTP         - TEMPERATURE OF MUD
MUDD.KG/M     1120                 : MWT          - MUD DENSITY
NEUT.         1                    : NEUTRON      - NEUTRON TYPE
RESI.         0                    : RESIST       - RESISTIVITY TYPE
RM  .OHMM     5.11                 : RM           - RESISTIVITY OF MUD
RMC .OHMM     3.3                  : RMC          - RESISTIVITY OF MUD CAKE
RMF .OHMM     3.3                  : RMF          - RESISTIVITY OF MUD FILTRATE
SUFT.C        4                    : SUFT         - SURFACE TEMPERATURE
~A  DEPTH      CAL       GR     PHIN     PHID     RESD
# ...
  196.000  255.930   73.548    0.369    0.166   20.270
  196.250  255.899   77.285    0.399    0.228   18.058
  196.500  256.902   80.389    0.382    0.195   16.717
  196.750  257.896   81.625    0.386    0.165   15.772
  197.000  257.864   83.481    0.411    0.177   14.877
  197.250  257.823   88.473    0.430    0.225   14.302
  197.500  256.726   91.577    0.426    0.212   13.761
  197.750  256.684   89.044    0.431    0.214   13.229
  198.000  257.667   87.138    0.439    0.227   13.218
  198.250  257.646   88.367    0.424    0.232   12.952
  198.500  259.695   90.217    0.415    0.231   12.451
  198.750  260.698   82.673    0.426    0.206   12.207
  199.000  263.792   72.615    0.448    0.186   11.300
  199.250  264.796   60.675    0.420    0.149   10.460
  199.500  264.733   58.769    0.353    0.092   10.446
  199.750  263.667   61.880    0.307    0.050   12.869
  200.000  261.535   71.261    0.307    0.178   18.108
  200.250  261.483   82.523    0.332    0.228   19.520
  200.500  261.452   86.888    0.368    0.224   16.429
  200.750  261.390   90.626    0.411    0.214   14.364
  201.000  261.359   90.601    0.434    0.205   13.046
  201.250  262.362   90.563    0.450    0.193   12.306
  201.500  263.345   91.171    0.430    0.181   12.296
  201.750  263.314   93.028    0.414    0.187   12.756
  202.000  263.283   95.511    0.403    0.198   13.237
  202.250  262.196   96.113    0.416    0.213   13.732
  202.500  262.134   94.207    0.383    0.228   13.988
  202.750  262.102   89.165    0.386    0.227   14.787
  203.000  262.071   88.507    0.403    0.217   14.771
  203.250  261.998   88.489    0.419    0.208   14.759
  203.500  261.978   87.830    0.430    0.218   14.739
  203.750  261.946   87.184    0.437    0.237   14.724
  204.000  261.884   78.374    0.404    0.226   15.572
  204.250  262.877   76.468    0.329    0.155   16.791
  204.500  262.856   83.341    0.321    0.087   16.773
  204.750  262.804   91.462    0.370    0.121   16.129
  205.000  262.773   90.189    0.450    0.168   14.649
  205.250  263.766   85.774    0.443    0.166   13.557
  205.500  264.780   83.241    0.418    0.108   12.788
  205.750  265.784   83.843    0.359    0.143   12.533
  206.000  264.697   91.337    0.385    0.183   11.825
  206.250  264.635   92.572    0.421    0.200   11.593
  206.500  264.604   93.175    0.421    0.205   10.935
  206.750  264.562   95.031    0.422    0.197   10.317
  207.000  264.510   96.887    0.433    0.202    9.734
  207.250  265.503   96.856    0.450    0.216    9.542
  207.500  265.472   96.198    0.457    0.229    9.353
  207.750  265.420   97.433    0.468    0.198    9.705
  208.000  265.389   88.629    0.447    0.168   10.663
  208.250  263.247   81.706    0.401    0.107   12.884
  208.500  261.136   79.167    0.306    0.075   16.480
  208.750  260.049   81.656    0.269    0.149   18.459
  209.000  259.997   84.133    0.297    0.243   20.669
  209.250  259.966   79.725    0.377    0.214   21.448
  209.500  259.914   79.067    0.352    0.164   20.625
  209.750  259.882   80.930    0.306    0.144   19.460
  210.000  259.830   87.169    0.321    0.182   18.708
  210.250  259.789   91.540    0.347    0.213   18.331
  210.500  260.782   96.525    0.356    0.237   17.966
  210.750  261.786   93.992    0.378    0.234   17.608
  211.000  261.754   93.967    0.381    0.236   16.613
  211.250  262.758   96.451    0.380    0.222   16.287
  211.500  262.696   97.053    0.391    0.214   14.785
  211.750  262.664   95.773    0.392    0.209   14.221
  212.000  262.633   93.867    0.379    0.197   13.414
  212.250  261.526   91.955    0.371    0.194   13.154
  212.500  260.460   94.445    0.376    0.188   12.889
  212.750  259.352   94.413    0.387    0.180   12.632
  213.000  258.266   92.507    0.377    0.168   12.615
  213.250  258.224   93.115    0.369    0.158   12.602
  213.500  258.193   94.966    0.378    0.167   12.588
  213.750  259.196   98.697    0.392    0.184   12.578
  214.000  261.245   98.678    0.420    0.200   11.867
  214.250  263.273   98.647    0.427    0.197   10.986
  214.500  263.242   98.622    0.412    0.200    9.973
  214.750  263.211   92.960    0.406    0.208    9.962
  215.000  263.159   90.420    0.398    0.213   10.741
  215.250  263.127   92.276    0.410    0.210   11.582
  215.500  263.075   94.766    0.425    0.214   12.018
  215.750  261.978  100.385    0.428    0.223   12.002
  216.000  261.947  102.241    0.450    0.213   11.324
  216.250  261.895   97.199    0.480    0.161    9.175
  216.500  262.899   97.795    0.480    0.085    7.294
  216.750  262.847   99.652    0.475    0.104    6.021
  217.000  262.826   97.118    0.453    0.170    6.250
  217.250  262.763   93.325    0.424    0.213    7.270
  217.500  262.743   90.791    0.434    0.223    8.617
  217.750  262.691   90.773    0.440    0.215    9.470
  218.000  262.660   90.748    0.435    0.205   10.208
  218.250  262.618   85.706    0.438    0.175   10.197
  218.500  262.566   88.189    0.444    0.135   10.785
  218.750  263.570   91.921    0.431    0.179   11.404
  219.000  263.518   93.777    0.431    0.215   11.834
  219.250  263.476   96.260    0.437    0.232   11.598
  219.500  263.445   98.744    0.436    0.225   11.153
  219.750  263.403   92.442    0.433    0.220   10.722
  220.000  263.341   93.671    0.432    0.215   10.506
  220.250  262.264   93.652    0.441    0.203   10.497
  220.500  262.233   90.492    0.423    0.148   10.489
  220.750  260.081   79.180    0.374    0.023   10.881
  221.000  259.015   77.273    0.327   -0.007   11.294
  221.250  255.827   81.632    0.286    0.007   12.409
  221.500  253.695   91.019    0.319    0.037   14.159
  221.750  251.564   94.757    0.379    0.186   15.262
  222.000  251.522   96.613    0.363    0.203   14.963
  222.250  253.571   97.836    0.359    0.214   14.388
  222.500  251.439  100.319    0.374    0.222   13.316
  222.750  244.081   99.040    0.385    0.199   12.801
  223.000  242.984   95.247    0.399    0.187   12.550
  223.250  245.033   95.849    0.395    0.196   12.533
  223.500  249.182   96.451    0.381    0.197   12.516
  223.750  256.446   92.670    0.372    0.175   12.510
  224.000  257.460   90.136    0.394    0.176   12.493
  224.250  258.453   90.112    0.388    0.185   12.480
  224.500  258.422   90.714    0.372    0.164   12.706
  224.750  257.315   90.689    0.346    0.129   13.696
  225.000  257.283   88.155    0.319    0.103   15.337
  225.250  259.322   85.616    0.294    0.091   16.532
  225.500  263.461   81.822    0.319    0.108   16.832
  225.750  265.509   83.051    0.356    0.163   16.502
  226.000  265.457   83.654    0.375    0.197   15.276
  226.250  264.381   84.262    0.384    0.217   14.137
  226.500  262.249   84.864    0.387    0.208   13.591
  226.750  259.072   82.952    0.397    0.191   13.833
  227.000  257.986   82.306    0.354    0.163   14.092
  227.250  257.954   79.766    0.328    0.138   14.623
  227.500  259.982   81.623    0.332    0.148   14.888
  227.750  261.007   80.337    0.369    0.172   15.158
  228.000  261.979   79.064    0.370    0.202   15.142
  228.250  261.958   82.796    0.360    0.218   15.125
  228.500  257.726   79.014    0.400    0.200   14.824
  228.750  254.549   70.838    0.387    0.110   13.987
  229.000  253.462   77.710    0.365   -0.003   13.450
  229.250  253.420   90.227    0.395    0.026   13.182
  229.500  255.459   93.331    0.431    0.065   13.418
  229.750  257.528   90.177    0.442    0.209   13.400
  230.000  260.622   86.383    0.429    0.197   12.639
  230.250  260.570   93.890    0.413    0.203   12.160
  230.500  260.528  101.390    0.445    0.209   11.257
  230.750  260.476   98.850    0.461    0.216   10.621
  231.000  259.379   96.323    0.455    0.203   10.409
  231.250  259.358   94.411    0.445    0.201   10.595
  231.500  257.216   91.877    0.434    0.197   11.209
  231.750  255.084   89.965    0.424    0.205   10.986
  232.000  255.053   89.946    0.434    0.213   10.767
  232.250  256.057   89.921    0.445    0.194   10.750
