~VERSION INFORMATION
 VERS.                 2.0:   CWLS LOG ASCII STANDARD -VERSION 2.0
 WRAP.                  NO:   ONE LINE PER DEPTH STEP
~WELL INFORMATION BLOCK
#MNEM.UNIT           DATA                    DESCRIPTION OF MNEMONIC
#---------    -------------------            -------------------------------
# Generated from Intellog Unique Number	CS_77_79/WELL/3307
WELL.         UNIVERSAL EXPLORATIONS LTD.    : Well_name    - WELL
LOC .         00/13-24-078-07W4/0            : Location     - LOCATION
UWI .         00/13-24-078-07W4/0            : Uwi          - UNIQUE WELL ID
ENTR.         JOETTE                         : Entered      - ENTERED BY
SRVC.         SCHLUMBERGER                   : Scn          - SERVICE COMPANY
DATE.         08-26-92                       : Date         - LOG DATE
STRT.M        125                            : top_depth    - START DEPTH
STOP.M        321                            : bot_depth    - STOP DEPTH
STEP.M        0.25                           : increment    - STEP LENGTH
 NULL. -999.2500:NULL Value
~CURVE INFORMATION BLOCK
#MNEM UNIT       ERCB CURVE CODE    CURVE DESCRIPTION
#-----------   ------------------   ----------------------------------
DEPT.M        00 001 00 00         : DEPTH        - DEPTH
ILD .OHMM     00 120 00 00         : RESD         - DEEP RESISTIVITY (DIL)
DPHI.V/V      00 890 00 00         : PHID         - DENSITY POROSITY (SANDSTONE)
NPHI.V/V      00 330 00 00         : PHIN         - NEUTRON POROSITY (SANDSTONE)
GR  .API      00 310 00 00         : GR           - GAMMA RAY
~PARAMETER INFORMATION
#MNEM.UNIT           DATA             DESCRIPTION OF MNEMONIC
#---------         -----------     ------------------------------
GL  .M        547.2                : gl           - GROUND LEVEL ELEVATION
EREF.M        550.73               : kb           - ELEVATION OF DEPTH REFERENCE
DATM.M        550.73               : datum        - DATUM ELEVATION
TDD .M        325                  : tdd          - TOTAL DEPTH DRILLER
RUN .         ONE                  : Run          - RUN NUMBER
ENG .         BILL                 : Engineer     - RECORDING ENGINEER
WIT .         JIM                  : Witness      - WITNESSED BY
MUD .         GEL                  : Mud_type     - MUD TYPE
MATR.         SANDSTONE            : Logunit      - NEUTRON MATRIX
TMAX.C        18                   : BHT          - MAXIMUM RECORDED TEMPERATURE
BHTD.M        325                  : BHTDEP       - MAXIMUM RECORDED TEMPERATURE
MATR.         1                    : LOGUNIT      - NEUTRON MATRIX
RMT .C        16                   : MDTP         - TEMPERATURE OF MUD
NEUT.         1                    : NEUTRON      - NEUTRON TYPE
RESI.         0                    : RESIST       - RESISTIVITY TYPE
RMC .OHMM     0.533                : RMC          - RESISTIVITY OF MUD CAKE
RMF .OHMM     0.533                : RMF          - RESISTIVITY OF MUD FILTRATE
SUFT.C        15                   : SUFT         - SURFACE TEMPERATURE
~A  DEPTH     RESD     PHID     PHIN       GR
# ...
  168.500   15.311    0.226    0.392   79.844
  168.750   14.456    0.224    0.403   81.662
  169.000   13.653    0.266    0.419   84.707
  169.250   13.390    0.275    0.419   90.803
  169.500   13.136    0.273    0.416   90.176
  169.750   11.721    0.266    0.414   88.328
  170.000   10.656    0.258    0.404   90.757
  170.250    9.690    0.249    0.407   96.853
  170.500    8.979    0.245    0.419  102.338
  170.750    8.480    0.252    0.435  107.823
  171.000    8.008    0.257    0.436  110.249
  171.250    7.562    0.252    0.464  107.182
  171.500    7.278    0.249    0.486  102.889
  171.750    7.139    0.252    0.478  106.541
  172.000    7.135    0.248    0.474  111.415
  172.250    7.269    0.223    0.478  105.289
  172.500    7.837    0.217    0.482   98.551
  172.750    8.612    0.223    0.469   94.258
  173.000    9.463    0.265    0.449   88.736
  173.250   10.399    0.271    0.440   92.391
  173.500   10.795    0.265    0.419  101.543
  173.750   10.792    0.271    0.419  108.254
  174.000    9.811    0.258    0.437  114.350
  174.250    9.266    0.247    0.441  110.661
  174.500    8.752    0.257    0.430  108.812
  174.750    8.264    0.254    0.435  108.801
  175.000    8.418    0.248    0.473  108.786
  175.250    8.740    0.244    0.509  106.934
  175.500    9.604    0.253    0.510  104.478
  175.750   10.753    0.265    0.505  103.848
  176.000   11.165    0.278    0.485  102.004
  176.250   11.811    0.292    0.460   95.266
  176.500   12.032    0.301    0.450   90.970
  176.750   12.491    0.305    0.447   92.181
  177.000   12.487    0.299    0.446   95.825
  177.250   12.482    0.295    0.441   95.817
  177.500   12.241    0.295    0.427   95.802
  177.750   12.238    0.295    0.416   95.787
  178.000   11.778    0.289    0.419  100.050
  178.250   11.334    0.284    0.433  103.701
  178.500   11.118    0.271    0.456  106.131
  178.750   11.114    0.260    0.473   97.556
  179.000   12.211    0.251    0.465   89.597
  179.250   13.675    0.257    0.468   79.804
  179.500   15.605    0.273    0.470   69.400
  179.750   16.203    0.293    0.424   72.441
  180.000   16.502    0.295    0.402   79.148
  180.250   14.725    0.290    0.404   85.851
  180.500   11.293    0.278    0.423   86.451
  180.750    8.180    0.224    0.445   89.492
  181.000    6.895    0.196    0.450   96.195
  181.250    6.764    0.173    0.456   93.121
  181.500    7.021    0.287    0.483   91.891
  181.750    8.012    0.284    0.456   86.987
  182.000    8.319    0.282    0.444   84.524
  182.250   11.690    0.280    0.433   83.901
  182.500   12.371    0.276    0.429   79.601
  182.750   13.592    0.274    0.428   76.534
  183.000   15.221    0.272    0.430   69.186
  183.250   16.726    0.276    0.434   62.449
  183.500   22.210    0.286    0.444   58.763
  183.750   22.628    0.326    0.433   60.581
  184.000   24.398    0.346    0.418   61.181
  184.250   26.306    0.347    0.415   59.940
  184.500   28.903    0.347    0.423   58.092
  184.750   30.577    0.345    0.432   56.855
  185.000   31.151    0.345    0.431   56.228
  185.250   31.737    0.345    0.426   57.436
  185.500   32.330    0.346    0.431   59.865
  185.750   32.931    0.349    0.432   62.298
  186.000   33.550    0.351    0.444   61.668
  186.250   34.176    0.352    0.447   59.812
  186.500   34.815    0.351    0.433   57.968
  186.750   35.462    0.343    0.417   56.119
  187.000   36.121    0.350    0.411   54.271
  187.250   36.804    0.360    0.411   53.034
  187.500   37.487    0.359    0.421   54.852
  187.750   37.476    0.356    0.436   57.896
  188.000   37.460    0.351    0.449   60.322
  188.250   36.049    0.350    0.445   57.859
  188.500   34.687    0.365    0.448   56.629
  188.750   34.030    0.374    0.461   55.392
  189.000   32.748    0.374    0.457   59.654
  189.250   32.123    0.374    0.450   59.639
  189.500   30.913    0.374    0.440   57.180
  189.750   30.324    0.374    0.442   55.943
  190.000   28.098    0.374    0.450   63.872
  190.250   26.040    0.380    0.451   68.135
  190.500   24.130    0.414    0.428   60.786
  190.750   21.525    0.408    0.423   64.438
  191.000   20.719    0.384    0.461   72.978
  191.250   20.712    0.381    0.443   76.019
  191.500   21.097    0.373    0.425   69.889
  191.750   21.489    0.364    0.432   66.207
  192.000   21.895    0.362    0.435   64.970
  192.250   21.471    0.359    0.430   64.340
  192.500   21.062    0.357    0.427   64.329
  192.750   19.151    0.360    0.437   64.314
  193.000   17.085    0.367    0.442   67.354
  193.250   16.137    0.382    0.429   69.172
  193.500   15.828    0.406    0.450   63.043
  193.750   15.819    0.412    0.491   63.031
  194.000   16.739    0.393    0.505   64.850
  194.250   19.101    0.370    0.482   69.109
  194.500   25.364    0.360    0.475   69.705
  194.750   26.332    0.351    0.482   67.241
  195.000   27.862    0.321    0.436   64.178
  195.250   30.042    0.054    0.247   48.882
  195.500   31.785    0.023    0.217   44.589
  195.750   32.994    0.022    0.171   51.296
  196.000   33.614    0.029    0.148   59.225
  196.250   32.348    0.045    0.219   71.433
  196.500   22.567    0.155    0.336   74.469
  196.750   19.755    0.236    0.382   71.399
  197.000   19.015    0.307    0.416   68.328
  197.250   18.300    0.344    0.468   66.476
  197.500   18.293    0.361    0.453   65.246
  197.750   18.283    0.353    0.466   59.120
  198.000   18.979    0.321    0.483   48.105
  198.250   19.705    0.099    0.308   45.035
  198.500   22.919    0.216    0.246   52.964
  198.750   28.756    0.293    0.364   62.727
  199.000   29.850    0.331    0.430   65.767
  199.250   27.142    0.346    0.431   62.085
  199.500   24.678    0.352    0.423   64.515
  199.750   23.308    0.358    0.429   64.500
  200.000   21.596    0.362    0.446   62.040
  200.250   20.787    0.361    0.445   60.192
  200.500   20.384    0.359    0.440   60.788
  200.750   20.380    0.353    0.439   63.821
  201.000   20.761    0.351    0.445   64.417
  201.250   21.149    0.351    0.455   61.958
  201.500   21.140    0.352    0.451   59.502
  201.750   21.944    0.358    0.443   60.705
  202.000   21.937    0.362    0.437   60.690
  202.250   22.345    0.364    0.445   59.453
  202.500   22.336    0.368    0.450   58.216
  202.750   22.329    0.365    0.444   59.423
  203.000   22.319    0.360    0.439   60.630
  203.250   22.303    0.359    0.428   59.396
  203.500   22.298    0.365    0.419   59.378
  203.750   22.715    0.363    0.428   59.366
  204.000   22.279    0.355    0.450   60.570
  204.250   22.270    0.353    0.460   61.166
  204.500   22.258    0.351    0.458   63.595
  204.750   22.251    0.366    0.484   64.806
  205.000   22.240    0.364    0.471   58.680
  205.250   22.233    0.359    0.459   58.657
  205.500   22.223    0.364    0.451   60.476
  205.750   22.212    0.361    0.447   59.853
  206.000   22.624    0.353    0.469   56.168
  206.250   22.195    0.352    0.491   57.379
  206.500   22.184    0.355    0.483   59.808
  206.750   21.761    0.358    0.466   61.015
  207.000   20.546    0.357    0.447   59.778
  207.250   20.157    0.362    0.453   60.374
  207.500   19.399    0.369    0.462   61.578
  207.750   18.671    0.365    0.472   62.788
  208.000   18.313    0.362    0.477   62.773
  208.250   17.623    0.357    0.473   60.310
  208.500   17.617    0.352    0.473   65.188
  208.750   17.280    0.351    0.479   69.447
  209.000   16.947    0.351    0.488   67.598
  209.250   16.938    0.351    0.479   63.917
  209.500   16.932    0.347    0.470   60.239
  209.750   16.925    0.342    0.464   60.220
  210.000   16.916    0.350    0.491   62.653
  210.250   17.564    0.347    0.495   68.749
  210.500   18.582    0.346    0.465   67.512
  210.750   18.926    0.356    0.461   64.434
  211.000   18.567    0.366    0.470   65.030
  211.250   15.070    0.363    0.471   69.907
  211.500   12.002    0.360    0.464   75.392
  211.750    9.203    0.332    0.447   80.266
