~VERSION INFORMATION
 VERS.                 2.0:   CWLS LOG ASCII STANDARD -VERSION 2.0
 WRAP.                  NO:   ONE LINE PER DEPTH STEP
~WELL INFORMATION BLOCK
#MNEM.UNIT           DATA                    DESCRIPTION OF MNEMONIC
#---------    -------------------            -------------------------------
# Generated from Intellog Unique Number	CC_80_83/WELL/2383
NULL.         -999.25                        : NULL_VALUE
WELL.         SIEBENS PONY                   : Well_name    - WELL
LOC .         10-29-080-09W4                 : Location     - LOCATION          
UWI .         00/10-29-080-09W400            : Uwi          - UNIQUE WELL ID    
ENTR.         DW                             : Entered      - ENTERED BY        
SRVC.         SCHLUMBERGER                   : Scn          - SERVICE COMPANY   
DATE.         02 FEB 75                      : Date         - LOG DATE
STRT.M        265.176                        : top_depth    - START DEPTH       
STOP.M        484.639                        : bot_depth    - STOP DEPTH        
STEP.M        0.305                          : increment    - STEP LENGTH       
~CURVE INFORMATION BLOCK
#MNEM UNIT       ERCB CURVE CODE    CURVE DESCRIPTION
#-----------   ------------------   ----------------------------------
DEPT.M        00 001 00 00         : DEPTH        - DEPTH                       
DPHI.V/V      00 890 00 00         : PHID         - DENSITY POROSITY (LIMESTONE)
NPHI.V/V      00 330 00 00         : PHIN         - NEUTRON POROSITY (LIMESTONE)
GR  .API      00 310 00 00         : GR           - GAMMA RAY                   
ILD .OHMM     00 120 00 00         : RESD         - DEEP RESISTIVITY (DIL)      
~PARAMETER INFORMATION       
#MNEM.UNIT           DATA             DESCRIPTION OF MNEMONIC
#---------         -----------     ------------------------------
GL  .M        698.906              : gl           - GROUND LEVEL ELEVATION      
EREF.M        702.564              : kb           - ELEVATION OF DEPTH REFERENCE
DATM.M        702.564              : datum        - DATUM ELEVATION             
TDD .M        496.824              : tdd          - TOTAL DEPTH DRILLER         
RUN .         ONE                  : Run          - RUN NUMBER                  
ENG .         BILL                 : Engineer     - RECORDING ENGINEER          
WIT .         JIM                  : Witness      - WITNESSED BY                
MUD .         GEL                  : Mud_type     - MUD TYPE                    
MATR.         LIMESTONE            : Logunit      - NEUTRON MATRIX              
TMAX.C        23.3333              : BHT          - MAXIMUM RECORDED TEMPERATURE
BHTD.M        496.824              : BHTDEP       - MAXIMUM RECORDED TEMPERATURE
MATR.         1                    : LOGUNIT      - NEUTRON MATRIX              
RMT .C        25                   : MDTP         - TEMPERATURE OF MUD          
NEUT.         1                    : NEUTRON      - NEUTRON TYPE                
RESI.         0                    : RESIST       - RESISTIVITY TYPE            
RMC .OHMM     0.25                 : RMC          - RESISTIVITY OF MUD CAKE     
RMF .OHMM     0.25                 : RMF          - RESISTIVITY OF MUD FILTRATE 
SUFT.C        15                   : SUFT         - SURFACE TEMPERATURE         
~A  DEPTH     PHID     PHIN       GR     RESD
# ...
  318.213    0.223    0.480  110.529    8.555
  318.518    0.244    0.496  109.316    8.711
  318.822    0.261    0.509  109.308    9.547
  319.127    0.242    0.508  103.869    9.903
  319.432    0.236    0.514   95.410   10.461
  319.737    0.265    0.502  102.646   10.850
  320.042    0.278    0.495  103.241   12.117
  320.347    0.296    0.482  100.217   13.280
  320.651    0.302    0.465   91.155   13.523
  320.956    0.285    0.442   97.788   12.550
  321.261    0.279    0.445   94.158   10.617
  321.566    0.285    0.461   85.700    9.854
  321.871    0.292    0.460   79.052   10.219
  322.175    0.298    0.455   76.026   12.063
  322.480    0.315    0.461   68.776   14.239
  322.785    0.476    0.575   49.452   15.903
  323.090    0.547    0.610   41.596   19.480
  323.395    0.470    0.491   47.626   24.309
  323.699    0.293    0.447   51.843   24.744
  324.004    0.302    0.454   53.043   22.961
  324.309    0.310    0.433   53.639   21.713
  324.614    0.309    0.424   53.029   20.146
  324.919    0.298    0.438   47.589   19.769
  325.223    0.315    0.443   50.599   20.121
  325.528    0.316    0.437   51.799   21.255
  325.833    0.312    0.432   52.394   22.047
  326.138    0.306    0.426   52.387   24.160
  326.443    0.325    0.420   53.588   25.058
  326.748    0.327    0.408   53.579   25.987
  327.052    0.330    0.431   54.176   25.974
  327.357    0.329    0.446   57.187   26.445
  327.662    0.326    0.425   57.179   26.915
  327.967    0.327    0.430   55.360   26.905
  328.272    0.340    0.447   55.959   27.384
  328.576    0.361    0.447   58.968   27.372
  328.881    0.361    0.436   60.168   27.348
  329.186    0.349    0.428   58.351   26.837
  329.491    0.338    0.435   55.928   25.844
  329.796    0.338    0.446   54.712   25.349
  330.100    0.342    0.429   56.517   26.283
  330.405    0.345    0.431   59.525   26.273
  330.710    0.343    0.434   60.728   26.252
  331.015    0.331    0.429   61.323   26.241
  331.320    0.328    0.441   60.713   26.708
  331.624    0.327    0.419   61.308   26.695
  331.929    0.330    0.429   63.113   26.680
  332.234    0.343    0.441   62.501   26.665
  332.539    0.341    0.442   58.871   26.648
  332.844    0.336    0.432   58.262   26.625
  333.149    0.339    0.422   57.650   26.123
  333.453    0.345    0.415   57.643   26.104
  333.758    0.331    0.409   57.636   25.615
  334.063    0.322    0.402   57.627   25.598
  334.368    0.319    0.406   57.017   24.652
  334.673    0.325    0.415   57.614   23.740
  334.977    0.335    0.417   60.625   22.441
  335.282    0.326    0.418   61.824   21.218
  335.587    0.332    0.417   56.384   20.816
  335.892    0.344    0.427   60.600   21.188
  336.197    0.349    0.441   63.009   21.978
  336.501    0.332    0.439   56.965   24.092
  336.806    0.332    0.445   54.544   25.929
  337.111    0.324    0.445   50.310   27.387
  337.416    0.306    0.409   42.456   27.372
  337.721    0.099    0.241   42.449   24.481
  338.025    0.162    0.303   46.666   22.716
  338.330    0.298    0.399   51.489   22.286
  338.635    0.343    0.448   50.875   21.866
  338.940    0.355    0.439   50.262   22.261
  339.245    0.362    0.437   50.258   22.654
  339.550    0.351    0.443   50.854   22.643
  339.854    0.354    0.451   52.658   23.051
  340.159    0.355    0.460   52.650   23.465
  340.464    0.344    0.465   52.039   23.456
  340.769    0.344    0.467   53.843   23.878
  341.074    0.344    0.459   52.023   22.987
  341.378    0.334    0.445   48.996   22.977
  341.683    0.356    0.438   48.387   22.546
  341.988    0.343    0.447   48.380   22.110
  342.293    0.337    0.460   51.391   21.693
  342.598    0.333    0.442   46.554   21.682
  342.902    0.342    0.435   47.753   21.669
  343.207    0.343    0.447   50.160   22.063
  343.512    0.343    0.464   52.568   22.872
  343.817    0.341    0.446   53.165   22.864
  344.122    0.341    0.429   51.347   22.428
  344.426    0.342    0.429   47.715   22.418
  344.731    0.344    0.441   47.711   21.990
  345.036    0.350    0.455   48.304   21.979
  345.341    0.347    0.457   49.507   21.558
  345.646    0.347    0.454   50.102   21.944
  345.951    0.350    0.464   53.111   22.346
  346.255    0.355    0.457   55.520   22.328
  346.560    0.348    0.454   55.512   22.312
  346.865    0.341    0.457   52.488   22.302
  347.170    0.341    0.469   51.273   21.880
  347.475    0.340    0.470   55.491   21.463
  347.779    0.337    0.470   57.898   21.058
  348.084    0.332    0.469   58.494   21.037
  348.389    0.324    0.468   59.695   20.267
  348.694    0.312    0.458   63.309   17.791
  348.999    0.303    0.458   68.734   15.914
  349.303    0.318    0.471   75.366   12.274
  349.608    0.307    0.448   82.603    7.722
  349.913    0.238    0.454   96.479    5.429
  350.218    0.202    0.530  102.508    4.766
  350.523    0.209    0.534  106.121    4.504
  350.827    0.219    0.531  107.322    4.502
  351.132    0.229    0.524  103.693    4.500
  351.437    0.240    0.515  100.064    4.753
  351.742    0.230    0.527  106.092    4.840
  352.047    0.264    0.532  108.501    5.019
  352.352    0.243    0.529  107.286    4.834
  352.656    0.214    0.533  104.864    4.742
  352.961    0.237    0.545  104.855    4.917
  353.266    0.253    0.558  104.849    5.492
  353.571    0.274    0.534   83.713    6.982
  353.876    0.274    0.523   75.859    8.875
  354.180    0.258    0.502   75.246   11.706
  354.485    0.301    0.487   78.259   12.834
  354.790    0.317    0.503   84.288   13.557
  355.095    0.318    0.493   87.903   12.348
  355.400    0.303    0.521   87.895   11.462
  355.704    0.304    0.499   74.003   10.442
  356.009    0.298    0.480   77.012    9.871
  356.314    0.274    0.484   79.420    9.867
  356.619    0.287    0.508   77.000   10.424
  356.924    0.305    0.515   72.765   11.010
  357.228    0.312    0.521   72.757   11.207
  357.533    0.327    0.515   75.166   10.795
  357.838    0.322    0.500   83.005    8.326
  358.143    0.305    0.501   90.846    6.188
  358.448    0.287    0.543  101.704    5.235
  358.753    0.240    0.590  105.319    4.596
  359.057    0.235    0.574  102.292    4.265
  359.362    0.279    0.555  103.491    4.185
  359.667    0.284    0.564  108.314    4.105
  359.972    0.272    0.553  117.965    4.103
  360.277    0.227    0.530  122.184    4.100
  360.581    0.217    0.508  110.706    4.098
  360.886    0.210    0.512  110.095    4.171
  361.191    0.229    0.506  115.521    4.246
  361.496    0.205    0.526  119.136    4.404
  361.801    0.202    0.512  117.316    4.652
  362.105    0.217    0.503  116.103    4.564
  362.410    0.225    0.505  113.077    4.314
  362.715    0.227    0.525  113.672    4.233
  363.020    0.231    0.516  118.494    4.001
  363.325    0.240    0.567  122.109    3.714
  363.629    0.257    0.586  121.497    3.261
  363.934    0.255    0.593  119.680    3.026
  364.239    0.239    0.603  120.275    2.914
  364.544    0.239    0.618  122.682    2.859
  364.849    0.238    0.633  118.450    2.911
  365.154    0.228    0.627  115.424    3.018
  365.458    0.224    0.634  114.814    3.248
  365.763    0.225    0.651  113.598    3.368
  366.068    0.227    0.663  114.195    3.366
  366.373    0.235    0.651  118.413    3.303
  366.678    0.251    0.614  120.217    3.424
  366.982    0.264    0.595  119.606    3.551
  367.287    0.243    0.558  111.146    3.822
  367.592    0.216    0.558  106.914    4.113
  367.897    0.235    0.582  104.491    4.426
  368.202    0.266    0.565  105.088    4.764
  368.506    0.253    0.551  105.082    5.319
  368.811    0.249    0.564  102.660    5.831
  369.116    0.244    0.536   95.407    6.160
  369.421    0.254    0.514   96.608    6.157
  369.726    0.224    0.493   97.205    6.040
  370.030    0.231    0.491   94.179    5.710
  370.335    0.248    0.500   95.983    5.202
  370.640    0.254    0.515  102.011    4.828
  370.945    0.246    0.569  105.626    4.824
