~VERSION INFORMATION
 VERS.                 2.0:   CWLS LOG ASCII STANDARD -VERSION 2.0
 WRAP.                  NO:   ONE LINE PER DEPTH STEP
~WELL INFORMATION BLOCK
#MNEM.UNIT           DATA                    DESCRIPTION OF MNEMONIC
#---------    -------------------            -------------------------------
# Generated from Intellog Unique Number	CX_WELLS/WELL/2500
WELL.         PCI NEWBY                      : Well_name    - WELL
LOC .         00/10-32-084-04W4/0            : Location     - LOCATION
UWI .         00/10-32-084-04W4/0            : Uwi          - UNIQUE WELL ID
ENTR.         T                              : Entered      - ENTERED BY
SRVC.         SCHLUMBERGER                   : Scn          - SERVICE COMPANY
STRT.M        75                             : top_depth    - START DEPTH
STOP.M        215                            : bot_depth    - STOP DEPTH
STEP.M        0.25                           : increment    - STEP LENGTH
 NULL. -999.2500:NULL Value
~CURVE INFORMATION BLOCK
#MNEM UNIT       ERCB CURVE CODE    CURVE DESCRIPTION
#-----------   ------------------   ----------------------------------
DEPT.M        00 001 00 00         : DEPTH        - DEPTH
GR  .API      00 310 00 00         : GR           - GAMMA RAY
NPHI.V/V      00 330 00 00         : PHIN         - NEUTRON POROSITY (SANDSTONE)
DPHI.V/V      00 890 00 00         : PHID         - DENSITY POROSITY (SANDSTONE)
ILD .OHMM     00 120 00 00         : RESD         - DEEP RESISTIVITY (DIL)
~PARAMETER INFORMATION
#MNEM.UNIT           DATA             DESCRIPTION OF MNEMONIC
#---------         -----------     ------------------------------
GL  .M        458                  : gl           - GROUND LEVEL ELEVATION
EREF.M        563                  : kb           - ELEVATION OF DEPTH REFERENCE
DATM.M        563                  : datum        - DATUM ELEVATION
TDD .M        231                  : tdd          - TOTAL DEPTH DRILLER
RUN .         ONE                  : Run          - RUN NUMBER
ENG .         BILL                 : Engineer     - RECORDING ENGINEER
WIT .         JIM                  : Witness      - WITNESSED BY
MUD .         GEL                  : Mud_type     - MUD TYPE
MATR.         SANDSTONE            : Logunit      - NEUTRON MATRIX
TMAX.C        11                   : BHT          - MAXIMUM RECORDED TEMPERATURE
BHTD.M        232                  : BHTDEP       - MAXIMUM RECORDED TEMPERATURE
MATR.         1                    : LOGUNIT      - NEUTRON MATRIX
RMT .C        11                   : MDTP         - TEMPERATURE OF MUD
NEUT.         1                    : NEUTRON      - NEUTRON TYPE
RESI.         2.7                  : RESIST       - RESISTIVITY TYPE
RMC .OHMM     3                    : RMC          - RESISTIVITY OF MUD CAKE
RMF .OHMM     2                    : RMF          - RESISTIVITY OF MUD FILTRATE
SUFT.C        4                    : SUFT         - SURFACE TEMPERATURE
~A  DEPTH       GR     PHIN     PHID     RESD
   75.000   39.082    0.414    0.351   13.713
   75.250   37.219    0.422    0.362   11.124
   75.500   37.216    0.427    0.405    7.753
   75.750   42.797    0.430    0.485    6.532
   76.000   50.239    0.424    0.485    5.102
   76.250   58.301    0.441    0.372    4.138
   76.500   66.984    0.472    0.307    3.982
   76.750   76.287    0.477    0.304    4.056
   77.000   80.627    0.465    0.309    4.457
   77.250   77.522    0.458    0.309    5.088
   77.500   75.658    0.451    0.308    5.807
   77.750   75.037    0.428    0.310    6.885
   78.000   75.034    0.417    0.315    8.162
   78.250   70.689    0.436    0.325    9.861
   78.500   65.104    0.434    0.324   10.634
   78.750   61.999    0.419    0.322   10.627
   79.000   61.376    0.408    0.319    9.479
   79.250   61.374    0.415    0.316    8.618
   79.500   63.853    0.424    0.312    7.834
   79.750   66.951    0.432    0.307    7.829
   80.000   68.810    0.440    0.306    8.604
   80.250   71.290    0.448    0.312    9.820
   80.500   71.287    0.458    0.319   11.425
   80.750   68.183    0.467    0.326   13.040
   81.000   63.838    0.460    0.338   15.168
   81.250   58.873    0.438    0.347   15.746
   81.500   57.010    0.427    0.349   15.738
   81.750   57.627    0.429    0.343   14.855
   82.000   61.967    0.417    0.334   14.296
   82.250   65.067    0.417    0.332   13.758
   82.500   68.165    0.420    0.337   12.744
   82.750   67.543    0.420    0.339   11.805
   83.000   65.680    0.425    0.333   11.363
   83.250   66.297    0.432    0.323    9.944
   83.500   69.397    0.425    0.312    8.221
   83.750   72.496    0.412    0.299    6.544
   84.000   76.216    0.415    0.282    4.827
   84.250   78.074    0.432    0.284    4.557
   84.500   80.553    0.486    0.292    4.385
   84.750   81.791    0.479    0.303    4.140
   85.000   82.409    0.468    0.303    3.984
   85.250   81.787    0.457    0.299    3.834
   85.500   79.923    0.446    0.298    3.760
   85.750   79.920    0.448    0.298    3.687
   86.000   80.539    0.488    0.299    3.685
   86.250   82.396    0.520    0.299    3.754
   86.500   84.256    0.536    0.299    4.047
   86.750   85.494    0.481    0.300    4.202
   87.000   84.250    0.466    0.302    4.706
   87.250   84.249    0.468    0.303    5.474
   87.500   83.626    0.463    0.302    6.367
   87.750   83.003    0.453    0.308    7.267
   88.000   80.520    0.452    0.317    7.546
   88.250   74.934    0.457    0.329    7.687
   88.500   66.867    0.452    0.343    7.979
   88.750   58.179    0.433    0.360    7.975
   89.000   60.037    0.420    0.355    7.969
   89.250   61.895    0.419    0.350    7.816
   89.500   63.135    0.428    0.350    7.240
   89.750   63.132    0.446    0.358    6.969
   90.000   60.648    0.433    0.362    6.579
   90.250   59.405    0.416    0.356    6.575
   90.500   62.505    0.412    0.350    6.697
   90.750   67.465    0.428    0.358    6.693
   91.000   66.222    0.448    0.365    6.690
   91.250   64.358    0.442    0.376    6.815
   91.500   62.495    0.432    0.373    6.941
   91.750   61.872    0.418    0.371    7.205
   92.000   63.730    0.419    0.366    7.203
   92.250   64.348    0.432    0.364    7.198
   92.500   63.725    0.441    0.359    7.194
   92.750   61.241    0.449    0.348    7.190
   93.000   58.757    0.442    0.354    7.325
   93.250   55.654    0.427    0.362    7.462
   93.500   51.929    0.415    0.358    7.892
   93.750   51.306    0.410    0.348    8.194
   94.000   53.165    0.422    0.338    8.508
   94.250   52.542    0.419    0.340    9.347
   94.500   50.059    0.406    0.319    9.889
   94.750   48.195    0.405    0.273   10.266
   95.000   49.433    0.422    0.308   10.261
   95.250   52.532    0.412    0.346   10.257
   95.500   56.251    0.398    0.334    9.870
   95.750   57.490    0.392    0.322    9.497
   96.000   58.729    0.406    0.325    9.314
   96.250   58.726    0.414    0.331    9.309
   96.500   58.723    0.416    0.336    9.303
   96.750   58.721    0.416    0.340    9.299
   97.000   58.718    0.411    0.350    9.293
   97.250   58.716    0.403    0.357    9.289
   97.500   56.852    0.393    0.355    9.283
   97.750   53.129    0.382    0.350    9.277
   98.000   53.126    0.384    0.344    9.271
   98.250   54.364    0.396    0.345    9.268
   98.500   56.223    0.402    0.345    9.263
   98.750   56.840    0.398    0.345    9.258
   99.000   57.458    0.393    0.339    9.429
   99.250   57.455    0.389    0.333    9.423
   99.500   57.454    0.387    0.330    9.419
   99.750   58.072    0.391    0.328    9.596
  100.000   59.309    0.392    0.327    9.588
  100.250   59.306    0.392    0.325    9.586
  100.500   59.305    0.390    0.326    9.762
  100.750   59.303    0.388    0.322    9.759
  101.000   58.680    0.393    0.296    9.753
  101.250   58.678    0.398    0.260    9.745
  101.500   59.915    0.398    0.292    9.742
  101.750   61.154    0.389    0.310    9.922
  102.000   62.392    0.382    0.295    9.918
  102.250   62.390    0.376    0.264    9.913
  102.500   58.045    0.380    0.308    9.720
  102.750   57.421    0.389    0.344    9.533
  103.000   58.660    0.400    0.331    9.347
  103.250   59.899    0.404    0.311    9.169
  103.500   60.516    0.402    0.307    8.990
  103.750   61.134    0.395    0.315    8.987
  104.000   61.132    0.388    0.320    8.980
  104.250   61.130    0.393    0.325    8.975
  104.500   62.368    0.402    0.322    8.972
  104.750   62.364    0.400    0.319    8.966
  105.000   62.983    0.391    0.317    8.961
  105.250   62.980    0.385    0.316    8.958
  105.500   62.357    0.380    0.315    8.953
  105.750   62.355    0.379    0.315    8.948
  106.000   62.352    0.380    0.318    8.943
  106.250   61.109    0.394    0.318    8.939
  106.500   59.866    0.401    0.318    8.933
  106.750   58.624    0.403    0.316    9.100
  107.000   56.760    0.400    0.316    9.268
  107.250   58.619    0.393    0.315    9.265
  107.500   60.478    0.379    0.316    9.436
  107.750   59.234    0.366    0.317    9.430
  108.000   57.371    0.357    0.317    9.604
  108.250   57.369    0.355    0.317    9.601
  108.500   58.606    0.361    0.314    9.595
  108.750   58.604    0.368    0.310    9.591
  109.000   59.222    0.380    0.310    9.585
  109.250   60.460    0.391    0.308    9.581
  109.500   61.078    0.399    0.306    9.573
  109.750   61.076    0.402    0.303    9.570
  110.000   60.452    0.401    0.301    9.563
  110.250   60.451    0.399    0.295    9.559
  110.500   60.447    0.396    0.287    9.199
  110.750   61.686    0.395    0.286    8.850
  111.000   61.684    0.395    0.291    8.515
  111.250   63.542    0.393    0.290    8.352
  111.500   64.781    0.390    0.275    8.035
  111.750   66.019    0.389    0.249    8.033
  112.000   67.877    0.386    0.231    7.730
  112.250   70.357    0.386    0.238    7.581
  112.500   73.456    0.389    0.259    7.434
  112.750   77.796    0.397    0.267    6.757
  113.000   82.135    0.410    0.268    6.261
  113.250   83.994    0.423    0.263    5.375
  113.500   85.854    0.433    0.259    4.704
  113.750   87.092    0.437    0.267    4.442
  114.000   88.950    0.433    0.270    4.274
  114.250   89.568    0.439    0.270    4.112
  114.500   89.566    0.455    0.272    3.883
  114.750   88.322    0.460    0.277    3.736
  115.000   87.079    0.433    0.258    3.527
  115.250   87.076    0.431    0.242    3.331
  115.500   89.555    0.441    0.252    3.205
  115.750   92.655    0.468    0.287    2.913
  116.000   93.894    0.487    0.300    2.648
  116.250   96.372    0.494    0.299    2.548
  116.500   98.230    0.506    0.297    2.547
  116.750   98.849    0.536    0.293    2.594
  117.000   98.227    0.487    0.289    2.643
  117.250   96.363    0.462    0.287    2.743
  117.500   95.740    0.462    0.282    2.847
  117.750   93.876    0.469    0.277    3.012
  118.000   92.634    0.474    0.272    3.128
  118.250   91.389    0.472    0.270    3.247
