~VERSION INFORMATION
 VERS.                 2.0:   CWLS LOG ASCII STANDARD -VERSION 2.0
 WRAP.                  NO:   ONE LINE PER DEPTH STEP
~WELL INFORMATION BLOCK
#MNEM.UNIT           DATA                    DESCRIPTION OF MNEMONIC
#---------    -------------------            -------------------------------
# Generated from Intellog Unique Number	CN_91_93/WELL/2745
NULL.         -999.2500                      : Null_value
WELL.         11-10-093-18W4                 : Well_name    - WELL              
LOC .         00/11-10-093-18W4/0            : Location     - LOCATION          
UWI .         00/11-10-093-18W400            : Uwi          - UNIQUE WELL ID    
ENTR.         JOETTE                         : Entered      - ENTERED BY        
SRVC.         SCHLUMBERGER                   : Scn          - SERVICE COMPANY   
DATE.         03/23/92                       : Date         - LOG DATE          
STRT.M        110                            : top_depth    - START DEPTH       
STOP.M        250                            : bot_depth    - STOP DEPTH        
STEP.M        0.25                           : increment    - STEP LENGTH       
~CURVE INFORMATION BLOCK
#MNEM UNIT       ERCB CURVE CODE    CURVE DESCRIPTION
#-----------   ------------------   ----------------------------------
DEPT.M        00 001 00 00         : DEPTH        - DEPTH                       
CALI.MM       00 280 01 00         : CAL          - CALIPER                     
GR  .API      00 310 00 00         : GR           - GAMMA RAY                   
NPHI.V/V      00 330 00 00         : PHIN         - NEUTRON POROSITY (SANDSTONE)
DPHI.V/V      00 890 00 00         : PHID         - DENSITY POROSITY (SANDSTONE)
ILD .OHMM     00 120 00 00         : RESD         - DEEP RESISTIVITY (DIL)      
~PARAMETER INFORMATION       
#MNEM.UNIT           DATA             DESCRIPTION OF MNEMONIC
#---------         -----------     ------------------------------
GL  .M        515.7                : gl           - GROUND LEVEL ELEVATION      
EREF.M        518.7                : kb           - ELEVATION OF DEPTH REFERENCE
DATM.M        518.7                : datum        - DATUM ELEVATION             
TDD .M        252.7                : tdd          - TOTAL DEPTH DRILLER         
RUN .         ONE                  : Run          - RUN NUMBER                  
ENG .         BILL                 : Engineer     - RECORDING ENGINEER          
WIT .         JIM                  : Witness      - WITNESSED BY                
MUD .         GEL                  : Mud_type     - MUD TYPE                    
MATR.         SANDSTONE            : Logunit      - NEUTRON MATRIX              
TMAX.C        24                   : BHT          - MAXIMUM RECORDED TEMPERATURE
BHTD.M        252.7                : BHTDEP       - MAXIMUM RECORDED TEMPERATURE
RMT .C        23                   : MDTP         - TEMPERATURE OF MUD          
MUDD.KG/M     1130                 : MWT          - MUD DENSITY                 
NEUT.         1                    : NEUTRON      - NEUTRON TYPE                
RESI.         0                    : RESIST       - RESISTIVITY TYPE            
RM  .OHMM     3.8                  : RM           - RESISTIVITY OF MUD          
RMC .OHMM     3.66                 : RMC          - RESISTIVITY OF MUD CAKE     
RMF .OHMM     3.66                 : RMF          - RESISTIVITY OF MUD FILTRATE 
SUFT.C        4                    : SUFT         - SURFACE TEMPERATURE         
~A  DEPTH      CAL       GR     PHIN     PHID     RESD
# ...
  219.500  183.277   97.219    0.388    0.204   11.339
  219.750  184.826  105.892    0.402    0.187   10.260
  220.000  186.858  112.178    0.412    0.184    9.368
  220.250  190.392  111.614    0.421    0.200    8.401
  220.500  193.417  101.822    0.423    0.198   11.480
  220.750  189.499   93.805    0.394    0.273   14.714
  221.000  184.092   81.626    0.335    0.302   17.688
  221.250  173.721   81.062    0.295    0.273   22.261
  221.500  169.810  104.924    0.324    0.228   27.006
  221.750  170.366   97.812    0.354    0.167   33.985
  222.000  170.406   90.100    0.328    0.222   51.847
  222.250  169.466   81.487    0.293    0.273   55.835
  222.500  167.541   74.371    0.256    0.295   62.955
  222.750  166.594   71.723    0.236    0.318   65.959
  223.000  166.151   72.052    0.229    0.324   66.620
  223.250  165.714   70.595    0.226    0.330   66.620
  223.500  165.278   66.457    0.222    0.329   67.382
  223.750  165.324   62.622    0.228    0.316   69.281
  224.000  164.881   61.458    0.237    0.321   72.580
  224.250  164.934   59.413    0.234    0.328   78.163
  224.500  164.987   58.544    0.228    0.349   93.967
  224.750  165.047   58.575    0.218    0.365  113.996
  225.000  165.047   58.611    0.193    0.370  132.114
  225.250  165.180   58.349    0.173    0.365  132.114
  225.500  165.206   58.083    0.164    0.357  138.544
  225.750  165.253   57.524    0.167    0.352  151.976
  226.000  165.312   57.250    0.173    0.354  152.083
  226.250  165.372   55.792    0.179    0.357  148.079
  226.500  165.412   53.442    0.176    0.362  141.576
  226.750  165.478   51.695    0.179    0.367  136.564
  227.000  165.538   51.127    0.171    0.368  125.856
  227.250  165.578   52.354    0.173    0.365   97.465
  227.500  165.631   55.360    0.202    0.360   94.024
  227.750  165.691   57.477    0.210    0.357   82.771
  228.000  165.750   56.023    0.219    0.356   72.873
  228.250  165.790   56.945    0.219    0.349   67.152
  228.500  165.790   56.945    0.217    0.343   67.152
  228.750  165.910   58.819    0.214    0.335   55.004
  229.000  165.949   60.912    0.210    0.335   47.965
  229.250  166.009   65.415    0.213    0.337   38.528
  229.500  166.069   67.834    0.238    0.331   35.176
  229.750  166.128   73.222    0.268    0.309   22.682
  230.000  166.182   75.637    0.287    0.301   18.049
  230.250  166.718   81.331    0.342    0.292   15.891
  230.500  166.771   81.661    0.373    0.279   15.902
  230.750  166.831   79.902    0.394    0.277   17.442
  231.000  166.877   73.382    0.397    0.257   22.151
  231.250  166.943   61.203    0.380    0.219   27.882
  231.500  167.493   54.385    0.270    0.135   33.821
  231.750  167.546   50.243    0.209    0.108   40.660
  232.000  167.586   47.598    0.173    0.106   51.173
  232.250  168.148   49.127    0.159    0.162   63.222
  232.500  168.202   52.129    0.188    0.179   69.982
  232.750  168.261   53.361    0.214    0.206   88.085
  233.000  168.308   52.491    0.227    0.341   96.615
  233.250  168.354   51.335    0.239    0.345   94.062
  233.500  169.407   52.261    0.248    0.352  101.307
  233.750  170.942   53.182    0.255    0.356  110.093
  234.000  172.484   52.027    0.259    0.354  118.573
  234.250  174.027   51.165    0.295    0.337  111.308
  234.500  176.072   52.690    0.348    0.328  105.428
  234.750  177.614   55.398    0.372    0.324  100.809
  235.000  179.156   58.412    0.387    0.318  100.809
  235.250  181.195   60.227    0.392    0.306   99.178
  235.500  182.737   61.752    0.389    0.305   97.416
  235.750  184.286   61.482    0.383    0.311   94.832
  236.000  185.835   60.033    0.374    0.319   91.502
  236.250  187.377   59.175    0.402    0.323   87.467
  236.500  188.423   60.093    0.402    0.306   81.350
  236.750  189.469   65.187    0.397    0.304   75.662
  237.000  189.515   63.432    0.409    0.305   75.032
  237.250  191.057   56.316    0.397    0.313   83.072
  237.500  194.095   51.881    0.366    0.319   88.646
  237.750  197.126   47.743    0.365    0.314   88.726
  238.000  199.655   55.519    0.370    0.307   84.804
  238.250  202.196   57.635    0.365    0.303   74.655
  238.500  202.746   62.134    0.362    0.286   63.362
  238.750  199.827   63.072    0.364    0.267   63.362
  239.000  197.895   64.585    0.367    0.265   62.879
  239.250  195.466   70.871    0.356    0.269   52.403
  239.500  192.541   67.031    0.349    0.267   50.097
  239.750  188.617   64.982    0.364    0.260   38.784
  240.000  184.202   68.584    0.358    0.235   30.038
  240.250  179.298   75.469    0.357    0.219   28.972
  240.500  176.373   80.274    0.366    0.222   26.703
  240.750  174.937   79.111    0.368    0.236   34.862
  241.000  173.991   74.374    0.365    0.270   43.070
  241.250  172.555   69.049    0.366    0.280   53.227
  241.500  171.615   68.191    0.385    0.291   58.382
  241.750  170.179   69.708    0.383    0.309   62.293
  242.000  169.239   70.034    0.373    0.316   65.266
  242.250  168.796   67.687    0.358    0.304   66.526
  242.500  167.856   82.014    0.377    0.299   62.444
  242.750  166.420   79.664    0.381    0.311   33.825
  243.000  165.977   72.846    0.355    0.311   25.016
  243.250  165.541   62.450    0.351    0.296   19.373
  243.500  165.607   52.355    0.381    0.279   22.654
  243.750  165.660   50.898    0.425    0.295   28.777
  244.000  165.713   46.761    0.415    0.322   37.220
  244.250  165.753   61.989    0.380    0.340   57.832
  244.500  165.813   56.652    0.345    0.344   82.755
  244.750  165.866   52.515    0.369    0.345   98.561
  245.000  166.912   48.973    0.390    0.342  157.395
  245.250  167.957   47.516    0.389    0.334  166.424
  245.500  168.997   57.975    0.353    0.328   66.627
  245.750  170.545   66.946    0.430    0.326   19.891
  246.000  172.088   69.654    0.483    0.315   27.944
  246.250  169.659   72.668    0.631   -0.033   32.382
  246.500  167.243   73.002    0.615   -0.025   37.870
  246.750  167.799   70.945    0.556   -0.027  122.480
  247.000  167.839   71.576    0.469   -0.033  298.154
  247.250  167.839   72.795    0.407   -0.031  493.958
  247.500  168.468   71.938    0.370   -0.024  393.112
  247.750  168.495   68.094    0.368   -0.015  349.250
  248.000  168.045   65.445    0.368   -0.003  316.021
  248.250  167.608   64.286    0.368    0.005  299.388
  248.500  166.662   67.594    0.368    0.015  291.505
  248.750  166.722   66.736    0.369    0.021  273.589
  249.000  167.271   64.679    0.370    0.018  238.649
  249.250  167.821   61.137    0.370    0.001  228.147
  249.500  169.363   57.599    0.370   -0.019  252.568
  249.750  170.409   54.955    0.368   -0.017  282.149
  250.000  171.461   53.791    0.368   -0.007  368.320
