~VERSION INFORMATION
 VERS.                 2.0:   CWLS LOG ASCII STANDARD -VERSION 2.0
 WRAP.                  NO:   ONE LINE PER DEPTH STEP
~WELL INFORMATION BLOCK
#MNEM.UNIT           DATA                    DESCRIPTION OF MNEMONIC
#---------    -------------------            -------------------------------
# Generated from Intellog Unique Number	CW_76_78/WELL/2812
WELL.         PAN AM UNO-TEX A-1 ROCK 10-35  : Well_name    - WELL
LOC .         00/10-35-076-23W4/0            : Location     - LOCATION
UWI .         00/10-35-076-23W4/0            : Uwi          - UNIQUE WELL ID
ENTR.         JJ                             : Entered      - ENTERED BY
SRVC.         SCHLUMBERGER                   : Scn          - SERVICE COMPANY
DATE.         26 JAN 1966                    : Date         - LOG DATE
STRT.M        725.424                        : top_depth    - START DEPTH
STOP.M        853.424                        : bot_depth    - STOP DEPTH
STEP.M        0.25                           : increment    - STEP LENGTH
 NULL. -999.2500:NULL Value
~CURVE INFORMATION BLOCK
#MNEM UNIT       ERCB CURVE CODE    CURVE DESCRIPTION
#-----------   ------------------   ----------------------------------
DEPT.M        00 001 00 00         : DEPTH        - DEPTH
DELT.US/F     00 520 00 00         : DELT         - SONIC TRAVEL TIME
GR  .API      00 310 00 00         : GR           - GAMMA RAY
CALI.MM       00 280 01 00         : CAL          - CALIPER
ILD .OHMM     00 120 00 00         : RESD         - DEEP RESISTIVITY (DIL)
~PARAMETER INFORMATION
#MNEM.UNIT           DATA             DESCRIPTION OF MNEMONIC
#---------         -----------     ------------------------------
GL  .M        901.355              : gl           - GROUND LEVEL ELEVATION
EREF.M        904.646              : kb           - ELEVATION OF DEPTH REFERENCE
DATM.M        904.646              : datum        - DATUM ELEVATION
TDD .M        857.098              : tdd          - TOTAL DEPTH DRILLER
RUN .         TWO                  : Run          - RUN NUMBER
ENG .         BLACKBURN            : Engineer     - RECORDING ENGINEER
WIT .         SANDERSON            : Witness      - WITNESSED BY
BASE.         EDMONTON             : Branch       - HOME BASE OF LOGGING UNIT
MUD .         GEL-CHEM             : Mud_type     - MUD TYPE
MATR.         SANDSTONE            : Logunit      - NEUTRON MATRIX
TMAX.C        27.7778              : BHT          - MAXIMUM RECORDED TEMPERATURE
BHTD.M        856.793              : BHTDEP       - MAXIMUM RECORDED TEMPERATURE
RMT .C        16.6667              : MDTP         - TEMPERATURE OF MUD
MUDD.KG/M     1116                 : MWT          - MUD DENSITY
NEUT.         1                    : NEUTRON      - NEUTRON TYPE
RESI.         0                    : RESIST       - RESISTIVITY TYPE
RM  .OHMM     5                    : RM           - RESISTIVITY OF MUD
RMC .OHMM     2.97                 : RMC          - RESISTIVITY OF MUD CAKE
RMF .OHMM     5.44                 : RMF          - RESISTIVITY OF MUD FILTRATE
SUFT.C        5                    : SUFT         - SURFACE TEMPERATURE
~A  DEPTH     DELT       GR      CAL     RESD
# ...
  768.924  365.623   86.428  215.858    5.866
  769.174  361.812   87.367  221.020    6.047
  769.424  357.393   89.555  216.023    6.125
  769.674  352.773   88.794  210.285    6.306
  769.924  347.348   82.784  208.043    6.570
  770.174  337.826   81.771  207.385    6.978
  770.424  339.990   80.563  207.995    7.489
  770.674  335.776   77.802  209.766    8.143
  770.924  326.655   73.642  210.808    8.469
  771.174  316.596   69.232  213.640    8.732
  771.424  310.366   66.371  217.217    8.419
  771.674  307.021   71.560  215.180    7.693
  771.924  327.663   74.650  214.736    7.132
  772.174  337.084   78.337  214.927    6.591
  772.424  346.240   79.878  216.598    6.216
  772.674  349.817   81.166  222.606    5.779
  772.924  352.252   89.305  224.700    5.568
  773.174  355.023   92.044  225.421    5.461
  773.424  358.733   91.134  226.878    5.993
  773.674  358.216   95.073  230.667    6.813
  773.924  362.530   95.611  232.866    8.086
  774.174  363.691   89.701  215.911    8.988
  774.424  323.799   79.691  214.402   10.220
  774.674  269.197   72.181  214.806   11.370
  774.924  256.582   67.171  208.962   12.128
  775.174  263.989   72.460  204.492   11.464
  775.424  293.298   83.398  203.732   10.655
  775.674  303.392   86.538  204.767    9.992
  775.924  313.153   83.227  209.293    9.246
  776.174  307.929   81.566  217.316    8.540
  776.424  303.308   85.305  221.735    8.124
  776.674  317.635   89.894  218.119    7.728
  776.924  325.781   90.432  215.343    7.249
  777.174  331.978   90.624  219.766    7.101
  777.424  338.578   95.962  216.247    7.137
  777.674  348.606   97.301  215.805    7.443
  777.924  349.027   89.941  221.282    7.953
  778.174  340.243   86.731  218.508    8.340
  778.424  327.829   89.068  211.714    8.974
  778.674  331.743   92.658  212.009    9.650
  778.924  335.051   91.348  212.728   10.182
  779.174  313.972   83.337  214.185   10.693
  779.424  296.320   78.177  217.339   11.244
  779.674  274.300   76.765  220.174   11.694
  779.924  288.629   81.204  218.774   12.205
  780.174  303.155   84.395  220.233   12.426
  780.424  289.736   77.084  223.281   12.401
  780.674  278.332   67.824  223.258   12.233
  780.924  270.622   65.064  221.225   11.589
  781.174  268.020   66.552  216.755   10.699
  781.424  286.175   71.141  212.178    9.396
  781.674  313.401   79.529  217.241    8.196
  781.924  330.280   83.670  216.897    7.367
  782.174  335.471   88.807  217.513    6.848
  782.424  343.617   88.846  219.607    6.555
  782.674  346.051   85.486  224.981    6.427
  782.924  344.858   83.375  225.376    6.463
  783.174  348.638   83.216  224.936    6.520
  783.424  353.760   83.405  223.322    6.578
  783.674  350.487   82.244  220.972    6.615
  783.924  348.486   80.833  216.931    6.816
  784.174  349.579   82.724  218.283    6.976
  784.424  349.663   86.012  222.596    7.014
  784.674  351.761   91.400  221.517    7.030
  784.924  352.384   91.089  219.379    6.943
  785.174  350.384   88.580  224.860    6.877
  785.424  343.951   85.919  231.713    7.017
  785.674  351.629   88.858  232.430    7.445
  785.924  351.915   92.946  226.591    7.008
  786.174  346.352   91.287  223.177    6.344
  786.424  336.293   96.775  222.842    5.803
  786.674  350.418   95.465  222.818    5.429
  786.924  361.989   95.154  225.442    4.929
  787.174  354.750   95.793  226.792    4.513
  787.424  334.142   90.884  225.606    4.014
  787.674  338.391   89.321  220.399    3.577
  787.924  376.634   94.160  215.614    3.077
  788.174  444.169   97.951  215.588    2.929
  788.424  458.161  100.940  217.472    2.862
  788.674  460.327  103.326  216.075    3.127
  788.924  421.983   78.868  211.926    3.678
  789.174  398.485   63.310  211.159    4.931
  789.424  355.237   50.649  210.714    7.832
  789.674  368.891   53.639  207.729   11.146
  789.924  383.084   58.578  202.095   14.480
  790.174  362.143   60.267  199.958   15.713
  790.424  356.716   57.756  205.437   16.470
  790.674  348.334   54.297  217.481   16.137
  790.924  287.684   50.885  220.421   13.803
  791.174  298.450   47.725  212.884   10.996
  791.424  384.595   48.565  209.580    8.312
  791.674  408.663   65.103  213.580    6.618
  791.924  350.567   73.240  219.904    5.500
  792.174  340.640   79.781  224.436    4.857
  792.424  361.887   91.669  218.381    4.461
  792.674  378.232   90.106  220.262    4.394
  792.924  355.673   87.047  223.197    4.473
  793.174  345.141   85.237  222.858    4.716
  793.424  352.145   89.675  218.607    5.226
  793.674  364.591   82.366  203.133    6.168
  793.924  348.417   67.206  199.831    6.866
  794.174  358.175   56.346  203.618    7.872
  794.424  367.265   52.184  202.643    9.042
  794.674  353.438   58.721  207.063   10.336
  794.924  324.164   63.263  216.034   11.486
  795.174  315.784   60.202  210.617   12.100
  795.424  306.191   50.193  209.853   13.683
  795.674  320.115   46.630  211.207   16.315
  795.924  330.482   47.320  210.973   16.950
  796.174  331.436   47.760  210.206   17.090
  796.424  332.266   46.599  210.182   16.694
  796.674  334.157   46.389  210.055   15.989
  796.924  334.913   46.328  210.139   15.016
  797.174  327.406   46.666  210.220   14.207
  797.424  327.022   48.355  210.197   13.461
  797.674  322.468   50.896  210.496   12.467
  797.924  311.869   54.384  210.368   11.803
  798.174  314.506   56.322  210.132   11.057
  798.424  320.705   54.563  210.428   10.104
  798.674  323.004   52.752  210.723    9.503
  798.924  322.484   53.441  210.806    8.900
  799.174  325.323   55.582  210.254    8.443
  799.424  327.555   57.969  210.230    7.882
  799.674  326.161   58.957  210.207    7.445
  799.924  321.542   58.597  209.972    7.461
  800.174  322.836   59.287  209.422    8.012
  800.424  324.129   61.178  208.976    8.730
  800.674  317.766   64.066  208.633   10.539
  800.924  308.442   63.006  208.720   12.121
  801.174  289.781   55.145  210.601   13.642
  801.424  264.739   47.984  217.879   15.348
  801.674  248.297   47.974  221.771   14.643
  801.924  255.300   52.114  213.599   12.702
  802.174  281.786   56.351  209.347   10.759
  802.424  294.032   59.391  209.536    9.725
  802.674  301.976   64.480  212.157    8.772
  802.924  307.769   67.869  212.134    8.479
  803.174  312.154   72.709  208.405    8.455
  803.424  313.714   73.296  207.326    8.306
  803.674  312.524   72.237  207.407    7.868
  803.924  305.552   68.775  207.811    7.493
  804.174  297.842   67.516  209.798    7.241
  804.424  303.099   77.154  214.324    6.989
  804.674  313.260   86.494  217.586    6.944
  804.924  326.713   92.482  219.149    6.939
  805.174  339.563   94.272  213.835    7.038
  805.424  341.527   88.511  209.368    7.034
  805.674  341.882   83.449  208.499    7.153
  805.924  332.625   81.240  214.510    7.252
  806.174  314.907   81.579  220.410    7.289
  806.424  301.419   80.819  220.493    7.408
  806.674  314.872   77.408  219.203    7.527
  806.924  319.191   70.897  217.909    7.811
  807.174  325.253   61.286  215.981    8.261
  807.424  340.116   63.327  213.419    9.554
  807.674  356.189   69.515  218.053    9.941
  807.924  360.035   64.805  216.654    8.536
  808.174  324.581   56.345  210.918    6.388
  808.424  305.449   47.435  218.196    5.147
  808.674  290.551   42.774  215.000    4.421
  808.924  329.400   49.613  216.879    4.065
  809.174  375.102   89.250  220.349    4.000
  809.424  419.458   93.539  220.325    4.222
  809.674  427.603   91.278  219.458    4.712
  809.924  413.714   86.267  216.791    5.285
  810.174  425.690   89.557  215.284    5.899
  810.424  416.032   94.897  217.908    6.595
  810.674  370.566   88.636  219.368    7.724
  810.924  358.825   79.723  218.605    8.503
  811.174  352.598   76.816  216.784    8.952
  811.424  348.915   79.354  215.914    8.494
  811.674  348.934   78.943  217.583    7.892
  811.924  353.384   76.031  219.889    7.207
  812.174  357.767   77.723  221.766    6.522
