~VERSION INFORMATION
 VERS.                 2.0:   CWLS LOG ASCII STANDARD -VERSION 2.0
 WRAP.                  NO:   ONE LINE PER DEPTH STEP
~WELL INFORMATION BLOCK
#MNEM.UNIT           DATA                    DESCRIPTION OF MNEMONIC
#---------    -------------------            -------------------------------
# Generated from Intellog Unique Number	CS_67_68/WELL/811
WELL.         DOME PETROLEUM LIMITED         : Well_name    - WELL
LOC .         00/10-28-068-03W4/0            : Location     - LOCATION
UWI .         00/10-28-068-03W4/0            : Uwi          - UNIQUE WELL ID
ENTR.         SP                             : Entered      - ENTERED BY
SRVC.         SCHLUMBERGER                   : Scn          - SERVICE COMPANY
STRT.M        395                            : top_depth    - START DEPTH
STOP.M        615                            : bot_depth    - STOP DEPTH
STEP.M        0.25                           : increment    - STEP LENGTH
 NULL. -999.2500:NULL Value
~CURVE INFORMATION BLOCK
#MNEM UNIT       ERCB CURVE CODE    CURVE DESCRIPTION
#-----------   ------------------   ----------------------------------
DEPT.M        00 001 00 00         : DEPTH        - DEPTH
GR  .API      00 310 00 00         : GR           - GAMMA RAY
NPHI.V/V      00 330 00 00         : PHIN         - NEUTRON POROSITY (LIMESTONE)
DPHI.V/V      00 890 00 00         : PHID         - DENSITY POROSITY (LIMESTONE)
ILD .OHMM     00 120 00 00         : RESD         - DEEP RESISTIVITY (DIL)
~PARAMETER INFORMATION
#MNEM.UNIT           DATA             DESCRIPTION OF MNEMONIC
#---------         -----------     ------------------------------
GL  .M        748.86               : gl           - GROUND LEVEL ELEVATION
EREF.M        752.86               : kb           - ELEVATION OF DEPTH REFERENCE
DATM.M        748.86               : datum        - DATUM ELEVATION
TDD .M        621                  : tdd          - TOTAL DEPTH DRILLER
RUN .         ONE                  : Run          - RUN NUMBER
ENG .         BILL                 : Engineer     - RECORDING ENGINEER
WIT .         JIM                  : Witness      - WITNESSED BY
MUD .         GEL                  : Mud_type     - MUD TYPE
MATR.         LIMESTONE            : Logunit      - NEUTRON MATRIX
TMAX.C        23.3                 : BHT          - MAXIMUM RECORDED TEMPERATURE
BHTD.M        621                  : BHTDEP       - MAXIMUM RECORDED TEMPERATURE
MATR.         1                    : LOGUNIT      - NEUTRON MATRIX
RMT .C        25                   : MDTP         - TEMPERATURE OF MUD
NEUT.         1                    : NEUTRON      - NEUTRON TYPE
RESI.         0                    : RESIST       - RESISTIVITY TYPE
RMC .OHMM     0.25                 : RMC          - RESISTIVITY OF MUD CAKE
RMF .OHMM     0.25                 : RMF          - RESISTIVITY OF MUD FILTRATE
SUFT.C        15                   : SUFT         - SURFACE TEMPERATURE
~A  DEPTH       GR     PHIN     PHID     RESD
  395.000   89.386    0.469    0.225    3.192
  395.250   89.501    0.478    0.233    3.132
  395.500   91.300    0.487    0.233    3.173
  395.750   92.556    0.466    0.218    3.214
  396.000   92.371    0.477    0.208    3.256
  396.250   94.289    0.510    0.200    3.298
  396.500   91.461    0.495    0.224    3.341
  396.750   90.195    0.470    0.238    3.391
  397.000   91.632    0.470    0.221    3.474
  397.250   91.627    0.486    0.213    3.539
  397.500   91.142    0.489    0.221    3.571
  397.750   95.703    0.486    0.235    3.453
  398.000   99.242    0.504    0.235    3.307
  398.250  100.259    0.500    0.232    3.221
  398.500   96.891    0.490    0.239    3.096
  398.750   97.126    0.483    0.229    3.038
  399.000   95.079    0.481    0.223    3.044
  399.250   93.332    0.493    0.225    3.141
  399.500   95.430    0.501    0.226    3.176
  399.750   98.489    0.501    0.226    3.206
  400.000   98.605    0.502    0.227    3.272
  400.250   93.554    0.474    0.232    3.351
  400.500   89.945    0.444    0.216    3.446
  400.750   86.997    0.438    0.206    3.524
  401.000   89.576    0.453    0.198    3.517
  401.250   91.734    0.463    0.200    3.483
  401.500   86.742    0.464    0.214    3.418
  401.750   84.756    0.470    0.228    3.298
  402.000   92.140    0.481    0.233    3.189
  402.250   92.796    0.483    0.208    3.118
  402.500   85.403    0.489    0.176    3.170
  402.750   77.829    0.515    0.109    3.842
  403.000   66.530    0.339    0.166    5.037
  403.250   58.898    0.312    0.255    6.679
  403.500   55.528    0.288    0.299    8.938
  403.750   53.661    0.274    0.320   11.141
  404.000   51.795    0.267    0.332   13.106
  404.250   49.988    0.268    0.310   14.361
  404.500   50.524    0.283    0.313   14.332
  404.750   43.972    0.297    0.299   12.929
  405.000   58.744    0.301    0.275   11.796
  405.250   66.369    0.312    0.218    9.710
  405.500   71.651    0.341    0.195    9.476
  405.750   54.765    0.369    0.257    8.924
  406.000   44.248    0.401    0.300    8.906
  406.250   38.357    0.369    0.327    9.107
  406.500   36.911    0.361    0.307    9.416
  406.750   47.959    0.338    0.255    9.593
  407.000   63.092    0.319    0.217    9.717
  407.250   70.717    0.339    0.197    9.412
  407.500   77.681    0.350    0.214    8.619
  407.750   88.730    0.359    0.225    7.820
  408.000   83.679    0.383    0.214    7.588
  408.250   76.406    0.395    0.242    7.643
  408.500   69.312    0.407    0.270    7.889
  408.750   63.061    0.372    0.289    8.219
  409.000   74.589    0.351    0.249    8.372
  409.250   81.914    0.385    0.217    8.216
  409.500   88.397    0.417    0.187    7.973
  409.750   88.753    0.431    0.204    7.722
  410.000   76.493    0.390    0.230    7.535
  410.250   61.891    0.359    0.252    7.562
  410.500   71.377    0.375    0.249    7.632
  410.750   78.520    0.411    0.216    7.659
  411.000   82.482    0.396    0.196    7.672
  411.250   83.378    0.376    0.190    7.714
  411.500   79.769    0.365    0.193    7.670
  411.750   79.344    0.386    0.186    7.583
  412.000   82.523    0.419    0.171    7.639
  412.250   84.381    0.431    0.194    7.752
  412.500   78.550    0.400    0.216    7.853
  412.750   71.696    0.372    0.220    7.881
  413.000   76.737    0.352    0.210    7.821
  413.250   80.518    0.371    0.210    7.661
  413.500   84.537    0.391    0.205    7.081
  413.750   85.975    0.407    0.182    6.719
  414.000   85.910    0.416    0.165    6.631
  414.250   81.821    0.404    0.192    6.642
  414.500   76.710    0.363    0.216    6.972
  414.750   71.840    0.338    0.210    7.428
  415.000   72.676    0.343    0.196    7.753
  415.250   78.499    0.364    0.183    7.551
  415.500   81.858    0.373    0.193    7.259
  415.750   84.316    0.377    0.210    7.005
  416.000   93.142    0.398    0.196    6.874
  416.250   95.721    0.415    0.177    6.720
  416.500   93.193    0.414    0.163    6.620
  416.750   89.103    0.402    0.156    6.693
  417.000   84.412    0.378    0.172    6.806
  417.250   82.246    0.356    0.184    7.103
  417.500   84.043    0.347    0.187    7.290
  417.750   89.085    0.356    0.181    7.399
  418.000   92.324    0.379    0.172    7.397
  418.250   94.001    0.407    0.197    7.466
  418.500   88.650    0.425    0.226    7.663
  418.750   79.935    0.441    0.282    8.443
  419.000   74.164    0.401    0.302    9.550
  419.250   70.615    0.386    0.276   10.701
  419.500   71.271    0.397    0.269   11.836
  419.750   71.927    0.382    0.265   12.969
  420.000   70.961    0.348    0.242   13.335
  420.250   68.194    0.355    0.200   13.234
  420.500   71.493    0.388    0.226   12.651
  420.750   74.612    0.414    0.251   11.892
  421.000   76.710    0.436    0.237   11.390
  421.250   78.867    0.452    0.225   10.827
  421.500   80.184    0.455    0.239   10.448
  421.750   79.339    0.463    0.237   10.101
  422.000   78.914    0.470    0.237    9.802
  422.250   81.312    0.459    0.246    9.619
  422.500   81.908    0.439    0.267    9.474
  422.750   74.575    0.421    0.279    9.437
  423.000   63.217    0.404    0.293    9.524
  423.250   54.261    0.393    0.308    9.630
  423.500   52.034    0.405    0.325    9.701
  423.750   53.531    0.420    0.342    9.645
  424.000   56.288    0.431    0.355    9.536
  424.250   58.988    0.411    0.347    9.410
  424.500   63.609    0.398    0.329    9.234
  424.750   69.371    0.387    0.319    9.130
  425.000   73.392    0.402    0.318    9.077
  425.250   71.344    0.402    0.315    9.025
  425.500   67.615    0.383    0.298    9.058
  425.750   67.010    0.369    0.274    9.056
  426.000   70.069    0.387    0.254    9.071
  426.250   65.559    0.401    0.275    9.053
  426.500   60.268    0.392    0.297    9.085
  426.750   58.161    0.388    0.315    9.152
  427.000   57.075    0.396    0.294    9.253
  427.250   57.551    0.396    0.281    9.287
  427.500   60.550    0.398    0.273    9.320
  427.750   61.026    0.404    0.307    9.284
  428.000   55.314    0.409    0.319    9.247
  428.250   58.254    0.415    0.316    9.211
  428.500   66.779    0.403    0.296    9.176
  428.750   72.421    0.393    0.269    9.038
  429.000   77.702    0.384    0.250    8.902
  429.250   79.200    0.381    0.237    8.542
  429.500   78.714    0.395    0.266    7.985
  429.750   79.611    0.409    0.297    7.734
  430.000   81.409    0.418    0.311    7.704
  430.250   80.503    0.419    0.293    7.833
  430.500   79.717    0.418    0.281    7.995
  430.750   80.072    0.420    0.273    7.978
  431.000   80.488    0.418    0.262    7.670
  431.250   80.605    0.409    0.255    7.103
  431.500   85.406    0.407    0.245    6.690
  431.750   88.885    0.422    0.242    6.383
  432.000   88.760    0.412    0.243    6.323
  432.250   84.851    0.398    0.248    6.489
  432.500   81.963    0.394    0.217    6.673
  432.750   79.135    0.402    0.187    6.900
  433.000   74.024    0.415    0.197    7.323
  433.250   75.220    0.432    0.223    7.559
  433.500   78.340    0.443    0.236    7.715
  433.750   80.858    0.453    0.241    7.874
  434.000   83.136    0.448    0.254    7.991
  434.250   84.514    0.434    0.258    7.740
  434.500   83.728    0.439    0.271    7.371
  434.750   82.642    0.465    0.289    7.274
  435.000   83.178    0.469    0.273    7.327
  435.250   85.576    0.465    0.260    7.381
  435.500   88.755    0.471    0.269    7.394
  435.750   90.193    0.452    0.286    7.269
  436.000   89.407    0.443    0.270    7.054
  436.250   89.883    0.453    0.256    6.807
  436.500   90.239    0.446    0.252    6.831
  436.750   89.393    0.434    0.252    6.959
  437.000   88.007    0.423    0.252    7.498
  437.250   85.539    0.416    0.251    7.899
  437.500   84.874    0.408    0.266    8.002
  437.750   89.976    0.401    0.277    8.259
  438.000   93.876    0.399    0.259    8.445
  438.250   90.447    0.408    0.253    8.459
