~VERSION INFORMATION
 VERS.                 2.0:   CWLS LOG ASCII STANDARD -VERSION 2.0
 WRAP.                  NO:   ONE LINE PER DEPTH STEP
~WELL INFORMATION BLOCK
#MNEM.UNIT           DATA                    DESCRIPTION OF MNEMONIC
#---------    -------------------            -------------------------------
# Generated from Intellog Unique Number	CC_88_90/WELL/2303
WELL.         JOLI FOU MINK                  : Well_name    - WELL
LOC .         00/11-11-090-12W4/0            : Location     - LOCATION
UWI .         00/11-11-090-12W400            : Uwi          - UNIQUE WELL ID
ENTR.         DW                             : Entered      - ENTERED BY
SRVC.         SCHLUMBERGER                   : Scn          - SERVICE COMPANY
STRT.M        100                            : top_depth    - START DEPTH
STOP.M        274.75                         : bot_depth    - STOP DEPTH
STEP.M        0.25                           : increment    - STEP LENGTH
 NULL. -999.2500:NULL Value
~CURVE INFORMATION BLOCK
#MNEM UNIT       ERCB CURVE CODE    CURVE DESCRIPTION
#-----------   ------------------   ----------------------------------
DEPT.M        00 001 00 00         : DEPTH        - DEPTH
GR  .API      00 310 00 00         : GR           - GAMMA RAY
DPHI.V/V      00 890 00 00         : PHID         - DENSITY POROSITY (SANDSTONE)
NPHI.V/V      00 330 00 00         : PHIN         - NEUTRON POROSITY (SANDSTONE)
ILD .OHMM     00 120 00 00         : RESD         - DEEP RESISTIVITY (DIL)
~PARAMETER INFORMATION
#MNEM.UNIT           DATA             DESCRIPTION OF MNEMONIC
#---------         -----------     ------------------------------
GL  .M        528.5                : gl           - GROUND LEVEL ELEVATION
EREF.M        530                  : kb           - ELEVATION OF DEPTH REFERENCE
DATM.M        530                  : datum        - DATUM ELEVATION
TDD .M        275                  : tdd          - TOTAL DEPTH DRILLER
RUN .         ONE                  : Run          - RUN NUMBER
ENG .         BILL                 : Engineer     - RECORDING ENGINEER
WIT .         JIM                  : Witness      - WITNESSED BY
MUD .         GEL                  : Mud_type     - MUD TYPE
MATR.         SANDSTONE            : Logunit      - NEUTRON MATRIX
TMAX.C        24                   : BHT          - MAXIMUM RECORDED TEMPERATURE
BHTD.M        275                  : BHTDEP       - MAXIMUM RECORDED TEMPERATURE
MATR.         1                    : LOGUNIT      - NEUTRON MATRIX
RMT .C        25                   : MDTP         - TEMPERATURE OF MUD
NEUT.         1                    : NEUTRON      - NEUTRON TYPE
RESI.         0                    : RESIST       - RESISTIVITY TYPE
RMC .OHMM     0.25                 : RMC          - RESISTIVITY OF MUD CAKE
RMF .OHMM     0.25                 : RMF          - RESISTIVITY OF MUD FILTRATE
SUFT.C        4                    : SUFT         - SURFACE TEMPERATURE
~A  DEPTH       GR     PHID     PHIN     RESD
# ...
  187.000   83.333    0.263    0.469    9.895
  187.250   88.103    0.256    0.486   10.206
  187.500   93.133    0.222    0.494   10.281
  187.750   92.807    0.224    0.491   10.239
  188.000   90.446    0.180    0.479   10.210
  188.250   84.057    0.077    0.465   10.253
  188.500   71.565    0.066    0.448   11.207
  188.750   71.751    0.109    0.398   13.380
  189.000   76.422    0.214    0.381   12.492
  189.250   80.756    0.254    0.438   10.776
  189.500   82.853    0.234    0.484   10.695
  189.750   83.318    0.228    0.464   11.188
  190.000   87.305    0.218    0.444   10.924
  190.250   94.839    0.228    0.434   10.303
  190.500   96.607    0.234    0.459    9.161
  190.750   94.630    0.233    0.493    8.122
  191.000   92.553    0.234    0.514    7.554
  191.250   92.486    0.237    0.518    7.469
  191.500   95.751    0.238    0.507    7.569
  191.750   97.021    0.244    0.505    6.800
  192.000   96.366    0.243    0.521    6.092
  192.250   97.065    0.248    0.559    5.629
  192.500   98.572    0.254    0.582    5.171
  192.750   98.607    0.247    0.583    4.677
  193.000   96.252    0.238    0.601    4.256
  193.250   89.760    0.226    0.610    4.101
  193.500   83.210    0.145    0.600    4.121
  193.750   83.058    0.127    0.587    4.614
  194.000   90.651    0.191    0.527    5.459
  194.250   99.139    0.232    0.458    6.179
  194.500  100.989    0.230    0.486    6.529
  194.750   98.215    0.227    0.510    6.449
  195.000   93.626    0.224    0.502    6.154
  195.250   94.287    0.224    0.482    5.914
  195.500   94.352    0.225    0.476    5.999
  195.750   90.797    0.222    0.494    6.486
  196.000   92.847    0.222    0.514    7.119
  196.250   96.265    0.232    0.498    7.501
  196.500  100.822    0.239    0.500    7.473
  196.750  101.879    0.230    0.512    7.201
  197.000   98.588    0.217    0.514    7.107
  197.250   95.412    0.219    0.504    7.451
  197.500   94.561    0.221    0.485    8.067
  197.750   93.551    0.202    0.466    8.713
  198.000   92.539    0.206    0.445    9.483
  198.250   93.880    0.217    0.470    9.918
  198.500   98.376    0.216    0.484   10.281
  198.750  102.108    0.202    0.459   10.695
  199.000   99.949    0.160    0.465   10.643
  199.250   93.410    0.104    0.458   10.644
  199.500   87.402    0.091    0.438   10.402
  199.750   89.596    0.153    0.421    9.887
  200.000   95.758    0.213    0.432    9.107
  200.250   97.205    0.220    0.466    8.052
  200.500   95.488    0.221    0.484    7.099
  200.750   97.048    0.218    0.493    6.826
  201.000  102.030    0.211    0.497    6.874
  201.250  103.249    0.209    0.492    7.151
  201.500  100.238    0.225    0.479    8.131
  201.750   97.295    0.248    0.458    9.656
  202.000   95.949    0.244    0.437   10.486
  202.250   97.461    0.226    0.448   10.031
  202.500   98.151    0.220    0.466    9.494
  202.750   99.070    0.224    0.483    9.095
  203.000   99.274    0.228    0.492    9.017
  203.250   98.190    0.231    0.486    9.378
  203.500   98.852    0.226    0.471    9.646
  203.750  100.355    0.210    0.452    9.525
  204.000  101.671    0.198    0.450    9.084
  204.250  101.658    0.194    0.447    8.776
  204.500  100.975    0.199    0.438    8.749
  204.750   97.501    0.210    0.450    8.959
  205.000   88.940    0.198    0.487    9.394
  205.250   83.998    0.114    0.495    9.708
  205.500   86.829    0.084    0.472    9.727
  205.750   90.815    0.151    0.432    9.020
  206.000   90.736    0.218    0.413    7.945
  206.250   89.368    0.233    0.441    6.964
  206.500   90.586    0.248    0.497    5.814
  206.750   91.567    0.264    0.540    4.572
  207.000   93.009    0.262    0.573    3.837
  207.250   94.292    0.249    0.592    3.488
  207.500   96.701    0.238    0.591    3.104
  207.750  100.234    0.230    0.575    2.876
  208.000  100.875    0.219    0.546    3.654
  208.250   97.470    0.216    0.490    5.612
  208.500   93.135    0.199    0.461    6.958
  208.750   89.934    0.198    0.458    8.010
  209.000   90.746    0.198    0.471    8.694
  209.250   92.702    0.183    0.497    8.680
  209.500   89.089    0.165    0.512    8.519
  209.750   84.063    0.113    0.498    7.915
  210.000   78.150    0.118    0.448    6.801
  210.250   74.239    0.197    0.424    4.528
  210.500   72.305    0.278    0.478    2.712
  210.750   72.046    0.313    0.572    2.442
  211.000   74.805    0.322    0.627    2.247
  211.250   76.546    0.314    0.651    2.232
  211.500   76.060    0.307    0.657    2.304
  211.750   74.083    0.294    0.649    2.537
  212.000   72.356    0.255    0.652    2.906
  212.250   72.433    0.229    0.619    3.465
  212.500   74.049    0.257    0.510    4.487
  212.750   75.144    0.255    0.486    5.833
  213.000   75.529    0.218    0.480    6.695
  213.250   76.771    0.190    0.478    6.681
  213.500   79.438    0.198    0.484    6.217
  213.750   82.442    0.226    0.491    5.537
  214.000   84.932    0.245    0.508    4.463
  214.250   86.796    0.256    0.534    3.594
  214.500   85.231    0.279    0.564    3.255
  214.750   86.223    0.279    0.591    3.204
  215.000   89.726    0.262    0.620    3.245
  215.250   91.040    0.255    0.616    3.366
  215.500   90.929    0.250    0.559    3.593
  215.750   91.370    0.245    0.556    4.007
  216.000   91.984    0.235    0.557    4.391
  216.250   92.058    0.225    0.540    4.579
  216.500   92.243    0.214    0.524    4.529
  216.750   92.674    0.205    0.527    4.375
  217.000   93.224    0.211    0.539    4.311
  217.250   96.180    0.243    0.524    4.303
  217.500   98.961    0.262    0.518    4.300
  217.750   98.542    0.260    0.558    4.305
  218.000   93.910    0.232    0.576    4.474
  218.250   87.754    0.199    0.530    4.899
  218.500   81.467    0.193    0.485    5.679
  218.750   70.478    0.167    0.449    7.181
  219.000   64.019    0.155    0.419    8.839
  219.250   61.858    0.190    0.405    9.449
  219.500   59.116    0.250    0.426    9.046
  219.750   53.641    0.295    0.452    8.455
  220.000   45.142    0.317    0.440    7.931
  220.250   34.971    0.319    0.439    7.429
  220.500   30.488    0.319    0.434    7.061
  220.750   30.846    0.321    0.432    6.715
  221.000   33.281    0.323    0.433    6.462
  221.250   35.316    0.321    0.436    6.392
  221.500   33.924    0.313    0.450    6.391
  221.750   30.690    0.298    0.450    6.482
  222.000   29.707    0.276    0.437    6.592
  222.250   31.481    0.281    0.396    6.633
  222.500   34.349    0.294    0.373    6.574
  222.750   35.557    0.301    0.390    6.447
  223.000   33.162    0.320    0.400    6.341
  223.250   29.510    0.294    0.423    6.334
  223.500   26.655    0.304    0.438    6.317
  223.750   24.417    0.307    0.416    6.385
  224.000   22.614    0.286    0.378    6.429
  224.250   21.032    0.274    0.358    6.449
  224.500   18.901    0.277    0.357    6.662
  224.750   16.718    0.292    0.375    6.769
  225.000   15.845    0.295    0.375    6.798
  225.250   15.688    0.270    0.375    6.676
  225.500   15.889    0.269    0.386    6.697
  225.750   16.411    0.300    0.390    6.893
  226.000   16.904    0.294    0.375    6.871
  226.250   17.888    0.290    0.363    6.969
  226.500   19.233    0.290    0.369    7.058
  226.750   23.741    0.294    0.389    7.240
  227.000   28.915    0.298    0.415    7.120
  227.250   31.184    0.293    0.438    8.146
  227.500   32.081    0.284    0.448   11.577
  227.750   32.488    0.276    0.440   13.047
  228.000   33.849    0.274    0.420   14.023
  228.250   35.112    0.276    0.399   15.177
  228.500   36.167    0.276    0.400   15.677
  228.750   37.868    0.276    0.414   15.143
  229.000   39.905    0.274    0.406   14.165
  229.250   42.930    0.258    0.401   13.289
  229.500   51.372    0.247    0.415   12.426
  229.750   59.512    0.240    0.430   11.844
  230.000   65.576    0.239    0.439   11.583
  230.250   70.491    0.245    0.442   11.398
