~VERSION INFORMATION
 VERS.                 2.0:   CWLS LOG ASCII STANDARD -VERSION 2.0
 WRAP.                  NO:   ONE LINE PER DEPTH STEP
~WELL INFORMATION BLOCK
#MNEM.UNIT           DATA                    DESCRIPTION OF MNEMONIC
#---------    -------------------            -------------------------------
# Generated from Intellog Unique Number	CS_73_76/WELL/2207
WELL.         HOUSTON OILS LIMITED           : Well_name    - WELL
LOC .         00/11-36-074-15W4/0            : Location     - LOCATION
UWI .         00/11-36-074-15W4/0            : Uwi          - UNIQUE WELL ID
ENTR.         SP                             : Entered      - ENTERED BY
SRVC.         SCHLUMBERGER                   : Scn          - SERVICE COMPANY
STRT.M        390.144                        : top_depth    - START DEPTH
STOP.M        606.394                        : bot_depth    - STOP DEPTH
STEP.M        0.25                           : increment    - STEP LENGTH
 NULL. -999.2500:NULL Value
~CURVE INFORMATION BLOCK
#MNEM UNIT       ERCB CURVE CODE    CURVE DESCRIPTION
#-----------   ------------------   ----------------------------------
DEPT.M        00 001 00 00         : DEPTH        - DEPTH
GR  .API      00 310 00 00         : GR           - GAMMA RAY
DPHI.V/V      00 890 00 00         : PHID         - DENSITY POROSITY (SANDSTONE)
NPHI.V/V      00 330 00 00         : PHIN         - NEUTRON POROSITY (SANDSTONE)
ILD .OHMM     00 120 00 00         : RESD         - DEEP RESISTIVITY (DIL)
~PARAMETER INFORMATION
#MNEM.UNIT           DATA             DESCRIPTION OF MNEMONIC
#---------         -----------     ------------------------------
GL  .M        748.589              : gl           - GROUND LEVEL ELEVATION
EREF.M        751.637              : kb           - ELEVATION OF DEPTH REFERENCE
DATM.M        748.589              : datum        - DATUM ELEVATION
TDD .M        608.99               : tdd          - TOTAL DEPTH DRILLER
RUN .         ONE                  : Run          - RUN NUMBER
ENG .         BILL                 : Engineer     - RECORDING ENGINEER
WIT .         JIM                  : Witness      - WITNESSED BY
MUD .         GEL                  : Mud_type     - MUD TYPE
MATR.         SANDSTONE            : Logunit      - NEUTRON MATRIX
TMAX.C        6.66667              : BHT          - MAXIMUM RECORDED TEMPERATURE
BHTD.M        608.99               : BHTDEP       - MAXIMUM RECORDED TEMPERATURE
MATR.         1                    : LOGUNIT      - NEUTRON MATRIX
RMT .C        25                   : MDTP         - TEMPERATURE OF MUD
NEUT.         1                    : NEUTRON      - NEUTRON TYPE
RESI.         0                    : RESIST       - RESISTIVITY TYPE
RMC .OHMM     0.25                 : RMC          - RESISTIVITY OF MUD CAKE
RMF .OHMM     0.25                 : RMF          - RESISTIVITY OF MUD FILTRATE
SUFT.C        15                   : SUFT         - SURFACE TEMPERATURE
~A  DEPTH       GR     PHID     PHIN     RESD
# ...
  477.144   66.926    0.326    0.513    8.424
  477.394   66.725    0.308    0.523    8.235
  477.644   64.961    0.299    0.510    7.493
  477.894   63.635    0.296    0.515    6.887
  478.144   61.922    0.289    0.533    6.088
  478.394   66.541    0.276    0.538    5.388
  478.644   71.900    0.260    0.539    4.458
  478.894   80.736    0.239    0.555    3.858
  479.144   88.373    0.221    0.571    3.490
  479.394   90.909    0.216    0.599    3.227
  479.644   89.937    0.215    0.615    2.983
  479.894   89.560    0.219    0.584    2.903
  480.144   91.298    0.216    0.570    2.812
  480.394   90.700    0.213    0.567    2.791
  480.644   87.191    0.221    0.573    2.787
  480.894   84.161    0.241    0.600    2.898
  481.144   79.742    0.250    0.547    3.321
  481.394   74.740    0.266    0.519    4.123
  481.644   70.069    0.283    0.492    5.738
  481.894   67.055    0.290    0.475    6.963
  482.144   72.217    0.288    0.464    6.765
  482.394   77.143    0.281    0.473    5.125
  482.644   81.152    0.277    0.533    4.206
  482.894   85.610    0.266    0.590    2.702
  483.144   90.827    0.253    0.614    2.219
  483.394   94.153    0.243    0.674    1.975
  483.644   97.226    0.246    0.691    1.775
  483.894   97.792    0.266    0.697    1.758
  484.144   93.056    0.276    0.677    1.890
  484.394   89.987    0.288    0.653    2.191
  484.644   83.540    0.287    0.617    3.007
  484.894   75.630    0.279    0.564    4.426
  485.144   74.568    0.274    0.551    5.748
  485.394   77.251    0.266    0.557    6.296
  485.644   78.489    0.256    0.547    6.610
  485.894   79.181    0.247    0.534    6.773
  486.144   78.558    0.239    0.523    6.889
  486.394   77.343    0.248    0.523    6.750
  486.644   75.477    0.261    0.536    6.761
  486.894   75.125    0.269    0.545    6.755
  487.144   73.362    0.268    0.542    6.696
  487.394   73.105    0.282    0.506    6.621
  487.644   76.308    0.283    0.496    6.427
  487.894   78.527    0.272    0.493    6.097
  488.144   75.540    0.282    0.517    5.926
  488.394   72.884    0.286    0.543    5.748
  488.644   76.691    0.285    0.557    5.570
  488.894   79.737    0.289    0.570    5.500
  489.144   78.755    0.287    0.541    5.488
  489.394   76.322    0.277    0.548    5.607
  489.644   73.854    0.277    0.546    5.595
  489.894   75.906    0.271    0.511    5.603
  490.144   79.574    0.262    0.477    5.480
  490.394   83.741    0.249    0.491    5.486
  490.644   86.229    0.238    0.500    5.482
  490.894   87.480    0.234    0.505    5.480
  491.144   84.590    0.228    0.511    5.477
  491.394   81.222    0.225    0.519    5.474
  491.644   81.048    0.220    0.500    5.471
  491.894   79.420    0.218    0.488    5.476
  492.144   76.672    0.230    0.525    5.333
  492.394   81.370    0.238    0.553    5.268
  492.644   83.994    0.232    0.566    5.071
  492.894   87.935    0.232    0.580    4.775
  493.144   86.747    0.240    0.570    4.716
  493.394   85.841    0.245    0.562    4.615
  493.644   82.086    0.251    0.560    4.626
  493.894   78.997    0.257    0.580    4.770
  494.144   74.296    0.263    0.584    4.912
  494.394   73.433    0.261    0.517    5.059
  494.644   75.689    0.265    0.492    5.222
  494.894   75.443    0.273    0.492    5.265
  495.144   75.113    0.279    0.480    5.335
  495.394   78.363    0.278    0.468    5.331
  495.644   81.097    0.258    0.456    5.326
  495.894   81.939    0.245    0.459    5.405
  496.144   78.767    0.227    0.463    5.729
  496.394   77.476    0.211    0.454    6.065
  496.644   77.104    0.194    0.423    6.434
  496.894   67.777    0.168    0.395    6.862
  497.144   63.130    0.126    0.308    7.137
  497.394   55.632    0.131    0.388    7.516
  497.644   64.568    0.185    0.460    7.375
  497.894   77.068    0.210    0.497    7.243
  498.144   83.513    0.219    0.525    7.167
  498.394   85.883    0.237    0.536    6.949
  498.644   88.297    0.248    0.532    6.612
  498.894   91.264    0.250    0.525    6.280
  499.144   92.420    0.250    0.519    5.985
  499.394   87.492    0.256    0.537    5.611
  499.644   80.766    0.270    0.547    5.429
  499.894   78.054    0.281    0.542    5.380
  500.144   74.256    0.296    0.536    5.447
  500.394   71.294    0.307    0.524    5.577
  500.644   69.354    0.311    0.522    5.682
  500.894   67.821    0.307    0.509    5.783
  501.144   65.854    0.301    0.509    5.775
  501.394   63.556    0.296    0.516    5.772
  501.644   60.385    0.306    0.488    5.766
  501.894   59.167    0.307    0.478    5.743
  502.144   60.662    0.307    0.486    5.661
  502.394   59.270    0.318    0.510    5.497
  502.644   58.701    0.312    0.508    5.335
  502.894   58.191    0.320    0.493    5.165
  503.144   57.464    0.324    0.493    5.112
  503.394   58.215    0.323    0.493    5.052
  503.644   60.514    0.324    0.494    4.965
  503.894   62.595    0.310    0.495    4.858
  504.144   63.571    0.307    0.482    4.867
  504.394   63.149    0.306    0.469    4.928
  504.644   62.859    0.302    0.462    4.969
  504.894   62.368    0.299    0.458    5.127
  505.144   63.076    0.305    0.476    5.291
  505.394   63.152    0.306    0.482    5.328
  505.644   65.763    0.303    0.472    5.592
  505.894   67.966    0.300    0.474    5.775
  506.144   67.078    0.300    0.485    5.820
  506.394   68.127    0.302    0.511    5.827
  506.644   68.967    0.303    0.524    5.664
  506.894   69.599    0.305    0.519    5.494
  507.144   68.960    0.307    0.535    5.228
  507.394   68.965    0.307    0.546    5.076
  507.644   70.170    0.308    0.527    4.925
  507.894   74.150    0.309    0.514    4.825
  508.144   76.223    0.303    0.530    4.827
  508.394   76.742    0.298    0.546    4.825
  508.644   76.816    0.291    0.542    4.820
  508.894   76.016    0.288    0.501    4.808
  509.144   74.465    0.296    0.494    4.728
  509.394   75.749    0.303    0.529    4.736
  509.644   78.729    0.306    0.549    4.636
  509.894   79.195    0.302    0.558    4.639
  510.144   80.225    0.295    0.538    4.636
  510.394   82.229    0.288    0.525    4.634
  510.644   84.672    0.294    0.515    4.572
  510.894   84.919    0.299    0.501    4.531
  511.144   82.859    0.289    0.514    4.314
  511.394   82.520    0.284    0.542    3.860
  511.644   82.374    0.272    0.541    3.532
  511.894   82.842    0.258    0.545    3.230
  512.144   84.035    0.242    0.558    2.889
  512.394   86.074    0.236    0.572    2.647
  512.644   88.528    0.242    0.596    2.492
  512.894   92.543    0.228    0.610    2.426
  513.144   96.099    0.222    0.603    2.427
  513.394   99.805    0.222    0.613    2.535
  513.644   99.983    0.222    0.607    2.709
  513.894   98.986    0.222    0.617    2.906
  514.144   98.984    0.225    0.594    3.308
  514.394   98.887    0.230    0.564    3.607
  514.644   97.864    0.230    0.524    3.952
  514.894   96.669    0.228    0.510    4.083
  515.144   93.906    0.225    0.504    4.112
  515.394   91.109    0.217    0.513    4.044
  515.644   91.988    0.210    0.539    4.006
  515.894   98.101    0.208    0.558    3.876
  516.144   99.184    0.216    0.564    3.817
  516.394   95.638    0.223    0.569    3.739
  516.644   96.111    0.234    0.575    3.670
  516.894   96.378    0.228    0.584    3.673
  517.144   94.228    0.237    0.585    3.686
  517.394   90.861    0.242    0.561    3.734
  517.644   85.540    0.244    0.543    3.776
  517.894   80.934    0.250    0.532    3.811
  518.144   76.139    0.254    0.527    3.869
  518.394   73.535    0.257    0.537    3.860
  518.644   75.583    0.257    0.554    3.946
  518.894   77.541    0.250    0.546    4.070
  519.144   80.306    0.234    0.502    4.102
  519.394   83.215    0.225    0.493    4.233
  519.644   85.679    0.207    0.502    4.402
  519.894   88.320    0.197    0.499    4.748
  520.144   89.653    0.189    0.487    5.069
  520.394   84.578    0.173    0.468    5.384
