~VERSION INFORMATION
 VERS.                 2.0:   CWLS LOG ASCII STANDARD -VERSION 2.0
 WRAP.                  NO:   ONE LINE PER DEPTH STEP
~WELL INFORMATION BLOCK
#MNEM.UNIT           DATA                    DESCRIPTION OF MNEMONIC
#---------    -------------------            -------------------------------
# Generated from Intellog Unique Number	CS_69_70/WELL/2902
WELL.         12-30-069-07W4                 : Well_name    - WELL
LOC .         00/12-30-069-07W4/0            : Location     - LOCATION
UWI .         00/12-30-069-07W4/0            : Uwi          - UNIQUE WELL ID
ENTR.         ANDERSEN                       : Entered      - ENTERED BY
SRVC.         SCHLUMBERGER                   : Scn          - SERVICE COMPANY
STRT.M        350                            : top_depth    - START DEPTH
STOP.M        540                            : bot_depth    - STOP DEPTH
STEP.M        0.25                           : increment    - STEP LENGTH
 NULL. -999.2500:NULL Value
~CURVE INFORMATION BLOCK
#MNEM UNIT       ERCB CURVE CODE    CURVE DESCRIPTION
#-----------   ------------------   ----------------------------------
DEPT.M        00 001 00 00         : DEPTH        - DEPTH
GR  .API      00 310 00 00         : GR           - GAMMA RAY
CALI.MM       00 280 01 00         : CAL          - CALIPER
NPHI.V/V      00 330 00 00         : PHIN         - NEUTRON POROSITY (SANDSTONE)
DPHI.V/V      00 890 00 00         : PHID         - DENSITY POROSITY (SANDSTONE)
ILD .OHMM     00 120 00 00         : RESD         - DEEP RESISTIVITY (DIL)
~PARAMETER INFORMATION
#MNEM.UNIT           DATA             DESCRIPTION OF MNEMONIC
#---------         -----------     ------------------------------
GL  .M        656.9                : gl           - GROUND LEVEL ELEVATION
EREF.M        660.6                : kb           - ELEVATION OF DEPTH REFERENCE
DATM.M        660.6                : datum        - DATUM ELEVATION
TDD .M        543                  : tdd          - TOTAL DEPTH DRILLER
RUN .         ONE                  : Run          - RUN NUMBER
ENG .         BILL                 : Engineer     - RECORDING ENGINEER
WIT .         JIM                  : Witness      - WITNESSED BY
MUD .         GEL                  : Mud_type     - MUD TYPE
MATR.         SANDSTONE            : Logunit      - NEUTRON MATRIX
TMAX.C        23                   : BHT          - MAXIMUM RECORDED TEMPERATURE
BHTD.M        543                  : BHTDEP       - MAXIMUM RECORDED TEMPERATURE
MATR.         1                    : LOGUNIT      - NEUTRON MATRIX
RMT .C        17                   : MDTP         - TEMPERATURE OF MUD
NEUT.         1                    : NEUTRON      - NEUTRON TYPE
RESI.         0                    : RESIST       - RESISTIVITY TYPE
RMC .OHMM     3.24                 : RMC          - RESISTIVITY OF MUD CAKE
RMF .OHMM     8.92                 : RMF          - RESISTIVITY OF MUD FILTRATE
SUFT.C        15                   : SUFT         - SURFACE TEMPERATURE
~A  DEPTH       GR      CAL     PHIN     PHID     RESD
# ...
  423.000   81.611  161.165    0.494    0.271    4.755
  423.250   79.362  159.337    0.486    0.290    4.763
  423.500   75.413  158.459    0.469    0.282    4.768
  423.750   70.335  157.581    0.455    0.292    4.776
  424.000   72.671  156.703    0.468    0.307    4.783
  424.250   70.992  156.776    0.484    0.321    4.790
  424.500   66.484  155.898    0.491    0.336    4.798
  424.750   66.528  155.971    0.484    0.339    4.720
  425.000   65.430  156.044    0.488    0.340    4.727
  425.250   62.622  156.135    0.475    0.344    4.735
  425.500   62.095  156.207    0.472    0.348    4.660
  425.750   62.139  156.317    0.480    0.347    4.663
  426.000   62.753  156.353    0.478    0.343    4.673
  426.250   64.497  156.444    0.466    0.342    4.680
  426.500   68.544  156.517    0.468    0.344    4.687
  426.750   73.151  156.589    0.478    0.348    4.692
  427.000   77.758  156.662    0.486    0.341    4.786
  427.250   82.935  157.686    0.473    0.319    4.884
  427.500   89.834  157.758    0.456    0.267    4.892
  427.750   90.448  161.634    0.432    0.270    4.899
  428.000   89.932  163.608    0.431    0.275    4.997
  428.250   87.695  163.681    0.439    0.281    5.484
  428.500   83.164  162.803    0.459    0.282    6.356
  428.750   75.222  161.925    0.471    0.285    8.531
  429.000   68.421  161.047    0.473    0.283   10.070
  429.250   61.620  160.169    0.452    0.212   12.335
  429.500   51.957  160.242    0.322    0.046   12.814
  429.750   47.448  161.283    0.222    0.077   12.145
  430.000   53.766  162.325    0.269    0.145    9.950
  430.250   58.943  164.299    0.339    0.163    8.154
  430.500   56.146  165.304    0.389    0.143    7.184
  430.750   57.319  167.278    0.376    0.167    6.217
  431.000   73.345  168.302    0.433    0.205    5.580
  431.250   79.663  169.325    0.454    0.225    5.291
  431.500   80.847  169.434    0.461    0.245    5.111
  431.750   87.176  168.557    0.461    0.256    5.117
  432.000   87.220  167.679    0.454    0.263    5.032
  432.250   86.123  168.702    0.445    0.260    5.042
  432.500   83.885  169.726    0.450    0.258    5.049
  432.750   81.647  170.749    0.462    0.262    5.057
  433.000   79.979  172.723    0.454    0.261    5.067
  433.250   79.453  173.765    0.444    0.251    5.073
  433.500   82.348  174.788    0.444    0.242    5.081
  433.750   85.825  175.793    0.450    0.243    5.091
  434.000   85.298  177.767    0.453    0.248    5.096
  434.250   83.631  178.791    0.462    0.253    5.012
  434.500   80.834  179.814    0.458    0.252    4.929
  434.750   82.007  179.887    0.459    0.241    4.759
  435.000   86.625  179.009    0.458    0.240    4.351
  435.250   86.098  178.131    0.455    0.264    3.765
  435.500   84.990  176.357    0.481    0.279    3.141
  435.750   85.626  175.443    0.515    0.293    2.622
  436.000   89.081  174.565    0.548    0.299    2.440
  436.250   94.258  171.786    0.555    0.293    2.272
  436.500   94.872  169.958    0.554    0.284    2.155
  436.750   91.493  169.080    0.570    0.288    2.118
  437.000   89.266  168.220    0.571    0.300    2.083
  437.250   91.010  168.275    0.571    0.309    2.087
  437.500   96.198  167.415    0.560    0.310    2.090
  437.750   97.964  166.555    0.535    0.302    2.093
  438.000   97.437  166.610    0.513    0.289    2.136
  438.250   95.189  166.683    0.552    0.277    2.179
  438.500   91.821  165.823    0.549    0.274    2.182
  438.750   90.724  165.878    0.539    0.298    2.186
  439.000   90.197  165.968    0.548    0.305    2.189
  439.250   90.800  166.041    0.565    0.311    2.192
  439.500   94.288  166.132    0.583    0.310    2.196
  439.750   96.613  166.169    0.587    0.304    2.239
  440.000   95.516  166.241    0.568    0.304    2.459
  440.250   92.697  166.332    0.543    0.302    2.600
  440.500   91.600  166.405    0.525    0.296    2.906
  440.750   88.791  166.514    0.507    0.287    3.248
  441.000   84.843  166.551    0.478    0.294    3.980
  441.250   80.334  167.610    0.458    0.302    4.446
  441.500   80.378  167.665    0.486    0.285    4.968
  441.750   80.992  167.738    0.486    0.255    5.759
  442.000   80.465  168.743    0.446    0.228    6.678
  442.250   78.787  168.834    0.434    0.212    7.744
  442.500   73.126  167.956    0.424    0.198    7.896
  442.750   62.903  167.078    0.422    0.180    7.765
  443.000   64.658  166.200    0.399    0.078    7.229
  443.250   77.261  167.224    0.345    0.122    6.489
  443.500   80.738  168.247    0.415    0.181    5.824
  443.750   80.782  170.221    0.439    0.208    5.624
  444.000   82.536  170.294    0.451    0.235    5.430
  444.250   83.721  168.502    0.444    0.234    5.340
  444.500   83.764  166.655    0.435    0.231    5.252
  444.750   83.238  165.777    0.429    0.233    5.165
  445.000   83.281  165.850    0.434    0.242    5.173
  445.250   83.336  165.923    0.446    0.267    5.477
  445.500   82.809  165.045    0.454    0.273    5.899
  445.750   81.701  164.185    0.461    0.275    7.492
  446.000   77.752  163.308    0.457    0.279    9.872
  446.250   72.092  162.430    0.431    0.286   11.443
  446.500   66.432  161.552    0.406    0.257   11.887
  446.750   65.335  161.625    0.373    0.204   10.287
  447.000   71.082  164.549    0.331    0.167    8.902
  447.250   80.263  167.492    0.394    0.246    8.141
  447.500   78.606  165.664    0.432    0.288    8.006
  447.750   75.217  162.866    0.454    0.288    7.873
  448.000   72.409  161.038    0.421    0.291    7.603
  448.250   73.593  161.111    0.370    0.305    7.206
  448.500   78.770  163.085    0.364    0.310    6.236
  448.750   90.233  165.077    0.391    0.286    5.702
  449.000   90.858  167.051    0.415    0.240    5.309
  449.250   89.179  168.074    0.417    0.236    5.126
  449.500   87.512  169.098    0.421    0.233    4.950
  449.750   86.415  169.189    0.425    0.236    4.958
  450.000   83.036  169.262    0.419    0.249    4.963
  450.250   79.657  169.334    0.412    0.258    4.973
  450.500   79.141  169.407    0.402    0.254    4.983
  450.750   79.755  169.480    0.419    0.248    5.271
  451.000   78.088  169.553    0.430    0.253    5.577
  451.250   74.698  168.693    0.430    0.264    6.007
  451.500   66.757  168.766    0.405    0.273    6.240
  451.750   59.956  168.839    0.396    0.267    6.136
  452.000   55.436  168.911    0.373    0.191    4.847
  452.250   58.332  168.984    0.334    0.151    3.369
  452.500   67.513  169.057    0.401    0.175    2.811
  452.750   77.253  169.130    0.468    0.262    2.433
  453.000   80.730  169.202    0.520    0.298    2.307
  453.250   78.481  169.275    0.553    0.309    2.269
  453.500   77.976  169.348    0.539    0.312    2.314
  453.750   81.431  169.421    0.503    0.310    2.585
  454.000   82.626  169.494    0.519    0.304    2.889
  454.250   80.378  169.566    0.535    0.288    3.949
  454.500   74.158  170.590    0.471    0.277    4.924
  454.750   72.491  170.663    0.423    0.290    5.708
  455.000   70.812  171.704    0.410    0.280    6.155
  455.250   67.433  172.728    0.393    0.187    5.836
  455.500   68.618  172.800    0.372    0.159    5.433
  455.750   73.795  173.824    0.407    0.174    5.056
  456.000   76.131  174.865    0.423    0.198    4.709
  456.250   72.753  174.938    0.427    0.236    4.547
  456.500   70.526  174.993    0.412    0.233    4.310
  456.750   70.569  175.066    0.396    0.218    4.086
  457.000   72.884  176.107    0.403    0.210    3.806
  457.250   77.490  176.180    0.417    0.225    3.742
  457.500   83.830  176.253    0.445    0.228    3.679
  457.750   85.004  176.344    0.460    0.229    3.894
  458.000   85.047  176.416    0.477    0.233    4.194
  458.250   85.091  176.489    0.474    0.231    4.775
  458.500   82.864  176.544    0.441    0.222    5.637
  458.750   82.337  176.635    0.414    0.211    6.186
  459.000   84.081  176.708    0.401    0.203    6.544
  459.250   84.136  176.780    0.418    0.172    6.438
