~VERSION INFORMATION
 VERS.                 2.0:   CWLS LOG ASCII STANDARD -VERSION 2.0
 WRAP.                  NO:   ONE LINE PER DEPTH STEP
~WELL INFORMATION BLOCK
#MNEM.UNIT           DATA                    DESCRIPTION OF MNEMONIC
#---------    -------------------            -------------------------------
# Generated from Intellog Unique Number	CS_71_72/WELL/888
WELL.         MAYNARD ET AL TWEEDIE          : Well_name    - WELL
LOC .         00/11-06-072-12W4/0            : Location     - LOCATION
UWI .         00/11-06-072-12W4/0            : Uwi          - UNIQUE WELL ID
ENTR.         SP                             : Entered      - ENTERED BY
SRVC.         SCHLUMBERGER                   : Scn          - SERVICE COMPANY
STRT.M        290                            : top_depth    - START DEPTH
STOP.M        525                            : bot_depth    - STOP DEPTH
STEP.M        0.25                           : increment    - STEP LENGTH
 NULL. -999.2500:NULL Value
~CURVE INFORMATION BLOCK
#MNEM UNIT       ERCB CURVE CODE    CURVE DESCRIPTION
#-----------   ------------------   ----------------------------------
DEPT.M        00 001 00 00         : DEPTH        - DEPTH
ILD .OHMM     00 120 00 00         : RESD         - DEEP RESISTIVITY (DIL)
DPHI.V/V      00 890 00 00         : PHID         - DENSITY POROSITY (LIMESTONE)
NPHI.V/V      00 330 00 00         : PHIN         - NEUTRON POROSITY (LIMESTONE)
GR  .API      00 310 00 00         : GR           - GAMMA RAY
~PARAMETER INFORMATION
#MNEM.UNIT           DATA             DESCRIPTION OF MNEMONIC
#---------         -----------     ------------------------------
GL  .M        620.85               : gl           - GROUND LEVEL ELEVATION
EREF.M        624.2                : kb           - ELEVATION OF DEPTH REFERENCE
DATM.M        620.85               : datum        - DATUM ELEVATION
TDD .M        540                  : tdd          - TOTAL DEPTH DRILLER
RUN .         ONE                  : Run          - RUN NUMBER
ENG .         BILL                 : Engineer     - RECORDING ENGINEER
WIT .         JIM                  : Witness      - WITNESSED BY
MUD .         GEL                  : Mud_type     - MUD TYPE
MATR.         LIMESTONE            : Logunit      - NEUTRON MATRIX
TMAX.C        20                   : BHT          - MAXIMUM RECORDED TEMPERATURE
BHTD.M        540                  : BHTDEP       - MAXIMUM RECORDED TEMPERATURE
MATR.         1                    : LOGUNIT      - NEUTRON MATRIX
RMT .C        25                   : MDTP         - TEMPERATURE OF MUD
NEUT.         1                    : NEUTRON      - NEUTRON TYPE
RESI.         0                    : RESIST       - RESISTIVITY TYPE
RMC .OHMM     0.25                 : RMC          - RESISTIVITY OF MUD CAKE
RMF .OHMM     0.25                 : RMF          - RESISTIVITY OF MUD FILTRATE
SUFT.C        15                   : SUFT         - SURFACE TEMPERATURE
~A  DEPTH     RESD     PHID     PHIN       GR
# ...
  420.500    4.416    0.306    0.486   87.793
  420.750    4.500    0.321    0.483   89.019
  421.000    4.583    0.318    0.481   89.025
  421.250    4.585    0.315    0.473   88.430
  421.500    4.669    0.312    0.462   83.585
  421.750    4.671    0.311    0.455   84.811
  422.000    4.753    0.303    0.472   87.863
  422.250    4.755    0.293    0.487   90.299
  422.500    4.757    0.287    0.492   92.743
  422.750    4.760    0.282    0.486   94.577
  423.000    4.763    0.283    0.482   97.019
  423.250    4.685    0.270    0.479   98.854
  423.500    4.686    0.261    0.479   99.471
  423.750    4.689    0.258    0.485   96.452
  424.000    4.691    0.257    0.494   95.244
  424.250    4.775    0.267    0.498   92.829
  424.500    4.777    0.276    0.508   92.840
  424.750    4.861    0.277    0.504   95.286
  425.000    4.944    0.269    0.489   97.117
  425.250    5.029    0.265    0.480   98.958
  425.500    4.948    0.265    0.482   99.573
  425.750    4.952    0.270    0.485  100.194
  426.000    4.873    0.276    0.494   99.595
  426.250    4.875    0.271    0.504   99.607
  426.500    4.877    0.267    0.503  101.445
  426.750    4.798    0.257    0.493  102.060
  427.000    4.721    0.248    0.486  101.468
  427.250    4.642    0.249    0.494  100.871
  427.500    4.563    0.259    0.498  100.277
  427.750    4.484    0.266    0.501  103.932
  428.000    4.325    0.269    0.508  103.336
  428.250    4.084    0.272    0.511  102.136
  428.500    3.764    0.281    0.513  102.155
  428.750    3.604    0.286    0.528  103.380
  429.000    3.444    0.280    0.543  104.601
  429.250    3.284    0.274    0.552  107.649
  429.500    3.125    0.268    0.535  110.090
  429.750    3.046    0.266    0.512  108.889
  430.000    3.210    0.260    0.474  105.260
  430.250    3.618    0.234    0.409   99.806
  430.500    4.025    0.200    0.372   93.745
  430.750    4.432    0.179    0.360   90.720
  431.000    5.164    0.160    0.350   91.339
  431.250    5.652    0.188    0.364   94.386
  431.500    5.654    0.214    0.413  100.475
  431.750    5.090    0.242    0.438  104.129
  432.000    4.930    0.246    0.472  107.783
  432.250    4.528    0.226    0.485  105.369
  432.500    4.287    0.216    0.491  103.558
  432.750    4.533    0.209    0.450  101.747
  433.000    4.697    0.210    0.404   94.474
  433.250    5.024    0.200    0.382   87.809
  433.500    5.269    0.187    0.368   84.782
  433.750    5.433    0.172    0.358   83.579
  434.000    5.597    0.188    0.374   90.273
  434.250    5.519    0.212    0.416   92.103
  434.500    5.360    0.208    0.435   94.544
  434.750    5.280    0.201    0.455   96.383
  435.000    5.202    0.202    0.420   97.611
  435.250    5.285    0.197    0.371   96.405
  435.500    5.530    0.187    0.347   87.307
  435.750    5.938    0.160    0.325   81.854
  436.000    6.183    0.147    0.313   76.401
  436.250    6.510    0.150    0.316   78.841
  436.500    6.431    0.188    0.372   89.179
  436.750    6.109    0.208    0.411   94.656
  437.000    5.788    0.212    0.460   97.704
  437.250    5.549    0.208    0.476   93.466
  437.500    5.469    0.197    0.474   94.699
  437.750    5.472    0.185    0.470   94.706
  438.000    5.636    0.174    0.462   97.755
  438.250    5.719    0.175    0.448  103.237
  438.500    5.721    0.195    0.449  105.673
  438.750    5.481    0.227    0.460  109.936
  439.000    5.322    0.234    0.454  112.985
  439.250    5.082    0.232    0.452  112.394
  439.500    5.003    0.227    0.452  113.618
  439.750    4.923    0.224    0.457  114.236
  440.000    4.846    0.222    0.467  114.863
  440.250    4.848    0.224    0.479  114.263
  440.500    4.851    0.227    0.489  108.201
  440.750    4.853    0.225    0.494  101.537
  441.000    4.854    0.220    0.487   97.902
  441.250    4.857    0.223    0.468   94.880
  441.500    4.941    0.231    0.465   95.497
  441.750    4.863    0.233    0.459   96.727
  442.000    4.864    0.221    0.450   97.954
  442.250    4.867    0.222    0.442   97.968
  442.500    4.788    0.232    0.439   97.371
  442.750    4.629    0.252    0.453   96.165
  443.000    4.631    0.257    0.459   94.965
  443.250    4.471    0.257    0.454   96.797
  443.500    4.393    0.242    0.460  101.064
  443.750    4.234    0.236    0.468  102.894
  444.000    4.074    0.233    0.468  100.478
  444.250    3.752    0.246    0.463   99.887
  444.500    3.188    0.253    0.467   99.894
  444.750    2.866    0.263    0.500  101.732
  445.000    2.464    0.274    0.530   99.921
  445.250    2.223    0.277    0.555  101.149
  445.500    2.064    0.275    0.569  104.201
  445.750    2.066    0.271    0.585  105.424
  446.000    2.150    0.265    0.594  106.046
  446.250    2.314    0.259    0.598  106.056
  446.500    2.478    0.243    0.595  105.465
  446.750    2.805    0.235    0.564  104.257
  447.000    3.131    0.229    0.522   99.410
  447.250    3.377    0.232    0.509   93.351
  447.500    3.622    0.236    0.491   94.578
  447.750    3.705    0.241    0.500   97.627
  448.000    3.870    0.249    0.508  100.066
  448.250    3.953    0.242    0.499  101.903
  448.500    4.036    0.235    0.491  100.098
  448.750    4.363    0.221    0.475   99.497
  449.000    4.851    0.215    0.463   98.293
  449.250    5.339    0.202    0.456   95.879
  449.500    5.746    0.188    0.413   77.670
  449.750    6.073    0.133    0.348   71.005
  450.000    6.318    0.117    0.314   75.874
  450.250    6.402    0.143    0.328   83.172
  450.500    5.999    0.186    0.379   92.902
  450.750    5.354    0.208    0.426   98.380
  451.000    4.708    0.224    0.461   99.609
  451.250    4.225    0.230    0.473  100.225
  451.500    3.741    0.221    0.484  101.453
  451.750    3.501    0.233    0.492  104.507
  452.000    3.261    0.225    0.505  105.731
  452.250    3.101    0.220    0.511  108.173
  452.500    2.941    0.221    0.514  110.005
  452.750    2.863    0.222    0.525  110.626
  453.000    2.865    0.225    0.548  110.638
  453.250    2.786    0.228    0.547  114.901
  453.500    2.789    0.231    0.548  116.128
  453.750    2.791    0.227    0.547  112.496
  454.000    2.714    0.226    0.549  108.869
  454.250    2.716    0.227    0.554  108.879
  454.500    2.718    0.227    0.534  108.281
  454.750    2.720    0.220    0.525  105.259
  455.000    2.804    0.212    0.526  108.918
  455.250    2.968    0.210    0.527  111.358
  455.500    3.051    0.210    0.532  112.582
  455.750    3.134    0.213    0.527  109.556
  456.000    3.218    0.222    0.521  110.177
  456.250    3.301    0.233    0.535  112.012
  456.500    3.304    0.233    0.536  111.415
  456.750    3.306    0.228    0.524  108.392
  457.000    3.228    0.225    0.518  104.765
  457.250    3.150    0.230    0.511  105.379
  457.500    3.151    0.234    0.520  110.256
  457.750    3.073    0.228    0.527  112.691
  458.000    2.995    0.220    0.533  116.348
  458.250    2.997    0.213    0.540  118.788
  458.500    3.080    0.206    0.529  120.017
  458.750    3.487    0.193    0.493  107.276
  459.000    4.056    0.172    0.411   99.391
  459.250    4.788    0.154    0.394   92.117
  459.500    5.843    0.138    0.386   86.663
  459.750    6.655    0.125    0.380   77.565
  460.000    7.143    0.139    0.388   91.549
  460.250    7.550    0.156    0.399   95.201
  460.500    7.715    0.165    0.417   86.105
  460.750    7.799    0.172    0.407   81.869
  461.000    7.800    0.180    0.400   83.700
  461.250    7.884    0.224    0.394   83.106
  461.500    8.372    0.244    0.404   80.080
  461.750    9.186    0.259    0.410   76.453
  462.000    9.673    0.270    0.414   75.247
  462.250   10.080    0.266    0.423   75.265
  462.500   10.649    0.261    0.425   75.277
  462.750   11.057    0.256    0.426   75.897
  463.000   11.302    0.250    0.426   76.515
  463.250   11.385    0.249    0.425   77.134
  463.500   11.630    0.251    0.422   77.753
  463.750   12.038    0.249    0.415   78.979
