~VERSION INFORMATION
 VERS.                 2.0:   CWLS LOG ASCII STANDARD -VERSION 2.0
 WRAP.                  NO:   ONE LINE PER DEPTH STEP
~WELL INFORMATION BLOCK
#MNEM.UNIT           DATA                    DESCRIPTION OF MNEMONIC
#---------    -------------------            -------------------------------
# Generated from Intellog Unique Number	CS_71_72/WELL/851
WELL.         PEX PHILLIPS AEC KIRBY         : Well_name    - WELL
LOC .         00/10-08-072-07W4/0            : Location     - LOCATION
UWI .         00/10-08-072-07W4/0            : Uwi          - UNIQUE WELL ID
ENTR.         SP                             : Entered      - ENTERED BY
SRVC.         SCHLUMBERGER                   : Scn          - SERVICE COMPANY
STRT.M        310                            : top_depth    - START DEPTH
STOP.M        525                            : bot_depth    - STOP DEPTH
STEP.M        0.25                           : increment    - STEP LENGTH
 NULL. -999.2500:NULL Value
~CURVE INFORMATION BLOCK
#MNEM UNIT       ERCB CURVE CODE    CURVE DESCRIPTION
#-----------   ------------------   ----------------------------------
DEPT.M        00 001 00 00         : DEPTH        - DEPTH
ILD .OHMM     00 120 00 00         : RESD         - DEEP RESISTIVITY (DIL)
DPHI.V/V      00 890 00 00         : PHID         - DENSITY POROSITY (LIMESTONE)
NPHI.V/V      00 330 00 00         : PHIN         - NEUTRON POROSITY (LIMESTONE)
GR  .API      00 310 00 00         : GR           - GAMMA RAY
~PARAMETER INFORMATION
#MNEM.UNIT           DATA             DESCRIPTION OF MNEMONIC
#---------         -----------     ------------------------------
GL  .M        672.83               : gl           - GROUND LEVEL ELEVATION
EREF.M        675.83               : kb           - ELEVATION OF DEPTH REFERENCE
DATM.M        672.83               : datum        - DATUM ELEVATION
TDD .M        540                  : tdd          - TOTAL DEPTH DRILLER
RUN .         ONE                  : Run          - RUN NUMBER
ENG .         BILL                 : Engineer     - RECORDING ENGINEER
WIT .         JIM                  : Witness      - WITNESSED BY
MUD .         GEL                  : Mud_type     - MUD TYPE
MATR.         LIMESTONE            : Logunit      - NEUTRON MATRIX
TMAX.C        20                   : BHT          - MAXIMUM RECORDED TEMPERATURE
BHTD.M        540                  : BHTDEP       - MAXIMUM RECORDED TEMPERATURE
MATR.         1                    : LOGUNIT      - NEUTRON MATRIX
RMT .C        25                   : MDTP         - TEMPERATURE OF MUD
NEUT.         1                    : NEUTRON      - NEUTRON TYPE
RESI.         0                    : RESIST       - RESISTIVITY TYPE
RMC .OHMM     0.25                 : RMC          - RESISTIVITY OF MUD CAKE
RMF .OHMM     0.25                 : RMF          - RESISTIVITY OF MUD FILTRATE
SUFT.C        15                   : SUFT         - SURFACE TEMPERATURE
~A  DEPTH     RESD     PHID     PHIN       GR
  310.000    4.202    0.194    0.375  115.714
  310.250    4.361    0.189    0.364  121.840
  310.500    4.611    0.177    0.371  124.293
  310.750    4.610    0.164    0.381  129.194
  311.000    4.785    0.145    0.385  127.973
  311.250    4.783    0.125    0.375  113.895
  311.500    4.693    0.105    0.365  110.839
  311.750    4.605    0.120    0.381  112.678
  312.000    4.518    0.181    0.385  115.131
  312.250    4.351    0.182    0.389  110.848
  312.500    4.036    0.188    0.398  109.627
  312.750    3.886    0.181    0.393  116.366
  313.000    3.886    0.180    0.415  119.431
  313.250    4.109    0.171    0.424  122.495
  313.500    4.345    0.170    0.421  121.275
  313.750    4.509    0.181    0.420  116.992
  314.000    4.680    0.189    0.390  114.547
  314.250    4.678    0.187    0.384  113.325
  314.500    4.422    0.177    0.382  111.492
  314.750    4.258    0.165    0.386  105.986
  315.000    4.101    0.168    0.390  103.540
  315.250    4.099    0.173    0.395  107.218
  315.500    4.335    0.181    0.396  113.956
  315.750    5.034    0.168    0.413  117.633
  316.000    5.956    0.176    0.399  118.861
  316.250    7.180    0.173    0.382  116.415
  316.500    9.684    0.161    0.361  105.399
  316.750   12.821    0.182    0.343   88.259
  317.000   14.888    0.266    0.317   77.243
  317.250   17.287    0.286    0.336   72.348
  317.500   17.610    0.297    0.339   80.311
  317.750   17.937    0.298    0.328   82.151
  318.000   15.729    0.236    0.320   79.093
  318.250   13.538    0.060    0.310   83.995
  318.500   11.873    0.031    0.295   77.877
  318.750   10.029    0.220    0.299   86.451
  319.000    8.795    0.264    0.316   91.353
  319.250    8.312    0.284    0.331   90.743
  319.500    9.652    0.311    0.371   88.910
  319.750   12.079    0.363    0.391   89.526
  320.000   14.027    0.383    0.375  107.897
  320.250   16.289    0.245    0.354  115.247
  320.500   17.882    0.231    0.337   83.414
  320.750   19.265    0.256    0.319   54.031
  321.000   19.626    0.278    0.312   42.403
  321.250   19.619    0.289    0.306   40.568
  321.500   18.541    0.295    0.309   38.123
  321.750   17.856    0.298    0.315   41.189
  322.000   16.876    0.300    0.319   42.416
  322.250   16.248    0.297    0.317   44.256
  322.500   15.648    0.288    0.327   52.219
  322.750   15.354    0.288    0.337   66.916
  323.000   15.066    0.279    0.323   73.042
  323.250   14.509    0.268    0.295   75.494
  323.500   13.712    0.256    0.288   62.641
  323.750   12.958    0.213    0.305   48.564
  324.000   12.716    0.202    0.325   85.301
  324.250   12.246    0.199    0.333  101.836
  324.500   11.791    0.206    0.327  105.512
  324.750   11.789    0.199    0.322  101.230
  325.000   12.008    0.182    0.327  100.009
  325.250   12.462    0.188    0.323  111.034
  325.500   13.177    0.199    0.317  115.323
  325.750   13.677    0.211    0.333  117.776
  326.000   14.194    0.205    0.340  117.779
  326.250   14.191    0.221    0.331  118.394
  326.500   14.186    0.230    0.338  105.541
  326.750   13.920    0.243    0.334   96.974
  327.000   13.658    0.249    0.328   93.304
  327.250   12.434    0.246    0.334   98.205
  327.500   11.109    0.252    0.335  101.269
  327.750   10.114    0.255    0.337   99.436
  328.000    9.740    0.268    0.346   99.440
  328.250    9.737    0.274    0.351  104.343
  328.500   10.297    0.279    0.356  106.182
  328.750   10.687    0.283    0.357  101.899
  329.000   11.731    0.157    0.343   92.107
  329.250   12.176    0.115    0.326   87.213
  329.500   13.367    0.101    0.316   96.400
  329.750   14.401    0.100    0.322  106.813
  330.000   14.671    0.096    0.311  110.489
  330.250   15.514    0.041    0.305  111.716
  330.500   15.508    0.081    0.306  106.210
  330.750   14.935    0.118    0.317   92.744
  331.000   14.114    0.137    0.330   79.890
  331.250   13.593    0.195    0.334   69.487
  331.500   12.374    0.275    0.323   64.591
  331.750   11.478    0.268    0.324   64.595
  332.000   10.450    0.252    0.323   70.109
  332.250    9.513    0.234    0.316   75.623
  332.500    8.824    0.191    0.315   89.096
  332.750    8.185    0.168    0.319   95.221
  333.000    7.452    0.146    0.329  103.184
  333.250    6.913    0.124    0.344  112.372
  333.500    6.294    0.103    0.360  118.498
  333.750    5.729    0.090    0.363  125.847
  334.000    5.315    0.102    0.351  130.750
  334.250    4.748    0.157    0.363  133.203
  334.500    4.573    0.147    0.382  137.491
  334.750    4.242    0.135    0.393  139.331
  335.000    4.009    0.129    0.391  138.723
  335.250    3.789    0.123    0.378  135.054
  335.500    4.160    0.115    0.384  133.219
  335.750    5.014    0.154    0.384  138.734
  336.000    5.609    0.174    0.404  140.574
  336.250    6.761    0.180    0.400  143.640
  336.500    7.706    0.202    0.386  143.642
  336.750   10.012    0.212    0.372  138.748
  337.000   12.768    0.226    0.356  123.445
  337.250   15.392    0.245    0.342   94.061
  337.500   17.217    0.265    0.344   83.657
  337.750   16.892    0.286    0.330   75.701
  338.000   16.265    0.286    0.322   75.704
  338.250   15.960    0.289    0.317   81.831
  338.500   15.956    0.300    0.312   83.059
  338.750   15.653    0.305    0.320   90.410
  339.000   15.649    0.313    0.336   87.964
  339.250   15.645    0.302    0.351   78.784
  339.500   15.351    0.295    0.334   72.665
  339.750   15.347    0.287    0.324   66.545
  340.000   15.343    0.285    0.318   78.182
  340.250   15.630    0.287    0.308   87.370
  340.500   15.623    0.289    0.309   94.720
  340.750   15.619    0.291    0.311  102.070
  341.000   15.616    0.286    0.303  119.216
  341.250   15.610    0.281    0.302  135.750
  341.500   15.606    0.281    0.318  147.386
  341.750   15.313    0.284    0.315  138.819
  342.000   15.024    0.284    0.311  144.945
  342.250   15.021    0.284    0.314  135.765
  342.500   15.017    0.287    0.321  124.136
  342.750   14.733    0.292    0.323  132.098
  343.000   15.006    0.291    0.328  144.959
  343.250   15.003    0.304    0.340  116.799
  343.500   15.000    0.315    0.335  107.619
  343.750   14.869    0.325    0.331   98.439
  344.000   14.713    0.317    0.337  112.525
  344.250   14.986    0.313    0.341  124.773
  344.500   15.553    0.318    0.334  135.184
  344.750   15.549    0.315    0.331  144.371
  345.000   15.839    0.309    0.346  134.580
  345.250   15.834    0.299    0.346  126.624
  345.500   16.128    0.298    0.335  122.343
  345.750   16.428    0.298    0.336  121.121
  346.000   16.423    0.277    0.356  118.063
  346.250   16.728    0.259    0.348  105.210
  346.500   16.723    0.246    0.348   97.254
  346.750   16.719    0.247    0.338   98.483
  347.000   16.715    0.243    0.329  100.935
  347.250   16.711    0.232    0.342  100.326
  347.500   16.705    0.227    0.338   97.880
  347.750   16.702    0.226    0.331   83.192
  348.000   17.012    0.244    0.320   78.296
  348.250   17.009    0.260    0.310   69.728
  348.500   16.687    0.280    0.329   60.548
  348.750   16.681    0.266    0.335   55.653
  349.000   16.679    0.233    0.322   68.514
  349.250   16.674    0.215    0.318   83.823
  349.500   16.360    0.195    0.314   91.786
  349.750   16.355    0.169    0.310   85.667
  350.000   16.351    0.143    0.318   75.263
  350.250   16.041    0.247    0.322   69.756
  350.500   15.740    0.302    0.329   74.045
  350.750   15.737    0.296    0.340   72.825
  351.000   15.438    0.298    0.341   75.278
  351.250   15.434    0.311    0.335   77.729
  351.500   15.431    0.304    0.329   77.733
  351.750   15.140    0.298    0.319   85.696
  352.000   14.857    0.293    0.318   94.273
  352.250   14.574    0.269    0.327   98.560
  352.500   14.300    0.256    0.336  104.074
  352.750   14.031    0.240    0.339  102.242
  353.000   13.767    0.232    0.333  103.469
  353.250   13.764    0.223    0.330  106.534
