~VERSION INFORMATION
 VERS.                 2.0:   CWLS LOG ASCII STANDARD -VERSION 2.0
 WRAP.                  NO:   ONE LINE PER DEPTH STEP
~WELL INFORMATION BLOCK
#MNEM.UNIT           DATA                    DESCRIPTION OF MNEMONIC
#---------    -------------------            -------------------------------
# Generated from Intellog Unique Number	CS_71_72/WELL/923
WELL.         BRENDA IPIATIK                 : Well_name    - WELL
LOC .         00/14-04-071-09W4/0            : Location     - LOCATION
UWI .         00/14-04-071-09W4/0            : Uwi          - UNIQUE WELL ID
ENTR.         SP                             : Entered      - ENTERED BY
SRVC.         SCHLUMBERGER                   : Scn          - SERVICE COMPANY
STRT.M        250                            : top_depth    - START DEPTH
STOP.M        450                            : bot_depth    - STOP DEPTH
STEP.M        0.25                           : increment    - STEP LENGTH
 NULL. -999.2500:NULL Value
~CURVE INFORMATION BLOCK
#MNEM UNIT       ERCB CURVE CODE    CURVE DESCRIPTION
#-----------   ------------------   ----------------------------------
DEPT.M        00 001 00 00         : DEPTH        - DEPTH
ILD .OHMM     00 120 00 00         : RESD         - DEEP RESISTIVITY (DIL)
DPHI.V/V      00 890 00 00         : PHID         - DENSITY POROSITY (LIMESTONE)
NPHI.V/V      00 330 00 00         : PHIN         - NEUTRON POROSITY (LIMESTONE)
GR  .API      00 310 00 00         : GR           - GAMMA RAY
~PARAMETER INFORMATION
#MNEM.UNIT           DATA             DESCRIPTION OF MNEMONIC
#---------         -----------     ------------------------------
GL  .M        604.92               : gl           - GROUND LEVEL ELEVATION
EREF.M        608.28               : kb           - ELEVATION OF DEPTH REFERENCE
DATM.M        604.92               : datum        - DATUM ELEVATION
TDD .M        460                  : tdd          - TOTAL DEPTH DRILLER
RUN .         ONE                  : Run          - RUN NUMBER
ENG .         BILL                 : Engineer     - RECORDING ENGINEER
WIT .         JIM                  : Witness      - WITNESSED BY
MUD .         GEL                  : Mud_type     - MUD TYPE
MATR.         LIMESTONE            : Logunit      - NEUTRON MATRIX
TMAX.C        15                   : BHT          - MAXIMUM RECORDED TEMPERATURE
BHTD.M        460                  : BHTDEP       - MAXIMUM RECORDED TEMPERATURE
MATR.         1                    : LOGUNIT      - NEUTRON MATRIX
RMT .C        25                   : MDTP         - TEMPERATURE OF MUD
NEUT.         1                    : NEUTRON      - NEUTRON TYPE
RESI.         0                    : RESIST       - RESISTIVITY TYPE
RMC .OHMM     0.25                 : RMC          - RESISTIVITY OF MUD CAKE
RMF .OHMM     0.25                 : RMF          - RESISTIVITY OF MUD FILTRATE
SUFT.C        15                   : SUFT         - SURFACE TEMPERATURE
~A  DEPTH     RESD     PHID     PHIN       GR
# ...
  293.500    9.004    0.288    0.495   92.002
  293.750    9.101    0.279    0.477   91.459
  294.000    9.304    0.290    0.466   90.916
  294.250    9.599    0.289    0.468   89.641
  294.500    9.905    0.284    0.481   87.574
  294.750   10.069    0.288    0.501   86.787
  295.000   10.063    0.276    0.492   87.950
  295.250    9.797    0.266    0.447   88.321
  295.500    9.378    0.268    0.435   87.169
  295.750    8.993    0.285    0.447   85.772
  296.000    8.609    0.296    0.470   85.534
  296.250    8.319    0.293    0.483   87.063
  296.500    7.978    0.279    0.481   89.446
  296.750    7.709    0.270    0.490   91.889
  297.000    7.490    0.262    0.505   93.601
  297.250    7.402    0.263    0.514   93.728
  297.500    7.399    0.266    0.515   91.844
  297.750    7.521    0.276    0.495   90.570
  298.000    7.688    0.292    0.480   92.526
  298.250    7.918    0.297    0.477   92.958
  298.500    8.094    0.287    0.498   91.623
  298.750    8.166    0.279    0.501   90.226
  299.000    8.253    0.270    0.486   90.170
  299.250    8.359    0.263    0.467   91.212
  299.500    8.449    0.264    0.446   92.985
  299.750    8.350    0.278    0.425   94.636
  300.000    8.052    0.287    0.411   97.447
  300.250    7.665    0.282    0.433   99.341
  300.500    7.365    0.264    0.448   99.284
  300.750    7.130    0.258    0.456   96.120
  301.000    6.992    0.252    0.474   92.163
  301.250    6.989    0.282    0.503   92.596
  301.500    7.172    0.300    0.522   95.223
  301.750    7.498    0.293    0.539   96.752
  302.000    7.973    0.264    0.513   97.793
  302.250    8.181    0.237    0.488   97.616
  302.500    7.801    0.213    0.484   97.133
  302.750    7.440    0.235    0.477   96.773
  303.000    7.055    0.237    0.469   97.571
  303.250    6.691    0.253    0.477  100.685
  303.500    6.550    0.252    0.495  103.067
  303.750    6.608    0.240    0.509  103.987
  304.000    6.870    0.268    0.517  102.286
  304.250    7.374    0.285    0.483   98.634
  304.500    7.667    0.278    0.461   95.653
  304.750    8.122    0.279    0.469   94.439
  305.000    8.783    0.273    0.474   90.544
  305.250    9.642    0.262    0.486   83.905
  305.500   10.466    0.281    0.508   74.219
  305.750   11.129    0.298    0.516   68.800
  306.000   11.592    0.315    0.484   66.367
  306.250   11.827    0.333    0.459   64.544
  306.500   11.977    0.346    0.463   62.904
  306.750   11.770    0.346    0.463   61.996
  307.000   11.182    0.338    0.455   62.061
  307.250   10.544    0.330    0.443   62.737
  307.500   10.094    0.334    0.434   64.571
  307.750    9.626    0.338    0.426   67.624
  308.000    9.249    0.318    0.429   70.189
  308.250    9.106    0.304    0.445   69.951
  308.500    9.118    0.300    0.452   71.419
  308.750    9.148    0.293    0.441   74.899
  309.000    9.691    0.278    0.451   77.770
  309.250    9.613    0.285    0.440   78.993
  309.500    9.608    0.303    0.422   74.488
  309.750    9.621    0.308    0.419   79.919
  310.000    9.796    0.283    0.434   83.338
  310.250   10.109    0.269    0.445   86.634
  310.500   10.491    0.256    0.449   89.322
  310.750   10.907    0.255    0.437   88.778
  311.000   11.191    0.261    0.430   86.345
  311.250   11.122    0.265    0.428   88.850
  311.500   10.808    0.257    0.425   92.452
  311.750   10.423    0.240    0.427   94.347
  312.000   10.052    0.247    0.444   94.657
  312.250    9.860    0.252    0.442   95.150
  312.500    9.690    0.258    0.438   95.582
  312.750    9.434    0.267    0.430   92.113
  313.000    9.064    0.277    0.424   88.705
  313.250    8.692    0.274    0.426   88.527
  313.500    8.368    0.251    0.437   94.445
  313.750    8.146    0.235    0.452   98.963
  314.000    8.142    0.228    0.468  100.552
  314.250    8.307    0.225    0.481  101.714
  314.500    7.863    0.219    0.474   95.503
  314.750    7.512    0.241    0.461   84.476
  315.000    7.453    0.273    0.452   73.510
  315.250    7.733    0.293    0.465   70.041
  315.500    8.914    0.304    0.489   74.008
  315.750   10.046    0.286    0.506   65.298
  316.000   10.966    0.313    0.506   55.490
  316.250   11.488    0.334    0.458   52.204
  316.500   11.830    0.346    0.441   53.490
  316.750   11.981    0.342    0.430   56.238
  317.000   12.087    0.345    0.416   60.815
  317.250   12.036    0.336    0.396   64.843
  317.500   11.939    0.318    0.388   69.910
  317.750   11.689    0.317    0.403   70.766
  318.000   11.359    0.316    0.416   71.564
  318.250   10.832    0.326    0.415   68.460
  318.500   10.252    0.335    0.408   75.293
  318.750    9.833    0.322    0.403   82.734
  319.000    9.254    0.296    0.409   88.287
  319.250    8.842    0.287    0.412   92.315
  319.500    8.416    0.269    0.411   97.135
  319.750    7.951    0.249    0.415  101.833
  320.000    7.625    0.236    0.427  106.349
  320.250    7.451    0.237    0.435  108.549
  320.500    7.038    0.245    0.444  106.482
  320.750    7.142    0.241    0.450  101.733
  321.000    7.058    0.242    0.441   98.509
  321.250    7.122    0.229    0.428   98.574
  321.500    7.293    0.221    0.434   97.178
  321.750    7.483    0.221    0.448   90.662
  322.000    7.737    0.236    0.456   82.378
  322.250    8.606    0.260    0.462   78.482
  322.500    9.536    0.269    0.464   73.490
  322.750   10.727    0.288    0.461   70.204
  323.000   12.341    0.305    0.459   66.125
  323.250   13.674    0.309    0.454   61.316
  323.500   14.325    0.309    0.441   56.506
  323.750   14.866    0.320    0.431   51.818
  324.000   15.397    0.330    0.422   51.214
  324.250   15.797    0.329    0.415   50.853
  324.500   15.940    0.336    0.413   50.676
  324.750   16.081    0.344    0.419   51.778
  325.000   16.312    0.347    0.424   52.210
  325.250   16.365    0.339    0.424   52.582
  325.500   16.353    0.334    0.420   52.893
  325.750   16.316    0.344    0.416   53.751
  326.000   16.248    0.350    0.414   54.670
  326.250   16.241    0.340    0.420   55.956
  326.500   16.141    0.336    0.426   56.692
  326.750   16.039    0.335    0.431   58.896
  327.000   16.000    0.335    0.430   59.755
  327.250   15.904    0.340    0.439   59.939
  327.500   15.805    0.345    0.455   60.311
  327.750   15.739    0.348    0.457   59.036
  328.000   15.671    0.349    0.449   57.943
  328.250   15.546    0.350    0.443   55.938
  328.500   15.450    0.352    0.443   54.298
  328.750   15.411    0.359    0.445   56.192
  329.000   15.404    0.367    0.441   56.807
  329.250   15.310    0.359    0.438   55.776
  329.500   15.301    0.352    0.438   53.771
  329.750   15.177    0.346    0.442   51.764
  330.000   15.141    0.353    0.445   50.673
  330.250   15.075    0.358    0.446   51.349
  330.500   15.013    0.350    0.443   53.123
  330.750   14.945    0.341    0.434   54.529
  331.000   14.884    0.337    0.429   55.206
  331.250   14.732    0.343    0.440   54.844
  331.500   14.674    0.354    0.451   54.545
  331.750   14.525    0.361    0.453   55.952
  332.000   14.494    0.367    0.447   56.384
  332.250   14.405    0.366    0.445   55.475
  332.500   14.290    0.362    0.448   55.603
  332.750   14.202    0.364    0.457   55.852
  333.000   14.060    0.367    0.460   55.614
  333.250   14.001    0.372    0.462   54.643
  333.500   13.941    0.376    0.471   52.700
  333.750   13.933    0.382    0.475   51.973
  334.000   13.871    0.384    0.465   52.588
  334.250   13.864    0.373    0.461   53.081
  334.500   13.858    0.371    0.466   52.599
  334.750   13.799    0.369    0.463   53.762
  335.000   13.711    0.360    0.457   55.657
  335.250   13.707    0.354    0.469   56.881
  335.500   13.674    0.352    0.481   57.740
  335.750   13.716    0.355    0.476   57.379
  336.000   13.710    0.364    0.472   56.958
  336.250   13.702    0.370    0.484   58.365
  336.500   13.721    0.375    0.492   57.700
  336.750   13.765    0.379    0.483   55.694
