~VERSION INFORMATION
 VERS.                 2.0:   CWLS LOG ASCII STANDARD -VERSION 2.0
 WRAP.                  NO:   ONE LINE PER DEPTH STEP
~WELL INFORMATION BLOCK
#MNEM.UNIT           DATA                    DESCRIPTION OF MNEMONIC
#---------    -------------------            -------------------------------
# Generated from Intellog Unique Number	CS_73_76/WELL/3274
WELL.         BOW VALLEY EXPLORATION         : Well_name    - WELL
LOC .         00/12-34-075-14W4/0            : Location     - LOCATION
UWI .         00/12-34-075-14W4/0            : Uwi          - UNIQUE WELL ID
ENTR.         SP                             : Entered      - ENTERED BY
SRVC.         SCHLUMBERGER                   : Scn          - SERVICE COMPANY
STRT.M        345                            : top_depth    - START DEPTH
STOP.M        585                            : bot_depth    - STOP DEPTH
STEP.M        0.25                           : increment    - STEP LENGTH
 NULL. -999.2500:NULL Value
~CURVE INFORMATION BLOCK
#MNEM UNIT       ERCB CURVE CODE    CURVE DESCRIPTION
#-----------   ------------------   ----------------------------------
DEPT.M        00 001 00 00         : DEPTH        - DEPTH
ILD .OHMM     00 120 00 00         : RESD         - DEEP RESISTIVITY (DIL)
NPHI.V/V      00 330 00 00         : PHIN         - NEUTRON POROSITY (LIMESTONE)
DPHI.V/V      00 890 00 00         : PHID         - DENSITY POROSITY (LIMESTONE)
GR  .API      00 310 00 00         : GR           - GAMMA RAY
~PARAMETER INFORMATION
#MNEM.UNIT           DATA             DESCRIPTION OF MNEMONIC
#---------         -----------     ------------------------------
GL  .M        720.2                : gl           - GROUND LEVEL ELEVATION
EREF.M        723.4                : kb           - ELEVATION OF DEPTH REFERENCE
DATM.M        720.2                : datum        - DATUM ELEVATION
TDD .M        595                  : tdd          - TOTAL DEPTH DRILLER
RUN .         ONE                  : Run          - RUN NUMBER
ENG .         BILL                 : Engineer     - RECORDING ENGINEER
WIT .         JIM                  : Witness      - WITNESSED BY
MUD .         GEL                  : Mud_type     - MUD TYPE
MATR.         LIMESTONE            : Logunit      - NEUTRON MATRIX
TMAX.C        17                   : BHT          - MAXIMUM RECORDED TEMPERATURE
BHTD.M        595                  : BHTDEP       - MAXIMUM RECORDED TEMPERATURE
MATR.         1                    : LOGUNIT      - NEUTRON MATRIX
RMT .C        25                   : MDTP         - TEMPERATURE OF MUD
NEUT.         1                    : NEUTRON      - NEUTRON TYPE
RESI.         0                    : RESIST       - RESISTIVITY TYPE
RMC .OHMM     0.25                 : RMC          - RESISTIVITY OF MUD CAKE
RMF .OHMM     0.25                 : RMF          - RESISTIVITY OF MUD FILTRATE
SUFT.C        15                   : SUFT         - SURFACE TEMPERATURE
~A  DEPTH     RESD     PHIN     PHID       GR
  345.000    2.478    0.570    0.246  113.112
  345.250    2.571    0.581    0.248  117.372
  345.500    2.668    0.589    0.232  119.811
  345.750    2.873    0.578    0.238  119.834
  346.000    2.927    0.564    0.227  125.909
  346.250    3.037    0.545    0.225  121.094
  346.500    3.093    0.537    0.226  119.904
  346.750    3.151    0.532    0.220  122.350
  347.000    3.210    0.530    0.220  122.980
  347.250    3.269    0.520    0.221  123.003
  347.500    3.393    0.513    0.228  123.630
  347.750    3.456    0.511    0.228  123.647
  348.000    3.586    0.514    0.222  120.046
  348.250    3.653    0.509    0.211  118.248
  348.500    3.652    0.494    0.202  119.480
  348.750    3.585    0.482    0.198  117.694
  349.000    3.455    0.493    0.208  117.107
  349.250    3.208    0.510    0.216  117.132
  349.500    3.034    0.512    0.223  118.363
  349.750    2.870    0.512    0.229  120.804
  350.000    2.817    0.519    0.233  119.619
  350.250    2.923    0.531    0.231  122.060
  350.500    3.090    0.541    0.231  122.084
  350.750    3.266    0.551    0.226  119.685
  351.000    3.389    0.555    0.226  120.321
  351.250    3.452    0.541    0.221  120.337
  351.500    3.517    0.529    0.212  118.549
  351.750    3.205    0.511    0.224  116.758
  352.000    3.032    0.493    0.232  113.758
  352.250    2.868    0.542    0.236  118.619
  352.500    2.815    0.546    0.226  119.243
  352.750    2.763    0.542    0.204  119.873
  353.000    2.815    0.558    0.194  124.129
  353.250    2.975    0.559    0.215  126.568
  353.500    3.088    0.552    0.228  128.407
  353.750    3.264    0.538    0.215  121.777
  354.000    3.450    0.548    0.216  118.169
  354.250    3.450    0.568    0.207  115.771
  354.500    3.324    0.571    0.204  115.193
  354.750    3.030    0.530    0.221  115.827
  355.000    3.030    0.500    0.221  116.445
  355.250    3.579    0.478    0.217  117.684
  355.500    4.725    0.514    0.225  118.914
  355.750    6.237    0.533    0.231  115.303
  356.000    7.789    0.547    0.226  105.651
  356.250    8.544    0.513    0.211   96.000
  356.500    9.031    0.477    0.208   88.760
  356.750    8.865    0.442    0.202   80.917
  357.000    8.542    0.448    0.286   83.966
  357.250    8.384    0.431    0.307   85.205
  357.500    8.079    0.437    0.305   87.041
  357.750    7.930    0.446    0.294   88.875
  358.000    7.784    0.449    0.274   92.534
  358.250    7.363    0.452    0.253   94.369
  358.500    7.095    0.457    0.254   90.157
  358.750    7.094    0.457    0.264   84.736
  359.000    7.094    0.456    0.266   81.730
  359.250    7.361    0.441    0.254   83.575
  359.500    7.498    0.443    0.238   85.411
  359.750    7.781    0.478    0.235   88.459
  360.000    7.225    0.501    0.237   87.867
  360.250    6.834    0.449    0.308   83.657
  360.500    6.345    0.434    0.293   98.198
  360.750    5.574    0.428    0.281  109.712
  361.000    5.175    0.429    0.264  120.022
  361.250    4.987    0.444    0.233  122.459
  361.500    5.080    0.464    0.218  124.299
  361.750    5.572    0.474    0.212  125.530
  362.000    5.890    0.467    0.202  126.166
  362.250    6.461    0.459    0.218  126.180
  362.500    7.220    0.459    0.214  124.392
  362.750    8.218    0.468    0.220  118.365
  363.000    8.687    0.481    0.261  108.106
  363.250    9.355    0.476    0.283  100.868
  363.500   10.073    0.462    0.302   94.842
  363.750   10.261    0.441    0.313   92.445
  364.000   10.260    0.442    0.320   94.282
  364.250   10.259    0.443    0.304   97.943
  364.500   10.259    0.447    0.283   99.772
  364.750   10.258    0.448    0.281  104.643
  365.000   10.257    0.443    0.279  104.663
  365.250   10.069    0.442    0.292  104.074
  365.500   10.068    0.436    0.295  105.307
  365.750   10.067    0.430    0.299  105.331
  366.000   10.066    0.435    0.296  107.173
  366.250   10.066    0.442    0.292  108.402
  366.500   10.065    0.442    0.284  108.425
  366.750   10.252    0.440    0.280  104.816
  367.000   10.252    0.441    0.268   94.561
  367.250   10.251    0.431    0.281   86.109
  367.500   10.250    0.421    0.286   76.455
  367.750   10.250    0.429    0.282   67.404
  368.000   10.249    0.418    0.293   57.148
  368.250   10.248    0.402    0.330   52.330
  368.500   10.060    0.393    0.309   55.378
  368.750    9.693    0.391    0.311   59.029
  369.000    9.001    0.385    0.314   63.291
  369.250    8.204    0.379    0.310   68.761
  369.500    7.341    0.375    0.298   72.406
  369.750    6.448    0.395    0.291   79.092
  370.000    5.987    0.409    0.276   81.524
  370.250    5.559    0.426    0.252   87.593
  370.500    5.457    0.448    0.228  102.133
  370.750    5.258    0.468    0.213  119.701
  371.000    4.973    0.491    0.212  127.585
  371.250    4.792    0.511    0.201  130.026
  371.500    4.618    0.524    0.189  131.863
  371.750    4.533    0.526    0.195  130.078
  372.000    4.617    0.517    0.184  134.942
  372.250    4.791    0.513    0.182  138.589
  372.500    4.880    0.503    0.186  141.637
  372.750    4.880    0.506    0.179  139.841
  373.000    4.790    0.504    0.165  135.632
  373.250    4.616    0.498    0.151  131.419
  373.500    4.207    0.491    0.137  139.910
  373.750    3.907    0.508    0.162  145.378
  374.000    3.431    0.528    0.175  146.011
  374.250    3.128    0.541    0.168  147.845
  374.500    2.904    0.550    0.186  144.847
  374.750    3.431    0.555    0.197  143.655
  375.000    4.053    0.549    0.204  144.281
  375.250    5.350    0.536    0.197  145.516
  375.500    6.204    0.499    0.225  146.142
  375.750    7.465    0.482    0.238  138.906
  376.000    8.657    0.464    0.262  128.646
  376.250    9.322    0.451    0.251  130.483
  376.500    9.673    0.445    0.245  133.533
  376.750    9.495    0.445    0.242  135.369
  377.000    9.494    0.447    0.231  136.604
  377.250    9.493    0.458    0.233  131.179
  377.500    9.319    0.466    0.242  122.733
  377.750    8.979    0.474    0.260  113.685
  378.000    8.494    0.479    0.279  107.659
  378.250    7.742    0.466    0.261  105.866
  378.500    7.323    0.458    0.261  107.707
  378.750    7.188    0.465    0.246  115.595
  379.000    7.740    0.475    0.232  122.872
  379.250    8.032    0.483    0.214  131.366
  379.500    8.649    0.493    0.239  131.990
  379.750    8.975    0.482    0.243  127.177
  380.000    9.486    0.458    0.240  120.549
  380.250    9.663    0.426    0.235  115.128
  380.500    9.485    0.412    0.260  112.726
  380.750    9.140    0.434    0.267  118.202
  381.000    8.331    0.446    0.246  120.030
  381.250    7.735    0.454    0.244  121.866
  381.500    7.593    0.460    0.233  120.680
  381.750    7.879    0.458    0.229  121.322
  382.000    7.878    0.462    0.224  122.543
  382.250    8.025    0.465    0.246  127.406
  382.500    8.025    0.461    0.250  132.265
  382.750    8.174    0.460    0.246  137.124
  383.000    8.173    0.447    0.245  136.543
  383.250    8.326    0.436    0.242  132.340
  383.500    9.133    0.443    0.236  124.492
  383.750    9.834    0.455    0.244  108.182
  384.000   10.205    0.467    0.262   93.693
  384.250   10.989    0.455    0.256   84.032
  384.500   10.988    0.432    0.214   71.958
  384.750   10.786    0.442    0.243   73.796
  385.000   10.587    0.446    0.271   77.447
  385.250   10.784    0.460    0.299   76.871
  385.500   10.783    0.468    0.315   73.871
  385.750   10.783    0.455    0.332   72.075
  386.000   10.584    0.449    0.322   75.123
  386.250   10.389    0.462    0.327   76.958
  386.500   10.011    0.464    0.323   80.008
  386.750    8.793    0.467    0.306   81.241
  387.000    7.723    0.458    0.288   79.450
  387.250    6.911    0.455    0.277   76.444
  387.500    5.959    0.457    0.254   76.472
  387.750    5.533    0.464    0.246   81.334
  388.000    5.043    0.474    0.275   89.225
  388.250    5.043    0.489    0.266   92.867
