~VERSION INFORMATION
 VERS.                 2.0:   CWLS LOG ASCII STANDARD -VERSION 2.0
 WRAP.                  NO:   ONE LINE PER DEPTH STEP
~WELL INFORMATION BLOCK
#MNEM.UNIT           DATA                    DESCRIPTION OF MNEMONIC
#---------    -------------------            -------------------------------
# Generated from Intellog Unique Number	CW_73_75/WELL/1043
WELL.         ENSERCH ET AL MARTEN H 11-20   : Well_name    - WELL
LOC .         00/11-20-074-23W4/0            : Location     - LOCATION
UWI .         00/11-20-074-23W4/0            : Uwi          - UNIQUE WELL ID
ENTR.         JAYE                           : Entered      - ENTERED BY
SRVC.         SCHLUMBERGER                   : Scn          - SERVICE COMPANY
DATE.         3 MAR 76                       : Date         - LOG DATE
STRT.M        411.48                         : top_depth    - START DEPTH
STOP.M        624.73                         : bot_depth    - STOP DEPTH
STEP.M        0.25                           : increment    - STEP LENGTH
 NULL. -999.2500:NULL Value
~CURVE INFORMATION BLOCK
#MNEM UNIT       ERCB CURVE CODE    CURVE DESCRIPTION
#-----------   ------------------   ----------------------------------
DEPT.M        00 001 00 00         : DEPTH        - DEPTH
ILD .OHMM     00 120 00 00         : RESD         - DEEP RESISTIVITY (DIL)
DPHI.V/V      00 890 00 00         : PHID         - DENSITY POROSITY (SANDSTONE)
NPHI.V/V      00 330 00 00         : PHIN         - NEUTRON POROSITY (SANDSTONE)
GR  .API      00 310 00 00         : GR           - GAMMA RAY
CALI.MM       00 280 01 00         : CAL          - CALIPER
~PARAMETER INFORMATION
#MNEM.UNIT           DATA             DESCRIPTION OF MNEMONIC
#---------         -----------     ------------------------------
GL  .M        690.524              : gl           - GROUND LEVEL ELEVATION
EREF.M        694.03               : kb           - ELEVATION OF DEPTH REFERENCE
DATM.M        690.524              : datum        - DATUM ELEVATION
TDD .M        640.08               : tdd          - TOTAL DEPTH DRILLER
RUN .         ONE                  : Run          - RUN NUMBER
BASE.         EDM                  : Branch       - HOME BASE OF LOGGING UNIT
MUD .         GEL CHEM             : Mud_type     - MUD TYPE
MATR.         SANDSTONE            : Logunit      - NEUTRON MATRIX
TMAX.C        28.3333              : BHT          - MAXIMUM RECORDED TEMPERATURE
BHTD.M        640.69               : BHTDEP       - MAXIMUM RECORDED TEMPERATURE
RMT .C        13.8889              : MDTP         - TEMPERATURE OF MUD
MUDD.KG/M     0                    : MWT          - MUD DENSITY
NEUT.         1                    : NEUTRON      - NEUTRON TYPE
RESI.         0                    : RESIST       - RESISTIVITY TYPE
RM  .OHMM     2.7                  : RM           - RESISTIVITY OF MUD
RMC .OHMM     0                    : RMC          - RESISTIVITY OF MUD CAKE
RMF .OHMM     2.2                  : RMF          - RESISTIVITY OF MUD FILTRATE
SUFT.C        -17.7778             : SUFT         - SURFACE TEMPERATURE
~A  DEPTH     RESD     PHID     PHIN       GR      CAL
# ...
  593.980   47.536    0.344    0.153   32.046  144.539
  594.230   64.136    0.355    0.143   26.450  145.429
  594.480   78.816    0.357    0.148   29.061  146.983
  594.730   82.893    0.356    0.153   27.960  148.206
  594.980   85.010    0.359    0.159   26.468  148.657
  595.230   82.040    0.353    0.165   25.822  149.440
  595.480   75.393    0.351    0.170   26.544  149.890
  595.730   65.489    0.356    0.172   28.244  150.452
  595.980   58.511    0.361    0.175   28.966  150.683
  596.230   52.510    0.359    0.182   27.604  150.692
  596.480   49.634    0.353    0.190   27.610  150.592
  596.730   44.875    0.341    0.199   29.765  149.939
  596.980   35.927    0.342    0.205   32.441  148.736
  597.230   27.107    0.340    0.215   33.163  148.746
  597.480   18.355    0.330    0.240   32.648  148.976
  597.730   12.155    0.316    0.266   30.374  149.426
  597.980   10.812    0.272    0.352   28.491  148.555
  598.230   10.860    0.268    0.346   27.650  147.020
  598.480   11.371    0.265    0.344   29.154  145.706
  598.730   12.485    0.243    0.353   31.895  145.496
  598.980   13.248    0.209    0.338   33.270  146.499
  599.230   13.426    0.211    0.289   33.145  147.611
  599.480   12.448    0.237    0.318   34.323  149.276
  599.730   11.389    0.259    0.345   35.240  150.387
  599.980   10.975    0.268    0.354   35.246  151.721
  600.230   10.591    0.282    0.354   33.950  152.834
  600.480   10.466    0.280    0.350   35.193  153.726
  600.730   10.607    0.259    0.347   37.804  154.397
  600.980   10.927    0.259    0.345   38.657  154.408
  601.230   11.189    0.264    0.342   38.923  154.086
  601.480   11.561    0.270    0.349   38.538  152.331
  601.730   11.803    0.278    0.346   38.740  150.136
  601.980   12.015    0.279    0.336   39.722  147.720
  602.230   12.177    0.262    0.340   42.008  146.846
  602.480   12.232    0.260    0.352   45.921  147.409
  602.730   12.396    0.268    0.342   49.444  148.630
  602.980   12.600    0.266    0.334   52.056  150.626
  603.230   12.732    0.241    0.336   52.388  151.518
  603.480   12.846    0.242    0.338   52.523  151.307
  603.730   13.038    0.245    0.327   53.245  151.428
  603.980   13.213    0.214    0.325   52.535  152.760
  604.230   13.431    0.230    0.329   53.322  153.101
  604.480   14.168    0.218    0.335   54.305  152.891
  604.730   16.777    0.205    0.334   54.181  153.011
  604.980   22.669    0.181    0.272   52.623  153.240
  605.230   29.472    0.105    0.216   50.480  153.251
  605.480   36.004    0.039    0.171   47.359  154.143
  605.730   37.364    0.038    0.158   42.870  155.366
  605.980   36.059    0.058    0.162   43.071  155.265
  606.230   29.606    0.044    0.170   46.334  154.724
  606.480   24.965    0.075    0.181   52.788  155.285
  606.730   22.841    0.106    0.203   58.981  155.736
  606.980   20.077    0.132    0.251   65.631  152.988
  607.230   18.698    0.169    0.302   71.303  149.579
  607.480   17.648    0.193    0.329   75.348  150.140
  607.730   17.389    0.174    0.325   76.330  152.908
  607.980   17.675    0.165    0.325   77.248  152.035
  608.230   17.754    0.177    0.330   78.947  151.162
  608.480   18.073    0.176    0.339   81.949  153.820
  608.730   18.452    0.162    0.333   87.622  157.028
  608.980   18.756    0.176    0.328   93.099  158.581
  609.230   18.840    0.186    0.350   93.430  158.261
  609.480   18.757    0.179    0.339   87.769  157.499
  609.730   18.841    0.173    0.319   86.603  156.515
  609.980   18.813    0.151    0.311   88.953  156.085
  610.230   19.066    0.149    0.307   90.913  156.756
  610.480   19.266    0.154    0.322   90.137  158.751
  610.730   19.381    0.163    0.326   88.775  159.643
  610.980   19.181    0.170    0.336   86.697  159.432
  611.230   18.621    0.176    0.352   90.546  158.781
  611.480   18.374    0.147    0.350   96.413  158.238
  611.730   18.402    0.147    0.348   97.136  158.029
  611.980   18.402    0.133    0.369   95.839  158.148
  612.230   18.321    0.159    0.367   97.408  158.489
  612.480   18.294    0.156    0.351  103.471  159.271
  612.730   18.322    0.141    0.344  109.013  160.384
  612.980   18.458    0.125    0.349  104.655  160.945
  613.230   18.541    0.132    0.354   95.803  161.507
  613.480   18.652    0.129    0.358   88.188  162.288
  613.730   18.791    0.159    0.367   81.355  162.519
  613.980   18.875    0.176    0.381   75.172  161.645
  614.230   18.931    0.199    0.412   68.144  157.244
  614.480   18.876    0.297    0.444   64.828  154.386
  614.730   18.433    0.377    0.527   65.746  154.506
  614.980   17.372    0.411    0.445   65.621  156.501
  615.230   16.084    0.336    0.428   71.163  157.393
  615.480   14.585    0.347    0.437   83.088  156.080
  615.730   12.877    0.396    0.519   90.519  153.443
  615.980   11.152    0.416    0.517   82.058  151.246
  616.230   10.907    0.300    0.420   80.370  151.146
  616.480   11.643    0.283    0.396   97.702  151.818
  616.730   12.520    0.293    0.402  135.159  153.042
  616.980   12.689    0.316    0.444  148.713  153.934
  617.230   11.800    0.326    0.477  117.520  154.604
  617.480   11.088    0.277    0.389   87.303  154.284
  617.730   10.812    0.279    0.366   93.497  153.521
  617.980   10.957    0.288    0.379   92.591  152.208
  618.230   11.592    0.275    0.387   83.999  149.902
  618.480   12.709    0.270    0.355   84.070  150.023
  618.730   14.037    0.297    0.353   88.961  152.788
  618.980   16.088    0.261    0.342  101.798  154.673
  619.230   17.148    0.181    0.288  103.953  154.021
  619.480   17.378    0.187    0.291  105.457  151.715
  619.730   16.871    0.179    0.288  107.156  153.930
  619.980   16.018    0.166    0.278  103.645  156.366
  620.230   15.074    0.167    0.282   89.907  153.840
  620.480   14.397    0.205    0.292   75.779  144.143
  620.730   13.956    0.218    0.296   75.590  144.926
  620.980   13.629    0.194    0.295   85.430  149.899
  621.230   13.508    0.187    0.284   96.249  152.776
  621.480   13.469    0.168    0.278  109.737  151.131
  621.730   13.449    0.161    0.320  108.310  150.480
  621.980   13.370    0.218    0.330   96.592  151.702
  622.230   13.430    0.218    0.309  103.372  153.147
  622.480   13.550    0.179    0.294  116.209  153.597
  622.730   13.691    0.183    0.300  124.682  153.497
  622.980   13.937    0.146    0.318  121.757  151.080
  623.230   14.272    0.128    0.307  117.659  149.656
  623.480   14.746    0.136    0.292  114.408  150.659
  623.730   15.486    0.130    0.300  110.376  149.676
  623.980   16.359    0.137    0.334  106.538  148.914
  624.230   17.436    0.125    0.348  104.655  152.122
  624.480   18.365    0.036    0.296   99.320  153.345
  624.730   19.430    0.016    0.272   86.299  147.840
