~VERSION INFORMATION
 VERS.                 2.0:   CWLS LOG ASCII STANDARD -VERSION 2.0
 WRAP.                  NO:   ONE LINE PER DEPTH STEP
~WELL INFORMATION BLOCK
#MNEM.UNIT           DATA                    DESCRIPTION OF MNEMONIC
#---------    -------------------            -------------------------------
# Generated from Intellog Unique Number	CS_71_72/WELL/925
WELL.         ET AL IPIATIK                  : Well_name    - WELL
LOC .         00/14-16-071-09W4/0            : Location     - LOCATION
UWI .         00/14-16-071-09W4/0            : Uwi          - UNIQUE WELL ID
ENTR.         SP                             : Entered      - ENTERED BY
SRVC.         SCHLUMBERGER                   : Scn          - SERVICE COMPANY
STRT.M        300                            : top_depth    - START DEPTH
STOP.M        500                            : bot_depth    - STOP DEPTH
STEP.M        0.25                           : increment    - STEP LENGTH
 NULL. -999.2500:NULL Value
~CURVE INFORMATION BLOCK
#MNEM UNIT       ERCB CURVE CODE    CURVE DESCRIPTION
#-----------   ------------------   ----------------------------------
DEPT.M        00 001 00 00         : DEPTH        - DEPTH
ILD .OHMM     00 120 00 00         : RESD         - DEEP RESISTIVITY (DIL)
DPHI.V/V      00 890 00 00         : PHID         - DENSITY POROSITY (LIMESTONE)
NPHI.V/V      00 330 00 00         : PHIN         - NEUTRON POROSITY (LIMESTONE)
GR  .API      00 310 00 00         : GR           - GAMMA RAY
~PARAMETER INFORMATION
#MNEM.UNIT           DATA             DESCRIPTION OF MNEMONIC
#---------         -----------     ------------------------------
GL  .M        662.6                : gl           - GROUND LEVEL ELEVATION
EREF.M        666.21               : kb           - ELEVATION OF DEPTH REFERENCE
DATM.M        662.6                : datum        - DATUM ELEVATION
TDD .M        504                  : tdd          - TOTAL DEPTH DRILLER
RUN .         ONE                  : Run          - RUN NUMBER
ENG .         BILL                 : Engineer     - RECORDING ENGINEER
WIT .         JIM                  : Witness      - WITNESSED BY
MUD .         GEL                  : Mud_type     - MUD TYPE
MATR.         LIMESTONE            : Logunit      - NEUTRON MATRIX
TMAX.C        24                   : BHT          - MAXIMUM RECORDED TEMPERATURE
BHTD.M        504                  : BHTDEP       - MAXIMUM RECORDED TEMPERATURE
MATR.         1                    : LOGUNIT      - NEUTRON MATRIX
RMT .C        25                   : MDTP         - TEMPERATURE OF MUD
NEUT.         1                    : NEUTRON      - NEUTRON TYPE
RESI.         0                    : RESIST       - RESISTIVITY TYPE
RMC .OHMM     0.25                 : RMC          - RESISTIVITY OF MUD CAKE
RMF .OHMM     0.25                 : RMF          - RESISTIVITY OF MUD FILTRATE
SUFT.C        15                   : SUFT         - SURFACE TEMPERATURE
~A  DEPTH     RESD     PHID     PHIN       GR
# ...
  430.500    6.651    0.243    0.436   93.391
  430.750    6.470    0.249    0.430   96.092
  431.000    6.315    0.249    0.429   97.994
  431.250    6.141    0.264    0.440   92.655
  431.500    5.796    0.274    0.442   86.456
  431.750    5.288    0.279    0.459   85.167
  432.000    4.807    0.274    0.458   89.525
  432.250    4.386    0.258    0.493   96.460
  432.500    4.171    0.245    0.493   99.897
  432.750    4.172    0.234    0.486   94.128
  433.000    4.349    0.227    0.488   91.858
  433.250    5.170    0.222    0.498   94.312
  433.500    5.180    0.219    0.488   96.706
  433.750    5.201    0.219    0.468   97.811
  434.000    5.173    0.226    0.457   98.977
  434.250    5.003    0.238    0.457  102.598
  434.500    4.713    0.250    0.464  105.974
  434.750    4.381    0.240    0.473  105.054
  435.000    4.245    0.220    0.465  100.389
  435.250    4.492    0.224    0.470   94.804
  435.500    4.789    0.237    0.440   95.725
  435.750    5.077    0.251    0.421   96.523
  436.000    5.312    0.244    0.431   94.989
  436.250    5.465    0.229    0.448   92.534
  436.500    5.560    0.235    0.434   93.209
  436.750    5.614    0.246    0.414   91.245
  437.000    5.626    0.239    0.440   89.895
  437.250    5.595    0.227    0.475   93.209
  437.500    5.321    0.222    0.479   93.209
  437.750    4.702    0.237    0.479   94.068
  438.000    3.906    0.242    0.473   98.794
  438.250    3.022    0.237    0.460  103.704
  438.500    2.602    0.244    0.508  108.430
  438.750    2.401    0.248    0.549  106.835
  439.000    2.309    0.248    0.556  102.907
  439.250    2.199    0.250    0.567  100.697
  439.500    2.171    0.258    0.547  101.986
  439.750    2.238    0.255    0.531  104.257
  440.000    2.491    0.250    0.563  105.914
  440.250    2.794    0.245    0.528  105.239
  440.500    3.128    0.246    0.490   98.611
  440.750    3.527    0.248    0.467   96.402
  441.000    3.904    0.249    0.462   97.813
  441.250    4.210    0.250    0.487   95.052
  441.500    4.463    0.257    0.479   90.878
  441.750    4.574    0.267    0.492   86.827
  442.000    4.619    0.272    0.490   86.889
  442.250    4.681    0.258    0.475   88.914
  442.500    4.807    0.241    0.445   90.694
  442.750    5.125    0.237    0.422   91.431
  443.000    5.726    0.245    0.436   91.861
  443.250    6.793    0.247    0.445   91.370
  443.500    7.807    0.249    0.419   88.424
  443.750    8.370    0.249    0.356   82.286
  444.000    8.857   -0.001    0.220   57.798
  444.250    9.078   -0.003    0.221   49.512
  444.500    8.361    0.055    0.243   62.708
  444.750    7.266    0.167    0.400   77.438
  445.000    6.592    0.186    0.430   89.529
  445.250    6.072    0.189    0.437   93.703
  445.500    5.698    0.192    0.426   94.378
  445.750    5.398    0.199    0.434   96.465
  446.000    5.240    0.210    0.451   99.411
  446.250    5.144    0.218    0.460  102.172
  446.500    5.069    0.214    0.474   97.508
  446.750    5.041    0.227    0.444   96.894
  447.000    5.006    0.242    0.444   98.429
  447.250    4.997    0.246    0.438   98.429
  447.500    4.989    0.238    0.417   98.797
  447.750    4.972    0.231    0.442   99.534
  448.000    4.983    0.227    0.425   96.035
  448.250    5.003    0.241    0.420   94.563
  448.500    5.023    0.244    0.441   95.729
  448.750    5.052    0.240    0.460   97.141
  449.000    5.082    0.243    0.470   97.570
  449.250    5.151    0.251    0.465   96.281
  449.500    5.289    0.254    0.442   94.747
  449.750    5.513    0.262    0.432   94.993
  450.000    5.835    0.257    0.433   97.509
  450.250    5.980    0.246    0.440   99.350
  450.500    5.993    0.240    0.427   98.491
  450.750    5.677    0.233    0.427   94.748
  451.000    5.378    0.229    0.441   97.939
  451.250    5.142    0.226    0.439  101.499
  451.500    4.853    0.230    0.442   98.676
  451.750    4.420    0.230    0.451   92.845
  452.000    3.884    0.229    0.455   91.188
  452.250    3.270    0.231    0.457   94.257
  452.500    2.794    0.246    0.464   95.178
  452.750    2.530    0.263    0.477   95.362
  453.000    2.343    0.270    0.511   94.503
  453.250    2.203    0.264    0.549   92.600
  453.500    2.179    0.259    0.516   96.344
  453.750    2.246    0.256    0.509  100.763
  454.000    2.413    0.249    0.528  102.911
  454.250    2.568    0.249    0.545  103.218
  454.500    2.890    0.239    0.491   97.817
  454.750    3.309    0.224    0.432   94.565
  455.000    3.711    0.207    0.418   91.926
  455.250    3.957    0.205    0.407   88.059
  455.500    4.109    0.233    0.416   87.629
  455.750    4.251    0.247    0.440   90.146
  456.000    4.276    0.238    0.462   92.724
  456.250    4.286    0.234    0.456   93.399
  456.500    4.335    0.232    0.447   92.785
  456.750    4.402    0.231    0.461   92.969
  457.000    3.927    0.228    0.443   93.706
  457.250    4.040    0.225    0.461   93.338
  457.500    4.227    0.216    0.422   89.103
  457.750    4.465    0.193    0.411   83.088
  458.000    4.663    0.138    0.401   82.229
  458.250    4.843    0.192    0.385   84.807
  458.500    5.001    0.221    0.393   84.868
  458.750    5.135    0.235    0.422   80.143
  459.000    5.214    0.240    0.443   76.644
  459.250    5.216    0.259    0.395   73.699
  459.500    5.178    0.272    0.399   71.059
  459.750    5.074    0.285    0.421   69.832
  460.000    4.907    0.283    0.435   74.988
  460.250    4.605    0.266    0.426   83.335
  460.500    4.100    0.237    0.427   90.577
  460.750    3.644    0.222    0.430   95.364
  461.000    3.350    0.214    0.451  101.072
  461.250    3.156    0.209    0.512  105.491
  461.500    3.023    0.217    0.491  109.297
  461.750    2.907    0.225    0.502  105.798
  462.000    2.849    0.223    0.500  104.694
  462.250    2.818    0.217    0.479  105.062
  462.500    2.787    0.213    0.505  107.640
  462.750    2.788    0.209    0.520  109.849
  463.000    2.815    0.206    0.531  109.420
  463.250    2.956    0.210    0.532  107.640
  463.500    3.087    0.216    0.510  106.597
  463.750    3.111    0.221    0.485  102.485
  464.000    2.887    0.223    0.478  103.651
  464.250    2.751    0.226    0.497  105.922
  464.500    2.949    0.219    0.507  107.640
  464.750    3.558    0.196    0.511  109.175
  465.000    4.318    0.182    0.400  100.767
  465.250    5.009    0.174    0.387   85.116
  465.500    5.756    0.183    0.390   77.690
  465.750    6.206    0.204    0.407   81.556
  466.000    6.457    0.215    0.395   84.319
  466.250    6.327    0.221    0.397   86.528
  466.500    6.130    0.224    0.394   86.835
  466.750    6.006    0.230    0.372   86.651
  467.000    5.997    0.239    0.384   86.958
  467.250    6.100    0.247    0.408   84.442
  467.500    6.045    0.239    0.425   81.925
  467.750    5.792    0.229    0.418   85.424
  468.000    5.664    0.243    0.382   86.774
  468.250    5.623    0.265    0.365   74.990
  468.500    5.984    0.282    0.350   69.037
  468.750    6.476    0.293    0.358   67.196
  469.000    7.062    0.289    0.366   70.878
  469.250    7.458    0.270    0.349   74.377
  469.500    7.716    0.251    0.349   75.911
  469.750    7.865    0.250    0.368   76.648
  470.000    7.926    0.258    0.369   77.200
  470.250    8.200    0.263    0.369   77.446
  470.500    8.710    0.201    0.377   76.587
  470.750    9.216    0.137    0.366   72.597
  471.000    9.446    0.139    0.344   67.565
  471.250    9.378    0.175    0.347   67.994
  471.500    9.002    0.194    0.368   74.807
  471.750    8.276    0.200    0.379   79.901
  472.000    7.795    0.218    0.368   84.198
  472.250    7.754    0.242    0.370   80.331
  472.500    8.391    0.264    0.353   66.399
  472.750    9.341    0.289    0.301   52.651
  473.000   10.204    0.307    0.267   45.839
  473.250   11.065    0.282    0.296   50.810
  473.500   11.686    0.264    0.335   53.572
  473.750   12.114    0.266    0.365   52.590
