~VERSION INFORMATION
 VERS.                 2.0:   CWLS LOG ASCII STANDARD -VERSION 2.0
 WRAP.                  NO:   ONE LINE PER DEPTH STEP
~WELL INFORMATION BLOCK
#MNEM.UNIT           DATA                    DESCRIPTION OF MNEMONIC
#---------    -------------------            -------------------------------
# Generated from Intellog Unique Number	CW_79_81/WELL/913
WELL.         HOMESTEAD ET AL WEAVER         : Well_name    - WELL
LOC .         00/11-25-080-01W5/0            : Location     - LOCATION
UWI .         00/11-25-080-01W5/0            : Uwi          - UNIQUE WELL ID
ENTR.         MAX                            : Entered      - ENTERED BY
SRVC.         SCHLUMBERGER                   : Scn          - SERVICE COMPANY
STRT.M        260                            : top_depth    - START DEPTH
STOP.M        505                            : bot_depth    - STOP DEPTH
STEP.M        0.25                           : increment    - STEP LENGTH
 NULL. -999.2500:NULL Value
~CURVE INFORMATION BLOCK
#MNEM UNIT       ERCB CURVE CODE    CURVE DESCRIPTION
#-----------   ------------------   ----------------------------------
DEPT.M        00 001 00 00         : DEPTH        - DEPTH
ILD .OHMM     00 120 00 00         : RESD         - DEEP RESISTIVITY (DIL)
NPHI.V/V      00 330 00 00         : PHIN         - NEUTRON POROSITY (SANDSTONE)
DPHI.V/V      00 890 00 00         : PHID         - DENSITY POROSITY (SANDSTONE)
CALI.MM       00 280 01 00         : CAL          - CALIPER
GR  .API      00 310 00 00         : GR           - GAMMA RAY
~PARAMETER INFORMATION
#MNEM.UNIT           DATA             DESCRIPTION OF MNEMONIC
#---------         -----------     ------------------------------
GL  .M        580                  : gl           - GROUND LEVEL ELEVATION
EREF.M        583.67               : kb           - ELEVATION OF DEPTH REFERENCE
DATM.M        580                  : datum        - DATUM ELEVATION
TDD .M        515                  : tdd          - TOTAL DEPTH DRILLER
RUN .         ONE                  : Run          - RUN NUMBER
ENG .         BILL                 : Engineer     - RECORDING ENGINEER
WIT .         JIM                  : Witness      - WITNESSED BY
MUD .         GEL                  : Mud_type     - MUD TYPE
MATR.         SANDSTONE            : Logunit      - NEUTRON MATRIX
TMAX.C        24                   : BHT          - MAXIMUM RECORDED TEMPERATURE
BHTD.M        515                  : BHTDEP       - MAXIMUM RECORDED TEMPERATURE
RMT .C        16                   : MDTP         - TEMPERATURE OF MUD
MUDD.KG/M     1100                 : MWT          - MUD DENSITY
NEUT.         1                    : NEUTRON      - NEUTRON TYPE
RESI.         0                    : RESIST       - RESISTIVITY TYPE
RM  .OHMM     6.62                 : RM           - RESISTIVITY OF MUD
RMC .OHMM     0                    : RMC          - RESISTIVITY OF MUD CAKE
RMF .OHMM     4.5                  : RMF          - RESISTIVITY OF MUD FILTRATE
SUFT.C        4                    : SUFT         - SURFACE TEMPERATURE
~A  DEPTH     RESD     PHIN     PHID      CAL       GR
# ...
  369.500    7.969    0.516    0.273  167.295   90.068
  369.750    7.904    0.534    0.288  167.843   86.486
  370.000    8.446    0.518    0.288  168.391   78.394
  370.250    9.719    0.504    0.280  169.461   73.612
  370.500   12.386    0.485    0.254  171.006   70.339
  370.750   17.002    0.452    0.234  170.571   66.456
  371.000   21.667    0.413    0.211  169.114   61.674
  371.250   25.885    0.402    0.201  168.659   60.804
  371.500   23.620    0.414    0.194  168.218   64.145
  371.750   15.873    0.427    0.215  167.262   70.496
  372.000   13.082    0.430    0.238  167.322   76.549
  372.250   11.612    0.422    0.226  167.884   79.594
  372.500   10.596    0.411    0.207  169.442   78.724
  372.750    9.944    0.411    0.189  167.490   76.654
  373.000    9.774    0.398    0.174  163.525   75.475
  373.250   10.064    0.393    0.155  165.584   73.100
  373.500   11.267    0.380    0.114  164.642   67.716
  373.750   12.844    0.317    0.064  165.705   62.633
  374.000   18.468    0.220    0.011  167.751   56.949
  374.250   26.309    0.184   -0.004  167.310   51.866
  374.500   32.607    0.183   -0.005  166.360   50.394
  374.750   37.184    0.190    0.003  165.919   51.634
  375.000   40.852    0.202    0.020  165.959   54.073
  375.250   40.537    0.236    0.045  166.020   56.508
  375.500   37.348    0.272    0.070  165.077   60.155
  375.750   34.393    0.303    0.136  164.622   64.399
  376.000   29.412    0.355    0.188  165.679   69.851
  376.250   21.093    0.395    0.236  170.245   73.489
  376.500   16.908    0.453    0.254  172.305   72.619
  376.750   14.596    0.477    0.259  172.867   71.151
  377.000   13.571    0.480    0.262  172.425   69.979
  377.250   13.464    0.475    0.272  171.469   69.711
  377.500   14.125    0.467    0.260  168.514   70.942
  377.750   15.230    0.459    0.269  169.571   72.487
  378.000   16.733    0.456    0.266  172.640   74.320
  378.250   17.389    0.470    0.263  171.189   77.060
  378.500   16.473    0.468    0.257  164.222   81.305
  378.750   15.032    0.461    0.251  162.270   86.151
  379.000   11.084    0.465    0.239  163.821   87.394
  379.250    9.746    0.478    0.232  166.389   86.524
  379.500    8.108    0.478    0.236  166.944   86.556
  379.750    7.133    0.475    0.229  166.997   88.088
  380.000    6.817    0.480    0.225  167.044   88.722
  380.250    6.340    0.493    0.236  163.594   86.648
  380.500    6.061    0.493    0.237  164.651   84.274
  380.750    5.956    0.487    0.238  164.698   84.611
  381.000    5.965    0.492    0.242  163.755   85.545
  381.250    6.084    0.496    0.242  162.799   84.073
  381.500    6.382    0.490    0.237  163.862   83.804
  381.750    6.510    0.485    0.229  167.927   84.434
  382.000    6.580    0.485    0.231  171.498   85.674
  382.250    6.590    0.478    0.235  172.548   87.820
  382.500    6.659    0.475    0.225  172.100   89.349
  382.750    6.608    0.472    0.225  172.167   90.584
  383.000    6.555    0.470    0.215  172.214   91.523
  383.250    6.383    0.472    0.225  172.260   91.555
  383.500    6.636    0.478    0.226  172.327   90.380
  383.750    6.958    0.479    0.220  171.886   89.814
  384.000    8.010    0.476    0.229  170.930   90.143
  384.250    9.925    0.481    0.239  167.968   90.180
  384.500   13.374    0.483    0.264  165.515   89.309
  384.750   16.579    0.478    0.268  161.557   85.125
  385.000   18.214    0.453    0.281  163.623   74.025
  385.250   17.578    0.442    0.261  163.168   72.561
  385.500   14.349    0.432    0.247  162.226   71.983
  385.750   11.501    0.448    0.234  159.772   71.113
  386.000   11.626    0.465    0.243  159.819   68.738
  386.250   12.194    0.463    0.270  158.869   67.270
  386.500   13.775    0.438    0.276  156.422   66.696
  386.750   16.451    0.425    0.268  155.473   67.330
  387.000   20.015    0.440    0.274  160.548   68.570
  387.250   20.424    0.475    0.287  163.603   68.602
  387.500   19.888    0.473    0.287  164.158   69.244
  387.750   18.837    0.456    0.279  164.720   69.869
  388.000   17.845    0.445    0.277  165.275   69.300
  388.250   17.707    0.435    0.257  165.837   67.832
  388.500   17.893    0.407    0.179  166.392   66.355
  388.750   18.768    0.378    0.152  165.937   64.582
  389.000   19.868    0.334    0.125  165.490   63.114
  389.250   22.035    0.292    0.055  165.536   61.943
  389.500   26.561    0.264    0.049  165.089   60.166
  389.750   29.181    0.268    0.037  164.641   57.791
  390.000   33.266    0.290    0.072  163.698   58.124
  390.250   34.256    0.315    0.117  164.260   61.775
  390.500   28.492    0.363    0.133  164.815   64.507
  390.750   18.455    0.383    0.165  165.363   69.060
  391.000   17.313    0.412    0.198  169.930   69.990
  391.250   16.250    0.413    0.185  166.473   69.722
  391.500   15.534    0.406    0.173  165.029   72.466
  391.750   14.446    0.437    0.181  166.086   75.503
  392.000   13.184    0.473    0.226  165.143   76.449
  392.250   12.143    0.474    0.241  164.682   75.571
  392.500   11.500    0.450    0.224  163.739   74.099
  392.750   11.413    0.433    0.222  163.786   74.131
  393.000   11.428    0.421    0.205  163.846   74.765
  393.250   11.440    0.409    0.179  163.900   75.403
  393.500   11.781    0.402    0.165  161.954   77.236
  393.750   12.476    0.387    0.145  163.004   75.768
  394.000   13.210    0.375    0.131  165.565   72.486
  394.250   14.374    0.361    0.123  165.130   70.412
  394.500   15.076    0.364    0.134  164.669   73.453
  394.750   14.683    0.391    0.163  164.228   78.905
  395.000   13.905    0.416    0.173  163.279   82.552
  395.250   13.049    0.424    0.204  164.328   84.987
  395.500   12.024    0.423    0.213  163.880   85.621
  395.750   11.491    0.422    0.222  161.935   85.352
  396.000   11.191    0.423    0.213  164.997   85.083
  396.250   11.105    0.429    0.196  168.073   85.416
  396.500   10.915    0.435    0.208  168.113   87.262
  396.750   10.341    0.437    0.214  167.672   89.095
  397.000    9.882    0.441    0.205  167.719   89.733
  397.250    9.275    0.446    0.200  167.772   89.464
  397.500    9.033    0.449    0.206  165.820   87.386
  397.750    8.965    0.454    0.208  160.859   84.109
  398.000    8.975    0.452    0.208  155.898   82.636
  398.250    9.241    0.447    0.205  158.961   80.864
  398.500    9.783    0.447    0.202  157.516   82.705
  398.750   10.166    0.447    0.202  156.072   85.140
  399.000    9.991    0.460    0.218  155.611   87.583
  399.250    9.378    0.462    0.232  155.163   89.124
  399.500    8.884    0.465    0.233  155.718   89.152
  399.750    8.730    0.469    0.219  162.297   88.281
  400.000    8.949    0.465    0.199  168.459   86.321
  400.250    8.941    0.462    0.203  168.414   84.499
  400.500    9.273    0.465    0.187  167.880   84.775
  400.750    9.706    0.471    0.176  169.839   85.653
  401.000    9.697    0.472    0.209  172.292   85.630
  401.250    9.335    0.471    0.204  174.246   86.802
  401.500    8.735    0.467    0.206  175.210   90.075
  401.750    8.487    0.466    0.206  172.179   91.850
  402.000    8.245    0.475    0.200  172.639   89.428
  402.250    8.161    0.496    0.191  174.597   85.808
  402.500    8.308    0.497    0.224  173.549   81.885
  402.750    9.371    0.484    0.232  172.516   80.366
  403.000   10.970    0.472    0.232  167.476   79.437
  403.250   13.710    0.473    0.248  168.440   80.316
  403.500   14.621    0.503    0.230  167.896   81.494
  403.750   15.307    0.510    0.223  164.365   79.969
  404.000   16.788    0.486    0.246  166.324   80.844
  404.250   18.071    0.462    0.241  167.773   81.120
  404.500   18.392    0.459    0.238  168.743   78.396
  404.750   19.076    0.456    0.242  167.200   76.871
  405.000   20.535    0.456    0.256  168.159   78.049
  405.250   19.041    0.460    0.256  170.108   79.826
  405.500   18.325    0.472    0.247  171.073   80.399
  405.750   18.478    0.485    0.246  172.032   79.477
