~VERSION INFORMATION
 VERS.                 2.0:   CWLS LOG ASCII STANDARD -VERSION 2.0
 WRAP.                  NO:   ONE LINE PER DEPTH STEP
~WELL INFORMATION BLOCK
#MNEM.UNIT           DATA                    DESCRIPTION OF MNEMONIC
#---------    -------------------            -------------------------------
# Generated from Intellog Unique Number	CW_82_90/WELL/1028
WELL.         SUNLITE CANPUAC GR 11-17       : Well_name    - WELL
LOC .         00/11-17-084-20W4/0            : Location     - LOCATION
UWI .         00/11-17-084-20W4/0            : Uwi          - UNIQUE WELL ID
ENTR.         JAYE                           : Entered      - ENTERED BY
SRVC.         SCHLUMBERGER                   : Scn          - SERVICE COMPANY
DATE.         25 MAR 74                      : Date         - LOG DATE
STRT.M        198.12                         : top_depth    - START DEPTH
STOP.M        390.12                         : bot_depth    - STOP DEPTH
STEP.M        0.25                           : increment    - STEP LENGTH
 NULL. -999.2500:NULL Value
~CURVE INFORMATION BLOCK
#MNEM UNIT       ERCB CURVE CODE    CURVE DESCRIPTION
#-----------   ------------------   ----------------------------------
DEPT.M        00 001 00 00         : DEPTH        - DEPTH
CALI.MM       00 280 01 00         : CAL          - CALIPER
GR  .API      00 310 00 00         : GR           - GAMMA RAY
NPHI.V/V      00 330 00 00         : PHIN         - NEUTRON POROSITY (SANDSTONE)
DPHI.V/V      00 890 00 00         : PHID         - DENSITY POROSITY (SANDSTONE)
ILD .OHMM     00 120 00 00         : RESD         - DEEP RESISTIVITY (DIL)
~PARAMETER INFORMATION
#MNEM.UNIT           DATA             DESCRIPTION OF MNEMONIC
#---------         -----------     ------------------------------
GL  .M        622.402              : gl           - GROUND LEVEL ELEVATION
EREF.M        625.45               : kb           - ELEVATION OF DEPTH REFERENCE
DATM.M        622.402              : datum        - DATUM ELEVATION
TDD .M        401.117              : tdd          - TOTAL DEPTH DRILLER
RUN .         ONE                  : Run          - RUN NUMBER
ENG .         CHAUDHARY            : Engineer     - RECORDING ENGINEER
WIT .         FYFFE                : Witness      - WITNESSED BY
BASE.         EDMONTON             : Branch       - HOME BASE OF LOGGING UNIT
MUD .         GEL                  : Mud_type     - MUD TYPE
MATR.         SANDSTONE            : Logunit      - NEUTRON MATRIX
TMAX.C        23.3333              : BHT          - MAXIMUM RECORDED TEMPERATURE
BHTD.M        401.117              : BHTDEP       - MAXIMUM RECORDED TEMPERATURE
RMT .C        14.4444              : MDTP         - TEMPERATURE OF MUD
MUDD.KG/M     8800                 : MWT          - MUD DENSITY
NEUT.         1                    : NEUTRON      - NEUTRON TYPE
RESI.         0                    : RESIST       - RESISTIVITY TYPE
RM  .OHMM     5.66                 : RM           - RESISTIVITY OF MUD
RMC .OHMM     0                    : RMC          - RESISTIVITY OF MUD CAKE
RMF .OHMM     0                    : RMF          - RESISTIVITY OF MUD FILTRATE
SUFT.C        -17.7778             : SUFT         - SURFACE TEMPERATURE
~A  DEPTH      CAL       GR     PHIN     PHID     RESD
# ...
  234.620  181.388   64.227    0.500    0.342   24.151
  234.870  181.288   64.780    0.520    0.343   23.558
  235.120  181.394   64.108    0.537    0.348   23.319
  235.370  182.331   63.497    0.533    0.346   23.080
  235.620  185.135   62.641    0.532    0.342   22.889
  235.870  184.308   61.478    0.543    0.341   22.585
  236.120  184.000   60.806    0.539    0.341   22.437
  236.370  183.381   60.746    0.530    0.343   22.489
  236.620  183.280   61.422    0.515    0.344   22.723
  236.870  183.698   62.895    0.503    0.335   23.423
  237.120  183.494   62.713    0.489    0.334   24.420
  237.370  182.874   60.080    0.475    0.326   25.508
  237.620  182.566   56.711    0.475    0.303   25.913
  237.870  182.776   56.468    0.508    0.266   24.764
  238.120  182.883   58.737    0.553    0.225   24.292
  238.370  183.093   59.903    0.566    0.312   24.181
  238.620  183.719   58.495    0.542    0.332   24.654
  238.870  184.033   56.904    0.518    0.341   25.326
  239.120  184.555   56.783    0.535    0.340   25.873
  239.370  184.143   57.827    0.546    0.339   26.230
  239.620  184.145   59.667    0.534    0.348   26.595
  239.870  184.149   60.832    0.508    0.351   26.424
  240.120  184.567   60.405    0.485    0.350   26.112
  240.370  184.258   60.713    0.486    0.347   25.841
  240.620  183.328   63.411    0.526    0.348   25.489
  240.870  182.708   66.538    0.547    0.354   25.089
  241.120  181.984   68.439    0.553    0.354   24.512
  241.370  181.469   68.073    0.554    0.353   23.829
  241.620  180.538   65.501    0.538    0.346   23.580
  241.870  179.607   63.727    0.539    0.340   23.335
  242.120  178.988   63.667    0.551    0.346   22.633
  242.370  178.783   60.176    0.572    0.348   21.802
  242.620  178.579   58.523    0.578    0.348   21.495
  242.870  179.101   59.322    0.551    0.346   21.041
  243.120  179.311   58.343    0.538    0.344   20.373
  243.370  179.833   55.220    0.497    0.335   19.938
  243.620  180.354   54.364    0.518    0.319   19.455
  243.870  181.187   55.591    0.525    0.315   19.112
  244.120  181.916   54.858    0.530    0.315   18.774
  244.370  183.268   54.308    0.541    0.313   18.546
  244.620  185.658   54.616    0.552    0.313   17.989
  244.870  187.425   55.843    0.551    0.322   17.416
  245.120  189.088   57.989    0.556    0.333   16.983
  245.370  189.921   58.910    0.565    0.341   16.541
  245.620  188.575   58.667    0.570    0.343   16.609
  245.870  187.852   59.465    0.572    0.336   16.609
  246.120  188.269   59.957    0.562    0.333   17.762
  246.370  188.688   57.998    0.532    0.337   18.408
  246.620  188.587   54.201    0.496    0.342   19.624
  246.870  188.590   52.916    0.471    0.340   21.042
  247.120  188.593   55.185    0.409    0.331   21.648
  247.370  189.426   54.758    0.375    0.313   22.156
  247.620  190.570   51.634    0.326    0.242   21.172
  247.870  190.054   50.595    0.327    0.149   18.442
  248.120  189.019   49.984    0.347    0.158   16.487
  248.370  187.155   50.353    0.392    0.179   15.550
  248.620  184.771   52.744    0.494    0.242   14.562
  248.870  181.558   55.871    0.531    0.299   13.941
  249.120  179.174   57.405    0.562    0.323   13.449
  249.370  176.791   56.549    0.570    0.336   13.187
  249.620  174.719   57.837    0.565    0.341   12.886
  249.870  173.269   61.148    0.557    0.336   12.405
  250.120  171.923   61.946    0.555    0.328   12.165
  250.370  170.578   63.112    0.560    0.314   11.931
  250.620  169.647   63.604    0.575    0.309   11.679
  250.870  168.923   62.932    0.592    0.295   11.582
  251.120  168.200   62.015    0.565    0.284   11.507
  251.370  167.166   62.261    0.574    0.302   11.712
  251.620  166.442   64.040    0.579    0.333   11.964
  251.870  165.200   64.226    0.566    0.328   12.198
  252.120  164.788   64.166    0.551    0.323   12.508
  252.370  164.169   64.045    0.550    0.321   12.660
  252.620  163.964   63.741    0.565    0.323   12.349
  252.870  163.863   61.108    0.574    0.335   11.998
  253.120  163.139   60.251    0.572    0.341   11.465
  253.370  162.520   61.356    0.564    0.346   10.518
  253.620  161.693   63.931    0.565    0.346    9.721
  253.870  161.800   66.691    0.589    0.335    8.902
  254.120  162.322   68.898    0.611    0.319    8.183
  254.370  162.636   68.348    0.665    0.300    7.590
  254.620  162.846   69.392    0.651    0.288    6.454
  254.870  164.094   71.783    0.641    0.297    5.250
  255.120  167.210   73.255    0.655    0.277    4.816
  255.370  169.392   74.054    0.660    0.249    4.724
  255.620  170.744   72.769    0.646    0.253    5.177
  255.870  171.162   62.905    0.615    0.271    6.122
  256.120  169.504   52.797    0.594    0.290   11.918
  256.370  167.536   47.590    0.564    0.310   17.935
  256.620  167.643   46.367    0.518    0.331   22.926
  256.870  168.788   46.552    0.499    0.347   26.422
  257.120  169.620   47.596    0.496    0.340   25.915
  257.370  170.246   48.149    0.507    0.335   24.993
  257.620  170.664   47.906    0.534    0.338   23.753
  257.870  171.704   47.233    0.546    0.342   23.289
  258.120  171.500   47.420    0.526    0.348   23.142
  258.370  170.569   47.421    0.509    0.362   23.509
  258.620  167.771   46.993    0.510    0.362   23.928
  258.870  167.358   46.750    0.523    0.352   24.130
  259.120  167.258   47.181    0.522    0.351   24.059
  259.370  167.572   48.837    0.509    0.353   23.773
  259.620  167.990   50.064    0.499    0.362   23.532
  259.870  167.993   50.189    0.499    0.366   23.165
  260.120  168.411   49.823    0.503    0.360   22.218
  260.370  168.622   50.008    0.549    0.354   20.922
  260.620  168.728   50.807    0.576    0.347   19.659
  260.870  168.317   51.789    0.582    0.335   18.134
  261.120  167.593   53.077    0.568    0.327   16.092
  261.370  167.284   53.569    0.542    0.317   15.783
  261.620  167.287   54.551    0.511    0.287   16.669
  261.870  167.291   55.105    0.432    0.185   18.101
  262.120  167.501   54.248    0.413    0.160   19.841
  262.370  166.985   51.554    0.415    0.225   20.954
  262.620  166.884   50.821    0.428    0.286   21.808
  262.870  166.472   52.048    0.531    0.334   22.112
  263.120  165.645   53.643    0.562    0.345   21.936
  263.370  164.714   53.277    0.540    0.348   21.745
  263.620  164.717   53.585    0.509    0.341   20.898
  263.870  165.861   55.915    0.503    0.330   19.677
  264.120  165.553   57.265    0.492    0.335   17.819
  264.370  165.245   57.389    0.490    0.331   15.150
  264.620  165.144   57.636    0.498    0.323   12.669
  264.870  164.732   60.028    0.519    0.313   10.734
  265.120  164.631   62.664    0.540    0.313    9.179
  265.370  164.738   64.995    0.536    0.319    8.389
  265.620  164.637   67.508    0.523    0.309    7.797
  265.870  164.744   70.819    0.508    0.297    7.521
  266.120  165.370   73.455    0.516    0.284    7.569
  266.370  165.995   76.766    0.540    0.274    7.908
  266.620  166.413   77.258    0.557    0.259    8.212
  266.870  166.520   77.689    0.566    0.260    8.770
  267.120  166.626   73.707    0.550    0.270    9.437
  267.370  166.630   72.300    0.556    0.282    9.747
  267.620  166.736   70.648    0.544    0.293    9.721
  267.870  166.635   69.240    0.527    0.312    9.136
  268.120  167.053   69.364    0.525    0.310    8.860
  268.370  167.368   71.327    0.545    0.301    8.482
  268.620  167.371   75.127    0.541    0.293    8.428
  268.870  167.686   74.639    0.519    0.289    8.754
  269.120  167.688   73.538    0.530    0.281    9.649
  269.370  167.691   72.865    0.523    0.272   10.934
  269.620  167.383   67.966    0.512    0.274   12.649
  269.870  167.385   65.639    0.532    0.277   13.309
  270.120  167.285   63.802    0.549    0.286   13.543
  270.370  167.184   64.172    0.561    0.300   13.506
  270.620  166.773   66.563    0.573    0.331   13.149
  270.870  166.775   67.913    0.592    0.337   12.634
