~VERSION INFORMATION
 VERS.                 2.0:   CWLS LOG ASCII STANDARD -VERSION 2.0
 WRAP.                  NO:   ONE LINE PER DEPTH STEP
~WELL INFORMATION BLOCK
#MNEM.UNIT           DATA                    DESCRIPTION OF MNEMONIC
#---------    -------------------            -------------------------------
# Generated from Intellog Unique Number	CW_70_72/WELL/1039
NULL.         -999.25                        : NULL_VALUE
WELL.         MCMORGAN DOME SMITH 10-18      : Well_name    - WELL              
LOC .         10-18-071-24W4                 : Location     - LOCATION          
UWI .         00/10-18-071-24W4/0            : Uwi          - UNIQUE WELL ID    
ENTR.         JAYE                           : Entered      - ENTERED BY        
SRVC.         SCHLUMBERGER                   : Scn          - SERVICE COMPANY   
DATE.         16 MAR 72                      : Date         - LOG DATE          
STRT.M        434.645                        : top_depth    - START DEPTH       
STOP.M        646.145                        : bot_depth    - STOP DEPTH        
STEP.M        0.25                           : increment    - STEP LENGTH       
~CURVE INFORMATION BLOCK
#MNEM UNIT       ERCB CURVE CODE    CURVE DESCRIPTION
#-----------   ------------------   ----------------------------------
DEPT.M        00 001 00 00         : DEPTH        - DEPTH                       
DPHI.V/V      00 890 00 00         : PHID         - DENSITY POROSITY (SANDSTONE)
NPHI.V/V      00 330 00 00         : PHIN         - NEUTRON POROSITY (SANDSTONE)
GR  .API      00 310 00 00         : GR           - GAMMA RAY                   
CALI.MM       00 280 01 00         : CAL          - CALIPER                     
ILD .OHMM     00 120 00 00         : RESD         - DEEP RESISTIVITY (DIL)      
~PARAMETER INFORMATION       
#MNEM.UNIT           DATA             DESCRIPTION OF MNEMONIC
#---------         -----------     ------------------------------
GL  .M        638.861              : gl           - GROUND LEVEL ELEVATION      
EREF.M        642.518              : kb           - ELEVATION OF DEPTH REFERENCE
DATM.M        638.861              : datum        - DATUM ELEVATION             
TDD .M        612.648              : tdd          - TOTAL DEPTH DRILLER         
RUN .         ONE                  : Run          - RUN NUMBER                  
ENG .         HAYWOOD              : Engineer     - RECORDING ENGINEER          
WIT .         GRAD                 : Witness      - WITNESSED BY                
BASE.         EDM                  : Branch       - HOME BASE OF LOGGING UNIT   
MUD .         FGM                  : Mud_type     - MUD TYPE                    
MATR.         SANDSTONE            : Logunit      - NEUTRON MATRIX              
TMAX.C        28.3333              : BHT          - MAXIMUM RECORDED TEMPERATURE
BHTD.M        612.648              : BHTDEP       - MAXIMUM RECORDED TEMPERATURE
RMT .C        20                   : MDTP         - TEMPERATURE OF MUD          
MUDD.KG/M     1104                 : MWT          - MUD DENSITY                 
NEUT.         1                    : NEUTRON      - NEUTRON TYPE                
RESI.         0                    : RESIST       - RESISTIVITY TYPE            
RM  .OHMM     2.62                 : RM           - RESISTIVITY OF MUD          
RMC .OHMM     0                    : RMC          - RESISTIVITY OF MUD CAKE     
RMF .OHMM     2.67                 : RMF          - RESISTIVITY OF MUD FILTRATE 
SUFT.C        0                    : SUFT         - SURFACE TEMPERATURE         
~A  DEPTH     PHID     PHIN       GR      CAL     RESD
# ...
  617.145    0.104    0.382   98.281  207.340    4.013
  617.395    0.096    0.375   96.623  207.323    3.939
  617.645    0.078    0.368   96.183  207.408    3.975
  617.895    0.093    0.358   95.197  207.285    4.101
  618.145    0.075    0.352   91.828  207.162    4.263
  618.395    0.093    0.351   92.245  207.041    4.463
  618.645    0.090    0.355   94.430  207.228    4.769
  618.895    0.119    0.361   96.615  207.415    5.021
  619.145    0.120    0.380   98.434  207.602    5.190
  619.395    0.110    0.376   99.644  207.687    5.123
  619.645    0.120    0.386   97.496  207.872    4.991
  619.895    0.118    0.406   97.546  208.062    4.837
  620.145    0.129    0.404  100.038  208.248    4.635
  620.395    0.137    0.392  103.932  208.541    4.369
  620.645    0.139    0.393  105.507  208.518    4.186
  620.895    0.124    0.397  100.247  208.708    4.012
  621.145    0.114    0.395   99.138  208.792    3.902
  621.395    0.106    0.385   98.517  208.981    3.851
  621.645    0.100    0.377   97.895  208.957    3.850
  621.895    0.092    0.374   96.419  208.735    3.850
  622.145    0.087    0.371   90.977  208.407    3.892
  622.395    0.077    0.362   90.416  208.385    3.942
  622.645    0.098    0.349   93.883  208.056    4.008
  622.895    0.118    0.383   99.303  207.729    4.112
  623.145    0.103    0.379  103.380  207.499    4.235
  623.395    0.081    0.357   95.923  207.379    4.377
  623.645    0.061    0.322   88.467  207.050    4.626
  623.895    0.041    0.261   81.377  206.719    5.072
  624.145    0.069    0.303   86.857  206.700    5.593
  624.395    0.090    0.339   92.582  206.372    6.054
  624.645    0.103    0.367   96.660  206.040    6.421
  624.895    0.115    0.376   97.748  206.128    6.823
  625.145    0.107    0.376  100.666  205.902    6.924
  625.395    0.102    0.373  103.827  205.881    6.834
  625.645    0.108    0.363  105.281  205.760    6.549
  625.895    0.113    0.351  108.260  206.256    6.381
  626.145    0.112    0.336   99.949  206.338    6.287
  626.395    0.111    0.343   96.032  206.220    6.216
  626.645    0.103    0.352   99.010  205.995    6.181
  626.895    0.109    0.364   99.671  205.768    6.101
  627.145    0.125    0.366   98.744  205.646    6.055
  627.395    0.106    0.365   97.206  205.419    5.988
  627.645    0.120    0.368   96.220  205.607    5.976
  627.895    0.129    0.371   91.692  205.795    5.953
  628.145    0.132    0.373   85.456  205.775    5.865
  628.395    0.160    0.368   70.066  205.858    5.621
  628.645    0.200    0.360   53.761  206.047    5.201
  628.895    0.233    0.347   42.094  206.233    4.470
  629.145    0.264    0.333   31.829  206.318    3.345
  629.395    0.255    0.320   30.720  206.300    2.715
  629.645    0.238    0.296   33.333  206.279    2.124
  629.895    0.207    0.264   37.349  206.468    1.991
  630.145    0.191    0.265   42.891  206.654    2.050
  630.395    0.220    0.302   49.226  206.528    2.199
  630.645    0.238    0.321   59.284  206.204    2.488
  630.895    0.255    0.352   69.831  206.076    2.738
  631.145    0.293    0.385  110.646  205.958    2.952
  631.395    0.234    0.407  127.600  205.836    3.237
  631.645    0.128    0.408  137.170  205.816    3.697
  631.895    0.124    0.426  144.359  205.901    4.277
  632.145    0.136    0.443  150.695  206.089    5.143
  632.395    0.125    0.422  147.327  206.377    6.682
  632.645    0.140    0.426  142.068  206.567    7.730
  632.895    0.142    0.432  144.193  206.547    8.492
  633.145    0.134    0.441  148.269  206.735    8.649
  633.395    0.125    0.444  152.530  207.025    8.243
  633.645    0.114    0.441  154.166  207.004    7.812
  633.895    0.107    0.431  153.422  206.988    7.542
  634.145    0.120    0.414  146.942  207.068    7.444
  634.395    0.125    0.398  139.914  207.466    7.553
  634.645    0.135    0.379  130.748  207.445    7.679
  634.895    0.126    0.366  121.766  207.427    7.893
  635.145    0.113    0.366  111.136  206.996    7.995
  635.395    0.100    0.377  105.755  206.770    8.082
  635.645    0.095    0.390  106.046  206.233    8.126
  635.895    0.097    0.395  107.441  206.422    8.216
  636.145    0.108    0.400  110.480  206.710    8.260
  636.395    0.120    0.401  112.971  206.900    8.289
  636.645    0.105    0.395  114.608  207.290    8.319
  636.895    0.117    0.385  115.816  207.169    8.395
  637.145    0.124    0.372  117.575  207.152    8.440
  637.395    0.124    0.357  111.644  206.822    8.455
  637.645    0.122    0.349  104.431  207.218    8.391
  637.895    0.116    0.367   99.843  206.576    8.328
  638.145    0.118    0.389   95.378  205.629    8.312
  638.395    0.129    0.382   88.043  205.093    8.204
  638.645    0.111    0.364   80.891  205.380    8.098
  638.895    0.097    0.346   79.354  205.572    7.948
  639.145    0.108    0.352   80.869  205.552    7.816
  639.395    0.131    0.382   82.139  205.740    7.616
  639.645    0.138    0.390   77.551  206.030    7.421
  639.895    0.103    0.374   71.741  205.906    7.046
  640.145    0.101    0.351   73.806  205.784    6.740
  640.395    0.127    0.341   77.761  205.454    6.483
  640.645    0.085    0.346   83.181  204.919    6.305
  640.895    0.063    0.342   82.924  204.899    6.109
  641.145    0.055    0.335   79.313  204.674    5.800
  641.395    0.045    0.339   79.729  204.450    5.621
  641.645    0.037    0.334   83.318  204.017    5.416
  641.895    0.056    0.321   88.433  204.098    5.190
  642.145    0.070    0.323   88.728  203.974    4.974
  642.395    0.083    0.320   81.332  203.959    4.820
  642.645    0.111    0.311   75.340  203.836    4.784
  642.895    0.086    0.318   76.610  203.919    4.774
  643.145    0.105    0.357   77.514  203.900    4.800
  643.395    0.092    0.378   77.076  203.776    4.925
  643.645   -0.010    0.405   75.111  203.139    4.816
  643.895   -0.077    0.435   72.049  202.604    4.399
  644.145   -0.020    0.454   58.307  202.273    3.268
  644.395    0.127    0.352   48.103  201.841    2.145
  644.645    0.118    0.307   38.938  201.719    2.657
  644.895    0.130    0.279   31.787  201.493    3.779
  645.145    0.136    0.253   26.038  201.267    4.276
  645.395    0.141    0.270   23.829  201.248    4.453
  645.645    0.157    0.298   22.416  201.126    4.363
  645.895    0.172    0.296   20.451  201.003    4.022
  646.145    0.182    0.289   19.706  200.777    3.469
