~VERSION INFORMATION
 VERS.                 2.0:   CWLS LOG ASCII STANDARD -VERSION 2.0
 WRAP.                  NO:   ONE LINE PER DEPTH STEP
~WELL INFORMATION BLOCK
#MNEM.UNIT           DATA                    DESCRIPTION OF MNEMONIC
#---------    -------------------            -------------------------------
# Generated from Intellog Unique Number	CS_73_76/WELL/2194
WELL.         DOME PETROLEUM LIMITED         : Well_name    - WELL
LOC .         00/11-02-074-06W4/0            : Location     - LOCATION
UWI .         00/11-02-074-06W4/0            : Uwi          - UNIQUE WELL ID
ENTR.         SP                             : Entered      - ENTERED BY
SRVC.         SCHLUMBERGER                   : Scn          - SERVICE COMPANY
STRT.M        255                            : top_depth    - START DEPTH
STOP.M        475                            : bot_depth    - STOP DEPTH
STEP.M        0.25                           : increment    - STEP LENGTH
 NULL. -999.2500:NULL Value
~CURVE INFORMATION BLOCK
#MNEM UNIT       ERCB CURVE CODE    CURVE DESCRIPTION
#-----------   ------------------   ----------------------------------
DEPT.M        00 001 00 00         : DEPTH        - DEPTH
ILD .OHMM     00 120 00 00         : RESD         - DEEP RESISTIVITY (DIL)
DPHI.V/V      00 890 00 00         : PHID         - DENSITY POROSITY (LIMESTONE)
NPHI.V/V      00 330 00 00         : PHIN         - NEUTRON POROSITY (LIMESTONE)
GR  .API      00 310 00 00         : GR           - GAMMA RAY
~PARAMETER INFORMATION
#MNEM.UNIT           DATA             DESCRIPTION OF MNEMONIC
#---------         -----------     ------------------------------
GL  .M        646.01               : gl           - GROUND LEVEL ELEVATION
EREF.M        649.91               : kb           - ELEVATION OF DEPTH REFERENCE
DATM.M        646.01               : datum        - DATUM ELEVATION
TDD .M        484                  : tdd          - TOTAL DEPTH DRILLER
RUN .         ONE                  : Run          - RUN NUMBER
ENG .         BILL                 : Engineer     - RECORDING ENGINEER
WIT .         JIM                  : Witness      - WITNESSED BY
MUD .         GEL                  : Mud_type     - MUD TYPE
MATR.         LIMESTONE            : Logunit      - NEUTRON MATRIX
TMAX.C        21                   : BHT          - MAXIMUM RECORDED TEMPERATURE
BHTD.M        484                  : BHTDEP       - MAXIMUM RECORDED TEMPERATURE
MATR.         1                    : LOGUNIT      - NEUTRON MATRIX
RMT .C        25                   : MDTP         - TEMPERATURE OF MUD
NEUT.         1                    : NEUTRON      - NEUTRON TYPE
RESI.         0                    : RESIST       - RESISTIVITY TYPE
RMC .OHMM     0.25                 : RMC          - RESISTIVITY OF MUD CAKE
RMF .OHMM     0.25                 : RMF          - RESISTIVITY OF MUD FILTRATE
SUFT.C        15                   : SUFT         - SURFACE TEMPERATURE
~A  DEPTH     RESD     PHID     PHIN       GR
# ...
  429.000    9.970    0.317    0.443   50.046
  429.250   12.497    0.268    0.449   53.111
  429.500   15.665    0.288    0.467   34.135
  429.750   23.253    0.298    0.448   28.017
  430.000   28.601    0.302    0.419   26.183
  430.250   33.253    0.295    0.386   29.251
  430.500   35.874    0.289    0.371   29.866
  430.750   33.931    0.314    0.369   30.483
  431.000   22.893    0.309    0.368   29.875
  431.250   16.651    0.302    0.367   29.879
  431.500   14.071    0.297    0.368   34.168
  431.750   11.454    0.306    0.372   38.457
  432.000    9.500    0.315    0.389   44.584
  432.250    8.029    0.291    0.397   49.486
  432.500    6.785    0.280    0.413   54.390
  432.750    5.843    0.271    0.425   56.230
  433.000    5.425    0.264    0.436   57.458
  433.250    5.228    0.271    0.446   62.361
  433.500    5.330    0.288    0.456   66.652
  433.750    5.859    0.290    0.456   69.104
  434.000    6.320    0.265    0.457   72.170
  434.250    7.078    0.273    0.473   72.785
  434.500    7.354    0.276    0.460   64.218
  434.750    7.087    0.276    0.453   59.324
  435.000    6.579    0.284    0.450   60.553
  435.250    6.341    0.290    0.444   65.455
  435.500    6.840    0.290    0.452   72.807
  435.750    8.258    0.302    0.483   78.933
  436.000   10.157    0.318    0.512   83.835
  436.250   15.949    0.331    0.544   80.166
  436.500   23.667    0.342    0.527   70.987
  436.750   40.057    0.358    0.498   65.480
  437.000   69.081    0.290    0.409   70.382
  437.250   89.896    0.286    0.360   76.510
  437.500  100.679    0.291    0.347   69.779
  437.750  106.586    0.298    0.360   61.824
  438.000  108.671    0.299    0.362   55.705
  438.250  108.753    0.300    0.362   53.260
  438.500   95.422    0.300    0.368   57.550
  438.750   85.313    0.308    0.370   53.269
  439.000   83.782    0.294    0.375   53.886
  439.250   90.385    0.286    0.377   56.340
  439.500   95.683    0.289    0.379   57.568
  439.750   99.414    0.293    0.379   59.408
  440.000   97.635    0.297    0.379   64.311
  440.250   92.338    0.319    0.379   67.988
  440.500   82.560    0.320    0.375   74.115
  440.750   84.178    0.314    0.377   77.792
  441.000   85.856    0.300    0.391   72.286
  441.250   84.287    0.301    0.403   66.780
  441.500   64.854    0.303    0.411   62.498
  441.750   48.057    0.312    0.404   60.054
  442.000   37.687    0.299    0.397   63.118
  442.250   36.313    0.283    0.389   70.470
  442.500   32.470    0.276    0.381   75.372
  442.750   29.032    0.261    0.383   77.213
  443.000   25.473    0.274    0.393   78.441
  443.250   21.131    0.283    0.391   83.345
  443.500   18.542    0.272    0.384   86.411
  443.750   15.966    0.259    0.376   88.252
  444.000   13.747    0.251    0.371   88.254
  444.250   10.188    0.261    0.372   93.158
  444.500    8.293    0.229    0.382   98.672
  444.750    7.010    0.207    0.395  107.247
  445.000    6.883    0.205    0.390  115.210
  445.250    6.887    0.212    0.383  118.887
  445.500    7.156    0.196    0.377  118.892
  445.750    7.579    0.184    0.403  113.386
  446.000    7.166    0.195    0.423  107.880
  446.250    7.445    0.203    0.414   99.313
  446.500    7.735    0.214    0.396   94.418
  446.750    8.036    0.218    0.383  102.995
  447.000    8.509    0.197    0.366  106.672
  447.250    9.009    0.172    0.381   98.106
  447.500    9.716    0.146    0.382   91.375
  447.750   10.284    0.125    0.362   85.256
  448.000   10.886    0.098    0.333   79.749
  448.250   12.195    0.150    0.373   69.957
  448.500   12.907    0.182    0.357   55.880
  448.750   14.187    0.207    0.352   47.925
  449.000   15.301    0.259    0.362   46.706
  449.250   16.200    0.283    0.366   50.997
  449.500   14.757    0.283    0.365   54.673
  449.750   12.709    0.275    0.360   61.413
  450.000   11.578    0.268    0.349   65.703
  450.250   11.160    0.257    0.336   68.154
  450.500   11.815    0.232    0.328   75.506
  450.750   12.274    0.208    0.323   84.693
  451.000   12.512    0.196    0.334   87.149
  451.250   13.250    0.219    0.355   84.090
  451.500   13.257    0.246    0.364   75.525
  451.750   13.018    0.258    0.357   72.466
  452.000   11.639    0.269    0.352   66.347
  452.250   10.407    0.249    0.351   71.249
  452.500    9.307    0.216    0.350   77.375
  452.750    8.967    0.219    0.350   84.727
  453.000    8.169    0.229    0.337   85.955
  453.250    7.584    0.226    0.330   85.959
  453.500    7.447    0.212    0.315   87.189
  453.750    7.313    0.204    0.310   85.969
  454.000    7.052    0.189    0.308   83.523
  454.250    7.056    0.211    0.313   81.079
  454.500    7.058    0.231    0.328   77.409
  454.750    6.932    0.236    0.351   70.066
  455.000    6.807    0.241    0.359   60.886
  455.250    6.941    0.257    0.367   66.401
  455.500    7.076    0.258    0.364   71.916
  455.750    7.635    0.232    0.358   80.491
  456.000    7.933    0.216    0.349   89.678
  456.250    8.086    0.160    0.332   96.418
  456.500    8.245    0.138    0.319  100.707
  456.750    8.251    0.162    0.323  100.100
  457.000    8.106    0.181    0.347   96.430
  457.250    7.959    0.194    0.352   87.251
  457.500    7.962    0.201    0.354   82.357
  457.750    7.675    0.217    0.351   90.933
  458.000    7.397    0.194    0.363  100.120
  458.250    7.263    0.175    0.379  109.921
  458.500    7.001    0.179    0.391  114.210
  458.750    7.006    0.162    0.402  123.399
  459.000    7.010    0.176    0.418  125.239
  459.250    6.883    0.163    0.410  120.958
  459.500    6.763    0.144    0.409  120.962
  459.750    6.642    0.170    0.423  123.415
  460.000    6.646    0.168    0.427  124.644
  460.250    6.526    0.156    0.425  126.485
  460.500    6.408    0.152    0.431  125.878
  460.750    6.412    0.152    0.431  127.107
  461.000    6.299    0.155    0.425  127.110
  461.250    6.186    0.158    0.420  124.665
  461.500    6.190    0.154    0.422  125.282
  461.750    6.079    0.165    0.422  125.286
  462.000    6.082    0.171    0.432  125.291
  462.250    5.973    0.169    0.441  128.356
  462.500    5.976    0.167    0.466  128.972
  462.750    5.870    0.180    0.447  128.975
  463.000    5.872    0.189    0.438  130.206
  463.250    5.768    0.190    0.428  130.209
  463.500    5.772    0.200    0.452  129.600
  463.750    5.774    0.193    0.469  127.155
  464.000    5.780    0.180    0.476  117.976
  464.250    5.784    0.178    0.461  105.123
  464.500    5.680    0.183    0.437   91.657
  464.750    5.683    0.183    0.401   84.927
  465.000    5.687    0.195    0.387   84.931
  465.250    5.689    0.207    0.399   89.221
  465.500    5.693    0.183    0.417   96.573
  465.750    5.697    0.189    0.426  100.250
  466.000    5.701    0.194    0.429  105.764
  466.250    5.814    0.199    0.439  110.054
  466.500    5.818    0.203    0.450  107.609
  466.750    5.931    0.184    0.443  114.349
  467.000    5.934    0.168    0.438  125.374
  467.250    6.168    0.201    0.433  132.724
  467.500    6.288    0.194    0.438  145.585
  467.750    6.291    0.178    0.443  159.059
  468.000    6.414    0.168    0.443  157.227
  468.250    6.541    0.180    0.444  152.945
  468.500    6.668    0.175    0.446  154.786
  468.750    6.800    0.157    0.449  160.300
  469.000    6.933    0.156    0.457  146.223
  469.250    6.939    0.165    0.473  139.492
  469.500    6.943    0.162    0.483  133.987
  469.750    6.946    0.146    0.470  129.705
  470.000    6.824    0.137    0.471  126.035
  470.250    6.699    0.154    0.470  127.264
  470.500    6.456    0.164    0.455  123.594
  470.750    5.995    0.176    0.457  113.802
  471.000    5.887    0.198    0.459  100.337
  471.250    5.780    0.213    0.444   89.322
  471.500    5.676    0.226    0.408   75.855
  471.750    5.680    0.126    0.259   63.615
  472.000   11.384    0.071    0.229   56.272
  472.250   14.538    0.008    0.191   47.092
