~VERSION INFORMATION
 VERS.                 2.0:   CWLS LOG ASCII STANDARD -VERSION 2.0
 WRAP.                  NO:   ONE LINE PER DEPTH STEP
~WELL INFORMATION BLOCK
#MNEM.UNIT           DATA                    DESCRIPTION OF MNEMONIC
#---------    -------------------            -------------------------------
# Generated from Intellog Unique Number	CS_69_70/WELL/2878
WELL.         AEC FISHER 10-27-69-03 W4M     : Well_name    - WELL
LOC .         00/10-27-069-03W4/0            : Location     - LOCATION
UWI .         00/10-27-069-03W4/0            : Uwi          - UNIQUE WELL ID
ENTR.         ANDERSEN                       : Entered      - ENTERED BY
SRVC.         SCHLUMBERGER                   : Scn          - SERVICE COMPANY
STRT.M        365                            : top_depth    - START DEPTH
STOP.M        605                            : bot_depth    - STOP DEPTH
STEP.M        0.25                           : increment    - STEP LENGTH
 NULL. -999.2500:NULL Value
~CURVE INFORMATION BLOCK
#MNEM UNIT       ERCB CURVE CODE    CURVE DESCRIPTION
#-----------   ------------------   ----------------------------------
DEPT.M        00 001 00 00         : DEPTH        - DEPTH
ILD .OHMM     00 120 00 00         : RESD         - DEEP RESISTIVITY (DIL)
GR  .API      00 310 00 00         : GR           - GAMMA RAY
CALI.MM       00 280 01 00         : CAL          - CALIPER
NPHI.V/V      00 330 00 00         : PHIN         - NEUTRON POROSITY (SANDSTONE)
DPHI.V/V      00 890 00 00         : PHID         - DENSITY POROSITY (SANDSTONE)
~PARAMETER INFORMATION
#MNEM.UNIT           DATA             DESCRIPTION OF MNEMONIC
#---------         -----------     ------------------------------
GL  .M        707                  : gl           - GROUND LEVEL ELEVATION
EREF.M        710.3                : kb           - ELEVATION OF DEPTH REFERENCE
DATM.M        710.3                : datum        - DATUM ELEVATION
TDD .M        612                  : tdd          - TOTAL DEPTH DRILLER
RUN .         ONE                  : Run          - RUN NUMBER
ENG .         BILL                 : Engineer     - RECORDING ENGINEER
WIT .         JIM                  : Witness      - WITNESSED BY
MUD .         GEL                  : Mud_type     - MUD TYPE
MATR.         SANDSTONE            : Logunit      - NEUTRON MATRIX
TMAX.C        25                   : BHT          - MAXIMUM RECORDED TEMPERATURE
BHTD.M        612                  : BHTDEP       - MAXIMUM RECORDED TEMPERATURE
MATR.         1                    : LOGUNIT      - NEUTRON MATRIX
RMT .C        22                   : MDTP         - TEMPERATURE OF MUD
NEUT.         1                    : NEUTRON      - NEUTRON TYPE
RESI.         0                    : RESIST       - RESISTIVITY TYPE
RMC .OHMM     2.54                 : RMC          - RESISTIVITY OF MUD CAKE
RMF .OHMM     4.82                 : RMF          - RESISTIVITY OF MUD FILTRATE
SUFT.C        15                   : SUFT         - SURFACE TEMPERATURE
~A  DEPTH     RESD       GR      CAL     PHIN     PHID
  365.000    3.880   96.281  164.882    0.477    0.244
  365.250    3.886   94.598  164.936    0.457    0.242
  365.500    3.685   90.643  164.980    0.474    0.246
  365.750    3.557   92.941  165.034    0.481    0.260
  366.000    3.372   93.543  165.077    0.491    0.266
  366.250    3.255   94.139  165.120    0.527    0.265
  366.500    3.261   98.715  164.203    0.535    0.261
  366.750    3.327  103.304  163.297    0.516    0.260
  367.000    3.457  106.178  162.391    0.522    0.263
  367.250    3.464  106.774  163.394    0.515    0.267
  367.500    3.469  103.952  164.387    0.527    0.269
  367.750    3.474   98.281  164.430    0.545    0.274
  368.000    3.747   97.168  164.484    0.509    0.275
  368.250    3.894   95.485  163.578    0.497    0.274
  368.500    3.902   94.942  162.661    0.485    0.256
  368.750    3.909   93.272  161.755    0.480    0.254
  369.000    3.915   92.159  160.849    0.473    0.258
  369.250    3.780   91.615  159.954    0.466    0.261
  369.500    3.649   96.191  159.048    0.457    0.231
  369.750    3.587   96.217  159.091    0.460    0.236
  370.000    3.527   97.958  159.145    0.476    0.244
  370.250    3.533  103.680  159.188    0.485    0.250
  370.500    3.811  102.567  159.231    0.486    0.245
  370.750    4.263   98.036  159.264    0.495    0.250
  371.000    4.947   91.227  158.358    0.506    0.257
  371.250    5.957   81.570  158.412    0.471    0.259
  371.500    7.868   71.913  157.506    0.378    0.265
  371.750   10.776   60.547  155.650    0.305    0.290
  372.000   17.750   46.902  155.694    0.307    0.313
  372.250   19.145   33.821  155.737    0.304    0.328
  372.500   18.819   34.423  155.780    0.293    0.344
  372.750   19.216   37.303  154.874    0.276    0.349
  373.000   19.969   35.614  153.040    0.265    0.349
  373.250   20.002   32.229  154.033    0.265    0.324
  373.500   19.670   31.685  155.985    0.272    0.302
  373.750   18.990   31.705  156.007    0.277    0.303
  374.000   18.674   31.731  157.000    0.279    0.321
  374.250   18.364   31.770  157.043    0.285    0.337
  374.500   17.729   32.365  157.097    0.292    0.342
  374.750   17.434   34.100  157.140    0.301    0.342
  375.000   17.463   34.696  157.183    0.313    0.339
  375.250   17.824   34.715  157.227    0.322    0.335
  375.500   17.853   35.880  157.270    0.317    0.325
  375.750   17.883   36.476  157.313    0.299    0.330
  376.000   17.912   33.660  156.407    0.300    0.336
  376.250   16.978   31.408  156.450    0.309    0.340
  376.500   16.391   29.162  156.504    0.323    0.339
  376.750   15.824   29.188  156.558    0.331    0.339
  377.000   15.555   31.485  156.601    0.338    0.337
  377.250   15.024   34.366  156.634    0.347    0.330
  377.500   14.774   36.670  157.626    0.356    0.325
  377.750   14.540   39.550  157.670    0.347    0.326
  378.000   14.552   38.437  157.713    0.340    0.322
  378.250   14.310   36.748  157.778    0.347    0.325
  378.500   14.334   33.932  157.821    0.344    0.328
  378.750   14.357   33.958  157.864    0.342    0.330
  379.000   14.381   34.554  157.897    0.339    0.328
  379.250   14.142   34.010  157.951    0.330    0.305
  379.500   13.907   32.897  158.005    0.335    0.297
  379.750   13.929   31.214  158.037    0.342    0.302
  380.000   13.704   28.399  158.091    0.342    0.306
  380.250   13.726   27.855  158.124    0.335    0.311
  380.500   13.754   31.292  158.178    0.336    0.319
  380.750   13.526   34.736  158.210    0.344    0.298
  381.000   13.301   39.325  158.253    0.359    0.295
  381.250   13.323   41.629  158.296    0.375    0.312
  381.500   13.345   38.237  158.361    0.343    0.329
  381.750   13.361   33.706  158.394    0.324    0.343
  382.000   13.139   33.733  158.448    0.331    0.336
  382.250   12.920   38.898  158.491    0.345    0.331
  382.500   12.952   38.341  158.534    0.346    0.326
  382.750   12.737   38.373  158.567    0.357    0.312
  383.000   12.753   35.551  158.610    0.377    0.319
  383.250   11.655   32.736  158.675    0.342    0.326
  383.500   11.043   39.021  158.718    0.334    0.316
  383.750    9.372   73.229  158.761    0.381    0.285
  384.000    8.409  100.032  160.703    0.428    0.259
  384.250    8.420   93.793  160.746    0.380    0.228
  384.500    8.750   82.427  160.790    0.343    0.232
  384.750    8.927   73.333  161.771    0.328    0.216
  385.000    8.619   74.504  161.847    0.344    0.223
  385.250    8.169   79.087  161.869    0.400    0.226
  385.500    7.065   95.631  160.962    0.426    0.214
  385.750    6.572  112.752  159.107    0.437    0.214
  386.000    6.344  108.790  159.150    0.430    0.218
  386.250    6.718  104.836  159.194    0.414    0.216
  386.500    6.607  102.577  158.298    0.408    0.219
  386.750    6.262  100.324  158.341    0.415    0.221
  387.000    6.160  100.357  158.395    0.433    0.216
  387.250    6.283  104.376  158.428    0.452    0.211
  387.500    6.650  107.250  158.493    0.468    0.208
  387.750    6.661  105.561  158.525    0.480    0.212
  388.000    6.672  103.315  158.568    0.468    0.217
  388.250    6.686  105.050  158.601    0.404    0.214
  388.500    6.697  105.639  158.676    0.405    0.217
  388.750    6.832  100.538  158.698    0.429    0.227
  389.000    7.232   86.324  158.752    0.438    0.240
  389.250    7.516   76.097  157.835    0.395    0.262
  389.500    7.817   69.858  156.929    0.367    0.287
  389.750    7.830   76.149  155.074    0.400    0.240
  390.000    7.839   72.764  153.218    0.430    0.250
  390.250    7.852   70.518  153.283    0.412    0.218
  390.500    8.011   72.816  154.276    0.418    0.217
  390.750    8.174   68.855  155.257    0.427    0.259
  391.000    8.494   61.476  155.301    0.447    0.281
  391.250    8.827   54.667  155.344    0.424    0.303
  391.500    9.517   45.579  155.387    0.388    0.317
  391.750   10.265   39.340  155.441    0.365    0.321
  392.000   10.866   31.961  155.484    0.348    0.320
  392.250   11.086   28.000  155.538    0.352    0.320
  392.500   11.104   27.456  155.571    0.348    0.323
  392.750   10.534   30.336  155.625    0.343    0.328
  393.000   10.165   32.634  155.668    0.343    0.333
  393.250    9.814   38.932  155.711    0.355    0.331
  393.500    9.475   57.185  155.744    0.378    0.255
  393.750    9.147   72.597  155.798    0.374    0.232
  394.000    8.995   80.027  155.841    0.386    0.224
  394.250    9.010   85.180  155.895    0.397    0.226
  394.500    9.025   82.934  156.898    0.411    0.226
  394.750    9.557   74.409  156.942    0.428    0.231
  395.000    9.750   64.183  156.963    0.428    0.291
  395.250    9.766   58.513  157.017    0.407    0.326
  395.500    9.425   65.380  157.061    0.382    0.324
  395.750    8.933   78.507  157.104    0.356    0.233
  396.000    8.313   91.633  160.944    0.398    0.201
  396.250    7.879   98.507  163.846    0.405    0.208
  396.500    7.610   96.824  162.951    0.393    0.213
  396.750    7.623   98.559  161.074    0.389    0.214
  397.000    7.777  100.863  159.240    0.415    0.207
  397.250    7.374  100.889  159.283    0.439    0.200
  397.500    7.252   98.630  159.316    0.468    0.198
  397.750    7.261   91.821  158.421    0.487    0.209
  398.000    7.273   84.442  158.464    0.476    0.242
  398.250    7.420   84.475  157.547    0.453    0.260
  398.500    7.570   81.653  156.652    0.459    0.270
  398.750    7.867   77.122  155.746    0.476    0.285
  399.000    8.647   70.882  154.850    0.479    0.304
  399.250    8.818   61.795  154.904    0.456    0.335
  399.500    9.164   44.733  154.937    0.414    0.340
  399.750    9.527   31.652  154.980    0.389    0.347
  400.000    9.539   28.836  155.023    0.421    0.358
  400.250    9.558   28.862  155.056    0.449    0.377
  400.500    9.574   29.458  155.120    0.430    0.402
  400.750    9.590   32.901  155.164    0.398    0.338
  401.000    9.605   38.630  155.207    0.404    0.319
  401.250    9.450   36.940  154.312    0.403    0.319
