~VERSION INFORMATION
 VERS.                 2.0:   CWLS LOG ASCII STANDARD -VERSION 2.0
 WRAP.                  NO:   ONE LINE PER DEPTH STEP
~WELL INFORMATION BLOCK
#MNEM.UNIT           DATA                    DESCRIPTION OF MNEMONIC
#---------    -------------------            -------------------------------
# Generated from Intellog Unique Number	CS_67_68/WELL/2194
WELL.         DOME CDA ATMORE                : Well_name    - WELL
LOC .         00/10-08-067-17W4/0            : Location     - LOCATION
UWI .         00/10-08-067-17W4/0            : Uwi          - UNIQUE WELL ID
ENTR.         SP                             : Entered      - ENTERED BY
SRVC.         SCHLUMBERGER                   : Scn          - SERVICE COMPANY
STRT.M        380                            : top_depth    - START DEPTH
STOP.M        535                            : bot_depth    - STOP DEPTH
STEP.M        0.25                           : increment    - STEP LENGTH
 NULL. -999.2500:NULL Value
~CURVE INFORMATION BLOCK
#MNEM UNIT       ERCB CURVE CODE    CURVE DESCRIPTION
#-----------   ------------------   ----------------------------------
DEPT.M        00 001 00 00         : DEPTH        - DEPTH
ILD .OHMM     00 120 00 00         : RESD         - DEEP RESISTIVITY (DIL)
DPHI.V/V      00 890 00 00         : PHID         - DENSITY POROSITY (LIMESTONE)
NPHI.V/V      00 330 00 00         : PHIN         - NEUTRON POROSITY (LIMESTONE)
GR  .API      00 310 00 00         : GR           - GAMMA RAY
CALI.MM       00 280 01 00         : CAL          - CALIPER
~PARAMETER INFORMATION
#MNEM.UNIT           DATA             DESCRIPTION OF MNEMONIC
#---------         -----------     ------------------------------
GL  .M        606.1                : gl           - GROUND LEVEL ELEVATION
EREF.M        610                  : kb           - ELEVATION OF DEPTH REFERENCE
DATM.M        610                  : datum        - DATUM ELEVATION
TDD .M        582                  : tdd          - TOTAL DEPTH DRILLER
RUN .         ONE                  : Run          - RUN NUMBER
ENG .         BILL                 : Engineer     - RECORDING ENGINEER
WIT .         JIM                  : Witness      - WITNESSED BY
MUD .         GEL                  : Mud_type     - MUD TYPE
MATR.         LIMESTONE            : Logunit      - NEUTRON MATRIX
TMAX.C        22                   : BHT          - MAXIMUM RECORDED TEMPERATURE
BHTD.M        578.1                : BHTDEP       - MAXIMUM RECORDED TEMPERATURE
MATR.         1                    : LOGUNIT      - NEUTRON MATRIX
RMT .C        25                   : MDTP         - TEMPERATURE OF MUD
NEUT.         1                    : NEUTRON      - NEUTRON TYPE
RESI.         0                    : RESIST       - RESISTIVITY TYPE
RMC .OHMM     0.25                 : RMC          - RESISTIVITY OF MUD CAKE
RMF .OHMM     0.25                 : RMF          - RESISTIVITY OF MUD FILTRATE
SUFT.C        15                   : SUFT         - SURFACE TEMPERATURE
~A  DEPTH     RESD     PHID     PHIN       GR      CAL
# ...
  416.500    2.886    0.210    0.450   90.823  163.163
  416.750    2.904    0.250    0.448   87.614  162.769
  417.000    2.905    0.279    0.437   85.559  161.672
  417.250    2.889    0.298    0.426   84.839  160.877
  417.500    2.896    0.297    0.422   88.005  159.778
  417.750    2.929    0.292    0.426   83.643  158.782
  418.000    3.008    0.291    0.417   79.282  158.493
  418.250    3.101    0.277    0.407   78.744  159.822
  418.500    3.184    0.268    0.401   83.488  161.761
  418.750    3.240    0.302    0.435   87.563  164.303
  419.000    3.290    0.340    0.463   92.186  168.770
  419.250    3.285    0.331    0.436   95.351  173.643
  419.500    3.243    0.400    0.506   98.213  176.589
  419.750    3.202    0.408    0.527   92.941  171.850
  420.000    3.097    0.248    0.453   89.550  166.906
  420.250    2.934    0.215    0.421   90.530  163.683
  420.500    2.859    0.219    0.398   92.360  163.193
  420.750    2.807    0.255    0.420   91.943  164.422
  421.000    2.803    0.282    0.428   88.614  164.435
  421.250    2.825    0.300    0.443   85.466  161.921
  421.500    3.023    0.277    0.458   82.561  163.655
  421.750    3.277    0.148    0.381   77.774  165.896
  422.000    3.501    0.126    0.350   73.352  166.720
  422.250    3.602    0.112    0.269   69.233  165.521
  422.500    3.657    0.271    0.324   68.695  163.714
  422.750    3.618    0.283    0.383   74.775  163.122
  423.000    3.198    0.288    0.423   75.876  162.731
  423.250    2.775    0.292    0.431   75.702  162.949
  423.500    2.435    0.298    0.410   79.900  163.064
  423.750    2.231    0.304    0.441   84.704  162.877
  424.000    2.113    0.308    0.455   88.416  162.790
  424.250    2.067    0.301    0.465   89.578  162.906
  424.500    2.111    0.292    0.457   87.887  162.922
  424.750    2.144    0.284    0.443   84.800  163.138
  425.000    2.205    0.276    0.453   82.441  163.253
  425.250    2.265    0.270    0.456   87.125  163.167
  425.500    2.317    0.266    0.444   90.653  163.283
  425.750    2.370    0.266    0.449   91.027  163.702
  426.000    2.439    0.257    0.461   94.739  164.427
  426.250    2.509    0.247    0.438   96.326  164.541
  426.500    2.577    0.232    0.420   98.034  165.163
  426.750    2.651    0.215    0.419  100.896  165.684
  427.000    2.753    0.211    0.438  102.604  166.305
  427.250    2.827    0.222    0.454  101.097  166.422
  427.500    2.893    0.231    0.440   98.677  166.233
  427.750    2.932    0.242    0.426   96.317  165.541
  428.000    2.944    0.220    0.416  100.940  164.543
  428.250    2.956    0.201    0.419  104.045  166.279
  428.500    3.030    0.190    0.435  105.146  168.316
  428.750    3.182    0.204    0.440  107.341  169.342
  429.000    3.243    0.221    0.437  108.745  169.458
  429.250    3.293    0.229    0.448  109.361  168.461
  429.500    3.332    0.242    0.443  107.246  167.868
  429.750    3.333    0.243    0.428  102.822  167.579
  430.000    3.303    0.226    0.420   99.857  167.797
  430.250    3.273    0.207    0.427  102.962  167.913
  430.500    3.232    0.197    0.432  106.674  168.637
  430.750    3.185    0.191    0.442  105.468  169.358
  431.000    3.180    0.180    0.449  106.327  170.687
  431.250    3.145    0.198    0.439  110.768  170.500
  431.500    3.037    0.224    0.432  112.718  170.516
  431.750    2.937    0.196    0.442  112.363  172.251
  432.000    2.921    0.169    0.462  108.911  174.490
  432.250    2.972    0.213    0.475  110.134  177.033
  432.500    3.110    0.252    0.490  111.845  178.667
  432.750    3.322    0.277    0.518  112.763  178.681
  433.000    3.502    0.275    0.449  113.319  176.876
  433.250    3.643    0.238    0.426  113.205  173.856
  433.500    3.756    0.207    0.410  109.693  171.239
  433.750    3.835    0.188    0.397  107.759  169.332
  434.000    3.865    0.191    0.395  106.857  167.929
  434.250    3.896    0.213    0.402  108.992  167.843
  434.500    3.905    0.206    0.415  112.581  168.869
  434.750    3.891    0.194    0.428  112.468  168.886
  435.000    3.885    0.183    0.434  107.865  168.191
  435.250    3.836    0.201    0.426  102.895  167.194
  435.500    3.731    0.237    0.423  102.419  166.297
  435.750    3.622    0.234    0.447  103.641  166.312
  436.000    3.458    0.224    0.464  106.624  166.124
  436.250    3.167    0.233    0.449  105.298  165.229
  436.500    2.869    0.223    0.433   91.406  164.131
  436.750    2.599    0.207    0.419   82.066  161.819
  437.000    2.381    0.255    0.418   76.855  160.315
  437.250    2.153    0.278    0.418   75.771  159.218
  437.500    1.994    0.301    0.414   75.901  158.625
  437.750    1.911    0.308    0.410   75.970  158.539
  438.000    1.862    0.301    0.408   75.009  158.553
  438.250    1.825    0.310    0.413   73.256  158.062
  438.500    1.778    0.317    0.410   71.141  158.380
  438.750    1.762    0.319    0.420   69.753  158.597
  439.000    1.756    0.317    0.433   69.033  158.612
  439.250    1.777    0.316    0.430   66.918  158.626
  439.500    1.818    0.294    0.429   70.447  158.337
  439.750    1.888    0.240    0.405   73.552  157.948
  440.000    1.990    0.216    0.396   73.621  157.659
  440.250    2.055    0.204    0.386   72.901  157.572
  440.500    2.079    0.272    0.398   74.367  157.385
  440.750    2.041    0.313    0.413   74.862  157.399
  441.000    1.956    0.305    0.411   74.992  157.414
  441.250    1.857    0.311    0.410   74.697  156.922
  441.500    1.809    0.320    0.410   72.946  156.431
  441.750    1.776    0.324    0.414   72.651  156.348
  442.000    1.787    0.324    0.432   74.116  156.258
  442.250    1.835    0.326    0.434   73.700  156.274
  442.500    1.923    0.325    0.427   72.009  156.289
  442.750    2.097    0.313    0.416   73.900  156.605
  443.000    2.278    0.297    0.423   74.759  156.723
  443.250    2.603    0.272    0.391   71.550  157.346
  443.500    3.047    0.223    0.289   68.099  158.068
  443.750    3.488    0.160    0.263   66.105  158.890
  444.000    3.789    0.097    0.251   65.871  160.119
  444.250    3.965    0.140    0.313   69.339  160.438
  444.500    4.034    0.193    0.356   78.939  159.340
  444.750    3.800    0.214    0.368   89.450  158.747
  445.000    3.279    0.216    0.379   98.322  160.785
  445.250    3.101    0.203    0.387  104.947  162.521
  445.500    3.056    0.191    0.411  109.326  163.040
  445.750    3.063    0.183    0.431  106.906  162.752
  446.000    3.070    0.191    0.414  100.664  161.755
  446.250    3.088    0.195    0.412   99.215  160.353
  446.500    3.106    0.193    0.429   99.649  159.760
  446.750    3.096    0.207    0.420  101.964  159.169
  447.000    3.068    0.219    0.423  100.031  158.577
  447.250    3.023    0.232    0.401   97.430  158.893
  447.500    2.991    0.239    0.378   96.102  160.022
  447.750    2.992    0.226    0.377  100.058  162.160
  448.000    3.038    0.213    0.417  105.043  165.007
  448.250    3.143    0.199    0.434  109.544  167.958
  448.500    3.295    0.197    0.425  112.649  167.973
  448.750    3.371    0.170    0.392  113.993  168.493
  449.000    3.417    0.148    0.395  117.037  171.542
  449.250    3.411    0.139    0.416  122.388  172.265
  449.500    3.293    0.155    0.428  105.643  167.221
  449.750    3.028    0.192    0.432   91.447  163.391
  450.000    2.805    0.223    0.435   83.382  160.977
  450.250    2.854    0.079    0.432   75.014  160.789
  450.500    3.106    0.043    0.306   63.974  161.209
  450.750    3.343    0.022    0.209   53.724  161.729
  451.000    3.550    0.009    0.176   67.149  161.643
  451.250    3.666    0.163    0.273   78.630  162.669
  451.500    3.627    0.197    0.371   89.080  164.100
  451.750    3.423    0.224    0.397  101.412  166.442
  452.000    3.274    0.197    0.401  109.495  167.771
  452.250    2.988    0.172    0.423  109.928  169.203
  452.500    2.657    0.181    0.443   98.950  165.880
  452.750    2.479    0.234    0.470   89.610  162.858
