~VERSION INFORMATION
 VERS.                 2.0:   CWLS LOG ASCII STANDARD -VERSION 2.0
 WRAP.                  NO:   ONE LINE PER DEPTH STEP
~WELL INFORMATION BLOCK
#MNEM.UNIT           DATA                    DESCRIPTION OF MNEMONIC
#---------    -------------------            -------------------------------
# Generated from Intellog Unique Number	CS_73_76/WELL/2201
WELL.         PEX KIRBY                      : Well_name    - WELL
LOC .         00/11-18-074-08W4/0            : Location     - LOCATION
UWI .         00/11-18-074-08W4/0            : Uwi          - UNIQUE WELL ID
ENTR.         SP                             : Entered      - ENTERED BY
SRVC.         SCHLUMBERGER                   : Scn          - SERVICE COMPANY
STRT.M        290                            : top_depth    - START DEPTH
STOP.M        505                            : bot_depth    - STOP DEPTH
STEP.M        0.25                           : increment    - STEP LENGTH
 NULL. -999.2500:NULL Value
~CURVE INFORMATION BLOCK
#MNEM UNIT       ERCB CURVE CODE    CURVE DESCRIPTION
#-----------   ------------------   ----------------------------------
DEPT.M        00 001 00 00         : DEPTH        - DEPTH
ILD .OHMM     00 120 00 00         : RESD         - DEEP RESISTIVITY (DIL)
DPHI.V/V      00 890 00 00         : PHID         - DENSITY POROSITY (LIMESTONE)
NPHI.V/V      00 330 00 00         : PHIN         - NEUTRON POROSITY (LIMESTONE)
GR  .API      00 310 00 00         : GR           - GAMMA RAY
~PARAMETER INFORMATION
#MNEM.UNIT           DATA             DESCRIPTION OF MNEMONIC
#---------         -----------     ------------------------------
GL  .M        665.27               : gl           - GROUND LEVEL ELEVATION
EREF.M        669.23               : kb           - ELEVATION OF DEPTH REFERENCE
DATM.M        665.27               : datum        - DATUM ELEVATION
TDD .M        518                  : tdd          - TOTAL DEPTH DRILLER
RUN .         ONE                  : Run          - RUN NUMBER
ENG .         BILL                 : Engineer     - RECORDING ENGINEER
WIT .         JIM                  : Witness      - WITNESSED BY
MUD .         GEL                  : Mud_type     - MUD TYPE
MATR.         LIMESTONE            : Logunit      - NEUTRON MATRIX
TMAX.C        34                   : BHT          - MAXIMUM RECORDED TEMPERATURE
BHTD.M        518                  : BHTDEP       - MAXIMUM RECORDED TEMPERATURE
MATR.         1                    : LOGUNIT      - NEUTRON MATRIX
RMT .C        25                   : MDTP         - TEMPERATURE OF MUD
NEUT.         1                    : NEUTRON      - NEUTRON TYPE
RESI.         0                    : RESIST       - RESISTIVITY TYPE
RMC .OHMM     0.25                 : RMC          - RESISTIVITY OF MUD CAKE
RMF .OHMM     0.25                 : RMF          - RESISTIVITY OF MUD FILTRATE
SUFT.C        15                   : SUFT         - SURFACE TEMPERATURE
~A  DEPTH     RESD     PHID     PHIN       GR
# ...
  464.000   12.165    0.134    0.335   95.770
  464.250   10.857    0.147    0.340  103.218
  464.500   10.065    0.165    0.340  104.467
  464.750    9.878    0.177    0.335   97.658
  465.000    9.880    0.177    0.330   88.991
  465.250   10.069    0.182    0.333   82.800
  465.500   10.461    0.186    0.346   78.473
  465.750   10.463    0.186    0.365   77.860
  466.000   10.870    0.185    0.370   79.113
  466.250   10.871    0.190    0.367   80.359
  466.500   11.082    0.190    0.355   84.089
  466.750   11.082    0.184    0.336   85.336
  467.000   11.084    0.173    0.327   80.390
  467.250   11.085    0.169    0.343   79.155
  467.500   10.879    0.159    0.368   77.928
  467.750   10.476    0.153    0.380   80.418
  468.000    9.898    0.145    0.360   82.283
  468.250    9.531    0.141    0.352   87.252
  468.500    9.004    0.154    0.350   90.359
  468.750    8.670    0.169    0.347   94.090
  469.000    8.509    0.182    0.342   91.001
  469.250    8.510    0.188    0.340   86.670
  469.500    8.840    0.193    0.348   76.764
  469.750    9.359    0.191    0.360   73.671
  470.000    9.909    0.190    0.353   73.060
  470.250   10.295    0.186    0.342   79.888
  470.500   10.694    0.183    0.348   85.478
  470.750   10.901    0.184    0.358   84.246
  471.000   10.903    0.204    0.345   80.536
  471.250   11.114    0.231    0.340   83.647
  471.500   11.328    0.242    0.346   84.897
  471.750   11.993    0.245    0.351   84.903
  472.000   12.698    0.242    0.362   76.855
  472.250   14.504    0.240    0.365   73.145
  472.500   16.886    0.279    0.365   77.495
  472.750   18.568    0.290    0.361   74.403
  473.000   20.810    0.288    0.357   57.058
  473.250   22.455    0.279    0.348   50.248
  473.500   22.888    0.271    0.344   45.299
  473.750   21.625    0.278    0.349   52.747
  474.000   20.049    0.275    0.356   60.814
  474.250   19.674    0.271    0.371   58.343
  474.500   19.678    0.267    0.386   60.213
  474.750   20.834    0.271    0.394   64.561
  475.000   21.236    0.267    0.387   61.470
  475.250   21.647    0.257    0.377   54.042
  475.500   21.650    0.256    0.379   54.671
  475.750   21.652    0.268    0.374   58.399
  476.000   21.248    0.268    0.369   56.548
  476.250   20.462    0.265    0.360   55.939
  476.500   20.079    0.259    0.355   57.808
  476.750   18.971    0.252    0.353   59.678
  477.000   17.256    0.240    0.377   54.107
  477.250   15.401    0.229    0.361   55.980
  477.500   14.009    0.226    0.341   62.803
  477.750   13.236    0.224    0.332   79.551
  478.000   13.492    0.214    0.326   81.419
  478.250   13.752    0.208    0.335   80.189
  478.500   14.018    0.205    0.357   78.958
  478.750   14.562    0.219    0.363   82.686
  479.000   15.418    0.231    0.366   86.414
  479.250   15.716    0.218    0.358   78.984
  479.500   15.422    0.182    0.352   67.838
  479.750   12.760    0.159    0.349   74.044
  480.000   11.606    0.151    0.337   86.452
  480.250   10.759    0.147    0.340   90.180
  480.500   10.165    0.142    0.349   92.048
  480.750    9.423    0.140    0.357   94.539
  481.000    8.736    0.140    0.356   97.649
  481.250    8.255    0.142    0.360  100.141
  481.500    8.255    0.149    0.351  100.765
  481.750    8.256    0.155    0.343  101.396
  482.000    8.258    0.156    0.378  101.404
  482.250    8.418    0.158    0.390  102.032
  482.500    8.580    0.163    0.368  102.661
  482.750    8.914    0.166    0.344  102.672
  483.000    9.260    0.169    0.323   95.863
  483.250    9.620    0.174    0.302   89.056
  483.500   10.380    0.180    0.311   87.203
  483.750   10.783    0.188    0.318   92.173
  484.000   11.415    0.199    0.339   91.562
  484.250   13.039    0.209    0.350   85.373
  484.500   14.339    0.221    0.354   76.707
  484.750   16.379    0.239    0.349   73.613
  485.000   18.357    0.249    0.345   69.285
  485.250   19.808    0.241    0.350   67.434
  485.500   19.811    0.222    0.356   66.202
  485.750   18.020    0.210    0.356   66.215
  486.000   15.485    0.193    0.348   69.320
  486.250   14.355    0.174    0.343   76.769
  486.500   12.335    0.164    0.340   83.599
  486.750   11.877    0.155    0.346   87.326
  487.000   10.803    0.149    0.356   92.296
  487.250   10.208    0.160    0.355   94.162
  487.500   10.017    0.167    0.346   96.031
  487.750    9.831    0.157    0.339   97.279
  488.000    9.831    0.152    0.335   99.148
  488.250   10.021    0.144    0.328   99.157
  488.500   10.215    0.145    0.328  101.027
  488.750   10.413    0.155    0.329  101.655
  489.000   10.414    0.169    0.328  100.425
  489.250   10.416    0.174    0.325   94.238
  489.500   10.222    0.177    0.324   89.908
  489.750   10.031    0.182    0.324   89.296
  490.000    9.477    0.213    0.326   89.925
  490.250    8.300    0.246    0.334   89.314
  490.500    7.268    0.280    0.341   83.748
  490.750    5.574    0.299    0.340   76.940
  491.000    5.167    0.307    0.337   68.268
  491.250    4.700    0.310    0.339   53.401
  491.500    4.357    0.312    0.339   50.934
  491.750    4.195    0.315    0.340   49.705
  492.000    4.117    0.315    0.345   48.470
  492.250    4.040    0.315    0.347   44.761
  492.500    3.965    0.315    0.345   40.431
  492.750    3.966    0.316    0.343   36.722
  493.000    3.892    0.321    0.341   36.734
  493.250    3.892    0.325    0.339   37.981
  493.500    3.967    0.318    0.348   41.712
  493.750    4.044    0.306    0.367   44.197
  494.000    4.122    0.292    0.363   49.788
  494.250    4.202    0.272    0.341   52.273
  494.500    4.283    0.252    0.330   58.484
  494.750    4.449    0.236    0.324   61.589
  495.000    4.622    0.230    0.325   67.179
  495.250    4.894    0.234    0.329   75.867
  495.500    5.281    0.241    0.333   82.692
  495.750    5.382    0.250    0.333   82.083
  496.000    5.591    0.259    0.336   70.315
  496.250    5.699    0.243    0.341   61.029
  496.500    5.593    0.235    0.340   56.696
  496.750    5.594    0.236    0.337   62.906
  497.000    5.595    0.269    0.341   70.972
  497.250    5.703    0.289    0.344   72.223
  497.500    5.924    0.299    0.346   69.751
  497.750    5.704    0.310    0.350   59.225
  498.000    4.902    0.317    0.354   50.556
  498.250    4.544    0.322    0.359   44.984
  498.500    4.134    0.341    0.359   40.655
  498.750    3.905    0.342    0.357   38.807
  499.000    3.620    0.342    0.359   37.577
  499.250    3.486    0.339    0.358   37.584
  499.500    3.357    0.333    0.348   38.213
  499.750    3.357    0.331    0.334   40.703
  500.000    3.295    0.328    0.329   40.091
  500.250    3.295    0.328    0.329   37.002
  500.500    3.359    0.329    0.333   36.391
  500.750    3.359    0.328    0.342   37.022
  501.000    3.490    0.324    0.347   37.030
  501.250    3.695    0.322    0.347   35.802
  501.500    3.912    0.318    0.337   35.813
  501.750    3.987    0.312    0.326   36.437
  502.000    4.142    0.297    0.312   39.547
  502.250    4.386    0.264    0.293   44.517
  502.500    4.556    0.176    0.281   48.243
  502.750    5.204    0.149    0.265   54.453
  503.000    5.945    0.073    0.253   56.320
  503.250    7.466    0.028    0.243   57.573
  503.500    8.210    0.040    0.239   58.201
  503.750   10.916    0.047    0.237   58.207
  504.000   12.468    0.049    0.237   60.077
  504.250   14.793    0.053    0.237   63.806
  504.500   16.579    0.060    0.237   68.157
  504.750   18.233    0.063    0.238   68.163
  505.000   20.052    0.062    0.238   66.312
