~Version Information
VERS.                2.00:
WRAP.                  NO:
~Well Information Block
#MNEM.UNIT       Data Type    Information
#---------    -------------   -------------------
FLD.   :FIELD
FLD.   :FIELD
FLD.   :FIELD
FLD.   :FIELD
STRT.M          1950.0000:
STOP.M          4060.0000:
STEP.M             0.8202:
NULL.           -999.2500:
COMP.  MUTUAL EXPLORATION FUNDS:COMPANY
WELL.  MUTES IOE SEAFORTH:WELL
FLD.   :FIELD
LOC.   15-20-095-20W4:LOCATION
CTRY.  CANADA:COUNTRY
PROV.  ALBERTA:PROVINCE
SRVC.  SCHLUMBERGER:SERVICE COMPANY
DATE.  01 MAR 69:LOG DATE
UWI.   00/15-20-095-20W4/0:UNIQUE WELL ID
~Curve Information Block
#MNEM.UNIT        API CODE    Curve Description
#---------    ------------    -----
DEPT.M                    :   DEPTH
CALI.in                   :   CALI
GR  .API                  :   GR
SNP .V/V                  :   SNP
~A  Depth           CALI          GR         SNP
# ...
3833.1792         8.6336     21.4549      0.0870
3833.9994         8.5977     21.1214      0.0888
3834.8196         8.5957     21.0795      0.0949
3835.6398         8.5956     21.4203      0.1050
3836.4600         8.5964     21.8184      0.1034
3837.2802         8.5972     21.5513      0.1018
3838.1004         8.5980     20.8458      0.1055
3838.9206         8.5609     19.4080      0.1133
3839.7408         8.4824     18.1741      0.1198
3840.5610         8.4790     17.9526      0.1247
3841.3812         8.4797     19.5469      0.1492
3842.2014         8.4805     22.4694      0.1476
3843.0216         8.5205     25.3175      0.1475
3843.8418         8.5619     26.5850      0.1597
3844.6620         8.6034     28.3890      0.1800
3845.4822         8.6055     30.6930      0.1970
3846.3024         8.6064     32.7685      0.2078
3847.1226         8.6471     33.8266      0.2176
3847.9428         8.6486     35.9785      0.2234
3848.7630         8.6494     38.1326      0.2162
3849.5832         8.6907     39.7496      0.2120
3850.4034         8.7322     42.5745      0.2232
3851.2236         8.7331     46.2155      0.2276
3852.0438         8.7666     49.1288      0.2200
3852.8640         8.7727     49.0627      0.2151
3853.6842         8.8085     47.8828      0.2274
3854.5044         8.8423     46.3029      0.2340
3855.3246         8.8539     45.4884      0.2207
3856.1448         8.8812     43.5477      0.2004
3856.9650         8.9310     43.0803      0.1834
3857.7852         8.9617     41.9305      0.1431
3858.6054         8.9802     44.8830      0.1011
3859.4256         8.9836     49.2483      0.0746
3860.2458         8.9853     50.2710      0.0736
3861.0660         8.9863     47.7368      0.0732
3861.8862         8.9872     45.3448      0.0725
3862.7064         9.0164     46.9790      0.0695
3863.5266         9.0258     47.8623      0.0641
3864.3468         9.0531     46.1424      0.0591
3865.1670         9.0691     41.3572      0.0630
3865.9872         9.1069     37.6502      0.0627
3866.8074         9.1121     34.4106      0.0604
3867.6276         9.1143     30.8925      0.0565
3868.4478         9.1444     28.0037      0.0509
3869.2680         9.1555     26.8702      0.0460
3870.0882         9.1577     26.3523      0.0502
3870.9084         9.1587     24.2962      0.0632
3871.7286         9.1595     24.5789      0.0519
3872.5488         9.1243     25.6172      0.0311
3873.3690         9.1211     26.7967      0.0233
3874.1892         9.1215     25.0968      0.0254
3875.0094         9.0487     22.2929      0.0207
3875.8296         9.0439     21.8679      0.0166
3876.6498         9.0801     23.0457      0.0173
3877.4700         9.0530     26.6284      0.0189
3878.2902         9.0075     32.2738      0.0202
3879.1104         9.0050     38.3731      0.0193
3879.9306         9.0056     39.2245      0.0190
3880.7508         9.0064     33.7835      0.0182
3881.5710         9.0072     28.6432      0.0207
3882.3912         9.0081     20.2071      0.0251
3883.2114         9.0089     18.4628      0.0351
3884.0316         9.0097     17.2258      0.0609
3884.8518         9.0106     16.7547      0.0852
3885.6720         9.0114     19.6190      0.0790
3886.4922         9.0122     20.6327      0.0599
3887.3124         9.0131     18.5995      0.0458
3888.1326         9.0139     16.9616      0.0386
3888.9528         9.0147     16.5170      0.0456
3889.7730         9.0561     15.3237      0.0654
3890.5932         9.0569     18.3086      0.0820
3891.4134         9.0578     23.2806      0.0975
3892.2336         9.0586     29.9578      0.1062
3893.0538         9.0924     36.8604      0.0983
3893.8740         9.0995     36.5830      0.0875
3894.6942         9.0736     33.7600      0.0685
3895.5144         9.0641     30.9782      0.0692
3896.3346         9.0632     29.8125      0.0651
3897.1548         9.0637     28.7160      0.0583
3897.9750         9.0645     41.0926      0.0510
3898.7952         9.0653     48.7716      0.0429
3899.6154         9.0902     60.5526      0.0427
3900.4356         9.1050     58.2933      0.0737
3901.2558         9.1424     53.5097      0.1328
3902.0760         9.1478     45.7478      0.1245
3902.8962         9.1500     37.2692      0.0992
3903.7164         9.1513     42.0961      0.0723
3904.5366         9.1811     39.6170      0.0526
3905.3568         9.1903     36.8948      0.0479
3906.1770         9.1940     33.0312      0.1005
3906.9972         9.1951     29.4675      0.1177
3907.8174         9.1961     26.2912      0.1225
3908.6376         9.1970     40.7989      0.0996
3909.4578         9.1978     53.2776      0.0886
3910.2780         9.1986     53.8935      0.0795
3911.0982         9.1995     49.5170      0.0877
3911.9184         9.2003     41.7662      0.1119
3912.7386         9.2011     33.5524      0.1337
3913.5588         9.2020     39.2833      0.1400
3914.3790         9.2028     50.9699      0.1302
3915.1992         9.2036     54.0093      0.1159
3916.0194         9.2045     56.8449      0.0904
3916.8396         9.2053     53.8124      0.0783
3917.6598         9.2061     51.4079      0.1204
3918.4800         9.2070     61.0481      0.1467
3919.3002         9.2078     74.5922      0.1612
3920.1204         9.2086     75.4883      0.1697
3920.9406         9.2094     73.5370      0.1770
3921.7608         9.2103     71.1664      0.1405
3922.5810         9.2111     62.7725      0.1386
3923.4012         9.2119     54.1756      0.1373
3924.2214         9.2128     40.3785      0.1396
3925.0416         9.2136     39.0013      0.1475
3925.8618         9.2144     42.4058      0.1262
3926.6820         9.2153     51.0768      0.1130
3927.5022         9.2161     70.7201      0.1163
3928.3224         9.2169     80.5604      0.1260
3929.1426         9.2178     70.5714      0.1174
3929.9628         9.2186     64.6396      0.1132
3930.7830         9.2194     67.2188      0.1281
3931.6032         9.1926     68.9397      0.1452
3932.4234         9.1859     65.9574      0.1425
3933.2436         9.1823     60.7467      0.1387
3934.0638         9.1825     55.6053      0.1260
3934.8840         9.1831     52.8021      0.0839
3935.7042         9.1839     55.4998      0.0687
3936.5244         9.1563     55.4942      0.0595
3937.3446         9.1499     56.1679      0.0569
3938.1648         9.1465     59.3021      0.0692
3938.9850         9.1468     70.7957      0.1180
3939.8052         9.1475     75.9820      0.1409
3940.6254         9.1483     76.0779      0.1320
3941.4456         9.1491     71.4188      0.1054
3942.2658         9.1499     61.5589      0.0870
3943.0860         9.1508     46.3403      0.0913
3943.9062         9.1516     43.5847      0.1241
3944.7264         9.1524     45.7934      0.1360
3945.5466         9.1533     49.3769      0.1410
3946.3668         9.1541     62.2256      0.1359
3947.1870         9.1549     76.1468      0.1417
3948.0072         9.1558     86.1012      0.1509
3948.8274         9.1566     73.4745      0.1484
3949.6476         9.1944     62.8668      0.1137
3950.4678         9.1985     59.8326      0.0911
3951.2880         9.1996     68.9648      0.1138
3952.1082         9.2005     74.0056      0.1304
3952.9284         9.2013     78.8834      0.1094
3953.7486         9.2022     80.9879      0.0980
3954.5688         9.2030     74.9488      0.1034
3955.3890         9.2038     74.2608      0.1098
3956.2092         9.2046     77.2629      0.1063
3957.0294         9.2055     78.2014      0.0961
3957.8496         9.2063     78.2675      0.0784
3958.6698         9.2071     73.8545      0.0692
3959.4900         9.2080     67.3602      0.0786
3960.3102         9.2088     70.2978      0.0890
3961.1304         9.2096     78.3072      0.0846
3961.9506         9.2105     75.0659      0.0851
3962.7708         9.2113     69.7826      0.0864
3963.5910         9.2121     65.6660      0.0918
3964.4112         9.2130     67.2050      0.0974
3965.2314         9.2371     68.4620      0.0814
3966.0516         9.2496     63.8675      0.0652
3966.8718         9.2550     58.8187      0.0536
