~VERSION INFORMATION
 VERS.                 2.0:   CWLS LOG ASCII STANDARD -VERSION 2.0
 WRAP.                  NO:   ONE LINE PER DEPTH STEP
~WELL INFORMATION BLOCK
#MNEM.UNIT           DATA                    DESCRIPTION OF MNEMONIC
#---------    -------------------            -------------------------------
# Generated from Intellog Unique Number	CN_91_93/WELL/3077
WELL.         CANADIAN SUPERIOR OIL LTD.     : Well_name    - WELL
LOC .         00/11-36-092-21W4/0            : Location     - LOCATION
UWI .         00/11-36-092-21W4/0            : Uwi          - UNIQUE WELL ID
ENTR.         JOETTE                         : Entered      - ENTERED BY
SRVC.         SCHLUMBERGER                   : Scn          - SERVICE COMPANY
DATE.         04/10/92                       : Date         - LOG DATE
STRT.M        50                             : top_depth    - START DEPTH
STOP.M        235                            : bot_depth    - STOP DEPTH
STEP.M        0.25                           : increment    - STEP LENGTH
 NULL. -999.2500:NULL Value
~CURVE INFORMATION BLOCK
#MNEM UNIT       ERCB CURVE CODE    CURVE DESCRIPTION
#-----------   ------------------   ----------------------------------
DEPT.M        00 001 00 00         : DEPTH        - DEPTH
CALI.MM       00 280 01 00         : CAL          - CALIPER
GR  .API      00 310 00 00         : GR           - GAMMA RAY
NPHI.V/V      00 330 00 00         : PHIN         - NEUTRON POROSITY (SANDSTONE)
ILD .OHMM     00 120 00 00         : RESD         - DEEP RESISTIVITY (DIL)
DPHI.V/V      00 890 00 00         : PHID         - DENSITY POROSITY (SANDSTONE)
~PARAMETER INFORMATION
#MNEM.UNIT           DATA             DESCRIPTION OF MNEMONIC
#---------         -----------     ------------------------------
GL  .M        535.4                : gl           - GROUND LEVEL ELEVATION
EREF.M        539.2                : kb           - ELEVATION OF DEPTH REFERENCE
DATM.M        539.2                : datum        - DATUM ELEVATION
TDD .M        238.8                : tdd          - TOTAL DEPTH DRILLER
RUN .         ONE                  : Run          - RUN NUMBER
ENG .         BILL                 : Engineer     - RECORDING ENGINEER
WIT .         JIM                  : Witness      - WITNESSED BY
MUD .         GEL                  : Mud_type     - MUD TYPE
MATR.         SANDSTONE            : Logunit      - NEUTRON MATRIX
TMAX.C        20                   : BHT          - MAXIMUM RECORDED TEMPERATURE
BHTD.M        238.8                : BHTDEP       - MAXIMUM RECORDED TEMPERATURE
RMT .C        15                   : MDTP         - TEMPERATURE OF MUD
MUDD.KG/M     1100                 : MWT          - MUD DENSITY
NEUT.         1                    : NEUTRON      - NEUTRON TYPE
RESI.         0                    : RESIST       - RESISTIVITY TYPE
RM  .OHMM     5.68                 : RM           - RESISTIVITY OF MUD
RMC .OHMM     5.68                 : RMC          - RESISTIVITY OF MUD CAKE
RMF .OHMM     5.29                 : RMF          - RESISTIVITY OF MUD FILTRATE
SUFT.C        4                    : SUFT         - SURFACE TEMPERATURE
~A  DEPTH      CAL       GR     PHIN     RESD     PHID
# ...
  196.000  258.818   90.905    0.403   12.778    0.204
  196.250  258.850   89.043    0.401   12.529    0.204
  196.500  257.873   87.182    0.395   12.286    0.200
  196.750  256.878   84.092    0.377   12.273    0.199
  197.000  255.876   81.616    0.346   12.262    0.103
  197.250  253.864   82.211    0.326   12.252    0.066
  197.500  252.861   85.879    0.409   11.790    0.118
  197.750  252.910   85.860    0.400   11.563    0.160
  198.000  252.934   84.613    0.366   10.717    0.109
  198.250  252.967   84.594    0.354   10.313    0.090
  198.500  251.973   85.804    0.388   10.108    0.139
  198.750  252.021   87.009    0.399   10.097    0.189
  199.000  252.054   88.834    0.412   10.284    0.197
  199.250  253.121   89.429    0.417   10.471    0.199
  199.500  253.145   89.415    0.425   10.862    0.201
  199.750  255.223   89.387    0.431   11.057    0.200
  200.000  257.309   89.369    0.441   11.047    0.197
  200.250  258.368   88.736    0.446   10.431    0.188
  200.500  257.390   85.650    0.434   10.232    0.177
  200.750  256.388   78.874    0.359   10.613    0.161
  201.000  255.394   74.551    0.325   11.649    0.138
  201.250  254.408   76.380    0.359   12.316    0.175
  201.500  254.432   81.890    0.390   13.516    0.197
  201.750  256.534   84.938    0.416   13.507    0.182
  202.000  258.611   84.924    0.388   13.242    0.100
  202.250  260.697   84.291    0.335   12.737    0.067
  202.500  261.756   86.115    0.351   12.732    0.120
  202.750  261.797   89.168    0.387   12.018    0.189
  203.000  259.792   91.598    0.398   11.790    0.205
  203.250  258.782   92.198    0.387   11.345    0.201
  203.500  257.788   94.017    0.380   11.335    0.191
  203.750  257.828   94.004    0.388   11.321    0.171
  204.000  257.861   92.752    0.407   11.314    0.171
  204.250  258.912   92.738    0.408   11.304    0.173
  204.500  258.952   92.719    0.405   11.295    0.173
  204.750  258.985   92.696    0.402   11.287    0.173
  205.000  259.025   92.063    0.402   11.278    0.174
  205.250  259.050   92.049    0.402   11.695    0.177
  205.500  259.082   93.864    0.406   12.133    0.182
  205.750  258.096   95.083    0.411   12.122    0.184
  206.000  257.118   97.517    0.421   11.665    0.184
  206.250  257.135   99.956    0.437   11.436    0.181
  206.500  256.140   98.713    0.442   11.431    0.173
  206.750  255.154   95.008    0.422   11.638    0.158
  207.000  254.168   86.999    0.392   11.626    0.019
  207.250  254.193   82.676    0.305   10.977    0.038
  207.500  255.260   85.734    0.336    9.986    0.088
  207.750  255.301   90.010    0.393    8.916    0.163
  208.000  256.343   90.611    0.438    7.108    0.183
  208.250  256.376   90.592    0.515    5.997    0.183
  208.500  257.451   91.188    0.536    5.352    0.175
  208.750  257.484   91.169    0.468    5.449    0.175
  209.000  256.481   90.536    0.408    6.093    0.185
  209.250  256.530   88.056    0.396    6.443    0.175
  209.500  256.554   84.356    0.396    7.479    0.156
  209.750  256.603   81.261    0.398    7.909    0.069
  210.000  256.619   83.090    0.404    9.014    0.071
  210.250  256.668   83.676    0.425   10.270    0.104
  210.500  256.692   83.048    0.433   10.456    0.160
  210.750  256.717   80.572    0.433   10.447    0.148
  211.000  257.792   81.782    0.432   10.441    0.152
  211.250  258.851   86.064    0.431   10.432    0.156
  211.500  258.876   89.722    0.430   10.227    0.132
  211.750  258.916   90.941    0.427   10.214    0.128
  212.000  258.940   91.536    0.426   10.207    0.135
  212.250  257.954   90.280    0.421   10.392    0.151
  212.500  255.950   89.042    0.415   11.197    0.140
  212.750  254.940   84.104    0.366   13.756    0.039
  213.000  254.980   79.176    0.321   15.677   -0.016
  213.250  253.986   78.543    0.293   16.572    0.007
  213.500  254.010   87.739    0.273   16.246    0.084
  213.750  254.059   91.406    0.316   15.934    0.174
  214.000  254.092   95.069    0.339   15.327    0.177
  214.250  255.151   93.821    0.367   15.032    0.180
  214.500  255.175   91.955    0.376   14.742    0.182
  214.750  256.242   90.708    0.388   15.006    0.183
  215.000  256.275   90.694    0.399   14.994    0.181
  215.250  256.323   91.899    0.382   15.265    0.171
  215.500  257.374   92.495    0.362   15.545    0.142
  215.750  258.425   92.481    0.346   17.055    0.137
  216.000  259.493   91.843    0.379   18.029    0.153
  216.250  259.533   91.210    0.403   19.058    0.165
  216.500  259.557   90.573    0.406   20.529    0.165
  216.750  259.598   89.335    0.352   21.701    0.155
  217.000  259.622   85.016    0.294   22.518    0.117
  217.250  258.628   77.621    0.276   26.645    0.049
  217.500  258.661   77.603    0.313   30.365    0.145
  217.750  256.656   82.494    0.323   31.488    0.169
  218.000  255.654   85.551    0.360   30.889    0.198
  218.250  255.695   87.985    0.378   29.171    0.188
  218.500  258.807   86.738    0.375   29.146    0.174
  218.750  259.874   84.262    0.355   31.389    0.127
  219.000  259.907   82.405    0.322   34.459    0.103
  219.250  258.904   79.929    0.303   40.007    0.144
  219.500  258.937   76.220    0.312   42.283    0.183
  219.750  258.994   74.973    0.337   38.466    0.205
  220.000  259.002   75.569    0.356   34.335    0.200
  220.250  260.077   75.550    0.355   31.229    0.182
  220.500  260.101   75.531    0.350   27.357    0.164
  220.750  260.134   76.127    0.350   24.882    0.150
  221.000  261.193   76.723    0.378   20.988    0.148
  221.250  261.242   76.704    0.400   19.456    0.120
  221.500  261.258   75.457    0.383   17.043   -0.009
  221.750  260.272   71.748    0.369   14.379    0.061
  222.000  260.304   66.819    0.396   12.832    0.127
  222.250  260.337   77.858    0.410   12.118    0.152
  222.500  260.369   91.354    0.418   11.442    0.156
  222.750  259.391   93.793    0.419   11.219    0.166
  223.000  259.432   97.460    0.422   11.001    0.180
  223.250  259.456   96.822    0.427   10.992    0.184
  223.500  259.497   94.346    0.434   10.982    0.165
  223.750  259.521   91.871    0.431   10.971    0.135
  224.000  259.562   89.399    0.423   10.966    0.088
  224.250  259.586   89.986    0.412   11.165    0.059
  224.500  258.592   91.819    0.393   11.367    0.150
  224.750  257.606   95.482    0.393   11.573    0.161
  225.000  255.594   97.301    0.403   11.777    0.165
  225.250  255.610   96.064    0.412   11.988    0.165
  225.500  254.624   94.193    0.423   12.208    0.166
  225.750  253.646   92.950    0.432   12.200    0.172
  226.000  253.662   92.317    0.426   12.187    0.170
  226.250  252.676   94.141    0.420   11.953    0.149
  226.500  251.690   99.037    0.432   11.715    0.134
  226.750  251.706  100.247    0.449   11.710    0.153
  227.000  250.720   98.381    0.482   11.478    0.163
  227.250  249.726   94.677    0.506   11.470    0.160
  227.500  246.687   90.362    0.445   11.458    0.129
  227.750  244.674   81.744    0.405   11.451    0.004
  228.000  242.654   87.868    0.387   11.444    0.057
  228.250  242.670   95.221    0.402   11.648    0.156
  228.500  241.684  100.117    0.426   11.859    0.178
  228.750  243.770   97.641    0.404   12.303    0.191
  229.000  250.988   74.888    0.365   14.287    0.194
  229.250  261.295   57.055    0.295   19.283    0.200
  229.500  261.327   46.593    0.171   24.145    0.390
  229.750  261.360   39.813    0.096   39.325    0.424
  230.000  261.392   36.723    0.062  160.892    0.441
  230.250  260.406   34.861    0.052  201.381    0.447
  230.500  260.431   34.224    0.052  216.919    0.448
  230.750  259.445   34.205    0.061  216.689    0.451
  231.000  259.477   31.120    0.068  208.519    0.456
  231.250  258.483   28.644    0.076  200.657    0.455
  231.500  257.497   25.554    0.075  200.487    0.452
  231.750  257.529   21.849    0.072  207.990    0.450
  232.000  256.535   20.602    0.065  219.914    0.451
  232.250  256.568   20.583    0.059  236.832    0.456
