~VERSION INFORMATION
 VERS.                 2.0:   CWLS LOG ASCII STANDARD -VERSION 2.0
 WRAP.                  NO:   ONE LINE PER DEPTH STEP
~WELL INFORMATION BLOCK
#MNEM.UNIT           DATA                    DESCRIPTION OF MNEMONIC
#---------    -------------------            -------------------------------
# Generated from Intellog Unique Number	CW_76_78/WELL/2804
WELL.         10-07-076-23W4                 : Well_name    - WELL
LOC .         00/10-07-076-23W4/0            : Location     - LOCATION
UWI .         00/10-07-076-23W4/0            : Uwi          - UNIQUE WELL ID
ENTR.         JJ                             : Entered      - ENTERED BY
SRVC.         SCHLUMBERGER                   : Scn          - SERVICE COMPANY
DATE.         11 MAR 67                      : Date         - LOG DATE
STRT.M        670.56                         : top_depth    - START DEPTH
STOP.M        768.06                         : bot_depth    - STOP DEPTH
STEP.M        0.25                           : increment    - STEP LENGTH
 NULL. -999.2500:NULL Value
~CURVE INFORMATION BLOCK
#MNEM UNIT       ERCB CURVE CODE    CURVE DESCRIPTION
#-----------   ------------------   ----------------------------------
DEPT.M        00 001 00 00         : DEPTH        - DEPTH
ILD .OHMM     00 120 00 00         : RESD         - DEEP RESISTIVITY (DIL)
GR  .API      00 310 00 00         : GR           - GAMMA RAY
DELT.US/F     00 520 00 00         : DELT         - SONIC TRAVEL TIME
~PARAMETER INFORMATION
#MNEM.UNIT           DATA             DESCRIPTION OF MNEMONIC
#---------         -----------     ------------------------------
GL  .M        854.964              : gl           - GROUND LEVEL ELEVATION
EREF.M        858.317              : kb           - ELEVATION OF DEPTH REFERENCE
DATM.M        858.317              : datum        - DATUM ELEVATION
TDD .M        787.908              : tdd          - TOTAL DEPTH DRILLER
RUN .         ONE                  : Run          - RUN NUMBER
ENG .         STUEHMER             : Engineer     - RECORDING ENGINEER
WIT .         CHRAPKO              : Witness      - WITNESSED BY
BASE.         SLAVE LAKE           : Branch       - HOME BASE OF LOGGING UNIT
MUD .         NATURAL BASE         : Mud_type     - MUD TYPE
MATR.         SANDSTONE            : Logunit      - NEUTRON MATRIX
TMAX.C        22.2222              : BHT          - MAXIMUM RECORDED TEMPERATURE
BHTD.M        786.994              : BHTDEP       - MAXIMUM RECORDED TEMPERATURE
RMT .C        22.2222              : MDTP         - TEMPERATURE OF MUD
MUDD.KG/M     1080                 : MWT          - MUD DENSITY
NEUT.         1                    : NEUTRON      - NEUTRON TYPE
RESI.         0                    : RESIST       - RESISTIVITY TYPE
RM  .OHMM     0                    : RM           - RESISTIVITY OF MUD
RMC .OHMM     0                    : RMC          - RESISTIVITY OF MUD CAKE
RMF .OHMM     0                    : RMF          - RESISTIVITY OF MUD FILTRATE
SUFT.C        5                    : SUFT         - SURFACE TEMPERATURE
~A  DEPTH     RESD       GR     DELT
  670.560    7.794   60.921  337.060
  670.810    7.376   58.816  355.097
  671.060    6.916   65.099  368.051
  671.310    6.251   73.698  375.318
  671.560    6.018   82.731  381.317
  671.810    5.868   86.257  384.708
  672.060    5.843   83.840  369.303
  672.310    5.900   88.806  363.195
  672.560    5.957   95.712  382.771
  672.810    6.054   97.298  384.691
  673.060    6.192   89.054  375.239
  673.310    6.291   82.877  375.017
  673.560    6.407   82.837  386.367
  673.810    6.505   86.801  368.221
  674.060    6.725   86.883  361.979
  674.310    7.049   92.353  359.617
  674.560    7.086   88.741  373.370
  674.810    6.813   87.572  391.008
  675.060    6.600   87.280  386.040
  675.310    6.718   83.856  404.677
  675.560    6.652   81.690  370.749
  675.810    6.604   82.898  372.534
  676.060    6.599   86.612  385.554
  676.310    6.635   91.455  378.443
  676.560    6.609   92.225  391.531
  676.810    6.419   94.124  384.219
  677.060    6.186   93.459  381.324
  677.310    5.955   92.541  385.850
  677.560    5.847   95.379  383.957
  677.810    5.861   95.774  383.399
  678.060    5.815   97.360  389.800
  678.310    5.805   99.323  387.171
  678.560    5.821   97.213  384.339
  678.810    5.918   93.103  372.415
  679.060    6.160   92.936  367.712
  679.310    6.568   91.328  374.714
  679.560    6.933   88.032  366.065
  679.810    7.318   84.674  346.315
  680.060    7.664   81.188  314.992
  680.310    8.092   78.013  343.999
  680.560    8.456   85.673  363.171
  680.810    8.945   84.815  365.223
  681.060    9.229   76.450  346.411
  681.310    9.161   75.716  299.239
  681.560    8.826   82.123  326.237
  681.810    8.491   88.782  362.599
  682.060    7.930   92.998  370.270
  682.310    7.534   92.518  335.070
  682.560    7.216   88.468  334.044
  682.810    7.230   86.924  357.298
  683.060    7.453   85.756  371.053
  683.310    7.611   83.649  343.346
  683.560    7.896   81.166  318.376
  683.810    8.075   86.196  327.987
  684.060    8.215   92.789  330.107
  684.310    8.166   97.634  352.624
  684.560    7.892   99.466  363.369
  684.810    7.332   95.420  369.570
  685.060    7.181   90.868  369.412
  685.310    7.198   86.881  365.449
  685.560    7.211   86.344  357.869
  685.810    7.166   90.997  363.264
  686.060    7.119   94.018  369.397
  686.310    7.074  100.427  363.826
  686.560    7.106  103.453  365.007
  686.810    7.101  101.723  370.938
  687.060    7.057   98.486  368.844
  687.310    7.089   94.812  370.698
  687.560    7.146   91.954  368.066
  687.810    7.163   91.162  370.722
  688.060    7.155   93.875  370.566
  688.310    7.192   93.895  368.339
  688.560    7.207   89.409  367.114
  688.810    7.222   92.185  362.078
  689.060    7.361   94.084  357.374
  689.310    7.582   95.229  362.235
  689.560    7.822   96.817  355.659
  689.810    8.003   98.276  351.559
  690.060    8.122   94.352  309.739
  690.310    8.218   96.689  330.852
  690.560    8.297   97.213  354.507
  690.810    8.351   93.791  357.161
  691.060    8.389   91.494  359.008
  691.310    8.360   95.710  351.434
  691.560    8.335   91.284  343.052
  691.810    8.184   86.616  348.448
  692.060    7.747   84.880  360.132
  692.310    7.310   87.089  368.070
  692.560    7.015   93.246  372.998
  692.810    6.843   96.275  374.514
  693.060    6.672   96.295  372.019
  693.310    6.544   93.185  368.252
  693.560    6.496   92.207  366.226
  693.810    6.677   96.357  383.327
  694.060    7.062   95.377  362.974
  694.310    7.717   91.702  343.491
  694.560    8.474   89.218  358.651
  694.810    9.458   86.797  368.594
  695.060   10.358   85.127  296.144
  695.310   10.316   85.523  284.419
  695.560   10.287   88.988  355.690
  695.810   10.158   85.567  370.785
  696.060    9.842   83.898  358.726
  696.310    9.404   82.350  360.711
  696.560    9.357   80.809  374.735
  696.810    9.518   84.084  361.606
  697.060   10.108   84.981  359.779
  697.310   10.886   79.245  368.318
  697.560   11.684   74.130  363.214
  697.810   12.710   71.897  344.802
  698.060   13.118   72.228  344.778
  698.310   13.254   74.629  352.917
  698.560   14.156   71.707  358.180
  698.810   15.100   67.407  278.306
  699.060   15.178   62.983  221.638
  699.310   14.964   65.509  248.300
  699.560   13.805   77.239  328.737
  699.810   12.582   85.210  353.328
  700.060   11.298   89.362  344.810
  700.310    9.870   91.827  349.005
  700.560    9.432   86.650  318.152
  700.810    9.446   80.161  313.450
  701.060    9.626   80.492  322.187
  701.310    9.849   86.461  321.768
  701.560    9.865   88.928  319.273
  701.810    9.590   91.140  333.027
  702.060    9.213   94.351  347.719
  702.310    8.754   95.937  342.348
  702.560    8.357   92.955  336.911
  702.810    8.064   93.223  343.780
  703.060    7.913   96.126  357.870
  703.310    7.825   99.400  352.363
  703.560    7.821   95.355  350.605
  703.810    7.877   89.741  345.032
  704.060    8.056   84.502  344.477
  704.310    8.421   79.827  307.471
  704.560    8.723   82.789  322.899
  704.810    8.719   88.759  354.980
  705.060    8.488   91.910  374.155
  705.310    8.295   92.868  358.615
  705.560    8.084   93.516  351.371
  705.810    7.975   91.908  340.515
  706.060    7.929   87.922  334.208
  706.310    7.924   94.204  345.289
  706.560    7.917   99.984  352.089
  706.810    7.913  104.826  351.934
  707.060    7.844  103.285  357.665
  707.310    7.798   99.734  351.627
  707.560    7.752   96.812  352.676
  707.810    7.706   95.708  350.781
  708.060    7.698   94.162  352.767
  708.310    7.715   90.240  353.483
  708.560    7.793   85.688  343.965
  708.810    7.889   85.521  320.736
  709.060    8.046   93.746  343.249
  709.310    8.229   99.902  349.720
  709.560    8.285   98.609  353.778
  709.810    8.276   93.494  349.208
  710.060    8.250   87.882  352.064
  710.310    8.039   82.895  347.027
  710.560    8.138   84.356  333.162
  710.810    8.155   89.760  331.670
  711.060    8.190   92.533  336.398
  711.310    8.202   93.059  352.829
  711.560    8.197   92.951  352.401
  711.810    8.112   87.401  355.930
  712.060    8.040   87.294  358.316
  712.310    7.954   91.388  353.614
  712.560    7.927   94.036  350.383
  712.810    7.841   96.249  345.277
  713.060    7.774   91.948  363.851
  713.310    7.644   90.404  349.583
  713.560    7.659   88.487  341.671
  713.810    7.717   85.378  335.230
  714.060    7.769   82.641  332.867
  714.310    7.928   82.410  336.254
  714.560    8.459   75.671  310.554
  714.810    9.464   72.434  280.705
  715.060   10.757   69.764  263.430
  715.310   12.133   64.151  251.638
  715.560   16.106   62.104  240.982
  715.810   19.317   56.865  250.257
  716.060   21.641   53.260  248.098
  716.310   23.533   57.095  253.693
  716.560   23.855   64.255  254.542
  716.810   21.830   72.040  257.731
  717.060   19.638   79.639  311.816
  717.310   15.778   83.100  335.806
  717.560   12.640   86.568  338.057
  717.810    9.911   87.898  333.155
  718.060    8.340   88.296  343.699
  718.310    7.674   90.885  340.336
  718.560    7.526   96.601  342.789
  718.810    7.540  104.201  347.851
  719.060    7.679  112.484  355.320
  719.310    7.902  107.310  353.895
  719.560    8.226   99.002  328.059
  719.810    8.838   89.382  318.608
  720.060    9.987   83.769  322.265
  720.310   11.506   81.410  283.119
  720.560   13.501   81.618  281.424
  720.810   14.937   83.206  278.463
  721.060   15.819   85.669  317.163
  721.310   15.320   88.503  321.826
  721.560   14.653   88.275  310.167
  721.810   13.741   88.172  306.735
  722.060   12.685   89.193  317.348
  722.310   11.753   92.909  315.388
  722.560   10.985   96.310  322.723
  722.810   10.421   98.772  332.533
  723.060    9.838  102.737  345.621
  723.310    9.688   99.755  317.711
  723.560    9.783   95.954  307.658
  723.810    9.820   91.719  309.507
  724.060    9.999   87.987  301.731
  724.310   10.591   84.871  271.547
  724.560   11.640   81.198  287.377
