~VERSION INFORMATION
 VERS.                 2.0:   CWLS LOG ASCII STANDARD -VERSION 2.0
 WRAP.                  NO:   ONE LINE PER DEPTH STEP
~WELL INFORMATION BLOCK
#MNEM.UNIT           DATA                    DESCRIPTION OF MNEMONIC
#---------    -------------------            -------------------------------
# Generated from Intellog Unique Number	CS_71_72/WELL/920
WELL.         AMOCO AEC IPIATIK              : Well_name    - WELL
LOC .         00/12-28-072-06W4/0            : Location     - LOCATION
UWI .         00/12-28-072-06W4/0            : Uwi          - UNIQUE WELL ID
ENTR.         SP                             : Entered      - ENTERED BY
SRVC.         SCHLUMBERGER                   : Scn          - SERVICE COMPANY
STRT.M        340                            : top_depth    - START DEPTH
STOP.M        565                            : bot_depth    - STOP DEPTH
STEP.M        0.25                           : increment    - STEP LENGTH
 NULL. -999.2500:NULL Value
~CURVE INFORMATION BLOCK
#MNEM UNIT       ERCB CURVE CODE    CURVE DESCRIPTION
#-----------   ------------------   ----------------------------------
DEPT.M        00 001 00 00         : DEPTH        - DEPTH
ILD .OHMM     00 120 00 00         : RESD         - DEEP RESISTIVITY (DIL)
DPHI.V/V      00 890 00 00         : PHID         - DENSITY POROSITY (LIMESTONE)
NPHI.V/V      00 330 00 00         : PHIN         - NEUTRON POROSITY (LIMESTONE)
GR  .API      00 310 00 00         : GR           - GAMMA RAY
~PARAMETER INFORMATION
#MNEM.UNIT           DATA             DESCRIPTION OF MNEMONIC
#---------         -----------     ------------------------------
GL  .M        713.57               : gl           - GROUND LEVEL ELEVATION
EREF.M        713.07               : kb           - ELEVATION OF DEPTH REFERENCE
DATM.M        713.57               : datum        - DATUM ELEVATION
TDD .M        580.9                : tdd          - TOTAL DEPTH DRILLER
RUN .         ONE                  : Run          - RUN NUMBER
ENG .         BILL                 : Engineer     - RECORDING ENGINEER
WIT .         JIM                  : Witness      - WITNESSED BY
MUD .         GEL                  : Mud_type     - MUD TYPE
MATR.         LIMESTONE            : Logunit      - NEUTRON MATRIX
TMAX.C        22                   : BHT          - MAXIMUM RECORDED TEMPERATURE
BHTD.M        580.9                : BHTDEP       - MAXIMUM RECORDED TEMPERATURE
MATR.         1                    : LOGUNIT      - NEUTRON MATRIX
RMT .C        25                   : MDTP         - TEMPERATURE OF MUD
NEUT.         1                    : NEUTRON      - NEUTRON TYPE
RESI.         0                    : RESIST       - RESISTIVITY TYPE
RMC .OHMM     0.25                 : RMC          - RESISTIVITY OF MUD CAKE
RMF .OHMM     0.25                 : RMF          - RESISTIVITY OF MUD FILTRATE
SUFT.C        15                   : SUFT         - SURFACE TEMPERATURE
~A  DEPTH     RESD     PHID     PHIN       GR
# ...
  470.500    6.865    0.209    0.478   56.708
  470.750    7.257    0.256    0.482   57.929
  471.000    7.531    0.247    0.459   58.545
  471.250    7.390    0.240    0.467   60.990
  471.500    7.252    0.231    0.485   62.212
  471.750    6.985    0.229    0.491   62.830
  472.000    6.481    0.227    0.498   63.447
  472.250    6.242    0.220    0.492   63.459
  472.500    6.724    0.223    0.489   64.085
  472.750    6.722    0.244    0.482   64.097
  473.000    6.597    0.252    0.463   63.503
  473.250    6.718    0.238    0.456   62.313
  473.500    6.717    0.223    0.477   61.724
  473.750    6.350    0.224    0.485   61.734
  474.000    6.713    0.206    0.486   61.752
  474.250    6.838    0.192    0.478   63.586
  474.500    6.964    0.194    0.464   64.808
  474.750    7.362    0.255    0.451   66.031
  475.000    7.499    0.256    0.487   67.860
  475.250    7.497    0.253    0.498   68.476
  475.500    7.495    0.262    0.500   69.093
  475.750    6.827    0.253    0.492   68.511
  476.000    6.335    0.239    0.483   68.523
  476.250    6.102    0.234    0.494   68.535
  476.500    5.769    0.259    0.489   60.691
  476.750    5.767    0.234    0.464   58.280
  477.000    5.874    0.212    0.453   54.667
  477.250    6.326    0.193    0.439   49.849
  477.500    6.444    0.234    0.441   49.252
  477.750    6.812    0.260    0.436   54.112
  478.000    6.938    0.286    0.430   56.546
  478.250    6.937    0.264    0.437   57.768
  478.500    6.558    0.236    0.445   58.386
  478.750    5.972    0.231    0.477   57.189
  479.000    5.753    0.261    0.491   56.606
  479.250    5.542    0.275    0.486   56.019
  479.500    5.337    0.259    0.492   55.432
  479.750    5.046    0.272    0.487   55.444
  480.000    4.347    0.285    0.513   55.455
  480.250    3.959    0.272    0.521   55.465
  480.500    3.475    0.261    0.535   56.083
  480.750    2.993    0.261    0.564   56.705
  481.000    2.883    0.254    0.579   56.719
  481.250    2.777    0.249    0.586   57.341
  481.500    2.725    0.239    0.565   59.774
  481.750    2.724    0.233    0.557   62.216
  482.000    2.723    0.240    0.569   63.437
  482.250    2.722    0.242    0.550   63.446
  482.500    2.773    0.232    0.523   63.461
  482.750    2.931    0.227    0.513   61.058
  483.000    3.277    0.228    0.496   57.452
  483.250    3.464    0.228    0.485   55.651
  483.500    3.873    0.222    0.477   54.449
  483.750    4.329    0.232    0.492   53.860
  484.000    4.663    0.254    0.476   53.879
  484.250    4.838    0.255    0.465   53.893
  484.500    4.748    0.256    0.463   54.510
  484.750    4.747    0.257    0.468   54.519
  485.000    5.018    0.251    0.461   53.932
  485.250    6.633    0.296    0.457   52.136
  485.500    8.447    0.305    0.446   50.332
  485.750   10.959    0.308    0.447   47.934
  486.000   13.199    0.311    0.455   46.734
  486.250   15.603    0.305    0.458   45.536
  486.500   19.144    0.287    0.461   43.739
  486.750   21.803    0.280    0.460   42.542
  487.000   23.050    0.273    0.452   40.143
  487.250   23.476    0.299    0.452   39.551
  487.500   22.612    0.315    0.479   38.957
  487.750   22.602    0.300    0.496   32.321
  488.000   22.597    0.297    0.490   32.337
  488.250   23.017    0.311    0.487   33.566
  488.500   23.442    0.318    0.482   33.574
  488.750   24.324    0.321    0.477   34.193
  489.000   24.319    0.310    0.463   35.418
  489.250   24.315    0.301    0.457   36.650
  489.500   24.763    0.312    0.451   36.660
  489.750   24.758    0.327    0.466   36.673
  490.000   24.751    0.333    0.471   36.688
  490.250   25.210    0.328    0.469   36.699
  490.500   25.203    0.325    0.456   36.719
  490.750   25.195    0.323    0.452   37.336
  491.000   25.186    0.324    0.460   37.348
  491.250   25.179    0.331    0.474   37.366
  491.500   25.173    0.325    0.481   36.779
  491.750   25.638    0.324    0.486   36.788
  492.000   25.633    0.329    0.493   36.198
  492.250   26.110    0.328    0.497   36.214
  492.500   26.103    0.317    0.490   35.630
  492.750   25.612    0.309    0.482   35.040
  493.000   25.606    0.303    0.479   35.652
  493.250   25.599    0.309    0.474   37.485
  493.500   25.121    0.313    0.467   38.708
  493.750   25.116    0.301    0.464   39.937
  494.000   24.645    0.291    0.465   40.551
  494.250   24.184    0.281    0.463   39.358
  494.500   25.093    0.264    0.451   36.954
  494.750   25.561    0.258    0.441   35.156
  495.000   26.032    0.268    0.419   33.960
  495.250   25.545    0.276    0.406   32.763
  495.500   23.707    0.304    0.488   31.573
  495.750   20.044    0.315    0.504   32.185
  496.000   16.026    0.310    0.475   34.018
  496.250   16.322    0.297    0.463   35.239
  496.500   16.938    0.290    0.453   36.471
  496.750   18.933    0.291    0.464   37.087
  497.000   20.016    0.303    0.470   37.101
  497.250   20.771    0.304    0.465   37.719
  497.500   22.370    0.294    0.471   37.733
  497.750   24.094    0.289    0.459   37.752
  498.000   25.945    0.262    0.460   37.162
  498.250   26.923    0.254    0.471   37.175
  498.500   27.940    0.282    0.471   37.188
  498.750   28.990    0.292    0.454   36.600
  499.000   29.532    0.272    0.436   36.014
  499.250   30.078    0.257    0.439   36.023
  499.500   30.068    0.266    0.450   36.039
  499.750   30.627    0.290    0.455   36.657
  500.000   30.049    0.306    0.468   36.677
  500.250   30.043    0.312    0.473   36.687
  500.500   29.483    0.313    0.480   36.700
  500.750   28.398    0.299    0.478   36.726
  501.000   27.351    0.295    0.462   36.742
  501.250   26.841    0.312    0.448   36.757
  501.500   26.334    0.307    0.462   36.770
  501.750   25.841    0.311    0.468   36.781
  502.000   25.836    0.318    0.464   36.794
  502.250   25.355    0.324    0.460   36.805
  502.500   25.825    0.302    0.461   36.222
  502.750   25.816    0.291    0.463   36.836
  503.000   25.810    0.284    0.457   36.852
  503.250   25.801    0.278    0.453   36.862
  503.500   25.796    0.294    0.450   36.276
  503.750   25.791    0.298    0.457   35.686
  504.000   25.782    0.291    0.470   36.302
  504.250   25.776    0.296    0.460   36.925
  504.500   25.769    0.291    0.458   37.547
  504.750   25.760    0.279    0.462   37.557
  505.000   25.755    0.263    0.465   36.973
  505.250   26.233    0.205    0.439   36.378
  505.500   28.252    0.164    0.355   35.787
  505.750   31.583    0.111    0.303   34.601
  506.000   38.032    0.073    0.266   34.004
  506.250   40.966    0.071    0.223   32.806
  506.500   44.124    0.141    0.336   32.219
  506.750   46.645    0.213    0.415   33.446
  507.000   46.633    0.245    0.435   34.667
  507.250   39.429    0.264    0.447   38.916
  507.500   29.261    0.264    0.444   44.979
  507.750   23.837    0.210    0.431   49.831
  508.000   19.058    0.170    0.424   57.105
  508.250   13.883    0.144    0.431   61.351
  508.500   11.101    0.164    0.433   66.212
  508.750    7.792    0.179    0.433   68.039
  509.000    6.466    0.184    0.441   69.864
  509.250    5.889    0.182    0.449   71.096
  509.500    5.780    0.177    0.449   67.478
  509.750    5.671    0.168    0.438   63.256
  510.000    5.776    0.176    0.431   64.481
  510.250    5.883    0.167    0.438   67.522
  510.500    5.992    0.157    0.445   69.961
  510.750    6.103    0.157    0.456   70.578
  511.000    6.102    0.163    0.452   71.197
  511.250    6.330    0.171    0.466   71.209
  511.500    6.447    0.158    0.477   70.617
  511.750    6.446    0.174    0.479   70.635
  512.000    6.095    0.179    0.462   70.044
  512.250    6.094    0.177    0.456   68.249
  512.500    6.092    0.174    0.444   67.053
  512.750    6.090    0.183    0.433   65.856
  513.000    6.088    0.186    0.426   65.262
  513.250    6.201    0.175    0.422   65.881
  513.500    6.199    0.182    0.412   62.876
  513.750    6.314    0.192    0.398   60.466
