~VERSION INFORMATION
 VERS.                 2.0:   CWLS LOG ASCII STANDARD -VERSION 2.0
 WRAP.                  NO:   ONE LINE PER DEPTH STEP
~WELL INFORMATION BLOCK
#MNEM.UNIT           DATA                    DESCRIPTION OF MNEMONIC
#---------    -------------------            -------------------------------
# Generated from Intellog Unique Number	CS_67_68/WELL/854
WELL.         AEC FISH CREEK                 : Well_name    - WELL
LOC .         00/13-30-068-08W4/0            : Location     - LOCATION
UWI .         00/13-30-068-08W4/0            : Uwi          - UNIQUE WELL ID
ENTR.         SP                             : Entered      - ENTERED BY
SRVC.         SCHLUMBERGER                   : Scn          - SERVICE COMPANY
STRT.M        405                            : top_depth    - START DEPTH
STOP.M        625                            : bot_depth    - STOP DEPTH
STEP.M        0.25                           : increment    - STEP LENGTH
 NULL. -999.2500:NULL Value
~CURVE INFORMATION BLOCK
#MNEM UNIT       ERCB CURVE CODE    CURVE DESCRIPTION
#-----------   ------------------   ----------------------------------
DEPT.M        00 001 00 00         : DEPTH        - DEPTH
ILD .OHMM     00 120 00 00         : RESD         - DEEP RESISTIVITY (DIL)
DPHI.V/V      00 890 00 00         : PHID         - DENSITY POROSITY (LIMESTONE)
NPHI.V/V      00 330 00 00         : PHIN         - NEUTRON POROSITY (LIMESTONE)
GR  .API      00 310 00 00         : GR           - GAMMA RAY
~PARAMETER INFORMATION
#MNEM.UNIT           DATA             DESCRIPTION OF MNEMONIC
#---------         -----------     ------------------------------
GL  .M        732.42               : gl           - GROUND LEVEL ELEVATION
EREF.M        731.68               : kb           - ELEVATION OF DEPTH REFERENCE
DATM.M        732.42               : datum        - DATUM ELEVATION
TDD .M        633                  : tdd          - TOTAL DEPTH DRILLER
RUN .         ONE                  : Run          - RUN NUMBER
ENG .         BILL                 : Engineer     - RECORDING ENGINEER
WIT .         JIM                  : Witness      - WITNESSED BY
MUD .         GEL                  : Mud_type     - MUD TYPE
MATR.         LIMESTONE            : Logunit      - NEUTRON MATRIX
TMAX.C        28                   : BHT          - MAXIMUM RECORDED TEMPERATURE
BHTD.M        625                  : BHTDEP       - MAXIMUM RECORDED TEMPERATURE
MATR.         1                    : LOGUNIT      - NEUTRON MATRIX
RMT .C        25                   : MDTP         - TEMPERATURE OF MUD
NEUT.         1                    : NEUTRON      - NEUTRON TYPE
RESI.         0                    : RESIST       - RESISTIVITY TYPE
RMC .OHMM     0.25                 : RMC          - RESISTIVITY OF MUD CAKE
RMF .OHMM     0.25                 : RMF          - RESISTIVITY OF MUD FILTRATE
SUFT.C        15                   : SUFT         - SURFACE TEMPERATURE
~A  DEPTH     RESD     PHID     PHIN       GR
# ...
  535.500    4.718    0.255    0.420   94.809
  535.750    4.718    0.262    0.418   95.852
  536.000    4.718    0.255    0.430   99.822
  536.250    4.718    0.201    0.420   95.317
  536.500    4.718    0.195    0.397   92.458
  536.750    4.648    0.222    0.408   93.806
  537.000    4.604    0.244    0.423   95.704
  537.250    4.553    0.258    0.435   97.540
  537.500    4.493    0.269    0.436  102.793
  537.750    4.459    0.267    0.421  105.297
  538.000    4.459    0.266    0.408  105.610
  538.250    4.468    0.267    0.412  102.994
  538.500    4.501    0.272    0.419  100.502
  538.750    4.570    0.273    0.422  101.301
  539.000    4.736    0.269    0.417  104.480
  539.250    5.039    0.258    0.410  106.986
  539.500    5.361    0.222    0.411  106.627
  539.750    5.577    0.151    0.358   93.646
  540.000    5.473    0.137    0.338   85.909
  540.250    5.067    0.205    0.360   84.759
  540.500    4.744    0.249    0.386   90.314
  540.750    4.561    0.273    0.412   99.713
  541.000    4.417    0.278    0.427  104.535
  541.250    4.351    0.271    0.445  110.639
  541.500    4.319    0.269    0.443  100.159
  541.750    4.351    0.271    0.429   98.458
  542.000    4.467    0.277    0.416  100.722
  542.250    4.560    0.286    0.409   98.228
  542.500    4.621    0.285    0.400   91.040
  542.750    4.717    0.272    0.389   94.096
  543.000    4.834    0.263    0.379   99.653
  543.250    4.898    0.253    0.396  103.561
  543.500    4.953    0.249    0.409  106.130
  543.750    4.907    0.253    0.421  106.014
  544.000    4.655    0.258    0.407  105.411
  544.250    4.450    0.248    0.413  105.845
  544.500    4.262    0.246    0.404  101.523
  544.750    4.175    0.268    0.397  104.213
  545.000    4.112    0.285    0.388  103.854
  545.250    3.990    0.270    0.373   94.897
  545.500    3.858    0.154    0.353   83.746
  545.750    3.307    0.159    0.352   74.789
  546.000    2.532    0.232    0.372   77.236
  546.250    2.292    0.299    0.391   84.621
  546.500    2.017    0.324    0.409   91.335
  546.750    1.829    0.330    0.436   90.671
  547.000    1.752    0.330    0.459   89.764
  547.250    1.752    0.333    0.453   93.124
  547.500    1.772    0.339    0.460   95.998
  547.750    1.819    0.334    0.468   96.858
  548.000    1.871    0.336    0.469   96.621
  548.250    1.903    0.338    0.462   97.786
  548.500    1.939    0.325    0.458   99.074
  548.750    1.972    0.320    0.456   98.959
  549.000    2.028    0.314    0.455   95.490
  549.250    2.055    0.310    0.455   99.156
  549.500    2.126    0.304    0.459  101.662
  549.750    2.086    0.298    0.452  102.889
  550.000    2.146    0.296    0.444  103.750
  550.250    2.253    0.301    0.439  100.647
  550.500    2.402    0.304    0.437  104.558
  550.750    2.575    0.297    0.446  108.467
  551.000    2.755    0.293    0.453  111.156
  551.250    3.281    0.290    0.447  112.077
  551.500    3.982    0.282    0.439  112.389
  551.750    5.008    0.272    0.431  107.336
  552.000    5.299    0.265    0.422  102.038
  552.250    5.648    0.267    0.415   96.984
  552.500    5.931    0.276    0.406   91.442
  552.750    6.123    0.173    0.395   86.998
  553.000    6.135    0.085    0.381   82.614
  553.250    6.066    0.255    0.389   89.389
  553.500    5.723    0.266    0.399   95.677
  553.750    5.368    0.253    0.399   99.769
  554.000    5.093    0.251    0.397   98.374
  554.250    4.619    0.240    0.402   96.247
  554.500    4.260    0.232    0.405   99.303
  554.750    3.721    0.231    0.407  102.419
  555.000    3.350    0.234    0.415  106.512
  555.250    3.084    0.246    0.427  107.311
  555.500    2.877    0.261    0.437  107.623
  555.750    2.714    0.261    0.444  110.558
  556.000    2.643    0.258    0.451  114.162
  556.250    2.619    0.256    0.454  121.181
  556.500    2.653    0.243    0.443  118.505
  556.750    2.719    0.225    0.426  110.159
  557.000    2.791    0.211    0.417  106.324
  557.250    2.871    0.218    0.434  113.710
  557.500    3.003    0.242    0.456  119.569
  557.750    3.324    0.252    0.470  125.125
  558.000    3.834    0.248    0.485  121.779
  558.250    4.373    0.249    0.474  119.895
  558.500    5.007    0.258    0.431  116.488
  558.750    5.594    0.250    0.414  106.799
  559.000    6.226    0.236    0.409   99.062
  559.250    7.196    0.235    0.402   98.827
  559.500    8.300    0.244    0.387  104.076
  559.750    9.169    0.247    0.370  104.449
  560.000    9.867    0.227    0.353   89.334
  560.250   10.225    0.073    0.329   78.061
  560.500   10.035    0.063    0.301   75.202
  560.750    9.592    0.143    0.320   77.283
  561.000    8.161    0.194    0.343   81.743
  561.250    7.236    0.228    0.359   83.639
  561.500    6.404    0.077    0.368   84.193
  561.750    5.764    0.053    0.364   80.176
  562.000    5.377    0.063    0.381   82.989
  562.250    5.257    0.178    0.403   90.129
  562.500    5.635    0.239    0.420  102.148
  562.750    7.021    0.280    0.410  105.265
  563.000    7.641    0.307    0.395   98.383
  563.250    8.457    0.297    0.379   94.913
  563.500    8.748    0.292    0.366   91.749
  563.750    8.731    0.312    0.380   87.489
  564.000    8.601    0.292    0.395   91.459
  564.250    8.425    0.268    0.382   95.612
  564.500    8.221    0.256    0.362   97.875
  564.750    8.023    0.256    0.348   96.237
  565.000    7.626    0.281    0.334   94.047
  565.250    6.916    0.290    0.319   77.225
  565.500    6.343    0.267    0.367   87.112
  565.750    5.862    0.254    0.377   91.508
  566.000    5.656    0.246    0.368   81.271
  566.250    5.499    0.260    0.370   74.936
  566.500    5.478    0.293    0.377   69.516
  566.750    5.561    0.306    0.374   61.657
  567.000    5.917    0.290    0.365   66.116
  567.250    6.415    0.294    0.358   62.770
  567.500    6.586    0.316    0.349   52.410
  567.750    7.194    0.323    0.358   62.783
  568.000    7.887    0.317    0.390   80.716
  568.250    8.329    0.318    0.408   91.699
  568.500    8.862    0.333    0.412  104.328
  568.750    9.236    0.342    0.396  115.067
  569.000    9.047    0.317    0.395  123.183
  569.250    8.615    0.300    0.415  119.776
  569.500    7.682    0.287    0.416  111.248
  569.750    7.046    0.289    0.421  106.376
  570.000    5.916    0.304    0.429  101.260
  570.250    5.265    0.318    0.434  103.889
  570.500    4.811    0.293    0.440  113.775
  570.750    4.539    0.256    0.443  122.135
  571.000    4.651    0.237    0.438  129.764
  571.250    5.285    0.226    0.438  134.466
  571.500    5.872    0.236    0.445  130.267
  571.750    6.824    0.249    0.437  125.883
  572.000    7.901    0.263    0.405  118.085
  572.250    8.728    0.284    0.380   79.128
  572.500    9.463    0.197    0.359   64.684
  572.750   10.317    0.158    0.345   70.423
  573.000   10.612    0.186    0.374   85.857
  573.250   10.632    0.217    0.366   89.766
  573.500   10.834    0.237    0.362   92.151
  573.750   11.333    0.239    0.368   94.597
  574.000   12.126    0.243    0.375   91.495
  574.250   12.975    0.250    0.376   78.635
  574.500   13.857    0.257    0.373   75.472
  574.750   14.469    0.252    0.379   76.212
  575.000   15.108    0.249    0.388   77.012
  575.250   15.775    0.252    0.392   77.627
  575.500   16.195    0.262    0.393   77.817
  575.750   16.564    0.273    0.377   75.202
  576.000   16.974    0.277    0.367   69.538
  576.250   17.328    0.295    0.375   66.496
  576.500   17.624    0.310    0.379   70.284
  576.750   17.525    0.301    0.369   62.791
  577.000   16.195    0.290    0.375   68.287
  577.250   15.335    0.283    0.381   76.098
  577.500   14.278    0.287    0.370   76.043
  577.750   13.572    0.286    0.359   70.501
  578.000   13.219    0.280    0.355   76.484
  578.250   12.804    0.274    0.362   83.138
  578.500   12.518    0.269    0.372   89.670
  578.750   11.765    0.269    0.385   93.883
