~VERSION INFORMATION
 VERS.                 2.0:   CWLS LOG ASCII STANDARD -VERSION 2.0
 WRAP.                  NO:   ONE LINE PER DEPTH STEP
~WELL INFORMATION BLOCK
#MNEM.UNIT           DATA                    DESCRIPTION OF MNEMONIC
#---------    -------------------            -------------------------------
# Generated from Intellog Unique Number	CS_77_79/WELL/1006
WELL.         NORTHSTAR THORNBURY            : Well_name    - WELL
LOC .         00/11-32-079-12W4/0            : Location     - LOCATION
UWI .         00/11-32-079-12W4/0            : Uwi          - UNIQUE WELL ID
ENTR.         JHS                            : Entered      - ENTERED BY
SRVC.         SCHLUMBERGER                   : Scn          - SERVICE COMPANY
STRT.M        250                            : top_depth    - START DEPTH
STOP.M        495                            : bot_depth    - STOP DEPTH
STEP.M        0.25                           : increment    - STEP LENGTH
 NULL. -999.2500:NULL Value
~CURVE INFORMATION BLOCK
#MNEM UNIT       ERCB CURVE CODE    CURVE DESCRIPTION
#-----------   ------------------   ----------------------------------
DEPT.M        00 001 00 00         : DEPTH        - DEPTH
DPHI.V/V      00 890 00 00         : PHID         - DENSITY POROSITY (LIMESTONE)
NPHI.V/V      00 330 00 00         : PHIN         - NEUTRON POROSITY (LIMESTONE)
GR  .API      00 310 00 00         : GR           - GAMMA RAY
ILD .OHMM     00 120 00 00         : RESD         - DEEP RESISTIVITY (DIL)
RHOB.KG/M3    00 350 00 00         : DENS         - BULK DENSITY
~PARAMETER INFORMATION
#MNEM.UNIT           DATA             DESCRIPTION OF MNEMONIC
#---------         -----------     ------------------------------
GL  .M        683.9                : gl           - GROUND LEVEL ELEVATION
EREF.M        687.9                : kb           - ELEVATION OF DEPTH REFERENCE
DATM.M        687.9                : datum        - DATUM ELEVATION
TDD .M        502                  : tdd          - TOTAL DEPTH DRILLER
RUN .         ONE                  : Run          - RUN NUMBER
ENG .         BILL                 : Engineer     - RECORDING ENGINEER
WIT .         JIM                  : Witness      - WITNESSED BY
MUD .         GEL                  : Mud_type     - MUD TYPE
MATR.         LIMESTONE            : Logunit      - NEUTRON MATRIX
TMAX.C        21.1                 : BHT          - MAXIMUM RECORDED TEMPERATURE
BHTD.M        502                  : BHTDEP       - MAXIMUM RECORDED TEMPERATURE
MATR.         1                    : LOGUNIT      - NEUTRON MATRIX
RMT .C        25                   : MDTP         - TEMPERATURE OF MUD
NEUT.         1                    : NEUTRON      - NEUTRON TYPE
RESI.         0                    : RESIST       - RESISTIVITY TYPE
RMC .OHMM     0.25                 : RMC          - RESISTIVITY OF MUD CAKE
RMF .OHMM     0.25                 : RMF          - RESISTIVITY OF MUD FILTRATE
SUFT.C        15                   : SUFT         - SURFACE TEMPERATURE
~A  DEPTH     PHID     PHIN       GR     RESD     DENS
# ...
  359.500    0.289    0.491   85.232    4.690    0.000
  359.750    0.313    0.498   86.466    4.275    0.000
  360.000    0.324    0.517   88.316    4.197    0.000
  360.250    0.302    0.532   89.550    3.898    0.000
  360.500    0.299    0.534   98.778    3.422    0.000
  360.750    0.284    0.489  104.930    3.360    0.000
  361.000    0.273    0.472  110.468    3.239    0.000
  361.250    0.266    0.490  112.932    3.007    0.000
  361.500    0.257    0.543  114.782    2.690    0.000
  361.750    0.258    0.568  117.860    2.452    0.000
  362.000    0.248    0.594  120.940    2.453    0.000
  362.250    0.234    0.601  122.175    2.454    0.000
  362.500    0.223    0.602  120.336    2.455    0.000
  362.750    0.238    0.596  118.496    2.455    0.000
  363.000    0.234    0.602  117.887    2.411    0.000
  363.250    0.228    0.608  117.892    2.367    0.000
  363.500    0.240    0.615  117.896    2.282    0.000
  363.750    0.243    0.623  116.672    2.199    0.000
  364.000    0.252    0.628  116.063    2.119    0.000
  364.250    0.257    0.626  111.765    2.120    0.000
  364.500    0.252    0.621  108.695    2.081    0.000
  364.750    0.251    0.621  107.470    2.121    0.000
  365.000    0.257    0.623  108.091    2.162    0.000
  365.250    0.280    0.623  106.252    2.287    0.000
  365.500    0.297    0.620  104.412    2.511    0.000
  365.750    0.273    0.602  100.728    2.706    0.000
  366.000    0.257    0.572   97.659    3.084    0.000
  366.250    0.246    0.545   99.510    3.514    0.000
  366.500    0.239    0.531  101.359    4.157    0.000
  366.750    0.274    0.521  100.749    4.564    0.000
  367.000    0.258    0.513   97.680    4.828    0.000
  367.250    0.269    0.507   97.685    5.107    0.000
  367.500    0.285    0.495   97.692    5.302    0.000
  367.750    0.273    0.495   97.083    5.404    0.000
  368.000    0.263    0.511   97.701    5.208    0.000
  368.250    0.273    0.518   97.091    5.210    0.000
  368.500    0.268    0.512   97.099    5.310    0.000
  368.750    0.296    0.519   97.101    5.213    0.000
  369.000    0.287    0.534   98.951    4.751    0.000
  369.250    0.265    0.518  103.874    4.330    0.000
  369.500    0.254    0.512  106.952    3.664    0.000
  369.750    0.246    0.534  106.344    3.339    0.000
  370.000    0.281    0.567  105.733    3.100    0.000
  370.250    0.264    0.548  106.355    2.988    0.000
  370.500    0.251    0.532  107.589    3.046    0.000
  370.750    0.258    0.532  109.438    3.104    0.000
  371.000    0.262    0.546  111.286    3.047    0.000
  371.250    0.269    0.556  112.523    2.883    0.000
  371.500    0.268    0.555  111.912    2.727    0.000
  371.750    0.280    0.562  112.533    2.885    0.000
  372.000    0.275    0.575  113.153    2.940    0.000
  372.250    0.258    0.591  111.927    2.730    0.000
  372.500    0.246    0.581  111.933    2.397    0.000
  372.750    0.264    0.571  111.938    1.622    0.000
  373.000    0.272    0.566  110.098    1.057    0.000
  373.250    0.263    0.572  107.645    0.380    0.000
  373.500    0.258    0.577  106.421    0.287    0.000
  373.750    0.266    0.586  104.582    0.298    0.000
  374.000    0.266    0.589  102.742    0.340    0.000
  374.250    0.250    0.565  102.132    0.532    0.000
  374.500    0.242    0.555  102.751    1.185    0.000
  374.750    0.247    0.575  103.987    2.404    0.000
  375.000    0.271    0.580  104.606    3.691    0.000
  375.250    0.265    0.555  103.996    4.286    0.000
  375.500    0.254    0.537  104.616    4.287    0.000
  375.750    0.250    0.532  104.622    4.055    0.000
  376.000    0.261    0.542  103.397    3.696    0.000
  376.250    0.256    0.552  101.558    3.246    0.000
  376.500    0.252    0.573   98.488    2.904    0.000
  376.750    0.254    0.593   97.880    2.798    0.000
  377.000    0.247    0.598   99.115    3.016    0.000
  377.250    0.242    0.594  100.963    3.190    0.000
  377.500    0.232    0.589  104.043    3.569    0.000
  377.750    0.230    0.565  107.121    3.918    0.000
  378.000    0.231    0.550  109.585    4.144    0.000
  378.250    0.234    0.547  109.591    4.303    0.000
  378.500    0.242    0.532  106.522    4.385    0.000
  378.750    0.261    0.522   99.764    4.306    0.000
  379.000    0.278    0.527   95.466    4.150    0.000
  379.250    0.256    0.522   93.626    4.075    0.000
  379.500    0.240    0.513   97.935    4.153    0.000
  379.750    0.231    0.514   99.785    4.312    0.000
  380.000    0.254    0.526  100.405    4.477    0.000
  380.250    0.273    0.525   97.337    4.736    0.000
  380.500    0.273    0.495   92.424    5.297    0.000
  380.750    0.280    0.478   89.355    5.816    0.000
  381.000    0.297    0.483   86.285    6.153    0.000
  381.250    0.274    0.487   81.987    6.389    0.000
  381.500    0.248    0.489   79.533    6.510    0.000
  381.750    0.227    0.469   78.309    7.420    0.000
  382.000    0.200    0.448   74.624    8.146    0.000
  382.250    0.095    0.418   71.556    8.944    0.000
  382.500    0.085    0.336   82.012    8.782    0.000
  382.750    0.156    0.328   91.855    8.307    0.000
  383.000    0.204    0.344   94.933    7.571    0.000
  383.250    0.265    0.449   98.012    6.406    0.000
  383.500    0.255    0.480   97.403    5.948    0.000
  383.750    0.252    0.495   96.792    5.841    0.000
  384.000    0.257    0.504   96.185    5.842    0.000
  384.250    0.239    0.507   96.804    5.954    0.000
  384.500    0.218    0.507   96.194    6.183    0.000
  384.750    0.222    0.501   94.968    6.184    0.000
  385.000    0.216    0.489   93.746    6.186    0.000
  385.250    0.219    0.477   96.209    5.962    0.000
  385.500    0.224    0.472   98.059    5.747    0.000
  385.750    0.257    0.478   97.449    5.748    0.000
  386.000    0.244    0.476   96.840    5.540    0.000
  386.250    0.272    0.477   95.615    5.339    0.000
  386.500    0.259    0.483   95.620    5.342    0.000
  386.750    0.247    0.488   94.395    5.342    0.000
  387.000    0.244    0.489   93.172    5.246    0.000
  387.250    0.258    0.481   93.790    4.871    0.000
  387.500    0.252    0.489   95.640    4.608    0.000
  387.750    0.268    0.502   98.104    4.279    0.000
  388.000    0.257    0.521  100.568    3.487    0.000
  388.250    0.259    0.535  103.648    3.179    0.000
  388.500    0.264    0.540  104.882    3.064    0.000
  388.750    0.259    0.541  104.886    3.064    0.000
  389.000    0.250    0.541  104.279    3.065    0.000
  389.250    0.251    0.541  103.667    3.366    0.000
  389.500    0.247    0.544  101.214    3.695    0.000
  389.750    0.244    0.553  101.218    4.212    0.000
  390.000    0.251    0.563   99.995    4.539    0.000
  390.250    0.260    0.565   98.154    4.801    0.000
  390.500    0.282    0.523   98.775    4.984    0.000
  390.750    0.264    0.492  106.157    5.080    0.000
  391.000    0.257    0.482  107.393    4.988    0.000
  391.250    0.246    0.488  106.782    4.632    0.000
  391.500    0.245    0.497  109.247    4.464    0.000
  391.750    0.241    0.512  111.711    4.302    0.000
  392.000    0.242    0.492  112.945    4.304    0.000
  392.250    0.241    0.491  112.335    4.305    0.000
  392.500    0.245    0.495  110.497    4.470    0.000
  392.750    0.255    0.491  101.895    4.728    0.000
  393.000    0.254    0.492  101.899    5.096    0.000
  393.250    0.242    0.477  103.135    5.390    0.000
  393.500    0.245    0.474  101.295    5.919    0.000
  393.750    0.241    0.489  102.529    6.032    0.000
  394.000    0.229    0.486  101.921    6.147    0.000
  394.250    0.220    0.466  100.081    6.383    0.000
  394.500    0.218    0.452   98.241    6.878    0.000
  394.750    0.225    0.452   95.173    7.552    0.000
  395.000    0.144    0.450   92.103    7.555    0.000
  395.250    0.113    0.395   88.421    7.417    0.000
  395.500    0.106    0.384   98.262    7.149    0.000
  395.750    0.169    0.388  103.185    6.516    0.000
