~VERSION INFORMATION
 VERS.                 2.0:   CWLS LOG ASCII STANDARD -VERSION 2.0
 WRAP.                  NO:   ONE LINE PER DEPTH STEP
~WELL INFORMATION BLOCK
#MNEM.UNIT           DATA                    DESCRIPTION OF MNEMONIC
#---------    -------------------            -------------------------------
# Generated from Intellog Unique Number	CX_WELLS/WELL/2307
WELL.         CDN SUP CR RAP                 : Well_name    - WELL
LOC .         00/11-29-089-12W4/0            : Location     - LOCATION
UWI .         00/11-29-089-12W400            : Uwi          - UNIQUE WELL ID
ENTR.         RJA                            : Entered      - ENTERED BY
SRVC.         SCHLUMBERGER                   : Scn          - SERVICE COMPANY
STRT.M        100                            : top_depth    - START DEPTH
STOP.M        255                            : bot_depth    - STOP DEPTH
STEP.M        0.25                           : increment    - STEP LENGTH
 NULL. -999.2500:NULL Value
~CURVE INFORMATION BLOCK
#MNEM UNIT       ERCB CURVE CODE    CURVE DESCRIPTION
#-----------   ------------------   ----------------------------------
DEPT.M        00 001 00 00         : DEPTH        - DEPTH
GR  .API      00 310 00 00         : GR           - GAMMA RAY
NPHI.V/V      00 330 00 00         : PHIN         - NEUTRON POROSITY (SANDSTONE)
DPHI.V/V      00 890 00 00         : PHID         - DENSITY POROSITY (SANDSTONE)
ILD .OHMM     00 120 00 00         : RESD         - DEEP RESISTIVITY (DIL)
~PARAMETER INFORMATION
#MNEM.UNIT           DATA             DESCRIPTION OF MNEMONIC
#---------         -----------     ------------------------------
GL  .M        520.9                : gl           - GROUND LEVEL ELEVATION
EREF.M        525                  : kb           - ELEVATION OF DEPTH REFERENCE
DATM.M        525                  : datum        - DATUM ELEVATION
TDD .M        255                  : tdd          - TOTAL DEPTH DRILLER
RUN .         ONE                  : Run          - RUN NUMBER
ENG .         BILL                 : Engineer     - RECORDING ENGINEER
WIT .         JIM                  : Witness      - WITNESSED BY
MUD .         GEL                  : Mud_type     - MUD TYPE
MATR.         SANDSTONE            : Logunit      - NEUTRON MATRIX
TMAX.C        39                   : BHT          - MAXIMUM RECORDED TEMPERATURE
BHTD.M        255                  : BHTDEP       - MAXIMUM RECORDED TEMPERATURE
MATR.         1                    : LOGUNIT      - NEUTRON MATRIX
RMT .C        25                   : MDTP         - TEMPERATURE OF MUD
NEUT.         1                    : NEUTRON      - NEUTRON TYPE
RESI.         0                    : RESIST       - RESISTIVITY TYPE
RMC .OHMM     0.25                 : RMC          - RESISTIVITY OF MUD CAKE
RMF .OHMM     0.25                 : RMF          - RESISTIVITY OF MUD FILTRATE
SUFT.C        15                   : SUFT         - SURFACE TEMPERATURE
~A  DEPTH       GR     PHIN     PHID     RESD
# ...
  143.500   86.691    0.471    0.232    5.817
  143.750   86.115    0.482    0.231    6.163
  144.000   86.157    0.492    0.230    6.283
  144.250   86.199    0.489    0.226    6.529
  144.500   86.891    0.495    0.221    6.665
  144.750   86.912    0.505    0.186    6.806
  145.000   85.101    0.503    0.149    6.815
  145.250   77.111    0.481    0.118    6.702
  145.500   69.740    0.451    0.107    6.591
  145.750   72.253    0.455    0.143    6.605
  146.000   78.484    0.469    0.204    6.739
  146.250   79.144    0.477    0.233    6.748
  146.500   79.175    0.474    0.275    6.759
  146.750   77.374    0.466    0.267    6.524
  147.000   73.710    0.448    0.254    6.416
  147.250   70.663    0.433    0.203    6.197
  147.500   69.469    0.414    0.155    6.097
  147.750   70.747    0.394    0.142    6.105
  148.000   72.642    0.423    0.148    6.121
  148.250   75.805    0.440    0.183    6.126
  148.500   77.680    0.454    0.215    6.139
  148.750   80.821    0.470    0.239    6.147
  149.000   84.560    0.484    0.256    6.160
  149.250   87.073    0.502    0.261    5.839
  149.500   88.969    0.517    0.267    5.141
  149.750   89.639    0.551    0.276    4.129
  150.000   90.310    0.565    0.278    2.971
  150.250   90.959    0.587    0.267    2.616
  150.500   92.855    0.588    0.253    2.822
  150.750   94.143    0.570    0.229    3.273
  151.000   92.949    0.516    0.197    4.091
  151.250   91.745    0.470    0.180    4.661
  151.500   89.966    0.471    0.187    5.512
  151.750   89.987    0.475    0.199    6.280
  152.000   90.050    0.475    0.214    7.288
  152.250   90.071    0.473    0.219    8.155
  152.500   90.123    0.465    0.220    8.797
  152.750   90.165    0.455    0.222    9.138
  153.000   88.972    0.451    0.226    9.501
  153.250   87.161    0.451    0.229    9.878
  153.500   84.742    0.454    0.231   10.070
  153.750   82.931    0.455    0.234   10.470
  154.000   81.120    0.455    0.239   10.678
  154.250   79.926    0.453    0.242   10.705
  154.500   79.340    0.445    0.248   10.524
  154.750   79.382    0.430    0.255   10.354
  155.000   79.445    0.419    0.267   10.182
  155.250   79.466    0.415    0.272   10.014
  155.500   77.037    0.416    0.264   10.031
  155.750   74.608    0.424    0.260   10.239
  156.000   70.943    0.435    0.257   10.252
  156.250   67.299    0.444    0.250   10.265
  156.500   66.117    0.447    0.215   10.287
  156.750   65.530    0.444    0.172   10.700
  157.000   64.944    0.425    0.199   10.710
  157.250   64.986    0.431    0.230   10.932
  157.500   65.646    0.438    0.242   11.361
  157.750   66.934    0.435    0.254   11.375
  158.000   69.458    0.428    0.264   11.395
  158.250   71.972    0.424    0.265   10.802
  158.500   76.338    0.431    0.257   10.239
  158.750   78.841    0.438    0.241    9.710
  159.000   78.883    0.436    0.177    9.216
  159.250   78.318    0.420    0.173    9.220
  159.500   78.360    0.413    0.213    9.236
  159.750   79.031    0.426    0.234    9.252
  160.000   79.062    0.439    0.238    9.444
  160.250   79.125    0.445    0.247    9.814
  160.500   78.529    0.435    0.255   10.389
  160.750   76.728    0.426    0.255   10.797
  161.000   75.524    0.423    0.251   11.225
  161.250   71.870    0.426    0.240   11.244
  161.500   68.226    0.428    0.226   11.473
  161.750   67.011    0.422    0.207   11.706
  162.000   65.200    0.417    0.190   11.731
  162.250   64.007    0.431    0.240   11.746
  162.500   64.666    0.443    0.249   11.995
  162.750   65.326    0.435    0.208   12.010
  163.000   65.997    0.410    0.165   12.025
  163.250   67.892    0.388    0.152   11.826
  163.500   69.788    0.381    0.205   11.424
  163.750   73.547    0.436    0.212   11.030
  164.000   74.207    0.457    0.150   10.843
  164.250   73.632    0.457    0.131    9.915
  164.500   73.674    0.444    0.127    9.391
  164.750   80.533    0.445    0.199    8.744
  165.000   81.193    0.461    0.212    8.439
  165.250   81.214    0.469    0.214    8.457
  165.500   82.502    0.471    0.215    8.471
  165.750   83.172    0.469    0.214    8.489
  166.000   83.811    0.470    0.210    8.665
  166.250   84.492    0.475    0.209    8.673
  166.500   85.163    0.476    0.209    8.688
  166.750   85.812    0.480    0.208    8.544
  167.000   86.483    0.484    0.208    8.106
  167.250   87.142    0.487    0.209    7.820
  167.500   86.546    0.488    0.207    7.281
  167.750   85.970    0.485    0.204    7.030
  168.000   84.159    0.486    0.205    7.045
  168.250   81.751    0.491    0.210    7.457
  168.500   82.421    0.493    0.219    7.605
  168.750   83.678    0.487    0.229    8.356
  169.000   85.573    0.476    0.225    8.841
  169.250   87.479    0.470    0.221    9.537
  169.500   88.150    0.465    0.221    9.911
  169.750   88.192    0.457    0.227   10.491
  170.000   88.245    0.451    0.234   10.903
  170.250   88.266    0.448    0.238   11.129
  170.500   90.161    0.443    0.231   11.566
  170.750   90.821    0.433    0.223   11.586
  171.000   90.863    0.421    0.214   11.831
  171.250   90.287    0.404    0.203   11.846
  171.500   88.487    0.382    0.195   11.861
  171.750   86.058    0.364    0.181   11.670
  172.000   84.864    0.369    0.162   11.472
  172.250   83.671    0.406    0.143   11.492
  172.500   81.870    0.417    0.144   11.511
  172.750   81.294    0.389    0.169   11.546
  173.000   82.572    0.373    0.181   11.556
  173.250   83.839    0.383    0.179   11.374
  173.500   86.363    0.408    0.142   11.384
  173.750   91.358    0.432    0.131   10.796
  174.000   95.096    0.441    0.183   10.234
  174.250   98.228    0.455    0.205    9.877
  174.500  100.762    0.470    0.221    9.363
  174.750  100.197    0.482    0.228    8.717
  175.000  100.218    0.486    0.232    8.109
  175.250   99.653    0.494    0.235    7.277
  175.500   99.695    0.505    0.239    6.770
  175.750   99.747    0.515    0.242    6.186
  176.000   99.779    0.519    0.239    5.450
  176.250   99.214    0.522    0.232    5.164
  176.500   97.403    0.522    0.221    4.722
  176.750   95.591    0.521    0.213    4.558
  177.000   93.769    0.516    0.202    4.480
  177.250   91.340    0.509    0.194    4.492
  177.500   90.765    0.494    0.179    4.497
  177.750   98.838    0.494    0.181    4.507
  178.000  102.598    0.492    0.199    4.513
  178.250  103.875    0.487    0.221    4.607
  178.500  103.300    0.485    0.224    4.787
  178.750  101.499    0.488    0.224    5.164
  179.000  100.295    0.492    0.222    5.464
  179.250   97.887    0.500    0.221    5.784
  179.500   96.672    0.502    0.217    5.794
  179.750   95.500    0.504    0.211    5.808
  180.000   95.521    0.498    0.197    5.707
  180.250   97.437    0.481    0.190    5.828
  180.500   99.951    0.462    0.191    5.836
  180.750  102.464    0.468    0.203    5.952
  181.000  103.124    0.476    0.215    5.967
  181.250  103.177    0.478    0.220    5.450
  181.500  102.580    0.473    0.219    4.800
  181.750  100.161    0.471    0.214    5.371
  182.000   97.732    0.467    0.206    6.349
  182.250   95.303    0.468    0.196    6.969
  182.500   92.874    0.469    0.177    8.095
  182.750   90.445    0.467    0.149    8.259
  183.000   89.262    0.456    0.123    8.431
  183.250   89.911    0.435    0.093    8.441
  183.500   91.807    0.427    0.132    8.456
  183.750   96.195    0.456    0.166    8.168
  184.000   98.719    0.475    0.195    7.883
  184.250   99.357    0.464    0.207    7.476
  184.500  100.017    0.442    0.215    7.215
  184.750  100.688    0.432    0.220    6.972
  185.000  100.730    0.420    0.226    6.851
  185.250  100.782    0.413    0.232    6.990
  185.500  100.814    0.405    0.240    7.540
  185.750  100.238    0.410    0.243    7.981
  186.000   98.448    0.416    0.236    8.769
  186.250   97.234    0.422    0.217    9.113
  186.500   95.422    0.428    0.210    9.125
  186.750   93.621    0.434    0.210    9.140
