~VERSION INFORMATION
 VERS.                 2.0:   CWLS LOG ASCII STANDARD -VERSION 2.0
 WRAP.                  NO:   ONE LINE PER DEPTH STEP
~WELL INFORMATION BLOCK
#MNEM.UNIT           DATA                    DESCRIPTION OF MNEMONIC
#---------    -------------------            -------------------------------
# Generated from Intellog Unique Number	CC_80_83/WELL/2353
NULL.         -999.25                        : NULL_VALUE
WELL.         CHEVRON ALGAR                  : Well_name    - WELL
LOC .         10-14-081-17W4                 : Location     - LOCATION          
UWI .         00/10-14-081-17W400            : Uwi          - UNIQUE WELL ID    
ENTR.         DW                             : Entered      - ENTERED BY        
SRVC.         SCHLUMBERGER                   : Scn          - SERVICE COMPANY   
DATE.         04 FEB 75                      : Date         - LOG DATE
STRT.M        118.872                        : top_depth    - START DEPTH       
STOP.M        307.847                        : bot_depth    - STOP DEPTH        
STEP.M        0.305                          : increment    - STEP LENGTH       
~CURVE INFORMATION BLOCK
#MNEM UNIT       ERCB CURVE CODE    CURVE DESCRIPTION
#-----------   ------------------   ----------------------------------
DEPT.M        00 001 00 00         : DEPTH        - DEPTH                       
DPHI.V/V      00 890 00 00         : PHID         - DENSITY POROSITY (LIMESTONE)
NPHI.V/V      00 330 00 00         : PHIN         - NEUTRON POROSITY (LIMESTONE)
GR  .API      00 310 00 00         : GR           - GAMMA RAY                   
ILD .OHMM     00 120 00 00         : RESD         - DEEP RESISTIVITY (DIL)      
~PARAMETER INFORMATION       
#MNEM.UNIT           DATA             DESCRIPTION OF MNEMONIC
#---------         -----------     ------------------------------
GL  .M        540.106              : gl           - GROUND LEVEL ELEVATION      
EREF.M        543.763              : kb           - ELEVATION OF DEPTH REFERENCE
DATM.M        543.763              : datum        - DATUM ELEVATION             
TDD .M        310.896              : tdd          - TOTAL DEPTH DRILLER         
RUN .         ONE                  : Run          - RUN NUMBER                  
ENG .         BILL                 : Engineer     - RECORDING ENGINEER          
WIT .         JIM                  : Witness      - WITNESSED BY                
MUD .         GEL                  : Mud_type     - MUD TYPE                    
MATR.         LIMESTONE            : Logunit      - NEUTRON MATRIX              
TMAX.C        21.1111              : BHT          - MAXIMUM RECORDED TEMPERATURE
BHTD.M        310.896              : BHTDEP       - MAXIMUM RECORDED TEMPERATURE
MATR.         1                    : LOGUNIT      - NEUTRON MATRIX              
RMT .C        25                   : MDTP         - TEMPERATURE OF MUD          
NEUT.         1                    : NEUTRON      - NEUTRON TYPE                
RESI.         0                    : RESIST       - RESISTIVITY TYPE            
RMC .OHMM     0.25                 : RMC          - RESISTIVITY OF MUD CAKE     
RMF .OHMM     0.25                 : RMF          - RESISTIVITY OF MUD FILTRATE 
SUFT.C        15                   : SUFT         - SURFACE TEMPERATURE         
~A  DEPTH     PHID     PHIN       GR     RESD
# ...
  224.941    0.304    0.494   67.742   10.927
  225.245    0.290    0.485   73.790   10.727
  225.550    0.285    0.504   78.024   10.531
  225.855    0.289    0.519   77.419    9.963
  226.160    0.301    0.486   78.024    9.963
  226.465    0.310    0.445   82.863    9.781
  226.769    0.301    0.431   81.048    9.602
  227.074    0.289    0.502   74.395    9.426
  227.379    0.266    0.549   74.395    9.427
  227.684    0.266    0.575   84.677    9.427
  227.989    0.285    0.546   86.492    9.255
  228.293    0.287    0.524   85.887    8.755
  228.598    0.264    0.502   93.750    8.595
  228.903    0.244    0.501   96.169    8.131
  229.208    0.230    0.508   90.726    7.692
  229.513    0.264    0.496   86.492    7.413
  229.817    0.266    0.492   87.097    7.278
  230.122    0.259    0.512   84.073    7.553
  230.427    0.253    0.496   77.419    7.694
  230.732    0.244    0.497   75.605    7.985
  231.037    0.243    0.513   76.210    8.134
  231.341    0.242    0.500   84.677    8.135
  231.646    0.240    0.498   90.121    7.986
  231.951    0.236    0.487   96.169    7.840
  232.256    0.232    0.468   95.564    7.697
  232.561    0.231    0.463   90.726    7.417
  232.865    0.230    0.483   87.702    7.148
  233.170    0.231    0.501   89.516    6.762
  233.475    0.237    0.494   90.726    6.762
  233.780    0.249    0.503   90.121    6.889
  234.084    0.259    0.520   88.306    7.018
  234.389    0.265    0.542   85.282    7.150
  234.694    0.270    0.543   81.048    7.420
  234.999    0.260    0.474   76.814    8.141
  235.304    0.203    0.442   71.371    9.268
  235.608    0.179    0.408   68.347   11.155
  235.913    0.237    0.431   71.371   12.937
  236.218    0.271    0.477   75.605   13.426
  236.523    0.253    0.486   81.653   12.938
  236.828    0.236    0.468   75.000   12.015
  237.132    0.178    0.429   68.347   12.469
  237.437    0.116    0.385   65.927   13.429
  237.742    0.113    0.363   76.210   15.288
  238.047    0.150    0.379   82.863   16.163
  238.352    0.203    0.414   81.048   16.164
  238.656    0.229    0.479   77.419   12.944
  238.961    0.230    0.483   82.863   11.370
  239.266    0.229    0.462   86.492   10.559
  239.571    0.226    0.445   90.726    9.806
  239.876    0.212    0.474   93.145    9.277
  240.180    0.207    0.501   94.355    9.107
  240.485    0.198    0.494   96.774    8.776
  240.790    0.196    0.502  100.403    8.616
  241.095    0.212    0.504  101.613    8.150
  241.400    0.215    0.485  101.613    7.430
  241.704    0.217    0.506   94.355    2.446
  242.009    0.212    0.489   90.121    2.734
  242.314    0.212    0.495   90.121    3.414
  242.619    0.219    0.512   91.331    6.408
  242.924    0.224    0.494   92.540    9.456
  243.228    0.225    0.468   93.750   10.183
  243.533    0.212    0.449   94.355   10.568
  243.838    0.196    0.461   95.564   10.184
  244.143    0.207    0.495   94.960    9.458
  244.447    0.219    0.504   95.564    8.947
  244.752    0.219    0.519   94.960    8.948
  245.057    0.217    0.530   94.960    8.784
  245.362    0.215    0.500   95.564    8.465
  245.667    0.210    0.498   94.960    8.310
  245.971    0.214    0.504   93.145    8.311
  246.276    0.220    0.498   91.936    8.950
  246.581    0.224    0.503   93.145    9.462
  246.886    0.227    0.495   95.564    9.640
  247.191    0.224    0.478   97.379    9.290
  247.495    0.217    0.501   95.564    8.953
  247.800    0.215    0.504   92.540    8.789
  248.105    0.208    0.485   90.121    8.314
  248.410    0.197    0.497   91.331    7.721
  248.715    0.195    0.508   94.355    7.304
  249.019    0.227    0.490   91.331    7.305
  249.324    0.190    0.468   84.073    7.867
  249.629    0.160    0.433   84.073    8.792
  249.934    0.198    0.448   91.936   10.009
  250.239    0.221    0.458   92.540   10.010
  250.543    0.220    0.474   91.331    9.647
  250.848    0.226    0.480   89.516    9.126
  251.153    0.244    0.484   85.887    9.297
  251.458    0.254    0.466   82.258    9.648
  251.763    0.237    0.452   76.814   10.391
  252.067    0.194    0.475   73.790   11.190
  252.372    0.063    0.406   62.903   12.506
  252.677    0.037    0.329   52.621   12.979
  252.982    0.175    0.400   59.274   12.508
  253.287    0.219    0.463   88.306   11.402
  253.591    0.224    0.463   94.960    9.475
  253.896    0.232    0.478   96.774    8.479
  254.201    0.240    0.485   93.145    8.021
  254.506    0.247    0.487   81.653    8.022
  254.810    0.255    0.481   77.419    8.639
  255.115    0.252    0.466   77.419    9.655
  255.420    0.265    0.466   78.629   10.592
  255.725    0.272    0.455   77.419   11.838
  256.030    0.231    0.377   72.581   13.729
  256.334    0.121    0.275   70.161   17.468
  256.639    0.063    0.255   67.137   22.224
  256.944    0.052    0.236   62.298   31.018
  257.249    0.039    0.224   61.694   35.975
  257.554    0.034    0.224   61.694   35.976
  257.859    0.160    0.346   64.113   32.194
  258.163    0.210    0.438   70.161   21.823
  258.468    0.238    0.472   76.814   16.839
  258.773    0.253    0.457   79.839   13.485
  259.078    0.247    0.452   83.468   12.067
  259.383    0.258    0.473   79.234   11.416
  259.687    0.261    0.486   79.234   10.800
  259.992    0.246    0.506   84.677   10.602
  260.297    0.224    0.491   91.936   10.217
  260.602    0.224    0.480   95.564    9.846
  260.907    0.220    0.521   99.194    8.976
  261.211    0.214    0.526  103.427    8.650
  261.516    0.208    0.503  104.032    8.651
  261.821    0.197    0.473  102.218    8.978
  262.126    0.196    0.463   90.726    9.146
  262.431    0.215    0.472   96.169    9.669
  262.735    0.218    0.500  102.823    9.850
  263.040    0.201    0.506  105.242    9.851
  263.345    0.200    0.491  102.218    9.493
  263.650    0.198    0.483   99.798    9.149
  263.955    0.195    0.472   98.589    8.816
  264.260    0.197    0.462   95.564    8.817
  264.564    0.183    0.462   94.960    8.817
  264.869    0.181    0.474  108.266    8.983
  265.174    0.197    0.477  111.290    8.657
  265.479    0.200    0.481  113.105    8.189
  265.784    0.201    0.448  113.710    8.190
  266.088    0.197    0.469  111.895    8.343
  266.393    0.185    0.495  104.637    8.985
  266.698    0.169    0.489   96.774   10.230
  267.003    0.149    0.462   96.169   11.433
  267.308    0.142    0.416   96.774   12.087
  267.612    0.167    0.417   99.798   11.866
  267.917    0.194    0.431  100.403   11.225
  268.222    0.200    0.440  101.008   10.045
  268.527    0.197    0.465  105.242    8.989
  268.832    0.191    0.483  107.056    8.195
  269.136    0.189    0.484  106.452    7.897
  269.441    0.188    0.485  102.218    8.196
  269.746    0.189    0.494   91.936    8.826
  270.051    0.195    0.483   87.702    9.864
  270.356    0.204    0.446   88.306   10.822
  270.661    0.226    0.475   88.911   11.025
  270.965    0.207    0.472   89.516   11.025
  271.270    0.236    0.456   89.516   11.026
  271.575    0.226    0.450   88.306   10.626
  271.880    0.210    0.444   87.702   10.432
  272.185    0.224    0.457   88.911   10.433
  272.489    0.229    0.475   91.331   10.433
  272.794    0.233    0.475   92.540   10.242
  273.099    0.236    0.468   92.540   10.055
  273.404    0.223    0.446   90.121    9.871
  273.709    0.214    0.425   84.073    9.871
  274.013    0.202    0.400   79.234   11.032
  274.318    0.207    0.385   79.839   12.795
  274.623    0.229    0.408   81.048   14.300
  274.928    0.232    0.456   85.282   14.567
  275.233    0.223    0.463   89.516   14.301
  275.537    0.214    0.468   90.121   13.280
  275.842    0.207    0.449   89.516   11.885
  276.147    0.200    0.462   88.911   11.453
  276.452    0.198    0.449   88.911   11.244
  276.757    0.202    0.445   88.911   11.038
  277.062    0.201    0.445   87.702   11.245
  277.366    0.189    0.460   79.839   11.888
  277.671    0.137    0.479   77.419   12.111
