~VERSION INFORMATION
 VERS.                 2.0:   CWLS LOG ASCII STANDARD -VERSION 2.0
 WRAP.                  NO:   ONE LINE PER DEPTH STEP
~WELL INFORMATION BLOCK
#MNEM.UNIT           DATA                    DESCRIPTION OF MNEMONIC
#---------    -------------------            -------------------------------
# Generated from Intellog Unique Number	CS_71_72/WELL/898
WELL.         BVX ET AL NIXON                : Well_name    - WELL
LOC .         00/11-15-072-16W4/0            : Location     - LOCATION
UWI .         00/11-15-072-16W4/0            : Uwi          - UNIQUE WELL ID
ENTR.         SP                             : Entered      - ENTERED BY
SRVC.         SCHLUMBERGER                   : Scn          - SERVICE COMPANY
STRT.M        256.032                        : top_depth    - START DEPTH
STOP.M        435.532                        : bot_depth    - STOP DEPTH
STEP.M        0.25                           : increment    - STEP LENGTH
 NULL. -999.2500:NULL Value
~CURVE INFORMATION BLOCK
#MNEM UNIT       ERCB CURVE CODE    CURVE DESCRIPTION
#-----------   ------------------   ----------------------------------
DEPT.M        00 001 00 00         : DEPTH        - DEPTH
GR  .API      00 310 00 00         : GR           - GAMMA RAY
DPHI.V/V      00 890 00 00         : PHID         - DENSITY POROSITY (SANDSTONE)
NPHI.V/V      00 330 00 00         : PHIN         - NEUTRON POROSITY (SANDSTONE)
ILD .OHMM     00 120 00 00         : RESD         - DEEP RESISTIVITY (DIL)
~PARAMETER INFORMATION
#MNEM.UNIT           DATA             DESCRIPTION OF MNEMONIC
#---------         -----------     ------------------------------
GL  .M        577.596              : gl           - GROUND LEVEL ELEVATION
EREF.M        580.644              : kb           - ELEVATION OF DEPTH REFERENCE
DATM.M        577.596              : datum        - DATUM ELEVATION
TDD .M        438.912              : tdd          - TOTAL DEPTH DRILLER
RUN .         ONE                  : Run          - RUN NUMBER
ENG .         BILL                 : Engineer     - RECORDING ENGINEER
WIT .         JIM                  : Witness      - WITNESSED BY
MUD .         GEL                  : Mud_type     - MUD TYPE
MATR.         SANDSTONE            : Logunit      - NEUTRON MATRIX
TMAX.C        15.5556              : BHT          - MAXIMUM RECORDED TEMPERATURE
BHTD.M        438.912              : BHTDEP       - MAXIMUM RECORDED TEMPERATURE
MATR.         1                    : LOGUNIT      - NEUTRON MATRIX
RMT .C        25                   : MDTP         - TEMPERATURE OF MUD
NEUT.         1                    : NEUTRON      - NEUTRON TYPE
RESI.         0                    : RESIST       - RESISTIVITY TYPE
RMC .OHMM     0.25                 : RMC          - RESISTIVITY OF MUD CAKE
RMF .OHMM     0.25                 : RMF          - RESISTIVITY OF MUD FILTRATE
SUFT.C        15                   : SUFT         - SURFACE TEMPERATURE
~A  DEPTH       GR     PHID     PHIN     RESD
# ...
  299.532   77.127    0.304    0.447    5.805
  299.782   77.733    0.316    0.449    5.989
  300.032   84.071    0.301    0.461    6.105
  300.282   89.386    0.266    0.463    6.137
  300.532   93.885    0.249    0.458    6.218
  300.782   96.967    0.235    0.455    6.218
  301.032   97.249    0.244    0.454    6.179
  301.282   98.787    0.258    0.459    5.902
  301.532   99.759    0.258    0.478    5.694
  301.782  101.590    0.246    0.493    5.249
  302.032  102.595    0.243    0.509    5.113
  302.282  102.812    0.246    0.515    4.998
  302.532  103.873    0.256    0.492    5.014
  302.782  103.023    0.238    0.479    5.167
  303.032   99.991    0.219    0.477    5.434
  303.282   96.016    0.248    0.478    5.829
  303.532   91.723    0.249    0.470    6.194
  303.782   85.512    0.262    0.465    6.596
  304.032   77.734    0.265    0.470    6.878
  304.282   69.180    0.270    0.485    7.245
  304.532   61.292    0.298    0.481    7.462
  304.782   59.112    0.302    0.435    7.693
  305.032   57.565    0.308    0.422    7.871
  305.282   59.141    0.318    0.418    7.854
  305.532   60.537    0.330    0.418    7.630
  305.782   62.066    0.336    0.432    7.256
  306.032   59.595    0.331    0.437    6.912
  306.282   58.099    0.330    0.438    6.717
  306.532   57.270    0.325    0.441    6.522
  306.782   58.016    0.326    0.448    6.327
  307.032   58.048    0.338    0.443    6.258
  307.282   58.152    0.347    0.436    6.224
  307.532   59.827    0.356    0.431    6.224
  307.782   60.928    0.343    0.435    6.229
  308.032   61.206    0.331    0.445    6.232
  308.282   63.352    0.310    0.442    6.237
  308.532   65.569    0.321    0.427    6.243
  308.782   65.446    0.305    0.433    6.249
  309.032   65.662    0.310    0.438    6.159
  309.282   64.275    0.330    0.434    6.144
  309.532   63.760    0.331    0.435    6.145
  309.782   63.174    0.322    0.426    6.057
  310.032   63.077    0.305    0.420    6.172
  310.282   62.687    0.296    0.421    6.153
  310.532   62.667    0.311    0.430    6.427
  310.782   63.511    0.310    0.437    6.272
  311.032   64.549    0.316    0.446    6.287
  311.282   64.368    0.318    0.444    6.291
  311.532   63.446    0.332    0.440    6.295
  311.782   62.996    0.335    0.442    6.297
  312.032   62.966    0.327    0.455    6.300
  312.282   63.006    0.321    0.456    6.300
  312.532   65.464    0.329    0.447    6.188
  312.782   68.191    0.322    0.453    6.200
  313.032   68.474    0.316    0.455    6.205
  313.282   67.878    0.311    0.460    6.209
  313.532   68.045    0.314    0.469    6.213
  313.782   66.278    0.317    0.473    6.217
  314.032   65.249    0.326    0.460    6.156
  314.282   65.058    0.338    0.448    6.114
  314.532   64.617    0.344    0.441    6.116
  314.782   63.236    0.336    0.446    6.120
  315.032   63.474    0.336    0.453    6.124
  315.282   65.792    0.340    0.450    6.128
  315.532   65.050    0.332    0.452    6.132
  315.782   62.785    0.326    0.456    6.137
  316.032   62.822    0.331    0.457    6.154
  316.282   63.556    0.326    0.459    6.020
  316.532   63.531    0.333    0.469    6.038
  316.782   63.913    0.341    0.473    6.053
  317.032   63.968    0.338    0.475    5.924
  317.282   61.943    0.337    0.464    5.939
  317.532   59.925    0.327    0.454    5.954
  317.782   59.579    0.313    0.446    5.826
  318.032   60.099    0.318    0.452    5.869
  318.282   61.012    0.332    0.467    5.497
  318.532   62.752    0.340    0.452    5.533
  318.782   64.946    0.323    0.443    5.537
  319.032   66.103    0.318    0.438    5.533
  319.282   67.521    0.326    0.451    5.651
  319.532   67.551    0.330    0.457    5.675
  319.782   67.623    0.343    0.459    5.429
  320.032   67.034    0.331    0.452    5.457
  320.282   65.064    0.329    0.450    5.522
  320.532   63.580    0.331    0.468    5.582
  320.782   64.025    0.325    0.484    5.669
  321.032   65.465    0.322    0.491    5.797
  321.282   65.368    0.313    0.484    5.800
  321.532   65.406    0.311    0.472    5.894
  321.782   65.447    0.318    0.463    6.028
  322.032   65.481    0.322    0.465    6.022
  322.282   64.999    0.323    0.474    6.145
  322.532   65.631    0.306    0.462    6.175
  322.782   65.561    0.302    0.462    6.258
  323.032   66.200    0.308    0.461    6.276
  323.282   67.004    0.311    0.452    6.146
  323.532   68.037    0.314    0.444    6.052
  323.782   67.787    0.315    0.446    6.050
  324.032   66.654    0.318    0.431    6.053
  324.282   65.010    0.308    0.429    6.048
  324.532   66.696    0.303    0.425    6.232
  324.782   68.338    0.313    0.409    6.431
  325.032   69.323    0.262    0.388    6.734
  325.282   70.451    0.222    0.366    7.302
  325.532   73.817    0.194    0.339    7.592
  325.782   77.836    0.183    0.373    7.735
  326.032   80.791    0.241    0.412    7.661
  326.282   83.975    0.257    0.453    7.469
  326.532   86.562    0.251    0.461    7.037
  326.782   90.034    0.261    0.457    6.638
  327.032   93.614    0.270    0.461    6.147
  327.282   96.888    0.261    0.460    5.788
  327.532  100.056    0.257    0.455    5.334
  327.782  102.221    0.272    0.478    4.952
  328.032  100.881    0.238    0.507    4.624
  328.282   96.848    0.229    0.525    4.219
  328.532   94.287    0.196    0.520    4.051
  328.782   93.672    0.191    0.505    3.810
  329.032   96.521    0.257    0.496    3.588
  329.282   96.028    0.263    0.496    3.471
  329.532   92.684    0.250    0.498    3.759
  329.782   91.335    0.257    0.486    3.859
  330.032   89.490    0.249    0.489    4.069
  330.282   85.058    0.245    0.485    4.200
  330.532   81.510    0.278    0.497    4.402
  330.782   74.176    0.303    0.486    4.499
  331.032   71.397    0.324    0.472    4.591
  331.282   71.952    0.350    0.464    4.657
  331.532   72.694    0.340    0.456    4.678
  331.782   67.268    0.332    0.462    4.683
  332.032   64.656    0.312    0.475    4.686
  332.282   65.270    0.316    0.476    4.688
  332.532   66.251    0.325    0.464    4.695
  332.782   67.251    0.328    0.459    4.603
  333.032   68.227    0.332    0.459    4.613
  333.282   70.407    0.316    0.456    4.615
  333.532   71.488    0.318    0.451    4.576
  333.782   72.492    0.325    0.455    4.542
  334.032   72.479    0.312    0.456    4.472
  334.282   72.354    0.321    0.452    4.471
  334.532   70.643    0.309    0.471    4.380
  334.782   69.553    0.308    0.476    4.325
  335.032   69.896    0.319    0.470    4.290
  335.282   72.654    0.331    0.467    4.154
  335.532   73.921    0.314    0.469    4.166
  335.782   72.352    0.332    0.475    4.075
  336.032   66.934    0.354    0.480    4.088
  336.282   64.240    0.366    0.480    4.126
  336.532   63.751    0.367    0.467    4.262
  336.782   63.788    0.359    0.459    4.397
  337.032   64.408    0.354    0.449    4.544
  337.282   65.773    0.346    0.458    4.589
  337.532   66.148    0.351    0.460    4.677
  337.782   67.065    0.346    0.460    4.683
  338.032   66.384    0.333    0.463    4.590
  338.282   64.738    0.320    0.464    4.588
  338.532   61.008    0.328    0.445    4.707
  338.782   58.684    0.334    0.422    4.950
  339.032   59.730    0.284    0.400    5.146
  339.282   60.914    0.254    0.353    5.609
  339.532   66.328    0.232    0.356    5.858
  339.782   67.835    0.293    0.399    5.818
  340.032   68.382    0.327    0.441    5.630
  340.282   67.891    0.326    0.440    5.373
  340.532   68.091    0.315    0.439    5.219
  340.782   69.830    0.334    0.434    5.066
  341.032   70.252    0.337    0.433    4.992
  341.282   70.279    0.333    0.439    4.888
  341.532   69.285    0.331    0.442    4.902
  341.782   68.989    0.329    0.442    4.846
  342.032   68.144    0.328    0.440    4.821
  342.282   67.633    0.334    0.449    4.821
  342.532   66.651    0.328    0.468    4.807
  342.782   65.626    0.326    0.456    5.037
