~VERSION INFORMATION
 VERS.                 2.0:   CWLS LOG ASCII STANDARD -VERSION 2.0
 WRAP.                  NO:   ONE LINE PER DEPTH STEP
~WELL INFORMATION BLOCK
#MNEM.UNIT           DATA                    DESCRIPTION OF MNEMONIC
#---------    -------------------            -------------------------------
# Generated from Intellog Unique Number	CS_71_72/WELL/855
WELL.         PEX PHILLIPS AEC WIAU          : Well_name    - WELL
LOC .         00/10-13-071-08W4/0            : Location     - LOCATION
UWI .         00/10-13-071-08W4/0            : Uwi          - UNIQUE WELL ID
ENTR.         SP                             : Entered      - ENTERED BY
SRVC.         SCHLUMBERGER                   : Scn          - SERVICE COMPANY
STRT.M        305                            : top_depth    - START DEPTH
STOP.M        525                            : bot_depth    - STOP DEPTH
STEP.M        0.25                           : increment    - STEP LENGTH
 NULL. -999.2500:NULL Value
~CURVE INFORMATION BLOCK
#MNEM UNIT       ERCB CURVE CODE    CURVE DESCRIPTION
#-----------   ------------------   ----------------------------------
DEPT.M        00 001 00 00         : DEPTH        - DEPTH
ILD .OHMM     00 120 00 00         : RESD         - DEEP RESISTIVITY (DIL)
DPHI.V/V      00 890 00 00         : PHID         - DENSITY POROSITY (LIMESTONE)
NPHI.V/V      00 330 00 00         : PHIN         - NEUTRON POROSITY (LIMESTONE)
GR  .API      00 310 00 00         : GR           - GAMMA RAY
~PARAMETER INFORMATION
#MNEM.UNIT           DATA             DESCRIPTION OF MNEMONIC
#---------         -----------     ------------------------------
GL  .M        663.74               : gl           - GROUND LEVEL ELEVATION
EREF.M        666.7                : kb           - ELEVATION OF DEPTH REFERENCE
DATM.M        663.74               : datum        - DATUM ELEVATION
TDD .M        535                  : tdd          - TOTAL DEPTH DRILLER
RUN .         ONE                  : Run          - RUN NUMBER
ENG .         BILL                 : Engineer     - RECORDING ENGINEER
WIT .         JIM                  : Witness      - WITNESSED BY
MUD .         GEL                  : Mud_type     - MUD TYPE
MATR.         LIMESTONE            : Logunit      - NEUTRON MATRIX
TMAX.C        22                   : BHT          - MAXIMUM RECORDED TEMPERATURE
BHTD.M        535                  : BHTDEP       - MAXIMUM RECORDED TEMPERATURE
MATR.         1                    : LOGUNIT      - NEUTRON MATRIX
RMT .C        25                   : MDTP         - TEMPERATURE OF MUD
NEUT.         1                    : NEUTRON      - NEUTRON TYPE
RESI.         0                    : RESIST       - RESISTIVITY TYPE
RMC .OHMM     0.25                 : RMC          - RESISTIVITY OF MUD CAKE
RMF .OHMM     0.25                 : RMF          - RESISTIVITY OF MUD FILTRATE
SUFT.C        15                   : SUFT         - SURFACE TEMPERATURE
~A  DEPTH     RESD     PHID     PHIN       GR
# ...
  392.000    2.556    0.253    0.542  111.856
  392.250    2.606    0.257    0.545  111.183
  392.500    2.652    0.240    0.554  108.808
  392.750    2.679    0.243    0.564  110.747
  393.000    2.691    0.248    0.554  111.471
  393.250    2.719    0.257    0.549  108.975
  393.500    2.725    0.251    0.544  106.783
  393.750    2.742    0.250    0.536  105.745
  394.000    2.791    0.262    0.546  105.253
  394.250    2.867    0.273    0.545  103.547
  394.500    3.000    0.270    0.515  101.598
  394.750    3.181    0.265    0.506   99.407
  395.000    3.411    0.275    0.499   97.275
  395.250    3.616    0.268    0.483   97.939
  395.500    3.899    0.243    0.473  100.546
  395.750    4.276    0.242    0.467   99.447
  396.000    4.533    0.259    0.463   97.376
  396.250    4.762    0.246    0.462   95.974
  396.500    4.864    0.205    0.462   96.213
  396.750    4.867    0.224    0.468   95.722
  397.000    4.817    0.249    0.474   93.894
  397.250    4.793    0.244    0.466   92.978
  397.500    4.815    0.252    0.463   94.856
  397.750    4.836    0.246    0.466   97.706
  398.000    4.777    0.236    0.487   99.887
  398.250    4.640    0.229    0.480  101.401
  398.500    4.490    0.225    0.476  100.121
  398.750    4.410    0.217    0.487   95.803
  399.000    4.413    0.241    0.492   92.821
  399.250    4.551    0.232    0.483   92.877
  399.500    4.718    0.233    0.474   95.909
  399.750    4.855    0.232    0.469   97.605
  400.000    4.987    0.242    0.471   98.572
  400.250    5.018    0.244    0.480   98.689
  400.500    4.866    0.241    0.489   96.800
  400.750    4.545    0.258    0.505   94.730
  401.000    4.341    0.276    0.477   91.748
  401.250    4.200    0.254    0.461   91.317
  401.500    4.226    0.236    0.478   92.831
  401.750    4.350    0.235    0.489   94.709
  402.000    4.485    0.237    0.492   95.434
  402.250    4.598    0.249    0.473   94.760
  402.500    4.636    0.263    0.457   92.933
  402.750    4.614    0.257    0.472   90.496
  403.000    4.591    0.250    0.485   89.338
  403.250    4.681    0.261    0.483   87.936
  403.500    4.853    0.253    0.467   88.721
  403.750    5.107    0.232    0.451   91.328
  404.000    5.405    0.215    0.460   93.085
  404.250    5.689    0.215    0.453   94.902
  404.500    5.986    0.228    0.440   95.991
  404.750    6.288    0.235    0.429   94.284
  405.000    6.556    0.225    0.427   91.667
  405.250    6.811    0.223    0.448   90.630
  405.500    7.009    0.212    0.458   91.232
  405.750    7.199    0.213    0.468   93.778
  406.000    7.354    0.224    0.481   94.259
  406.250    7.456    0.224    0.494   92.918
  406.500    7.447    0.225    0.499   92.366
  406.750    7.467    0.232    0.482   94.001
  407.000    7.293    0.234    0.472   94.240
  407.250    6.686    0.235    0.466   92.230
  407.500    6.129    0.236    0.461   89.005
  407.750    5.854    0.238    0.455   88.999
  408.000    5.729    0.238    0.451   91.121
  408.250    5.786    0.238    0.450   92.695
  408.500    5.955    0.236    0.451   93.359
  408.750    6.139    0.235    0.461   91.592
  409.000    6.295    0.237    0.470   88.732
  409.250    6.418    0.251    0.481   87.814
  409.500    6.507    0.254    0.485   88.721
  409.750    6.573    0.248    0.483   91.144
  410.000    6.627    0.240    0.474   92.537
  410.250    6.633    0.250    0.467   93.930
  410.500    6.550    0.243    0.464   94.837
  410.750    6.458    0.239    0.460   95.804
  411.000    6.450    0.235    0.456   93.126
  411.250    6.467    0.231    0.455   88.686
  411.500    6.496    0.229    0.469   85.158
  411.750    6.537    0.229    0.478   84.545
  412.000    6.554    0.230    0.468   87.638
  412.250    6.583    0.230    0.462   90.610
  412.500    6.589    0.229    0.471   93.277
  412.750    6.568    0.227    0.479   95.216
  413.000    6.452    0.226    0.480   96.609
  413.250    6.325    0.229    0.480   97.638
  413.500    6.132    0.218    0.495   98.300
  413.750    5.846    0.212    0.492   97.748
  414.000    5.542    0.218    0.491   97.319
  414.250    5.157    0.231    0.504   97.192
  414.500    4.666    0.231    0.531   97.916
  414.750    4.246    0.256    0.554   99.915
  415.000    3.856    0.241    0.587  101.308
  415.250    3.529    0.230    0.600  101.485
  415.500    3.265    0.221    0.550  100.144
  415.750    3.142    0.212    0.511   99.713
  416.000    3.156    0.215    0.505   99.890
  416.250    3.217    0.220    0.497  100.066
  416.500    3.293    0.229    0.511   99.880
  416.750    3.332    0.240    0.519   99.389
  417.000    3.372    0.252    0.528   98.109
  417.250    3.419    0.254    0.537   95.673
  417.500    3.492    0.266    0.510   93.846
  417.750    3.675    0.238    0.474   92.626
  418.000    3.904    0.238    0.455   91.467
  418.250    4.116    0.235    0.477   89.517
  418.500    4.340    0.237    0.474   86.839
  418.750    4.551    0.246    0.475   83.918
  419.000    4.891    0.283    0.483   78.567
  419.250    4.929    0.296    0.480   75.403
  419.500    5.044    0.297    0.473   75.762
  419.750    5.133    0.284    0.469   79.827
  420.000    5.137    0.261    0.474   85.230
  420.250    5.036    0.245    0.493   88.809
  420.500    4.721    0.282    0.506   91.355
  420.750    4.385    0.290    0.507   92.322
  421.000    4.211    0.286    0.528   89.887
  421.250    4.106    0.296    0.525   84.536
  421.500    4.116    0.286    0.497   81.797
  421.750    4.244    0.304    0.481   80.699
  422.000    4.351    0.324    0.475   79.964
  422.250    4.412    0.312    0.466   79.291
  422.500    4.390    0.328    0.457   78.253
  422.750    4.296    0.337    0.459   76.728
  423.000    4.189    0.336    0.464   75.873
  423.250    4.091    0.331    0.468   75.322
  423.500    4.056    0.330    0.472   75.012
  423.750    4.044    0.332    0.471   75.555
  424.000    4.047    0.336    0.470   76.097
  424.250    4.080    0.332    0.469   75.909
  424.500    4.121    0.324    0.476   75.479
  424.750    4.194    0.318    0.485   75.109
  425.000    4.276    0.314    0.480   75.651
  425.250    4.442    0.315    0.474   78.136
  425.500    4.597    0.305    0.483   79.894
  425.750    4.713    0.290    0.476   82.319
  426.000    4.860    0.278    0.457   85.108
  426.250    4.982    0.284    0.444   87.777
  426.500    5.080    0.278    0.440   90.627
  426.750    5.140    0.258    0.437   93.174
  427.000    5.183    0.231    0.448   95.355
  427.250    5.196    0.223    0.462   96.201
  427.500    5.210    0.252    0.463   95.346
  427.750    5.252    0.250    0.448   92.729
  428.000    5.375    0.252    0.437   89.686
  428.250    5.500    0.249    0.430   88.162
  428.500    5.672    0.260    0.428   90.040
  428.750    5.815    0.267    0.426   93.194
  429.000    5.895    0.254    0.448   94.647
  429.250    5.944    0.245    0.468   93.548
  429.500    5.915    0.257    0.477   91.356
  429.750    5.810    0.274    0.460   89.286
  430.000    5.643    0.255    0.449   87.823
  430.250    5.460    0.242    0.455   90.126
  430.500    5.072    0.249    0.480   93.765
  430.750    4.667    0.251    0.498   95.706
  431.000    4.326    0.262    0.513   97.462
  431.250    4.109    0.258    0.482   97.153
  431.500    4.014    0.253    0.460   90.769
  431.750    3.986    0.261    0.478   88.577
  432.000    3.997    0.259    0.495   88.267
  432.250    4.022    0.252    0.493   88.871
  432.500    4.078    0.252    0.464   89.716
  432.750    4.197    0.239    0.455   90.927
  433.000    4.367    0.220    0.466   94.747
  433.250    4.580    0.225    0.483   96.445
  433.500    4.802    0.244    0.501  100.751
  433.750    4.904    0.275    0.518  102.145
  434.000    4.684    0.286    0.543  104.084
  434.250    3.890    0.266    0.572  105.234
  434.500    3.291    0.253    0.587  103.650
  434.750    2.683    0.244    0.567  101.457
  435.000    2.409    0.245    0.553  101.269
  435.250    2.297    0.262    0.552  101.508
