~VERSION INFORMATION
 VERS.                 2.0:   CWLS LOG ASCII STANDARD -VERSION 2.0
 WRAP.                  NO:   ONE LINE PER DEPTH STEP
~WELL INFORMATION BLOCK
#MNEM.UNIT           DATA                    DESCRIPTION OF MNEMONIC
#---------    -------------------            -------------------------------
# Generated from Intellog Unique Number	CW_76_78/WELL/2822
WELL.         PELICAN EAST 11-36             : Well_name    - WELL
LOC .         00/11-36-078-21W4/0            : Location     - LOCATION
UWI .         00/11-36-078-21W4/0            : Uwi          - UNIQUE WELL ID
ENTR.         JJ                             : Entered      - ENTERED BY
SRVC.         WESTERN ATLAS                  : Scn          - SERVICE COMPANY
DATE.         15 MAR 77                      : Date         - LOG DATE
STRT.M        198.12                         : top_depth    - START DEPTH
STOP.M        399.37                         : bot_depth    - STOP DEPTH
STEP.M        0.25                           : increment    - STEP LENGTH
 NULL. -999.2500:NULL Value
~CURVE INFORMATION BLOCK
#MNEM UNIT       ERCB CURVE CODE    CURVE DESCRIPTION
#-----------   ------------------   ----------------------------------
DEPT.M        00 001 00 00         : DEPTH        - DEPTH
ILD .OHMM     00 120 00 00         : RESD         - DEEP RESISTIVITY (DIL)
CALI.MM       00 280 01 00         : CAL          - CALIPER
GR  .API      00 310 00 00         : GR           - GAMMA RAY
NPHI.V/V      00 330 00 00         : PHIN         - NEUTRON POROSITY (SANDSTONE)
DPHI.V/V      00 890 00 00         : PHID         - DENSITY POROSITY (SANDSTONE)
~PARAMETER INFORMATION
#MNEM.UNIT           DATA             DESCRIPTION OF MNEMONIC
#---------         -----------     ------------------------------
GL  .M        561.35               : gl           - GROUND LEVEL ELEVATION
EREF.M        565.343              : kb           - ELEVATION OF DEPTH REFERENCE
DATM.M        565.343              : datum        - DATUM ELEVATION
TDD .M        508.406              : tdd          - TOTAL DEPTH DRILLER
RUN .         ONE                  : Run          - RUN NUMBER
ENG .         OFFORD               : Engineer     - RECORDING ENGINEER
BASE.         BROOKS               : Branch       - HOME BASE OF LOGGING UNIT
MATR.         SANDSTONE            : Logunit      - NEUTRON MATRIX
TMAX.C        20                   : BHT          - MAXIMUM RECORDED TEMPERATURE
BHTD.M        505.054              : BHTDEP       - MAXIMUM RECORDED TEMPERATURE
RMT .C        20                   : MDTP         - TEMPERATURE OF MUD
MUDD.KG/M     1044                 : MWT          - MUD DENSITY
NEUT.         1                    : NEUTRON      - NEUTRON TYPE
RESI.         0                    : RESIST       - RESISTIVITY TYPE
RM  .OHMM     9                    : RM           - RESISTIVITY OF MUD
RMC .OHMM     0                    : RMC          - RESISTIVITY OF MUD CAKE
RMF .OHMM     0                    : RMF          - RESISTIVITY OF MUD FILTRATE
SUFT.C        5                    : SUFT         - SURFACE TEMPERATURE
~A  DEPTH     RESD      CAL       GR     PHIN     PHID
# ...
  234.620   10.241  179.585   86.558    0.417    0.308
  234.870   10.605  180.689   84.924    0.423    0.323
  235.120   10.789  183.156   82.803    0.425    0.328
  235.370   10.795  185.073   80.925    0.415    0.339
  235.620   10.981  190.660   77.262    0.403    0.348
  235.870   11.455  197.702   71.444    0.404    0.377
  236.120   12.552  220.808   65.687    0.424    0.516
  236.370   12.977  259.874   60.237    0.438    0.508
  236.620   13.248  205.797   61.072    0.446    0.435
  236.870   13.475  194.693   61.968    0.448    0.354
  237.120   13.265  197.669   61.139    0.448    0.355
  237.370   13.036  198.876   60.064    0.448    0.356
  237.620   13.235  196.859   58.987    0.450    0.355
  237.870   14.088  194.401   58.410    0.457    0.358
  238.120   14.777  195.293   60.165    0.464    0.370
  238.370   15.587  192.743   62.912    0.464    0.377
  238.620   16.113  183.202   62.634    0.460    0.365
  238.870   16.781  180.243   60.702    0.464    0.356
  239.120   17.508  180.515   61.899    0.465    0.355
  239.370   18.068  180.557   64.766    0.458    0.353
  239.620   18.579  180.926   63.566    0.458    0.349
  239.870   18.931  181.927   59.475    0.444    0.349
  240.120   18.404  181.255   56.488    0.449    0.353
  240.370   17.922  179.118   55.227    0.451    0.360
  240.620   18.629  177.714   54.958    0.450    0.364
  240.870   19.506  177.766   55.232    0.449    0.366
  241.120   19.626  177.822   55.641    0.451    0.368
  241.370   19.569  177.052   56.162    0.443    0.371
  241.620   19.265  177.833   57.374    0.435    0.374
  241.870   18.794  182.373   58.016    0.429    0.375
  242.120   18.105  185.772   59.898    0.427    0.372
  242.370   17.504  183.425   62.269    0.417    0.367
  242.620   17.044  184.417   60.456    0.411    0.361
  242.870   16.480  188.025   56.798    0.408    0.359
  243.120   16.370  191.736   56.583    0.417    0.369
  243.370   16.235  191.683   57.976    0.424    0.392
  243.620   16.157  187.672   59.110    0.428    0.398
  243.870   15.848  181.364   59.086    0.428    0.352
  244.120   15.322  180.277   55.913    0.428    0.361
  244.370   14.625  186.690   56.071    0.425    0.366
  244.620   13.835  190.816   56.847    0.419    0.313
  244.870   13.112  187.535   57.992    0.411    0.338
  245.120   12.792  189.678   58.450    0.402    0.359
  245.370   12.987  192.131   57.623    0.394    0.369
  245.620   13.574  195.954   55.928    0.388    0.376
  245.870   14.552  196.007   53.870    0.383    0.384
  246.120   14.912  193.345   53.963    0.377    0.385
  246.370   14.893  176.398   55.597    0.366    0.362
  246.620   14.716  177.501   59.326    0.389    0.423
  246.870   13.945  198.104   62.626    0.411    0.354
  247.120   13.025  200.565   62.601    0.428    0.368
  247.370   12.525  198.011   61.891    0.440    0.371
  247.620   11.912  198.484   61.369    0.438    0.366
  247.870   11.985  202.197   60.972    0.433    0.374
  248.120   12.235  205.376   60.266    0.439    0.383
  248.370   12.422  204.072   60.363    0.450    0.382
  248.620   12.319  202.053   60.887    0.453    0.369
  248.870   11.781  202.212   58.949    0.450    0.360
  249.120   11.661  203.723   59.599    0.452    0.359
  249.370   11.903  204.925   58.707    0.457    0.361
  249.620   11.998  204.671   56.593    0.469    0.363
  249.870   11.833  203.061   56.434    0.460    0.369
  250.120   11.714  204.894   57.095    0.453    0.370
  250.370   11.980  208.394   57.428    0.459    0.374
  250.620   12.408  209.275   57.892    0.458    0.373
  250.870   12.735  209.019   57.800    0.453    0.372
  251.120   12.814  208.871   57.097    0.447    0.376
  251.370   12.706  210.383   58.426    0.443    0.380
  251.620   12.626  215.451   59.321    0.436    0.381
  251.870   12.495  218.112   59.843    0.431    0.373
  252.120   12.369  205.963   60.558    0.425    0.377
  252.370   12.331  207.484   61.514    0.425    0.370
  252.620   12.206  203.051   62.284    0.442    0.366
  252.870   11.843  201.961   61.455    0.450    0.365
  253.120   11.328  199.413   62.226    0.460    0.364
  253.370   11.152  203.237   63.492    0.462    0.364
  253.620   10.979  205.575   65.929    0.451    0.364
  253.870   10.905  207.403   65.963    0.437    0.364
  254.120   10.973  206.945   64.271    0.424    0.366
  254.370   11.059  206.265   63.875    0.411    0.365
  254.620   11.229  208.936   64.094    0.404    0.362
  254.870   11.568  212.322   62.893    0.419    0.359
  255.120   11.659  216.864   61.883    0.424    0.358
  255.370   11.437  220.994   62.466    0.422    0.364
  255.620   11.260  224.596   64.228    0.421    0.386
  255.870   11.085  222.352   64.633    0.438    0.403
  256.120   10.913  215.007   64.536    0.444    0.409
  256.370   10.764  215.278   64.204    0.437    0.416
  256.620   10.616  216.688   63.435    0.424    0.451
  256.870   10.545  218.940   60.018    0.411    0.441
  257.120   10.515  221.386   55.307    0.427    0.423
  257.370   10.541  222.694   55.038    0.442    0.397
  257.620   10.587  222.440   55.929    0.454    0.428
  257.870   10.631  221.866   55.962    0.457    0.455
  258.120   10.774  221.407   54.518    0.456    0.472
  258.370   10.959  220.420   55.417    0.455    0.466
  258.620   10.770  219.956   57.725    0.454    0.416
  258.870   10.077  220.110   59.607    0.450    0.409
  259.120    9.725  220.589   60.266    0.438    0.421
  259.370   10.164  221.069   60.854    0.437    0.429
  259.620   10.740  219.029   61.437    0.446    0.441
  259.870   11.328  212.727   62.020    0.444    0.362
  260.120   12.212  209.651   63.285    0.430    0.356
  260.370   12.785  210.127   66.397    0.418    0.360
  260.620   13.245  209.984   65.877    0.421    0.366
  260.870   13.423  209.723   68.446    0.429    0.369
  261.120   13.359  209.886   69.518    0.433    0.371
  261.370   13.200  210.871   70.289    0.439    0.373
  261.620   13.041  210.411   68.359    0.440    0.374
  261.870   12.748  209.836   67.281    0.442    0.376
  262.120   12.710  209.373   68.729    0.438    0.379
  262.370   12.556  208.698   69.316    0.444    0.381
  262.620   12.565  207.831   68.485    0.449    0.383
  262.870   12.461  206.838   71.352    0.447    0.387
  263.120   12.265  205.948   73.602    0.444    0.387
  263.370   11.521  204.336   72.473    0.441    0.383
  263.620   10.996  201.161   70.836    0.439    0.363
  263.870   11.043  198.508   68.962    0.437    0.347
  264.120   11.418  200.130   68.438    0.437    0.349
  264.370   11.571  203.102   68.663    0.440    0.357
  264.620   11.495  204.305   69.491    0.438    0.362
  264.870   11.215  201.648   69.217    0.444    0.362
  265.120   10.922  203.393   66.233    0.449    0.363
  265.370   10.850  205.846   64.664    0.438    0.364
  265.620   10.896  208.411   63.596    0.432    0.365
  265.870   11.085  210.964   63.316    0.440    0.368
  266.120   11.194  212.465   62.980    0.450    0.368
  266.370   11.323  212.940   63.322    0.458    0.369
  266.620   11.412  212.483   63.974    0.473    0.371
  266.870   11.401  211.809   64.619    0.482    0.371
  267.120   11.407  211.881   65.389    0.492    0.369
  267.370   11.435  211.615   64.129    0.490    0.369
  267.620   11.506  211.347   61.519    0.484    0.369
  267.870   11.640  211.207   61.491    0.474    0.370
  268.120   11.648  211.371   61.956    0.473    0.371
  268.370   11.699  211.096   62.727    0.476    0.371
  268.620   11.833  210.955   63.374    0.476    0.372
  268.870   12.058  210.795   64.274    0.472    0.372
  269.120   12.177  210.227   65.105    0.466    0.372
  269.370   12.317  209.769   66.127    0.461    0.371
  269.620   12.349  209.513   66.774    0.455    0.370
  269.870   12.246  209.566   67.299    0.453    0.370
  270.120   12.100  209.725   67.638    0.454    0.369
  270.370   11.976  209.998   67.428    0.450    0.368
  270.620   11.962  209.841   67.276    0.446    0.365
  270.870   11.756  209.788   67.738    0.439    0.361
