~VERSION INFORMATION
 VERS.                 2.0:   CWLS LOG ASCII STANDARD -VERSION 2.0
 WRAP.                  NO:   ONE LINE PER DEPTH STEP
~WELL INFORMATION BLOCK
#MNEM.UNIT           DATA                    DESCRIPTION OF MNEMONIC
#---------    -------------------            -------------------------------
# Generated from Intellog Unique Number	CC_80_83/WELL/2414
NULL.         -999.25                        : NULL_VALUE
WELL.         PEX HOUSE                      : Well_name    - WELL
LOC .         11-29-080-16W4                 : Location     - LOCATION          
UWI .         00/11-29-080-16W4/0            : Uwi          - UNIQUE WELL ID    
ENTR.         DW                             : Entered      - ENTERED BY        
SRVC.         SCHLUMBERGER                   : Scn          - SERVICE COMPANY   
DATE.         06 FEB 82                      : Date         - LOG DATE
STRT.M        155                            : top_depth    - START DEPTH       
STOP.M        340.098                        : bot_depth    - STOP DEPTH        
STEP.M        0.3                            : increment    - STEP LENGTH       
~CURVE INFORMATION BLOCK
#MNEM UNIT       ERCB CURVE CODE    CURVE DESCRIPTION
#-----------   ------------------   ----------------------------------
DEPT.M        00 001 00 00         : DEPTH        - DEPTH                       
DPHI.V/V      00 890 00 00         : PHID         - DENSITY POROSITY (LIMESTONE)
NPHI.V/V      00 330 00 00         : PHIN         - NEUTRON POROSITY (LIMESTONE)
GR  .API      00 310 00 00         : GR           - GAMMA RAY                   
ILD .OHMM     00 120 00 00         : RESD         - DEEP RESISTIVITY (DIL)      
~PARAMETER INFORMATION       
#MNEM.UNIT           DATA             DESCRIPTION OF MNEMONIC
#---------         -----------     ------------------------------
GL  .M        549.5                : gl           - GROUND LEVEL ELEVATION      
EREF.M        553.1                : kb           - ELEVATION OF DEPTH REFERENCE
DATM.M        553.1                : datum        - DATUM ELEVATION             
TDD .M        344                  : tdd          - TOTAL DEPTH DRILLER         
RUN .         ONE                  : Run          - RUN NUMBER                  
ENG .         BILL                 : Engineer     - RECORDING ENGINEER          
WIT .         JIM                  : Witness      - WITNESSED BY                
MUD .         GEL                  : Mud_type     - MUD TYPE                    
MATR.         LIMESTONE            : Logunit      - NEUTRON MATRIX              
TMAX.C        24.4                 : BHT          - MAXIMUM RECORDED TEMPERATURE
BHTD.M        344                  : BHTDEP       - MAXIMUM RECORDED TEMPERATURE
MATR.         1                    : LOGUNIT      - NEUTRON MATRIX              
RMT .C        25                   : MDTP         - TEMPERATURE OF MUD          
NEUT.         1                    : NEUTRON      - NEUTRON TYPE                
RESI.         0                    : RESIST       - RESISTIVITY TYPE            
RMC .OHMM     0.25                 : RMC          - RESISTIVITY OF MUD CAKE     
RMF .OHMM     0.25                 : RMF          - RESISTIVITY OF MUD FILTRATE 
SUFT.C        15                   : SUFT         - SURFACE TEMPERATURE         
~A  DEPTH     PHID     PHIN       GR     RESD
# ...
  259.401    0.312    0.427   60.240    9.968
  259.701    0.311    0.418   66.917    9.970
  260.001    0.310    0.446   64.454    9.789
  260.301    0.304    0.464   63.814    9.610
  260.601    0.305    0.454   66.838    9.613
  260.901    0.311    0.467   64.371    9.614
  261.201    0.298    0.451   62.519    9.440
  261.501    0.298    0.428   70.420    9.441
  261.801    0.294    0.428   75.272    9.444
  262.101    0.154    0.451   69.147   10.177
  262.401    0.000    0.347   58.753   15.050
  262.701    0.000    0.123   48.357   25.358
  263.001    0.032    0.147   49.555   22.264
  263.301    0.102    0.194   54.406   17.482
  263.601    0.168    0.250   61.083   14.787
  263.901    0.261    0.309   64.714   12.051
  264.201    0.311    0.404   67.121   12.054
  264.501    0.314    0.410   67.708   13.993
  264.801    0.278    0.409   63.417   18.508
  265.101    0.006    0.396   55.464   21.090
  265.401    0.033    0.144   51.780   20.705
  265.701    0.124    0.152   52.969   16.563
  266.001    0.163    0.276   62.704   13.249
  266.301    0.274    0.327   70.601   10.797
  266.601    0.302    0.418   69.962   10.405
  266.901    0.309    0.427   63.230   11.424
  267.201    0.310    0.426   61.377   12.777
  267.501    0.221    0.421   58.300   14.561
  267.801    0.036    0.174   52.783   14.837
  268.101    0.101    0.172   55.807   14.299
  268.401    0.180    0.287   64.315   14.037
  268.701    0.257    0.363   69.169   11.874
  269.000    0.281    0.430   69.136    9.677
  269.300    0.279    0.438   67.281    9.154
  269.600    0.288    0.445   66.034    8.986
  269.900    0.292    0.461   67.840    9.159
  270.200    0.280    0.473   70.252    9.161
  270.500    0.275    0.463   73.279    9.334
  270.800    0.281    0.421   74.465    9.336
  271.100    0.293    0.416   73.220    9.167
  271.400    0.280    0.440   70.152    9.169
  271.700    0.269    0.440   67.073    9.343
  272.000    0.275    0.431   70.089    9.346
  272.300    0.277    0.422   75.552    9.175
  272.600    0.274    0.415   76.140    8.679
  272.900    0.263    0.420   78.550    8.058
  273.200    0.244    0.427   83.404    7.343
  273.500    0.230    0.432   90.084    5.874
  273.800    0.221    0.460   93.109    5.767
  274.100    0.224    0.470   95.515    5.769
  274.400    0.225    0.471   94.274    6.101
  274.700    0.226    0.457   88.760    6.824
  275.000    0.219    0.432   86.897    7.353
  275.300    0.216    0.426   89.924    7.356
  275.600    0.214    0.428   96.607    7.222
  275.900    0.206    0.445   91.091    7.090
  276.200    0.206    0.470   92.892    6.962
  276.500    0.203    0.459   96.519    6.963
  276.800    0.197    0.452  101.374    7.229
  277.100    0.195    0.436  100.732    7.366
  277.400    0.194    0.427   97.653    7.368
  277.700    0.218    0.457   97.026    6.841
  278.000    0.206    0.452   98.223    6.351
  278.300    0.201    0.463   98.805    6.235
  278.600    0.199    0.456   96.945    6.595
  278.900    0.196    0.450   88.997    8.403
  279.200    0.187    0.433   84.700   10.909
  279.500    0.170    0.411   85.281   11.757
  279.800    0.167    0.385   92.576   11.541
  280.100    0.187    0.398   90.710   10.716
  280.400    0.197    0.449   90.084    8.414
  280.700    0.198    0.428   94.324    7.526
  281.000    0.203    0.422  100.392    7.119
  281.300    0.198    0.405  102.798    6.860
  281.600    0.177    0.403  102.169    6.862
  281.900    0.165    0.443   93.607    6.864
  282.200    0.184    0.453   82.599    7.535
  282.500    0.158    0.426   77.698    8.747
  282.800    0.236    0.352   75.234    9.968
  283.100    0.247    0.394   75.207   10.543
  283.400    0.231    0.424   73.955   10.546
  283.700    0.224    0.416   76.982    9.976
  284.000    0.247    0.414   76.349    9.613
  284.300    0.253    0.414   75.098    9.093
  284.600    0.240    0.407   78.122    8.928
  284.900    0.206    0.405   84.196    8.765
  285.200    0.218    0.417   92.095    8.766
  285.500    0.230    0.434   85.357    8.607
  285.800    0.229    0.434   82.284    8.450
  286.100    0.211    0.434   82.865    8.143
  286.400    0.215    0.432   81.619    7.703
  286.700    0.211    0.448   78.541    7.704
  287.000    0.108    0.455   77.288    8.149
  287.300    0.150    0.444   78.496    8.460
  287.600    0.217    0.362   86.393    8.463
  287.900    0.237    0.374   93.074    8.465
  288.200    0.246    0.403   83.898    8.467
  288.500    0.245    0.436   81.427    8.468
  288.800    0.245    0.454   81.406    8.471
  289.100    0.251    0.437   81.377    8.632
  289.400    0.243    0.419   83.184    8.961
  289.700    0.232    0.436   82.550   11.208
  290.000    0.222    0.468   77.637   14.018
  290.300    0.047    0.475   66.644   14.553
  290.600    0.092    0.221   61.128   14.025
  290.900    0.143    0.217   67.194   11.219
  291.200    0.214    0.308   72.662    8.486
  291.500    0.255    0.395   77.513    7.592
  291.800    0.254    0.436   78.091    7.453
  292.100    0.250    0.474   77.459    7.455
  292.400    0.246    0.485   79.869    7.596
  292.700    0.237    0.429   73.747    7.742
  293.000    0.248    0.439   74.931    7.600
  293.299    0.244    0.430   75.520    7.324
  293.599    0.241    0.439   71.825    6.928
  293.899    0.243    0.434   70.588    6.802
  294.199    0.247    0.429   73.610    6.803
  294.499    0.250    0.439   76.636    6.933
  294.799    0.251    0.439   76.610    7.198
  295.099    0.251    0.430   77.796    7.335
  295.399    0.249    0.427   79.603    7.336
  295.699    0.232    0.448   78.969    7.476
  295.999    0.227    0.453   77.108    7.340
  296.299    0.234    0.420   77.080    7.073
  296.599    0.237    0.387   78.279    6.816
  296.899    0.231    0.413   80.076    6.448
  297.199    0.216    0.424   81.272    6.449
  297.499    0.207    0.442   81.851    6.451
  297.799    0.207    0.423   83.047    6.573
  298.099    0.197    0.419   85.458    6.575
  298.399    0.203    0.424   87.875    5.259
  298.699    0.204    0.424   92.115    4.449
  298.999    0.202    0.442   96.355    4.055
  299.299    0.200    0.473   98.156    4.131
  299.599    0.175    0.479   98.126    4.887
  299.899    0.197    0.482   99.327    5.780
  300.199    0.189    0.461  101.130    6.964
  300.499    0.162    0.433   87.080    8.237
  300.799    0.159    0.420   87.049    8.876
  301.099    0.193    0.409   93.122    9.565
  301.399    0.209    0.400   87.607    9.747
  301.699    0.218    0.428   82.088    9.749
  301.999    0.212    0.421   81.458    9.752
  302.299    0.217    0.403   80.819   10.509
  302.599    0.212    0.434   79.570   10.909
  302.899    0.176    0.438   78.328   11.327
  303.199    0.161    0.418   80.132   11.121
  303.499    0.176    0.382   87.423   10.918
  303.799    0.183    0.418   91.660   10.719
  304.099    0.183    0.438   92.246   10.524
  304.399    0.180    0.438   88.556   10.926
  304.699    0.185    0.424   85.481   10.928
  304.999    0.196    0.406   84.234   10.931
  305.299    0.201    0.417   84.823   11.140
  305.599    0.196    0.412   89.674   11.142
  305.899    0.183    0.400   92.697   11.568
  306.199    0.179    0.390   91.448   11.787
  306.499    0.194    0.413   87.147   12.012
  306.799    0.174    0.402   85.299   12.016
  307.099    0.140    0.387   84.661   11.795
  307.399    0.146    0.379   87.684   10.952
  307.699    0.166    0.384  101.073    9.615
  307.999    0.183    0.411  109.584    7.692
  308.299    0.187    0.417  111.994    6.628
  308.599    0.179    0.398  104.652    5.713
  308.899    0.181    0.387   96.696    5.403
  309.199    0.205    0.392   89.952    5.017
  309.499    0.233    0.405   86.880    3.939
  309.799    0.263    0.472   82.593    2.428
  310.099    0.273    0.557   78.908    2.384
  310.399    0.252    0.574   72.175    3.869
  310.699    0.228    0.573   62.997    5.411
  310.999    0.217    0.481   63.586    6.643
  311.299    0.223    0.390   69.654    8.005
