~VERSION INFORMATION
 VERS.                 2.0:   CWLS LOG ASCII STANDARD -VERSION 2.0
 WRAP.                  NO:   ONE LINE PER DEPTH STEP
~WELL INFORMATION BLOCK
#MNEM.UNIT           DATA                    DESCRIPTION OF MNEMONIC
#---------    -------------------            -------------------------------
# Generated from Intellog Unique Number	CS_77_79/WELL/972
WELL.         BRALORNE RESOURCES LIMITED     : Well_name    - WELL
LOC .         00/10-27-077-15W4/0            : Location     - LOCATION
UWI .         00/10-27-077-15W4/0            : Uwi          - UNIQUE WELL ID
ENTR.         SP                             : Entered      - ENTERED BY
SRVC.         SCHLUMBERGER                   : Scn          - SERVICE COMPANY
STRT.M        275                            : top_depth    - START DEPTH
STOP.M        535                            : bot_depth    - STOP DEPTH
STEP.M        0.25                           : increment    - STEP LENGTH
 NULL. -999.2500:NULL Value
~CURVE INFORMATION BLOCK
#MNEM UNIT       ERCB CURVE CODE    CURVE DESCRIPTION
#-----------   ------------------   ----------------------------------
DEPT.M        00 001 00 00         : DEPTH        - DEPTH
ILD .OHMM     00 120 00 00         : RESD         - DEEP RESISTIVITY (DIL)
DPHI.V/V      00 890 00 00         : PHID         - DENSITY POROSITY (LIMESTONE)
NPHI.V/V      00 330 00 00         : PHIN         - NEUTRON POROSITY (LIMESTONE)
GR  .API      00 310 00 00         : GR           - GAMMA RAY
~PARAMETER INFORMATION
#MNEM.UNIT           DATA             DESCRIPTION OF MNEMONIC
#---------         -----------     ------------------------------
GL  .M        669.41               : gl           - GROUND LEVEL ELEVATION
EREF.M        673.69               : kb           - ELEVATION OF DEPTH REFERENCE
DATM.M        669.41               : datum        - DATUM ELEVATION
TDD .M        552                  : tdd          - TOTAL DEPTH DRILLER
RUN .         ONE                  : Run          - RUN NUMBER
ENG .         BILL                 : Engineer     - RECORDING ENGINEER
WIT .         JIM                  : Witness      - WITNESSED BY
MUD .         GEL                  : Mud_type     - MUD TYPE
MATR.         LIMESTONE            : Logunit      - NEUTRON MATRIX
TMAX.C        25                   : BHT          - MAXIMUM RECORDED TEMPERATURE
BHTD.M        552                  : BHTDEP       - MAXIMUM RECORDED TEMPERATURE
MATR.         1                    : LOGUNIT      - NEUTRON MATRIX
RMT .C        25                   : MDTP         - TEMPERATURE OF MUD
NEUT.         1                    : NEUTRON      - NEUTRON TYPE
RESI.         0                    : RESIST       - RESISTIVITY TYPE
RMC .OHMM     0.25                 : RMC          - RESISTIVITY OF MUD CAKE
RMF .OHMM     0.25                 : RMF          - RESISTIVITY OF MUD FILTRATE
SUFT.C        15                   : SUFT         - SURFACE TEMPERATURE
~A  DEPTH     RESD     PHID     PHIN       GR
# ...
  405.500    6.145    0.275    0.475   87.953
  405.750    6.034    0.288    0.481   87.943
  406.000    5.925    0.269    0.493   87.937
  406.250    5.818    0.263    0.496   87.927
  406.500    5.713    0.253    0.500   89.132
  406.750    5.610    0.249    0.496   90.946
  407.000    5.612    0.255    0.495   92.155
  407.250    5.613    0.256    0.481   93.357
  407.500    5.512    0.250    0.481   93.958
  407.750    5.413    0.243    0.486   94.558
  408.000    5.415    0.251    0.489   93.942
  408.250    5.416    0.266    0.491   92.719
  408.500    5.623    0.276    0.503   90.282
  408.750    5.838    0.288    0.505   87.845
  409.000    6.062    0.294    0.500   84.801
  409.250    6.177    0.288    0.514   82.364
  409.500    6.179    0.275    0.528   82.353
  409.750    6.067    0.278    0.526   82.346
  410.000    5.958    0.285    0.510   82.947
  410.250    5.850    0.300    0.498   78.079
  410.500    5.962    0.295    0.503   73.213
  410.750    5.965    0.304    0.505   68.955
  411.000    6.078    0.314    0.528   65.304
  411.250    6.194    0.346    0.526   63.474
  411.500    6.431    0.353    0.510   62.248
  411.750    6.432    0.350    0.499   61.633
  412.000    6.555    0.348    0.490   61.625
  412.250    6.806    0.353    0.482   61.011
  412.500    7.333    0.354    0.469   59.786
  412.750    7.756    0.351    0.462   59.780
  413.000    8.204    0.347    0.463   60.987
  413.250    8.517    0.353    0.458   60.976
  413.500    8.520    0.362    0.455   60.363
  413.750    8.212    0.362    0.451   59.746
  414.000    7.770    0.352    0.450   59.129
  414.250    7.629    0.346    0.451   58.513
  414.500    7.492    0.338    0.453   57.900
  414.750    7.357    0.336    0.467   57.887
  415.000    7.223    0.344    0.461   57.883
  415.250    7.227    0.347    0.452   57.875
  415.500    7.230    0.343    0.451   57.866
  415.750    7.368    0.351    0.454   59.072
  416.000    7.371    0.356    0.454   59.671
  416.250    7.373    0.350    0.456   60.268
  416.500    7.376    0.341    0.467   60.260
  416.750    7.378    0.343    0.466   59.647
  417.000    7.380    0.344    0.458   59.637
  417.250    7.382    0.345    0.449   59.022
  417.500    7.248    0.343    0.444   58.403
  417.750    6.858    0.340    0.450   59.004
  418.000    6.861    0.340    0.461   59.605
  418.250    6.863    0.335    0.469   59.595
  418.500    6.865    0.338    0.473   58.979
  418.750    6.868    0.342    0.473   57.756
  419.000    6.870    0.344    0.483   57.142
  419.250    6.872    0.339    0.489   57.741
  419.500    6.875    0.334    0.480   58.945
  419.750    6.878    0.334    0.468   60.151
  420.000    6.880    0.332    0.461   60.753
  420.250    7.013    0.331    0.468   62.564
  420.500    6.158    0.336    0.467   62.558
  420.750    6.048    0.334    0.465   60.119
  421.000    6.049    0.330    0.482   60.112
  421.250    5.940    0.328    0.484   61.316
  421.500    5.942    0.333    0.483   61.915
  421.750    6.057    0.337    0.474   61.300
  422.000    6.058    0.338    0.461   59.472
  422.250    6.060    0.337    0.449   57.638
  422.500    6.063    0.338    0.441   58.239
  422.750    6.064    0.345    0.437   58.840
  423.000    6.067    0.345    0.442   60.047
  423.250    6.068    0.344    0.446   61.853
  423.500    6.070    0.344    0.463   63.062
  423.750    5.962    0.343    0.466   63.663
  424.000    6.075    0.342    0.460   64.263
  424.250    6.077    0.339    0.467   61.826
  424.500    6.080    0.337    0.477   61.206
  424.750    6.082    0.336    0.475   61.199
  425.000    6.197    0.338    0.474   61.799
  425.250    6.316    0.360    0.472   62.400
  425.500    6.318    0.358    0.468   61.785
  425.750    6.439    0.355    0.460   56.916
  426.000    6.563    0.353    0.452   56.302
  426.250    6.688    0.338    0.447   56.898
  426.500    6.943    0.322    0.442   56.889
  426.750    8.207    0.313    0.439   56.883
  427.000    9.009    0.303    0.423   54.445
  427.250   10.264    0.084    0.406   51.402
  427.500   11.266    0.035    0.236   47.751
  427.750   11.697    0.044    0.169   45.920
  428.000   12.144    0.044    0.170   45.911
  428.250   11.924    0.040    0.176   47.726
  428.500   10.282    0.049    0.178   50.145
  428.750    8.542    0.062    0.200   51.354
  429.000    7.365    0.098    0.244   56.201
  429.250    6.715    0.137    0.312   62.873
  429.500    6.472    0.211    0.372   65.293
  429.750    6.356    0.269    0.458   65.890
  430.000    6.240    0.324    0.474   65.885
  430.250    6.243    0.337    0.474   64.663
  430.500    6.245    0.341    0.474   62.833
  430.750    6.365    0.339    0.474   63.428
  431.000    6.367    0.348    0.473   64.636
  431.250    6.251    0.340    0.476   64.626
  431.500    6.254    0.341    0.484   64.621
  431.750    6.255    0.345    0.485   60.967
  432.000    6.496    0.330    0.485   62.171
  432.250    6.743    0.329    0.480   62.166
  432.500    7.000    0.330    0.478   60.336
  432.750    7.828    0.326    0.461   57.291
  433.000    9.085    0.332    0.441   54.247
  433.250    9.789    0.280    0.390   52.418
  433.500    9.976    0.228    0.342   49.370
  433.750    9.796    0.161    0.286   50.579
  434.000    8.930    0.125    0.227   52.388
  434.250    7.992    0.161    0.334   54.809
  434.500    7.422    0.230    0.423   56.625
  434.750    6.766    0.317    0.472   58.438
  435.000    6.521    0.349    0.467   59.647
  435.250    6.286    0.358    0.467   60.852
  435.500    6.288    0.350    0.469   60.844
  435.750    6.175    0.350    0.477   59.621
  436.000    6.177    0.351    0.484   60.221
  436.250    6.179    0.346    0.492   62.032
  436.500    6.416    0.338    0.497   63.843
  436.750    6.661    0.329    0.496   64.446
  437.000    6.788    0.328    0.488   64.435
  437.250    7.047    0.327    0.482   64.428
  437.500    7.181    0.311    0.462   63.207
  437.750    7.052    0.292    0.447   57.125
  438.000    6.673    0.274    0.427   57.723
  438.250    6.551    0.297    0.444   58.932
  438.500    6.553    0.325    0.453   60.741
  438.750    6.557    0.340    0.456   61.343
  439.000    6.558    0.343    0.458   62.550
  439.250    6.684    0.350    0.461   64.360
  439.500    6.563    0.354    0.471   63.745
  439.750    6.566    0.350    0.476   63.738
  440.000    6.567    0.353    0.482   64.337
  440.250    6.450    0.347    0.482   66.152
  440.500    6.451    0.341    0.475   65.533
  440.750    6.453    0.336    0.469   63.700
  441.000    6.336    0.337    0.461   63.086
  441.250    6.223    0.337    0.459   63.687
  441.500    6.225    0.333    0.463   64.896
  441.750    6.112    0.333    0.467   66.099
  442.000    6.115    0.332    0.469   67.307
  442.250    6.116    0.325    0.482   67.903
  442.500    6.118    0.320    0.493   68.505
  442.750    6.121    0.321    0.498   70.313
  443.000    6.237    0.317    0.480   72.129
  443.250    6.240    0.307    0.467   73.338
  443.500    6.358    0.301    0.474   75.149
  443.750    6.361    0.311    0.474   77.571
  444.000    6.363    0.315    0.480   80.598
  444.250    6.249    0.302    0.484   81.196
  444.500    6.250    0.291    0.471   81.191
  444.750    6.137    0.289    0.484   82.396
  445.000    5.916    0.293    0.503   84.813
  445.250    5.809    0.294    0.507   86.021
  445.500    5.599    0.278    0.503   87.835
  445.750    5.397    0.264    0.497   91.467
  446.000    5.398    0.250    0.488   93.282
  446.250    5.400    0.253    0.498   94.491
  446.500    5.402    0.258    0.504   96.909
  446.750    5.609    0.244    0.497   98.723
  447.000    5.823    0.244    0.508   99.323
  447.250    5.934    0.243    0.493   98.708
  447.500    5.936    0.240    0.483   95.663
  447.750    5.938    0.238    0.464   95.046
  448.000    5.832    0.218    0.463   94.432
  448.250    5.943    0.212    0.469   93.209
  448.500    5.945    0.217    0.475   90.772
  448.750    6.058    0.205    0.480   88.941
