~VERSION INFORMATION
 VERS.                 2.0:   CWLS LOG ASCII STANDARD -VERSION 2.0
 WRAP.                  NO:   ONE LINE PER DEPTH STEP
~WELL INFORMATION BLOCK
#MNEM.UNIT           DATA                    DESCRIPTION OF MNEMONIC
#---------    -------------------            -------------------------------
# Generated from Intellog Unique Number	CW_79_81/WELL/903
WELL.         11-12-079-25W4                 : Well_name    - WELL
LOC .         00/11-12-079-25W4/0            : Location     - LOCATION
UWI .         00/11-12-079-25W4/0            : Uwi          - UNIQUE WELL ID
ENTR.         MAX                            : Entered      - ENTERED BY
SRVC.         SCHLUMBERGER                   : Scn          - SERVICE COMPANY
STRT.M        240                            : top_depth    - START DEPTH
STOP.M        455                            : bot_depth    - STOP DEPTH
STEP.M        0.25                           : increment    - STEP LENGTH
 NULL. -999.2500:NULL Value
~CURVE INFORMATION BLOCK
#MNEM UNIT       ERCB CURVE CODE    CURVE DESCRIPTION
#-----------   ------------------   ----------------------------------
DEPT.M        00 001 00 00         : DEPTH        - DEPTH
ILD .OHMM     00 120 00 00         : RESD         - DEEP RESISTIVITY (DIL)
NPHI.V/V      00 330 00 00         : PHIN         - NEUTRON POROSITY (SANDSTONE)
DPHI.V/V      00 890 00 00         : PHID         - DENSITY POROSITY (SANDSTONE)
CALI.MM       00 280 01 00         : CAL          - CALIPER
GR  .API      00 310 00 00         : GR           - GAMMA RAY
~PARAMETER INFORMATION
#MNEM.UNIT           DATA             DESCRIPTION OF MNEMONIC
#---------         -----------     ------------------------------
GL  .M        559.5                : gl           - GROUND LEVEL ELEVATION
EREF.M        563                  : kb           - ELEVATION OF DEPTH REFERENCE
DATM.M        559.5                : datum        - DATUM ELEVATION
TDD .M        455                  : tdd          - TOTAL DEPTH DRILLER
RUN .         ONE                  : Run          - RUN NUMBER
ENG .         BILL                 : Engineer     - RECORDING ENGINEER
WIT .         JIM                  : Witness      - WITNESSED BY
MUD .         GEL                  : Mud_type     - MUD TYPE
MATR.         SANDSTONE            : Logunit      - NEUTRON MATRIX
TMAX.C        27.2                 : BHT          - MAXIMUM RECORDED TEMPERATURE
BHTD.M        455                  : BHTDEP       - MAXIMUM RECORDED TEMPERATURE
RMT .C        12.2                 : MDTP         - TEMPERATURE OF MUD
MUDD.KG/M     1080                 : MWT          - MUD DENSITY
NEUT.         1                    : NEUTRON      - NEUTRON TYPE
RESI.         0                    : RESIST       - RESISTIVITY TYPE
RM  .OHMM     5.14                 : RM           - RESISTIVITY OF MUD
RMC .OHMM     0                    : RMC          - RESISTIVITY OF MUD CAKE
RMF .OHMM     5.24                 : RMF          - RESISTIVITY OF MUD FILTRATE
SUFT.C        -20                  : SUFT         - SURFACE TEMPERATURE
~A  DEPTH     RESD     PHIN     PHID      CAL       GR
  240.000    3.288    0.470    0.231  231.792   97.460
  240.250    4.259    0.460    0.229  232.838   88.463
  240.500    5.778    0.424    0.183  235.888   71.342
  240.750    6.639    0.352    0.184  237.931   59.638
  241.000    6.581    0.350    0.215  238.475   62.073
  241.250    5.228    0.423    0.194  235.511   73.826
  241.500    3.965    0.490    0.189  232.050   87.088
  241.750    3.391    0.499    0.204  231.091   95.538
  242.000    2.982    0.496    0.210  230.632   94.960
  242.250    2.771    0.480    0.225  230.675   94.387
  242.500    2.798    0.470    0.240  232.233   91.402
  242.750    3.013    0.512    0.247  233.262   90.228
  243.000    4.524    0.513    0.248  234.815   86.040
  243.250    7.049    0.477    0.253  235.364   77.043
  243.500   11.714    0.441    0.270  233.402   71.655
  243.750   14.225    0.418    0.291  230.432   68.673
  244.000   15.463    0.434    0.301  229.979   68.401
  244.250   16.656    0.420    0.302  231.025   65.416
  244.500   17.612    0.415    0.299  231.073   62.434
  244.750   18.624    0.422    0.294  231.106   58.854
  245.000   19.877    0.439    0.287  231.650   58.880
  245.250   19.877    0.433    0.287  231.698   59.203
  245.500   20.263    0.410    0.303  231.235   58.334
  245.750   25.300    0.414    0.304  231.278   58.052
  246.000   26.503    0.418    0.305  231.321   57.780
  246.250   27.269    0.408    0.310  231.364   57.205
  246.500   31.034    0.449    0.310  231.412   57.832
  246.750   33.426    0.467    0.300  231.460   58.155
  247.000   35.019    0.467    0.307  231.493   57.880
  247.250   38.779    0.462    0.306  231.536   57.906
  247.500   42.547    0.445    0.303  231.589   58.233
  247.750   48.884    0.435    0.304  232.128   57.958
  248.000   55.138    0.423    0.303  232.177   57.984
  248.250   60.498    0.408    0.292  232.726   58.019
  248.500   59.416    0.360    0.255  233.761   58.038
  248.750   55.725    0.218    0.149  235.809   52.046
  249.000   50.372    0.236    0.053  236.354   49.969
  249.250   47.241    0.401    0.088  233.890   53.905
  249.500   43.496    0.406    0.269  231.427   57.841
  249.750   40.050    0.274    0.224  232.472   55.761
  250.000   37.560    0.236    0.136  231.513   50.978
  250.250   36.220    0.357    0.182  231.060   50.700
  250.500   35.570    0.409    0.270  233.103   52.233
  250.750   35.586    0.425    0.285  233.647   55.564
  251.000   36.942    0.427    0.288  233.695   57.100
  251.250   40.907    0.431    0.285  234.234   56.220
  251.500   46.141    0.426    0.269  235.296   55.344
  251.750   52.527    0.397    0.237  235.339   57.475
  252.000   54.026    0.377    0.221  235.382   57.498
  252.250   52.094    0.392    0.223  234.918   55.421
  252.500   48.861    0.420    0.269  233.964   55.143
  252.750   45.823    0.424    0.298  233.501   58.183
  253.000   42.582    0.420    0.309  233.538   58.506
  253.250   39.570    0.418    0.307  234.088   56.430
  253.500   37.110    0.419    0.308  233.134   53.445
  253.750   34.485    0.412    0.303  232.665   51.967
  254.000   31.172    0.410    0.304  232.713   55.903
  254.250   24.993    0.409    0.308  232.751   56.831
  254.500   23.223    0.404    0.311  232.799   55.356
  254.750   21.581    0.407    0.313  232.837   54.777
  255.000   20.428    0.414    0.312  232.891   54.505
  255.250   18.296    0.413    0.309  232.928   55.129
  255.500   14.400    0.412    0.300  233.467   55.757
  255.750   10.053    0.390    0.275  235.019   59.696
  256.000    8.285    0.393    0.261  237.569   65.436
  256.250    5.323    0.422    0.237  237.617   73.883
  256.500    5.228    0.425    0.214  236.663   75.416
  256.750    6.233    0.388    0.204  236.199   67.919
  257.000    7.639    0.357    0.230  236.242   59.825
  257.250   10.752    0.343    0.273  236.318   46.316
  257.500   16.905    0.333    0.279  236.328   45.136
  257.750   20.913    0.349    0.287  235.865   45.766
  258.000   21.509    0.367    0.298  234.911   51.510
  258.250   20.933    0.365    0.324  233.946   53.039
  258.500   19.997    0.397    0.325  233.493   51.862
  258.750   18.413    0.431    0.326  233.029   56.998
  259.000   17.110    0.417    0.324  232.576   54.016
  259.250   16.650    0.399    0.330  232.614   49.533
  259.500   16.505    0.409    0.331  232.161   49.860
  259.750   16.505    0.407    0.312  231.697   52.292
  260.000   16.521    0.394    0.307  231.751   54.423
  260.250   16.991    0.400    0.302  231.293   52.340
  260.500   18.472    0.422    0.308  231.336   49.061
  260.750   19.531    0.409    0.235  230.878   46.978
  261.000   20.087    0.376    0.216  230.921   46.102
  261.250   20.096    0.366    0.218  230.958   47.030
  261.500   19.201    0.401    0.270  231.001   55.784
  261.750   15.111    0.407    0.296  231.050   60.017
  262.000   10.356    0.418    0.293  233.604   70.874
  262.250    8.380    0.415    0.268  234.639   83.832
  262.500    6.657    0.393    0.238  234.693   89.573
  262.750    6.243    0.418    0.206  234.229   85.391
  263.000    6.243    0.418    0.224  233.264   81.504
  263.250    6.136    0.426    0.236  232.812   81.232
  263.500    6.194    0.435    0.244  232.353   83.965
  263.750    6.371    0.429    0.240  232.903   87.897
  264.000    6.553    0.419    0.224  233.442   91.836
  264.250    6.318    0.424    0.222  234.493   91.862
  264.500    6.092    0.431    0.223  236.040   85.268
  264.750    6.151    0.416    0.211  235.587   82.590
  265.000    6.626    0.377    0.201  235.118   90.135
  265.250    7.972    0.384    0.243  235.166   97.379
  265.500    9.160    0.397    0.238  239.225   99.209
  265.750    9.958    0.396    0.209  240.259   97.431
  266.000   10.055    0.394    0.214  240.302  100.765
  266.250   10.055    0.373    0.217  238.842  104.403
  266.500    9.882    0.381    0.208  235.893  101.722
  266.750    9.703    0.404    0.207  235.424   96.932
  267.000   10.355    0.400    0.211  235.467   82.525
  267.250   12.692    0.374    0.233  235.510   75.329
  267.500   14.992    0.380    0.274  235.559   56.103
  267.750   16.149    0.382    0.306  234.594   51.918
  268.000   16.306    0.358    0.319  233.629   60.064
  268.250   15.866    0.356    0.295  232.675   69.718
  268.500   14.881    0.368    0.269  232.712   79.371
  268.750   12.494    0.377    0.274  232.761   91.124
  269.000   10.109    0.386    0.241  235.315  102.882
  269.250    8.566    0.417    0.222  237.870  106.520
  269.500    7.192    0.423    0.219  238.905  103.839
  269.750    6.323    0.415    0.221  239.455   95.745
  270.000    5.931    0.404    0.222  239.498   88.248
  270.250    5.825    0.406    0.215  239.034   80.752
  270.500    5.936    0.409    0.190  237.573   76.266
  270.750    7.208    0.406    0.188  234.609   74.186
  271.000    8.131    0.401    0.235  232.647   71.806
  271.250   11.339    0.384    0.267  232.194   69.426
  271.500   11.991    0.366    0.253  232.738   72.760
  271.750    9.792    0.363    0.226  232.786   94.745
  272.000    7.093    0.404    0.225  232.824  104.097
  272.250    6.179    0.428    0.214  232.872   95.398
  272.500    5.742    0.439    0.203  232.409   78.882
  272.750    5.852    0.440    0.275  232.457   70.486
  273.000    6.244    0.423    0.319  233.007   65.700
  273.250    7.725    0.409    0.331  233.039   66.929
  273.500   11.075    0.405    0.336  233.594   70.868
  273.750   13.083    0.411    0.334  233.637   74.202
  274.000   13.963    0.409    0.331  233.675   77.235
  274.250   14.361    0.400    0.334  233.211   78.765
  274.500   14.501    0.395    0.338  232.758   79.399
  274.750   14.501    0.389    0.333  232.801   79.114
  275.000   14.515    0.396    0.302  232.343   80.951
  275.250   14.385    0.407    0.294  231.885   86.090
  275.500   13.872    0.409    0.286  231.426   89.728
  275.750   13.498    0.404    0.277  230.963   91.856
  276.000   12.896    0.387    0.264  231.011   94.288
  276.250   11.874    0.382    0.254  231.049   95.213
