~VERSION INFORMATION
 VERS.                 2.0:   CWLS LOG ASCII STANDARD -VERSION 2.0
 WRAP.                  NO:   ONE LINE PER DEPTH STEP
~WELL INFORMATION BLOCK
#MNEM.UNIT           DATA                    DESCRIPTION OF MNEMONIC
#---------    -------------------            -------------------------------
# Generated from Intellog Unique Number	CW_73_75/WELL/1047
WELL.         ATCOR ET AL MARTEN H 11-33     : Well_name    - WELL
LOC .         00/11-33-074-23W4/0            : Location     - LOCATION
UWI .         00/11-33-074-23W4/0            : Uwi          - UNIQUE WELL ID
ENTR.         JAYE                           : Entered      - ENTERED BY
SRVC.         COMPUTALOG                     : Scn          - SERVICE COMPANY
DATE.         26 FEB 85                      : Date         - LOG DATE
STRT.M        450                            : top_depth    - START DEPTH
STOP.M        695                            : bot_depth    - STOP DEPTH
STEP.M        0.25                           : increment    - STEP LENGTH
 NULL. -999.2500:NULL Value
~CURVE INFORMATION BLOCK
#MNEM UNIT       ERCB CURVE CODE    CURVE DESCRIPTION
#-----------   ------------------   ----------------------------------
DEPT.M        00 001 00 00         : DEPTH        - DEPTH
ILD .OHMM     00 120 00 00         : RESD         - DEEP RESISTIVITY (DIL)
DPHI.V/V      00 890 00 00         : PHID         - DENSITY POROSITY (SANDSTONE)
NPHI.V/V      00 330 00 00         : PHIN         - NEUTRON POROSITY (SANDSTONE)
CALI.MM       00 280 01 00         : CAL          - CALIPER
GR  .API      00 310 00 00         : GR           - GAMMA RAY
~PARAMETER INFORMATION
#MNEM.UNIT           DATA             DESCRIPTION OF MNEMONIC
#---------         -----------     ------------------------------
GL  .M        708                  : gl           - GROUND LEVEL ELEVATION
EREF.M        711                  : kb           - ELEVATION OF DEPTH REFERENCE
DATM.M        708                  : datum        - DATUM ELEVATION
TDD .M        697                  : tdd          - TOTAL DEPTH DRILLER
RUN .         ONE                  : Run          - RUN NUMBER
ENG .         BERUDE               : Engineer     - RECORDING ENGINEER
WIT .         HICKS                : Witness      - WITNESSED BY
BASE.         EDM                  : Branch       - HOME BASE OF LOGGING UNIT
MUD .         GEL CHEM             : Mud_type     - MUD TYPE
MATR.         SANDSTONE            : Logunit      - NEUTRON MATRIX
TMAX.C        24                   : BHT          - MAXIMUM RECORDED TEMPERATURE
BHTD.M        695.6                : BHTDEP       - MAXIMUM RECORDED TEMPERATURE
RMT .C        24                   : MDTP         - TEMPERATURE OF MUD
MUDD.KG/M     1130                 : MWT          - MUD DENSITY
NEUT.         1                    : NEUTRON      - NEUTRON TYPE
RESI.         0                    : RESIST       - RESISTIVITY TYPE
RM  .OHMM     3.9                  : RM           - RESISTIVITY OF MUD
RMC .OHMM     0                    : RMC          - RESISTIVITY OF MUD CAKE
RMF .OHMM     4                    : RMF          - RESISTIVITY OF MUD FILTRATE
SUFT.C        0                    : SUFT         - SURFACE TEMPERATURE
~A  DEPTH     RESD     PHID     PHIN      CAL       GR
# ...
  669.000    8.100    0.150    0.306  219.518   97.528
  669.250    8.100    0.147    0.312  219.569   96.179
  669.500    8.143    0.146    0.314  219.508   97.401
  669.750    8.173    0.144    0.304  219.345   97.743
  670.000    8.235    0.139    0.290  219.293   93.762
  670.250    8.312    0.139    0.281  219.236   88.958
  670.500    8.374    0.141    0.280  219.501   88.738
  670.750    8.453    0.143    0.287  219.751   90.396
  671.000    8.483    0.146    0.302  220.014   92.500
  671.250    8.481    0.138    0.315  220.063   96.039
  671.500    8.448    0.128    0.328  220.010   97.575
  671.750    8.336    0.129    0.349  220.056   98.230
  672.000    8.163    0.141    0.353  220.104  101.833
  672.250    8.040    0.143    0.340  219.947  104.120
  672.500    7.948    0.135    0.327  219.996  106.532
  672.750    7.930    0.138    0.338  220.670  104.806
  673.000    7.884    0.144    0.332  221.451  104.837
  673.250    7.929    0.147    0.328  222.545  111.134
  673.500    7.929    0.139    0.329  222.910  112.604
  673.750    7.896    0.125    0.328  220.764  111.759
  674.000    7.675    0.114    0.321  220.185  107.397
  674.250    7.531    0.126    0.317  219.923  103.038
  674.500    7.416    0.164    0.335  220.180   97.301
  674.750    7.249    0.207    0.363  220.019   91.874
  675.000    6.901    0.263    0.372  219.965   90.462
  675.250    6.470    0.205    0.380  220.221  111.622
  675.500    6.360    0.174    0.388  220.687  123.189
  675.750    6.311    0.165    0.395  220.948  119.831
  676.000    6.394    0.151    0.403  220.267  114.531
  676.250    6.602    0.156    0.413  219.375  106.034
  676.500    7.053    0.202    0.421  220.467  104.934
  676.750    7.794    0.264    0.449  219.368  122.834
  677.000    8.648    0.305    0.471  217.432  122.988
  677.250    9.628    0.317    0.457  215.909   99.818
  677.500   10.405    0.313    0.420  214.704   80.536
  677.750   11.306    0.307    0.377  214.234   70.030
  678.000   11.388    0.302    0.367  212.715   68.932
  678.250   10.986    0.299    0.382  212.243   68.460
  678.500   10.476    0.305    0.407  211.039   67.674
  678.750    9.731    0.343    0.425  209.411   66.386
  679.000    9.037    0.363    0.435  207.372   60.523
  679.250    8.299    0.337    0.394  204.389   51.398
  679.500    7.550    0.301    0.329  202.037   42.083
  679.750    6.589    0.266    0.303  201.040   41.611
  680.000    5.662    0.265    0.289  200.465   40.075
  680.250    5.113    0.265    0.286  200.200   37.344
  680.500    4.478    0.261    0.290  200.248   35.493
  680.750    4.012    0.263    0.297  200.296   35.396
  681.000    3.720    0.271    0.308  200.031   36.993
  681.250    3.468    0.272    0.317  199.767   41.412
  681.500    3.339    0.274    0.325  199.501   44.638
  681.750    3.282    0.280    0.336  199.240   46.048
  682.000    3.338    0.282    0.348  199.601   48.083
  682.250    3.460    0.275    0.348  197.875   52.001
  682.500    3.606    0.268    0.338  198.025   56.356
  682.750    3.702    0.264    0.336  199.746   66.042
  683.000    3.737    0.261    0.347  202.410   73.785
  683.250    3.786    0.265    0.355  205.177   77.069
  683.500    3.836    0.283    0.363  206.061   77.539
  683.750    3.952    0.288    0.369  203.498   79.322
  684.000    4.073    0.291    0.376  201.975   82.931
  684.250    4.214    0.321    0.385  201.296   91.300
  684.500    4.476    0.342    0.421  201.240  104.496
  684.750    4.763    0.367    0.425  200.142   95.120
  685.000    5.246    0.369    0.417  199.143   77.845
  685.250    5.754    0.334    0.425  198.359   50.411
  685.500    5.997    0.341    0.452  197.882   64.799
  685.750    5.873    0.388    0.471  200.231   66.333
  686.000    5.383    0.443    0.485  204.668   65.358
  686.250    5.066    0.416    0.456  208.793   78.117
  686.500    4.887    0.334    0.439  210.309   76.765
  686.750    4.678    0.310    0.408  208.056   69.333
  687.000    4.477    0.307    0.382  204.134   63.469
  687.250    4.419    0.289    0.368  204.076   65.946
  687.500    4.641    0.284    0.362  205.377   69.862
  687.750    5.071    0.279    0.356  207.831   71.206
  688.000    5.459    0.277    0.409  211.223   80.705
  688.250    6.056    0.274    0.423  213.782   95.846
  688.500    6.643    0.265    0.432  215.926  115.815
  688.750    7.231    0.295    0.459  217.120  123.932
  689.000    7.740    0.356    0.490  216.648  126.721
  689.250    8.222    0.420    0.506  215.754  132.079
  689.500    8.570    0.438    0.523  214.970  131.420
  689.750    8.796    0.418    0.514  214.079  141.921
  690.000    8.779    0.389    0.482  212.978  150.665
  690.250    8.645    0.359    0.460  212.297   70.499
  690.500    8.404    0.334    0.464  212.031  113.981
  690.750    7.984    0.319    0.487  211.976  140.470
  691.000    7.543    0.285    0.502  211.608  155.046
  691.250    7.033    0.206    0.423  211.240  134.698
  691.500    6.495    0.183    0.375  211.916  117.735
  691.750    6.195    0.175    0.338  217.295  121.337
  692.000    6.077    0.170    0.317  225.913  122.808
  692.250    6.008    0.164    0.303  228.259  125.847
  692.500    6.099    0.153    0.303  227.470  126.127
  692.750    6.344    0.137    0.311  227.313  124.026
  693.000    6.526    0.114    0.332  227.359  128.128
  693.250    6.624    0.185    0.372  227.620  128.349
  693.500    6.390    0.211    0.396  228.714  126.999
  693.750    5.924    0.319    0.411  231.898  124.582
  694.000    5.629    0.440    0.420  239.368  124.551
  694.250    5.595    0.422    0.424  274.319  123.889
  694.500    5.691    0.361    0.438  276.770  120.909
  694.750    6.091    0.323    0.463  276.509  120.936
  695.000    6.566    0.320    0.484  275.929  124.728
