~VERSION INFORMATION
 VERS.                 2.0:   CWLS LOG ASCII STANDARD -VERSION 2.0
 WRAP.                  NO:   ONE LINE PER DEPTH STEP
~WELL INFORMATION BLOCK
#MNEM.UNIT           DATA                    DESCRIPTION OF MNEMONIC
#---------    -------------------            -------------------------------
# Generated from Intellog Unique Number	CW_73_75/WELL/2998
WELL.         COX SOUTHEASTERN MARTEN H      : Well_name    - WELL
LOC .         00/16-15-073-01W5/0            : Location     - LOCATION
UWI .         00/16-15-073-01W5/0            : Uwi          - UNIQUE WELL ID
ENTR.         CAMPBELL                       : Entered      - ENTERED BY
SRVC.         SCHLUMBERGER                   : Scn          - SERVICE COMPANY
DATE.         30 NOV 1966                    : Date         - LOG DATE
STRT.M        521.208                        : top_depth    - START DEPTH
STOP.M        667.458                        : bot_depth    - STOP DEPTH
STEP.M        0.25                           : increment    - STEP LENGTH
 NULL. -999.2500:NULL Value
~CURVE INFORMATION BLOCK
#MNEM UNIT       ERCB CURVE CODE    CURVE DESCRIPTION
#-----------   ------------------   ----------------------------------
DEPT.M        00 001 00 00         : DEPTH        - DEPTH
ILD .OHMM     00 120 00 00         : RESD         - DEEP RESISTIVITY (DIL)
DELT.US/F     00 520 00 00         : DELT         - SONIC TRAVEL TIME
CALI.MM       00 280 01 00         : CAL          - CALIPER
GR  .API      00 310 00 00         : GR           - GAMMA RAY
~PARAMETER INFORMATION
#MNEM.UNIT           DATA             DESCRIPTION OF MNEMONIC
#---------         -----------     ------------------------------
GL  .M        627.583              : gl           - GROUND LEVEL ELEVATION
EREF.M        631.85               : kb           - ELEVATION OF DEPTH REFERENCE
DATM.M        631.85               : datum        - DATUM ELEVATION
TDD .M        1473.4               : tdd          - TOTAL DEPTH DRILLER
RUN .         ONE                  : Run          - RUN NUMBER
ENG .         DUFFY                : Engineer     - RECORDING ENGINEER
WIT .         RANSOM & STEWART     : Witness      - WITNESSED BY
MUD .         GEL                  : Mud_type     - MUD TYPE
MATR.         SANDSTONE            : Logunit      - NEUTRON MATRIX
TMAX.C        37.2222              : BHT          - MAXIMUM RECORDED TEMPERATURE
BHTD.M        1473.4               : BHTDEP       - MAXIMUM RECORDED TEMPERATURE
RMT .C        13.3333              : MDTP         - TEMPERATURE OF MUD
MUDD.KG/M     9800                 : MWT          - MUD DENSITY
NEUT.         1                    : NEUTRON      - NEUTRON TYPE
RESI.         0                    : RESIST       - RESISTIVITY TYPE
RM  .OHMM     1.26                 : RM           - RESISTIVITY OF MUD
RMC .OHMM     1.47                 : RMC          - RESISTIVITY OF MUD CAKE
RMF .OHMM     0.83                 : RMF          - RESISTIVITY OF MUD FILTRATE
SUFT.C        0                    : SUFT         - SURFACE TEMPERATURE
~A  DEPTH     RESD     DELT      CAL       GR
# ...
  564.708    5.642  333.782  253.202   53.741
  564.958    5.758  343.901  253.286   52.582
  565.208    5.871  348.765  253.351   51.662
  565.458    6.088  349.052  252.927   51.460
  565.708    6.305  342.772  252.504   51.496
  565.958    6.829  331.583  252.053   54.405
  566.208    7.250  302.029  252.146   53.724
  566.458    7.772  266.248  251.704   49.210
  566.708    8.399  249.481  251.281   43.749
  566.958    8.614  290.413  251.872   41.877
  567.208    8.319  323.151  253.449   43.105
  567.458    7.819  341.136  256.058   51.511
  567.708    7.321  348.621  257.165   56.089
  567.958    7.026  342.681  257.221   54.691
  568.208    6.834  329.520  257.802   56.166
  568.458    6.846  316.025  258.393   54.051
  568.708    6.957  315.650  258.975   51.937
  568.958    6.970  316.259  259.565   50.539
  569.208    6.981  332.283  260.137   49.375
  569.458    6.585  344.363  261.235   51.811
  569.708    6.291  359.398  262.314   53.755
  569.958    6.201  363.606  262.896   54.748
  570.208    6.008  360.288  263.477   55.979
  570.458    5.916  354.009  264.068   58.176
  570.708    5.926  349.046  263.128   59.646
  570.958    5.837  345.716  260.677   60.156
  571.208    5.750  349.275  260.235   60.197
  571.458    5.656  350.545  260.319   62.623
  571.708    5.669  346.894  260.394   64.567
  571.958    5.683  342.259  260.459   65.086
  572.208    5.691  342.868  260.533   62.489
  572.458    5.805  354.947  265.171   62.769
  572.708    5.920  363.088  273.366   65.439
  572.958    5.933  361.731  280.041   64.037
  573.208    6.047  375.133  285.195   59.288
  573.458    6.162  386.235  285.260   55.504
  573.708    6.171  377.006  276.199   59.126
  573.958    6.287  326.144  266.134   63.469
  574.208    6.607  349.372  262.659   62.789
  574.458    6.820  374.239  270.855   56.845
  574.708    7.345  391.568  278.018   54.500
  574.958    7.869  308.582  258.826   54.054
  575.208    8.290  321.323  250.272   55.524
  575.458    8.711  323.898  253.914   58.668
  575.708    9.131  320.890  254.505   58.704
  575.958    9.451  322.816  256.091   58.975
  576.208    9.462  325.052  257.171   59.728
  576.458    9.372  326.650  257.264   58.092
  576.708    9.484  328.248  256.822   55.025
  576.958    9.805  323.280  256.887   53.862
  577.208   10.021  318.651  256.961   55.571
  577.458   10.341  313.360  257.036   52.739
  577.708   10.455  312.325  255.598   49.907
  577.958   10.465  316.545  254.152   54.729
  578.208   10.477  321.414  255.747   59.311
  578.458   10.185  323.328  257.859   58.630
  578.708    9.888  320.338  258.948   59.145
  578.958    9.697  316.353  259.529   59.425
  579.208    9.501  314.662  260.101   60.174
  579.458    9.513  325.114  260.683   60.449
  579.708    9.525  340.471  261.264   60.963
  579.958    9.741  319.772  267.939   61.239
  580.208   10.060  296.778  261.920   60.328
  580.458   10.584  288.199  252.868   60.594
  580.708   11.926  277.671  251.431   55.372
  580.958   12.655  250.738  250.989   49.189
  581.208   13.076  262.168  250.557   41.816
  581.458   12.677  296.218  250.631   56.437
  581.708   12.077  322.723  250.724   59.342
  581.958   11.678  317.427  251.822   57.705
  582.208   11.076  312.137  252.394   55.590
  582.458   10.475  318.973  252.478   60.651
  582.708   10.076  316.960  252.534   62.360
  582.958    9.783  301.826  252.617   62.874
  583.208    9.386  304.407  252.692   63.867
  583.458    9.092  325.019  252.757   65.103
  583.708    8.899  337.099  252.831   64.896
  583.958    8.705  334.103  253.413   58.956
  584.208    8.614  320.941  254.520   55.885
  584.458    8.522  310.729  255.608   55.205
  584.708    8.433  322.487  256.688   55.245
  584.958    8.444  328.655  256.781   55.277
  585.208    8.457  330.253  256.855   56.031
  585.458    8.574  328.568  257.437   56.793
  585.708    8.586  326.233  257.492   55.864
  585.958    8.593  325.531  257.576   54.228
  586.208    8.708  325.807  257.651   54.981
  586.458    8.720  322.161  257.725   58.607
  586.708    8.834  322.431  257.799   61.038
  586.958    8.948  323.707  257.883   58.202
  587.208    9.064  321.688  257.958   60.150
  587.458    9.074  316.725  258.032   62.577
  587.708    9.190  317.990  257.600   56.877
  587.958    9.201  319.582  257.674   52.372
  588.208    9.212  321.818  257.232   55.281
  588.458    9.327  325.060  257.307   54.839
  588.708    9.337  325.669  257.381   55.353
  588.958    9.453  321.362  257.456   59.931
  589.208    9.567  321.638  257.539   61.645
  589.458    9.579  322.902  257.604   61.204
  589.708    9.589  319.584  257.697   59.801
  589.958    9.602  311.010  257.265   60.555
  590.208    9.614  291.294  257.349   61.069
  590.458    9.420  288.298  256.897   58.476
  590.708    8.920  304.638  257.995   57.078
  590.958    7.911  330.494  260.088   63.338
  591.208    6.693  357.983  263.205   60.258
  591.458    5.682  365.808  266.331   60.538
  591.708    4.674  361.495  271.991   56.985
  591.958    3.970  380.791  276.122   52.958
  592.208    3.570  423.367  280.243   51.560
  592.458    2.865  521.014  266.628   50.162
  592.708    2.367  586.531  253.004   49.720
  592.958    1.970  602.549  266.270   46.410
  593.208    1.678  590.043  299.816   41.905
  593.458    1.584  633.603  310.547   43.853
  593.708    1.697  619.130  319.250   46.763
  593.958    2.017  587.609  323.888   46.321
  594.208    2.436  613.460  328.525   48.996
  594.458    3.063  612.102  320.985   46.872
  594.708    4.000  593.041  294.695   48.820
  594.958    4.417  561.521  282.085   54.359
  595.208    4.941  522.135  270.499   55.108
  595.458    5.260  308.992  269.578   50.846
  595.708    5.578  341.730  269.634   51.595
  595.958    5.897  362.665  298.617   52.826
  596.208    6.112  376.061  295.142   53.823
  596.458    6.330  370.765  291.170   54.820
  596.708    6.545  301.877  287.188   60.111
  596.958    6.764  263.146  281.686   58.956
  597.208    6.878  301.128  273.132   57.076
  597.458    7.096  341.405  261.536   57.117
  597.708    7.207  402.662  272.276   59.783
  597.958    7.321  421.302  262.708   57.911
  598.208    7.539  311.102  258.717   55.792
  598.458    7.856  271.060  254.228   52.721
  598.708    8.073  290.356  251.261   50.606
  598.958    8.188  315.878  252.875   51.116
  599.208    8.302  325.664  253.963   52.117
  599.458    8.416  316.435  255.042   53.344
  599.708    8.429  322.621  256.131   53.146
  599.958    8.642  316.675  257.736   56.051
  600.208    9.066  292.037  252.731   57.278
  600.458    9.588  298.223  236.581   50.143
  600.708   10.418  305.059  231.069   43.721
  600.958   11.555  294.192  222.524   36.109
  601.208   12.794  306.933  217.022   32.799
  601.458   14.036  311.474  214.571   30.684
  601.708   14.353  315.361  214.129   28.808
  601.958   13.751  316.619  214.212   25.971
  602.208   13.050  312.640  214.296   23.618
  602.458   12.651  309.650  214.361   23.180
  602.708   12.252  305.337  214.427   23.695
  602.958   11.752  304.635  213.487   26.369
  603.208   11.560  305.899  213.073   28.075
  603.458   11.164  306.180  213.147   30.262
  603.708   10.970  305.478  213.213   31.015
  603.958   10.780  305.760  212.780   33.442
  604.208   10.689  307.024  212.366   33.239
  604.458   10.596  307.961  212.422   35.193
  604.708   10.596  308.236  212.496   35.941
  604.958   10.523  306.879  212.589   37.412
  605.208   10.428  306.832  212.645   35.775
  605.458   10.339  306.130  212.720   37.245
  605.708   10.348  305.100  212.794   34.175
  605.958   10.259  307.009  212.869   34.932
  606.208   10.269  307.951  212.952   35.208
  606.458   10.269  303.977  213.036   33.571
  606.708   10.294  293.443  213.111   36.480
  606.958   10.306  286.181  213.185   37.468
  607.208   10.325  292.361  213.250   37.468
  607.458   10.331  300.186  213.325   38.023
  607.708   10.331  306.039  213.915   41.645
  607.958   10.459  306.642  213.999   42.877
