~VERSION INFORMATION
 VERS.                 2.0:   CWLS LOG ASCII STANDARD -VERSION 2.0
 WRAP.                  NO:   ONE LINE PER DEPTH STEP
~WELL INFORMATION BLOCK
#MNEM.UNIT           DATA                    DESCRIPTION OF MNEMONIC
#---------    -------------------            -------------------------------
# Generated from Intellog Unique Number	CS_67_68/WELL/2210
WELL.         INTER-CITY GAS ET AL TWEED     : Well_name    - WELL
LOC .         00/11-36-067-13W4/0            : Location     - LOCATION
UWI .         00/11-36-067-13W4/0            : Uwi          - UNIQUE WELL ID
ENTR.         SP                             : Entered      - ENTERED BY
SRVC.         SCHLUMBERGER                   : Scn          - SERVICE COMPANY
STRT.M        304.8                          : top_depth    - START DEPTH
STOP.M        480.050                        : bot_depth    - STOP DEPTH
STEP.M        0.25                           : increment    - STEP LENGTH
 NULL. -999.2500:NULL Value
~CURVE INFORMATION BLOCK
#MNEM UNIT       ERCB CURVE CODE    CURVE DESCRIPTION
#-----------   ------------------   ----------------------------------
DEPT.M        00 001 00 00         : DEPTH        - DEPTH
CALI.MM       00 280 01 00         : CAL          - CALIPER
GR  .API      00 310 00 00         : GR           - GAMMA RAY
DPHI.V/V      00 890 00 00         : PHID         - DENSITY POROSITY (SANDSTONE)
NPHI.V/V      00 330 00 00         : PHIN         - NEUTRON POROSITY (SANDSTONE)
ILD .OHMM     00 120 00 00         : RESD         - DEEP RESISTIVITY (DIL)
~PARAMETER INFORMATION
#MNEM.UNIT           DATA             DESCRIPTION OF MNEMONIC
#---------         -----------     ------------------------------
GL  .M        587.654              : gl           - GROUND LEVEL ELEVATION
EREF.M        590.398              : kb           - ELEVATION OF DEPTH REFERENCE
DATM.M        590.398              : datum        - DATUM ELEVATION
TDD .M        478.536              : tdd          - TOTAL DEPTH DRILLER
RUN .         ONE                  : Run          - RUN NUMBER
ENG .         BILL                 : Engineer     - RECORDING ENGINEER
WIT .         JIM                  : Witness      - WITNESSED BY
MUD .         GEL                  : Mud_type     - MUD TYPE
MATR.         SANDSTONE            : Logunit      - NEUTRON MATRIX
TMAX.C        60                   : BHT          - MAXIMUM RECORDED TEMPERATURE
BHTD.M        478.536              : BHTDEP       - MAXIMUM RECORDED TEMPERATURE
MATR.         1                    : LOGUNIT      - NEUTRON MATRIX
RMT .C        25                   : MDTP         - TEMPERATURE OF MUD
NEUT.         1                    : NEUTRON      - NEUTRON TYPE
RESI.         0                    : RESIST       - RESISTIVITY TYPE
RMC .OHMM     0.25                 : RMC          - RESISTIVITY OF MUD CAKE
RMF .OHMM     0.25                 : RMF          - RESISTIVITY OF MUD FILTRATE
SUFT.C        15                   : SUFT         - SURFACE TEMPERATURE
~A  DEPTH      CAL       GR     PHID     PHIN     RESD
# ...
  377.800  162.234   94.565    0.291    0.485    2.250
  378.050  162.860   96.460    0.280    0.486    2.360
  378.300  163.390   98.529    0.270    0.482    2.512
  378.550  163.869  101.415    0.276    0.473    2.629
  378.800  164.517  105.143    0.277    0.467    2.673
  379.050  165.306  109.712    0.261    0.475    2.547
  379.300  165.793  112.659    0.240    0.489    2.472
  379.550  165.552  114.530    0.239    0.503    2.362
  379.800  164.900  115.668    0.256    0.531    2.262
  380.050  164.226  109.342    0.279    0.524    2.186
  380.300  163.601   96.929    0.289    0.507    2.168
  380.550  163.269   90.276    0.274    0.498    2.201
  380.800  163.169   86.617    0.261    0.499    2.235
  381.050  163.058   87.474    0.261    0.502    2.301
  381.300  163.123   91.996    0.267    0.495    2.389
  381.550  163.213   95.506    0.275    0.489    2.483
  381.800  163.156   98.257    0.289    0.485    2.627
  382.050  163.358   96.888    0.279    0.481    2.759
  382.300  163.339   94.149    0.282    0.476    2.932
  382.550  163.566   90.479    0.301    0.470    3.149
  382.800  163.473   87.299    0.298    0.469    3.395
  383.050  163.457   90.567    0.301    0.471    3.688
  383.300  163.609   93.105    0.312    0.476    4.196
  383.550  163.976   90.405    0.300    0.479    5.038
  383.800  164.544   86.290    0.258    0.382    6.142
  384.050  165.381   82.902    0.198    0.288    7.383
  384.300  166.363   80.156    0.148    0.265    8.470
  384.550  167.343   77.344    0.091    0.256    9.270
  384.800  168.319   77.553    0.073    0.267    6.652
  385.050  169.344   81.265    0.073    0.351    4.856
  385.300  169.605   87.602    0.111    0.413    3.705
  385.550  169.364   92.802    0.167    0.464    2.807
  385.800  167.591   95.667    0.252    0.501    2.429
  386.050  164.553   97.769    0.297    0.497    2.257
  386.300  157.905   99.908    0.301    0.489    2.215
  386.550  155.159  102.295    0.286    0.497    2.232
  386.800  153.724  103.295    0.269    0.492    2.263
  387.050  152.833  102.742    0.256    0.493    2.331
  387.300  152.079  101.640    0.256    0.496    2.331
  387.550  151.184  101.239    0.262    0.486    2.318
  387.800  150.651  101.775    0.267    0.492    2.303
  388.050  150.594  101.542    0.274    0.483    2.310
  388.300  150.390  100.548    0.279    0.479    2.409
  388.550  151.064  100.804    0.282    0.482    2.558
  388.800  152.032  102.795    0.272    0.484    2.764
  389.050  153.504  104.332    0.263    0.485    2.989
  389.300  153.481  104.465    0.253    0.481    3.164
  389.550  153.621  104.780    0.238    0.472    3.315
  389.800  154.842  106.128    0.218    0.462    3.411
  390.050  157.806  108.237    0.203    0.452    3.477
  390.300  160.933  110.392    0.212    0.455    3.486
  390.550  163.119  108.657    0.203    0.453    3.452
  390.800  165.392  105.011    0.204    0.442    3.379
  391.050  166.437  104.207    0.195    0.431    3.291
  391.300  165.653  107.179    0.189    0.435    3.156
  391.550  162.756  110.285    0.206    0.447    3.009
  391.800  159.479  112.226    0.230    0.456    2.882
  392.050  156.812  110.537    0.249    0.466    2.780
  392.300  155.072  106.729    0.246    0.466    2.726
  392.550  158.539  104.112    0.236    0.459    2.700
  392.800  160.312  101.577    0.265    0.464    2.728
  393.050  158.752   98.769    0.288    0.459    2.796
  393.300  156.141   96.264    0.277    0.458    2.881
  393.550  157.329   95.173    0.244    0.458    2.978
  393.800  159.444   95.875    0.224    0.447    3.068
  394.050  160.978   97.354    0.209    0.446    3.103
  394.300  162.352   99.650    0.206    0.469    3.000
  394.550  163.310  102.324    0.242    0.469    2.826
  394.800  164.063  101.502    0.265    0.473    2.686
  395.050  165.076  100.559    0.261    0.482    2.690
  395.300  165.360  100.583    0.253    0.471    2.779
  395.550  165.708  104.723    0.262    0.468    2.942
  395.800  165.835  109.094    0.252    0.476    3.116
  396.050  165.803  111.306    0.233    0.483    3.234
  396.300  166.073  112.219    0.220    0.475    3.336
  396.550  166.710  114.730    0.209    0.468    3.384
  396.800  167.934  119.053    0.216    0.462    3.380
  397.050  169.314  122.569    0.220    0.463    3.373
  397.300  170.299  125.289    0.221    0.463    3.459
  397.550  170.366  126.153    0.206    0.467    3.536
  397.800  169.979  125.375    0.207    0.480    3.603
  398.050  169.287  125.075    0.201    0.481    3.665
  398.300  168.636  125.651    0.192    0.475    3.674
  398.550  167.720  126.335    0.188    0.467    3.673
  398.800  166.872  123.649    0.189    0.462    3.648
  399.050  166.305  118.427    0.190    0.460    3.655
  399.300  165.688  114.287    0.194    0.466    3.636
  399.550  165.484  110.383    0.205    0.472    3.602
  399.800  165.871  109.733    0.198    0.471    3.604
  400.050  165.879  111.150    0.192    0.464    3.621
  400.300  163.943  111.836    0.191    0.474    3.640
  400.550  162.224  112.574    0.209    0.484    3.672
  400.800  163.132  112.902    0.214    0.491    3.687
  401.050  167.336  110.175    0.221    0.494    3.685
  401.300  170.407  109.817    0.205    0.495    3.707
  401.550  172.348  111.997    0.190    0.497    3.716
  401.800  172.854  113.994    0.182    0.486    3.723
  402.050  172.932  116.126    0.180    0.494    3.652
  402.300  172.916  115.047    0.187    0.508    3.423
  402.550  172.892  117.117    0.196    0.495    3.067
  402.800  173.207  118.863    0.211    0.481    2.789
  403.050  175.056  120.775    0.221    0.500    2.579
  403.300  177.262  122.124    0.229    0.534    2.463
  403.550  179.651  123.120    0.224    0.558    2.468
  403.800  181.953  121.864    0.210    0.564    2.542
  404.050  182.856  119.499    0.203    0.528    2.760
  404.300  180.388  119.403    0.195    0.496    2.952
  404.550  178.025  120.081    0.185    0.493    3.090
  404.800  177.159  120.847    0.179    0.502    3.145
  405.050  176.642  122.003    0.176    0.511    3.004
  405.300  176.447  118.016    0.187    0.525    3.052
  405.550  176.027  115.039    0.209    0.539    3.192
  405.800  175.572  113.525    0.237    0.502    3.261
  406.050  172.682  113.641    0.243    0.464    3.354
  406.300  168.436  114.076    0.217    0.441    3.372
  406.550  165.452  113.190    0.194    0.457    3.296
  406.800  168.303  108.929    0.180    0.473    3.155
  407.050  170.672  106.896    0.172    0.467    2.972
  407.300  169.474  104.422    0.168    0.457    2.784
  407.550  166.634  101.584    0.182    0.462    2.616
  407.800  164.549   99.767    0.211    0.482    2.488
  408.050  163.107   95.682    0.225    0.510    2.409
  408.300  163.256   89.435    0.245    0.501    2.384
  408.550  163.272   85.537    0.254    0.477    2.405
  408.800  160.917   85.286    0.267    0.454    2.522
  409.050  160.859   88.573    0.269    0.445    2.804
  409.300  162.145   88.705    0.231    0.421    3.373
  409.550  163.300   80.284    0.191    0.354    4.427
  409.800  164.792   74.892    0.115    0.305    5.672
  410.050  165.938   70.653    0.049    0.267    8.471
  410.300  166.869   66.250    0.019    0.212   11.615
  410.550  167.866   63.283    0.025    0.187   13.461
  410.800  168.420   60.095    0.003    0.178   13.668
  411.050  168.804   61.878    0.000    0.193   12.755
  411.300  169.020   66.902   -0.000    0.206    9.921
  411.550  169.515   71.209   -0.000    0.230    7.513
  411.800  170.007   75.116    0.014    0.268    5.598
  412.050  170.305   79.331    0.048    0.299    4.011
  412.300  170.024   81.849    0.080    0.340    3.005
  412.550  168.708   83.684    0.138    0.389    2.522
  412.800  167.086   83.393    0.215    0.449    2.289
  413.050  164.484   80.287    0.274    0.467    2.141
  413.300  162.755   78.480    0.282    0.453    2.110
  413.550  162.047   78.941    0.269    0.446    2.160
  413.800  161.411   79.604    0.261    0.446    2.202
  414.050  159.150   79.753    0.255    0.448    2.260
