~VERSION INFORMATION
 VERS.                 2.0:   CWLS LOG ASCII STANDARD -VERSION 2.0
 WRAP.                  NO:   ONE LINE PER DEPTH STEP
~WELL INFORMATION BLOCK
#MNEM.UNIT           DATA                    DESCRIPTION OF MNEMONIC
#---------    -------------------            -------------------------------
# Generated from Intellog Unique Number	CC_80_83/WELL/2396
NULL.         -999.25                        : NULL_VALUE
WELL.         BVX ET AL WATCHUSK             : Well_name    - WELL
LOC .         11-11-081-03W4                 : Location     - LOCATION          
UWI .         00/11-11-081-03W400            : Uwi          - UNIQUE WELL ID    
ENTR.         DW                             : Entered      - ENTERED BY        
SRVC.         SCHLUMBERGER                   : Scn          - SERVICE COMPANY   
DATE.         13 MAR 78                      : Date         - LOG DATE
STRT.M        106.68                         : top_depth    - START DEPTH       
STOP.M        313.944                        : bot_depth    - STOP DEPTH        
STEP.M        0.305                          : increment    - STEP LENGTH       
~CURVE INFORMATION BLOCK
#MNEM UNIT       ERCB CURVE CODE    CURVE DESCRIPTION
#-----------   ------------------   ----------------------------------
DEPT.M        00 001 00 00         : DEPTH        - DEPTH                       
ILD .OHMM     00 120 00 00         : RESD         - DEEP RESISTIVITY (DIL)      
GR  .API      00 310 00 00         : GR           - GAMMA RAY                   
NPHI.V/V      00 330 00 00         : PHIN         - NEUTRON POROSITY (LIMESTONE)
DPHI.V/V      00 890 00 00         : PHID         - DENSITY POROSITY (LIMESTONE)
~PARAMETER INFORMATION       
#MNEM.UNIT           DATA             DESCRIPTION OF MNEMONIC
#---------         -----------     ------------------------------
GL  .M        464.82               : gl           - GROUND LEVEL ELEVATION      
EREF.M        467.868              : kb           - ELEVATION OF DEPTH REFERENCE
DATM.M        467.868              : datum        - DATUM ELEVATION             
TDD .M        324.307              : tdd          - TOTAL DEPTH DRILLER         
RUN .         ONE                  : Run          - RUN NUMBER                  
ENG .         BILL                 : Engineer     - RECORDING ENGINEER          
WIT .         JIM                  : Witness      - WITNESSED BY                
MUD .         GEL                  : Mud_type     - MUD TYPE                    
MATR.         LIMESTONE            : Logunit      - NEUTRON MATRIX              
TMAX.C        21.1111              : BHT          - MAXIMUM RECORDED TEMPERATURE
BHTD.M        324.307              : BHTDEP       - MAXIMUM RECORDED TEMPERATURE
MATR.         1                    : LOGUNIT      - NEUTRON MATRIX              
RMT .C        25                   : MDTP         - TEMPERATURE OF MUD          
NEUT.         1                    : NEUTRON      - NEUTRON TYPE                
RESI.         0                    : RESIST       - RESISTIVITY TYPE            
RMC .OHMM     0.25                 : RMC          - RESISTIVITY OF MUD CAKE     
RMF .OHMM     0.25                 : RMF          - RESISTIVITY OF MUD FILTRATE 
SUFT.C        15                   : SUFT         - SURFACE TEMPERATURE         
~A  DEPTH     RESD       GR     PHIN     PHID
  106.680   11.299  104.506    0.474    0.239
  106.985   12.416  104.513    0.479    0.217
  107.290   13.389  104.522    0.476    0.246
  107.594   14.714  102.684    0.432    0.266
  107.899   15.865   92.245    0.434    0.276
  108.204   16.472   86.720    0.420    0.264
  108.509   16.462   81.196    0.435    0.256
  108.814   16.456   75.058    0.438    0.262
  109.118   16.142   73.222    0.394    0.268
  109.423   15.537   72.002    0.411    0.273
  109.728   14.396   72.011    0.418    0.281
  110.033   13.339   74.475    0.434    0.282
  110.338   12.597   81.245    0.452    0.275
  110.642   12.357   85.556    0.445    0.234
  110.947   13.074   87.410    0.438    0.218
  111.252   13.835   81.269    0.432    0.219
  111.557   15.787   73.287    0.412    0.245
  111.862   16.392   67.150    0.427    0.267
  112.166   17.019   59.169    0.435    0.281
  112.471   17.670   56.103    0.441    0.286
  112.776   17.998   54.883    0.422    0.261
  113.081   17.656   55.503    0.419    0.267
  113.386   16.671   58.586    0.430    0.268
  113.690   17.640   64.739    0.438    0.258
  113.995   18.662   70.279    0.435    0.239
  114.300   18.658   65.984    0.409    0.113
  114.605   17.619   59.848    0.388    0.192
  114.910   16.021   58.625    0.407    0.235
  115.214   14.568   75.229    0.423    0.247
  115.519   13.499   83.228    0.421    0.231
  115.824   14.013   80.163    0.437    0.277
  116.129   15.110   78.326    0.444    0.273
  116.434   15.989   79.564    0.437    0.289
  116.738   16.597   83.260    0.432    0.269
  117.043   16.280   86.957    0.441    0.246
  117.348   15.671   96.798    0.452    0.202
  117.653   14.798  107.869    0.560    0.174
  117.958   14.241  107.263    0.602    0.185
  118.262   14.508   96.208    0.546    0.200
  118.567   14.781   79.621    0.509    0.234
  118.872   16.239   66.108    0.465    0.248
  119.177   16.860   61.199    0.421    0.261
  119.482   17.179   58.751    0.431    0.261
  119.786   16.848   59.372    0.439    0.214
  120.091   16.527   61.223    0.435    0.130
  120.396   15.606   66.150    0.428    0.150
  120.701   14.462   70.458    0.445    0.194
  121.006   13.401   77.227    0.423    0.235
  121.310   12.897   74.164    0.418    0.248
  121.615   12.893   72.330    0.430    0.262
  121.920   13.131   71.720    0.442    0.267
  122.225   13.377   71.728    0.450    0.254
  122.530   13.629   71.121    0.413    0.242
  122.835   13.370   68.058    0.387    0.237
  123.139   12.625   68.679    0.391    0.235
  123.444   11.700   79.138    0.413    0.232
  123.749   10.842   79.760    0.425    0.236
  124.054   10.238   80.384    0.441    0.246
  124.359   10.431   77.319    0.466    0.266
  124.663   11.679   73.637    0.523    0.311
  124.968   12.596   69.343    0.552    0.372
  125.273   14.377   69.965    0.439    0.280
  125.578   15.211   78.579    0.413    0.286
  125.883   14.919   77.358    0.414    0.292
  126.187   14.357   75.522    0.414    0.290
  126.492   13.819   72.460    0.418    0.281
  126.797   13.555   71.237    0.429    0.295
  127.102   13.550   71.862    0.446    0.305
  127.407   13.801   71.866    0.487    0.309
  127.711   14.329   70.645    0.483    0.312
  128.016   14.879   66.966    0.468    0.309
  128.321   15.154   63.901    0.457    0.305
  128.626   14.866   60.836    0.455    0.295
  128.931   14.306   75.595    0.452    0.295
  129.235   14.034   72.532    0.444    0.301
  129.540   13.506   68.851    0.451    0.302
  129.845   13.499   70.704    0.456    0.303
  130.150   13.753   68.868    0.439    0.304
  130.454   13.746   64.572    0.418    0.304
  130.759   13.485   71.956    0.435    0.302
  131.064   12.977   74.423    0.466    0.297
  131.369   12.255   71.972    0.466    0.293
  131.674   12.021   70.139    0.450    0.281
  131.978   11.570   72.605    0.447    0.271
  132.283   11.135   70.769    0.440    0.237
  132.588   11.342   67.090    0.421    0.156
  132.893   11.556   67.096    0.400    0.219
  133.198   12.699   68.948    0.425    0.271
  133.502   13.694   70.185    0.445    0.299
  133.807   14.216   68.352    0.431    0.305
  134.112   14.212   64.056    0.432    0.293
  134.417   14.202   60.378    0.439    0.293
  134.722   14.198   64.075    0.427    0.296
  135.026   13.664   65.924    0.431    0.293
  135.331   13.660   65.932    0.438    0.289
  135.636   13.400   65.325    0.446    0.282
  135.941   13.392   64.720    0.440    0.284
  136.246   13.388   65.341    0.453    0.298
  136.550   13.640   68.424    0.457    0.302
  136.855   14.159   72.121    0.445    0.294
  137.160   14.423   72.128    0.427    0.291
  137.465   14.420   68.448    0.426    0.289
  137.770   13.617   63.542    0.433    0.286
  138.074   12.619   63.547    0.444    0.278
  138.379   10.636   64.172    0.454    0.278
  138.684    9.312   67.865    0.472    0.278
  138.989    8.152   78.938    0.453    0.268
  139.294    6.871   80.790    0.436    0.266
  139.598    5.792   78.953    0.438    0.269
  139.903    4.975   84.493    0.460    0.261
  140.208    4.788   90.649    0.516    0.253
  140.513    4.787   90.657    0.527    0.263
  140.817    5.260   83.903    0.513    0.273
  141.122    6.002   85.754    0.497    0.256
  141.427    6.001   87.608    0.473    0.247
  141.732    5.886   87.615    0.487    0.248
  142.037    5.352   93.157    0.508    0.231
  142.341    5.054   90.706    0.482    0.234
  142.646    5.052   87.026    0.454    0.232
  142.951    5.147   93.181    0.449    0.202
  143.256    5.550   93.803    0.453    0.221
  143.561    5.548   91.353    0.459    0.245
  143.865    5.339   85.213    0.469    0.251
  144.170    4.947   85.836    0.463    0.243
  144.475    4.331  104.286    0.481    0.229
  144.780    3.864  107.365    0.502    0.213
  145.085    3.720  111.061    0.543    0.213
  145.389    3.718  115.373    0.532    0.213
  145.694    3.934  114.768    0.521    0.196
  145.999    4.843  104.940    0.512    0.275
  146.304    6.312   93.269    0.500    0.281
  146.609    8.226   82.828    0.459    0.283
  146.913   10.127   73.617    0.438    0.269
  147.218    8.865   80.387    0.437    0.246
  147.523    5.953   91.458    0.449    0.215
  147.828    4.479  102.530    0.479    0.194
  148.133    3.848  102.538    0.512    0.187
  148.437    3.773   98.244    0.527    0.211
  148.742    3.918   91.491    0.529    0.199
  149.047    3.992   90.269    0.496    0.223
  149.352    4.144   96.425    0.478    0.242
  149.657    4.468   98.893    0.490    0.223
  149.961    4.552   98.285    0.498    0.214
  150.266    4.637  101.366    0.506    0.205
  150.571    4.906  101.375    0.509    0.195
  150.876    5.094   98.308    0.501    0.209
  151.180    5.704   92.784    0.498    0.222
  151.485    6.036   89.105    0.502    0.212
  151.790    6.509   90.959    0.502    0.210
  152.095    7.152   90.353    0.444    0.227
  152.400    7.424   87.289    0.455    0.243
  152.704    7.421   86.065    0.471    0.216
  153.009    7.419   88.531    0.477    0.215
  153.314    7.276   90.385    0.476    0.222
  153.619    7.274   89.778    0.472    0.221
  153.924    7.271   84.867    0.456    0.226
  154.228    7.132   80.577    0.445    0.226
  154.533    6.244   81.812    0.456    0.197
  154.838    4.523   91.039    0.487    0.216
  155.143    3.534  100.882    0.507    0.233
  155.448    3.094  100.889    0.518    0.247
  155.752    2.867   94.753    0.520    0.258
  156.057    2.866   93.530    0.526    0.269
  156.362    3.596   93.538    0.534    0.298
  156.667    4.599   85.556    0.536    0.309
  156.972    6.714   73.885    0.426    0.308
  157.276    9.262   69.591    0.413    0.306
  157.581   10.571   72.059    0.412    0.302
  157.886   11.397   70.837    0.419    0.293
  158.191   11.612   67.774    0.428    0.286
  158.496   11.172   68.397    0.437    0.288
  158.800   10.959   67.789    0.471    0.298
  159.105   10.750   65.953    0.493    0.302
  159.410   10.346   62.272    0.496    0.301
