~VERSION INFORMATION
 VERS.                 2.0:   CWLS LOG ASCII STANDARD -VERSION 2.0
 WRAP.                  NO:   ONE LINE PER DEPTH STEP
~WELL INFORMATION BLOCK
#MNEM.UNIT           DATA                    DESCRIPTION OF MNEMONIC
#---------    -------------------            -------------------------------
# Generated from Intellog Unique Number	CW_70_72/WELL/1052
NULL.         -999.25                        : NULL_VALUE
WELL.         G.P.D. SMITH 11-03             : Well_name    - WELL              
LOC .         11-03-072-01W5                 : Location     - LOCATION          
UWI .         00/11-03-072-01W5/0            : Uwi          - UNIQUE WELL ID    
ENTR.         JAYE                           : Entered      - ENTERED BY        
SRVC.         SCHLUMBERGER                   : Scn          - SERVICE COMPANY   
DATE.         30 JULY 76                     : Date         - LOG DATE          
STRT.M        435.864                        : top_depth    - START DEPTH       
STOP.M        694.864                        : bot_depth    - STOP DEPTH        
STEP.M        0.25                           : increment    - STEP LENGTH       
~CURVE INFORMATION BLOCK
#MNEM UNIT       ERCB CURVE CODE    CURVE DESCRIPTION
#-----------   ------------------   ----------------------------------
DEPT.M        00 001 00 00         : DEPTH        - DEPTH                       
DPHI.V/V      00 890 00 00         : PHID         - DENSITY POROSITY (SANDSTONE)
NPHI.V/V      00 330 00 00         : PHIN         - NEUTRON POROSITY (SANDSTONE)
GR  .API      00 310 00 00         : GR           - GAMMA RAY                   
CALI.MM       00 280 01 00         : CAL          - CALIPER                     
ILD .OHMM     00 120 00 00         : RESD         - DEEP RESISTIVITY (DIL)      
~PARAMETER INFORMATION       
#MNEM.UNIT           DATA             DESCRIPTION OF MNEMONIC
#---------         -----------     ------------------------------
GL  .M        635.203              : gl           - GROUND LEVEL ELEVATION      
EREF.M        638.861              : kb           - ELEVATION OF DEPTH REFERENCE
DATM.M        635.203              : datum        - DATUM ELEVATION             
TDD .M        719.328              : tdd          - TOTAL DEPTH DRILLER         
RUN .         ONE                  : Run          - RUN NUMBER                  
BASE.         EDM                  : Branch       - HOME BASE OF LOGGING UNIT   
MUD .         GEL                  : Mud_type     - MUD TYPE                    
MATR.         SANDSTONE            : Logunit      - NEUTRON MATRIX              
TMAX.C        36.1111              : BHT          - MAXIMUM RECORDED TEMPERATURE
BHTD.M        719.938              : BHTDEP       - MAXIMUM RECORDED TEMPERATURE
RMT .C        15.5556              : MDTP         - TEMPERATURE OF MUD          
MUDD.KG/M     1164                 : MWT          - MUD DENSITY                 
NEUT.         1                    : NEUTRON      - NEUTRON TYPE                
RESI.         0                    : RESIST       - RESISTIVITY TYPE            
RM  .OHMM     5.56                 : RM           - RESISTIVITY OF MUD          
RMC .OHMM     0                    : RMC          - RESISTIVITY OF MUD CAKE     
RMF .OHMM     5.16                 : RMF          - RESISTIVITY OF MUD FILTRATE 
SUFT.C        0                    : SUFT         - SURFACE TEMPERATURE         
~A  DEPTH     PHID     PHIN       GR      CAL     RESD
# ...
  545.364    0.280    0.421   47.274  160.982    3.564
  545.614    0.286    0.419   48.515  160.806    3.560
  545.864    0.291    0.421   49.807  160.854    3.596
  546.114    0.290    0.430   51.353  160.898    3.573
  546.364    0.289    0.432   52.846  160.828    3.550
  546.614    0.293    0.425   54.288  160.978    3.469
  546.864    0.296    0.419   55.681  160.922    3.378
  547.114    0.305    0.422   56.972  160.741    3.212
  547.364    0.296    0.429   57.654  160.567    3.038
  547.614    0.283    0.432   57.572  160.501    2.921
  547.864    0.276    0.433   58.152  160.433    2.881
  548.114    0.288    0.420   56.799  160.270    2.857
  548.364    0.294    0.410   56.208  160.200    2.854
  548.614    0.284    0.410   57.498  160.349    2.883
  548.864    0.287    0.422   58.996  160.385    2.928
  549.114    0.280    0.423   59.625  160.331    2.968
  549.364    0.266    0.434   59.695  160.367    3.026
  549.614    0.283    0.446   59.309  160.518    3.051
  549.864    0.285    0.464   58.564  160.780    3.048
  550.114    0.291    0.450   58.889  160.923    3.017
  550.364    0.303    0.433   58.250  160.863    2.965
  550.614    0.295    0.428   56.947  160.685    2.914
  550.864    0.285    0.425   56.560  160.627    2.906
  551.114    0.294    0.424   56.886  160.444    2.967
  551.364    0.281    0.421   57.516  160.171    3.047
  551.614    0.265    0.415   57.840  159.882    3.135
  551.864    0.279    0.414   58.216  159.933    3.196
  552.114    0.283    0.419   58.644  159.861    3.233
  552.364    0.279    0.419   59.578  159.691    3.290
  552.614    0.267    0.413   61.224  159.728    3.323
  552.864    0.258    0.416   63.228  159.879    3.357
  553.114    0.251    0.420   65.435  161.002    3.397
  553.364    0.244    0.434   67.437  161.579    3.456
  553.614    0.233    0.435   68.119  162.266    3.536
  553.864    0.216    0.429   66.257  161.770    3.578
  554.114    0.205    0.421   66.226  161.491    3.627
  554.364    0.221    0.412   67.720  161.212    3.631
  554.614    0.234    0.418   67.994  161.253    3.647
  554.864    0.235    0.437   66.896  161.939    3.650
  555.114    0.246    0.431   66.968  162.841    3.640
  555.364    0.236    0.421   67.189  163.215    3.643
  555.614    0.227    0.417   67.160  163.359    3.673
  555.864    0.238    0.415   64.587  163.399    3.724
  556.114    0.235    0.412   61.605  163.549    3.804
  556.364    0.222    0.408   59.795  163.496    3.869
  556.614    0.220    0.401   60.069  163.529    3.959
  556.864    0.208    0.391   61.057  163.572    4.043
  557.114    0.199    0.397   62.346  163.836    4.114
  557.364    0.217    0.419   63.181  163.868    4.209
  557.614    0.234    0.406   63.098  163.914    4.353
  557.864    0.226    0.394   62.710  163.634    4.511
  558.114    0.220    0.397   62.632  163.678    4.675
  558.364    0.211    0.382   63.665  163.713    4.766
  558.614    0.176    0.371   65.822  163.757    4.779
  558.864    0.140    0.386   68.332  163.910    4.756
  559.114    0.180    0.428   70.440  164.270    4.700
  559.364    0.201    0.423   71.576  165.713    4.569
  559.614    0.204    0.420   73.884  167.370    4.417
  559.864    0.193    0.419   76.753  167.843    4.261
  560.114    0.178    0.418   76.314  165.084    4.060
  560.364    0.207    0.411   75.012  163.080    3.896
  560.614    0.237    0.415   74.676  162.912    3.786
  560.864    0.238    0.427   74.747  162.949    3.694
  561.114    0.222    0.439   75.478  162.993    3.623
  561.364    0.197    0.433   75.804  162.714    3.627
  561.614    0.215    0.425   76.181  162.645    3.683
  561.864    0.232    0.421   75.132  162.475    3.707
  562.114    0.220    0.414   74.594  164.136    3.703
  562.364    0.214    0.409   75.783  166.756    3.693
  562.614    0.202    0.421   77.885  169.056    3.703
  562.864    0.188    0.432   79.941  169.853    3.733
  563.114    0.205    0.441   80.010  170.326    3.799
  563.364    0.186    0.446   73.624  170.802    3.865
  563.614    0.181    0.446   70.695  170.950    3.940
  563.864    0.188    0.439   70.919  171.421    4.010
  564.114    0.176    0.448   72.412  171.677    4.087
  564.364    0.167    0.456   73.757  171.398    4.158
  564.614    0.192    0.455   73.725  169.825    4.200
  564.864    0.191    0.444   71.608  165.778    4.181
  565.114    0.204    0.424   70.510  164.097    4.161
  565.364    0.219    0.409   73.733  165.973    4.165
  565.614    0.196    0.409   76.855  168.594    4.230
  565.864    0.183    0.422   79.010  170.682    4.304
  566.114    0.180    0.431   80.454  170.407    4.372
  566.364    0.185    0.441   78.642  169.155    4.400
  566.614    0.168    0.441   76.578  168.339    4.427
  566.864    0.184    0.429   76.496  168.058    4.440
  567.114    0.209    0.422   77.636  168.959    4.469
  567.364    0.199    0.419   78.926  170.723    4.489
  567.614    0.196    0.432   79.860  172.484    4.501
  567.864    0.208    0.433   79.322  174.035    4.521
  568.114    0.213    0.428   78.833  174.614    4.541
  568.364    0.203    0.433   78.294  174.659    4.587
  568.614    0.206    0.431   76.789  174.376    4.659
  568.864    0.202    0.427   74.621  173.879    4.723
  569.114    0.196    0.428   71.694  173.066    4.744
  569.364    0.209    0.428   72.271  172.564    4.688
  569.614    0.201    0.427   74.581  172.497    4.624
  569.864    0.219    0.430   76.583  172.649    4.512
  570.114    0.183    0.428   78.332  174.952    4.441
  570.364    0.182    0.433   79.978  177.365    4.453
  570.614    0.188    0.436   81.676  178.263    4.615
  570.864    0.180    0.437   78.492  178.742    4.916
  571.114    0.176    0.440   74.954  178.993    5.131
  571.364    0.183    0.439   72.634  179.368    5.426
  571.614    0.209    0.432   72.298  179.401    5.706
  571.864    0.223    0.428   76.894  179.448    5.967
  572.114    0.231    0.432   80.931  179.274    6.105
  572.364    0.221    0.431   84.766  178.774    6.144
  572.614    0.212    0.415   87.276  178.603    6.082
  572.864    0.195    0.398   84.601  178.536    5.879
  573.114    0.169    0.389   76.691  177.725    5.663
  573.364    0.149    0.392   71.625  176.797    5.667
  573.614    0.155    0.405   64.627  175.331    5.905
  573.864    0.157    0.376   61.342  173.540    6.441
  574.114    0.117    0.345   57.907  171.750    7.274
  574.364    0.090    0.318   54.416  169.971    8.539
  574.614    0.062    0.282   58.758  169.791    9.313
  574.864    0.041    0.296   64.371  169.725    9.321
  575.114    0.105    0.352   70.240  170.305    8.074
  575.364    0.126    0.383   73.361  171.207    7.031
  575.614    0.149    0.395   73.787  172.544    6.340
  575.864    0.165    0.398   74.417  174.306    5.802
  576.114    0.157    0.403   76.319  175.965    5.437
  576.364    0.158    0.411   76.745  177.190    5.255
  576.614    0.158    0.419   76.310  178.095    5.052
  576.864    0.165    0.425   75.717  178.461    4.910
  577.114    0.172    0.422   74.975  178.716    4.843
  577.364    0.184    0.416   73.672  178.979    4.857
  577.614    0.163    0.409   74.709  179.239    4.887
  577.864    0.158    0.402   73.866  179.704    4.955
  578.114    0.178    0.402   75.105  179.961    5.023
  578.364    0.193    0.412   74.667  180.327    5.074
  578.614    0.186    0.403   75.958  180.585    5.125
  578.864    0.169    0.397   74.556  180.630    5.167
  579.114    0.174    0.402   76.406  180.560    5.201
  579.364    0.167    0.412   77.245  179.708    5.223
  579.614    0.162    0.411   76.396  180.067    5.555
  579.864    0.159    0.402   75.854  182.063    5.525
  580.114    0.154    0.410   77.512  183.944    5.308
  580.364    0.155    0.434   78.656  184.859    4.934
  580.614    0.170    0.427   78.678  183.918    4.828
  580.864    0.176    0.414   78.849  181.800    4.810
  581.114    0.172    0.419   77.387  180.108    4.855
  581.364    0.175    0.419   76.900  179.720    4.882
  581.614    0.188    0.420   78.861  179.653    4.936
