~VERSION INFORMATION
 VERS.                 2.0:   CWLS LOG ASCII STANDARD -VERSION 2.0
 WRAP.                  NO:   ONE LINE PER DEPTH STEP
~WELL INFORMATION BLOCK
#MNEM.UNIT           DATA                    DESCRIPTION OF MNEMONIC
#---------    -------------------            -------------------------------
# Generated from Intellog Unique Number	CW_79_81/WELL/3695
WELL.         REPUBLIC RESOURCES LTD.        : Well_name    - WELL
LOC .         00/11-12-080-05W5/0            : Location     - LOCATION
UWI .         00/11-12-080-05W5/0            : Uwi          - UNIQUE WELL ID
ENTR.         JOETTE                         : Entered      - ENTERED BY
SRVC.         SCHLUMBERGER                   : Scn          - SERVICE COMPANY
DATE.         08-27-92                       : Date         - LOG DATE
STRT.M        350.52                         : top_depth    - START DEPTH
STOP.M        609.52                         : bot_depth    - STOP DEPTH
STEP.M        0.25                           : increment    - STEP LENGTH
 NULL. -999.2500:NULL Value
~CURVE INFORMATION BLOCK
#MNEM UNIT       ERCB CURVE CODE    CURVE DESCRIPTION
#-----------   ------------------   ----------------------------------
DEPT.M        00 001 00 00         : DEPTH        - DEPTH
GR  .API      00 310 00 00         : GR           - GAMMA RAY
ILD .OHMM     00 120 00 00         : RESD         - DEEP RESISTIVITY (DIL)
DELT.US/F     00 520 00 00         : DELT         - SONIC TRAVEL TIME
~PARAMETER INFORMATION
#MNEM.UNIT           DATA             DESCRIPTION OF MNEMONIC
#---------         -----------     ------------------------------
GL  .M        633.984              : gl           - GROUND LEVEL ELEVATION
EREF.M        637.642              : kb           - ELEVATION OF DEPTH REFERENCE
DATM.M        637.642              : datum        - DATUM ELEVATION
TDD .M        1791.92              : tdd          - TOTAL DEPTH DRILLER
RUN .         ONE                  : Run          - RUN NUMBER
ENG .         BILL                 : Engineer     - RECORDING ENGINEER
WIT .         JIM                  : Witness      - WITNESSED BY
MUD .         GEL                  : Mud_type     - MUD TYPE
MATR.         SANDSTONE            : Logunit      - NEUTRON MATRIX
TMAX.C        15.5556              : BHT          - MAXIMUM RECORDED TEMPERATURE
BHTD.M        1791.92              : BHTDEP       - MAXIMUM RECORDED TEMPERATURE
MATR.         1                    : LOGUNIT      - NEUTRON MATRIX
RMT .C        15.5556              : MDTP         - TEMPERATURE OF MUD
NEUT.         1                    : NEUTRON      - NEUTRON TYPE
RESI.         0                    : RESIST       - RESISTIVITY TYPE
RMC .OHMM     0.089                : RMC          - RESISTIVITY OF MUD CAKE
RMF .OHMM     0.089                : RMF          - RESISTIVITY OF MUD FILTRATE
SUFT.C        5                    : SUFT         - SURFACE TEMPERATURE
~A  DEPTH       GR     RESD     DELT
# ...
  404.770   70.508    3.227  363.402
  405.020   72.329    3.107  365.398
  405.270   72.942    2.935  367.403
  405.520   75.369    2.879  370.743
  405.770   77.190    2.772  373.413
  406.020   75.393    2.772  374.071
  406.270   70.591    2.771  374.059
  406.520   68.794    2.824  376.719
  406.770   72.422    2.823  378.724
  407.020   76.656    2.823  382.065
  407.270   79.080    2.823  380.711
  407.520   81.503    2.823  376.003
  407.770   80.312    2.822  372.638
  408.020   79.720    2.876  372.626
  408.270   79.138    3.543  376.639
  408.520   80.959    4.447  382.661
  408.770   82.178    4.531  385.998
  409.020   82.191    4.446  386.659
  409.270   82.202    4.121  387.318
  409.520   82.215    3.748  391.996
  409.770   80.429    3.677  394.668
  410.020   79.231    3.892  389.963
  410.270   76.835    4.278  385.928
  410.520   76.249    4.359  389.935
  410.770   78.673    4.277  383.888
  411.020   78.683    3.890  381.865
  411.270   77.492    3.406  399.955
  411.520   79.316    2.612  469.676
  411.770   78.728    1.788  493.801
  412.020   78.139    1.754  510.551
  412.270   78.755    1.928  492.436
  412.520   76.961    2.201  485.719
  412.770   73.361    2.243  470.956
  413.020   73.977    2.243  436.746
  413.270   77.605    2.243  405.891
  413.520   80.028    2.329  411.243
  413.770   81.247    2.419  419.276
  414.020   80.658    2.465  425.969
  414.270   78.262    2.659  407.853
  414.520   75.267    2.709  389.738
  414.770   75.883    2.658  387.041
  415.020   76.500    2.658  407.143
  415.270   75.308    2.708  392.380
  415.520   71.102    2.921  356.162
  415.770   66.902    3.336  348.104
  416.020   70.530    3.667  346.080
  416.270   72.957    3.530  344.056
  416.520   72.971    3.398  342.026
  416.770   69.972    3.271  345.373
  417.020   68.178    3.150  347.372
  417.270   70.000    3.032  344.004
  417.520   72.423    2.919  343.992
  417.770   73.638    2.864  346.655
  418.020   71.845    2.810  346.646
  418.270   62.825    2.756  346.634
  418.520   66.450    2.756  347.292
  418.770   70.684    2.756  348.620
  419.020   69.493    2.808  351.961
  419.270   68.299    2.808  351.948
  419.520   66.505    2.862  349.254
  419.770   65.317    2.916  348.571
  420.020   64.126    3.028  347.885
  420.270   64.143    3.205  347.879
  420.520   66.563    3.266  351.216
  420.770   74.409    3.266  357.241
  421.020   85.869    3.144  366.616
  421.270   87.091    2.970  374.649
  421.520   83.490    2.914  377.989
  421.770   81.696    2.969  373.954
  422.020   81.710    3.143  374.609
  422.270   82.925    3.326  379.290
  422.520   85.349    3.656  377.267
  422.770   87.772    3.726  381.948
  423.020   84.171    3.725  386.629
  423.270   78.766    3.796  385.275
  423.520   75.768    4.095  375.876
  423.770   77.589    4.675  365.136
  424.020   81.820    4.764  364.451
  424.270   82.439    4.333  379.192
  424.520   82.450    4.016  386.552
  424.770   82.470    3.723  381.846
  425.020   82.481    3.793  383.175
  425.270   82.494    4.170  385.844
  425.520   80.701    5.039  390.529
  425.770   78.305    5.135  391.857
  426.020   75.306    4.412  374.409
  426.270   71.709    2.853  366.351
  426.520   69.908    2.498  361.646
  426.770   66.913    2.498  361.630
  427.020   66.927    2.694  364.303
  427.270   69.949    2.852  385.746
  427.520   75.388    2.906  394.450
  427.770   76.614    2.961  389.074
  428.020   75.416    3.017  365.595
  428.270   71.815    3.134  349.485
  428.520   67.009    3.193  352.157
  428.770   62.203    3.510  355.501
  429.020   61.012    3.646  353.477
  429.270   65.845    3.577  341.393
  429.520   71.281    3.379  336.013
  429.770   71.897    3.315  339.354
  430.020   62.878    3.252  344.708
  430.270   62.888    3.072  352.742
  430.520   63.508    2.590  348.707
  430.770   64.120    2.847  343.330
  431.020   64.134    3.251  341.974
  431.270   64.757    3.376  348.670
  431.520   65.972    3.440  373.465
  431.770   69.001    3.129  423.069
  432.020   71.422    2.846  398.919
  432.270   70.234    2.740  369.405
  432.520   67.239    3.128  337.880
  432.770   66.044    6.933  247.350
  433.020   64.853   19.661  233.258
  433.270   64.867   17.216  294.259
  433.520   67.287    6.304  311.679
  433.770   72.124    4.834  349.884
  434.020   75.748    4.154  355.907
  434.270   79.986    3.502  368.633
  434.520   81.205    3.066  380.687
  434.770   82.423    2.736  379.336
  435.020   83.036    2.952  377.983
  435.270   85.460    3.435  381.320
  435.520   87.284    3.848  387.345
  435.770   88.503    3.848  378.617
  436.020   85.501    3.566  371.226
  436.270   78.891    3.369  373.228
  436.520   76.491    3.565  320.245
  436.770   75.300    6.295  282.686
  437.020   78.326    6.537  297.424
  437.270   83.163    6.060  312.830
  437.520   85.586    3.993  372.490
  437.770   85.600    3.241  375.833
  438.020   85.011    2.838  377.829
  438.270   81.410    2.732  372.456
  438.520   81.424    2.681  369.086
  438.770   83.249    2.630  369.079
  439.020   82.660    2.680  369.067
  439.270   81.469    2.891  371.730
  439.520   82.691    3.178  373.736
  439.770   82.099    3.841  377.076
  440.020   80.302    4.303  376.390
  440.270   79.110    3.913  363.642
  440.520   79.124    3.492  364.300
  440.770   80.346    3.176  370.322
  441.020   83.369    2.944  375.670
  441.270   84.591    2.888  372.306
  441.520   84.608    3.115  372.293
  441.770   84.615    3.360  376.974
  442.020   85.837    3.490  385.678
  442.270   86.456    3.360  384.322
  442.520   85.864    3.424  356.823
  442.770   84.070    3.693  336.026
  443.020   83.482    3.763  329.309
  443.270   86.508    3.233  338.013
  443.520   90.136    2.941  365.490
  443.770   91.957    2.997  386.933
  444.020   91.971    3.357  396.308
  444.270   86.563    3.761  392.943
  444.520   82.965    4.213  384.214
  444.770   82.979    4.134  384.873
  445.020   84.197    4.056  384.190
  445.270   84.208    3.905  380.155
  445.520   82.421    3.619  368.741
  445.770   80.621    3.419  359.342
  446.020   75.822    3.418  353.292
  446.270   73.425    3.758  351.936
  446.520   74.644    4.131  351.259
  446.770   76.465    4.541  349.232
  447.020   76.479    4.627  349.223
  447.270   74.083    4.289  348.537
  447.520   72.289    3.827  373.336
  447.770   72.306    3.685  371.983
  448.020   71.115    3.547  367.277
  448.270   69.921    3.415  363.239
  448.520   68.729    3.415  358.536
  448.770   67.538    3.546  354.495
  449.020   71.766    3.614  353.145
  449.270   77.804    3.046  355.144
  449.520   80.833    3.046  363.848
  449.770   77.835    3.286  361.154
  450.020   73.631    3.896  317.560
  450.270   73.648    6.258  291.399
  450.520   76.068    9.141  313.512
  450.770   80.902    4.533  332.944
  451.020   83.931    3.543  367.126
  451.270   85.150    3.284  377.171
  451.520   83.959    3.475  379.841
  451.770   82.764    3.678  384.522
  452.020   83.383    3.820  384.507
  452.270   83.996    3.893  380.471
  452.520   84.612    3.967  378.448
  452.770   84.626    3.818  379.106
  453.020   84.640    3.676  379.764
  453.270   84.660    3.473  378.411
  453.520   88.888    3.472  379.736
  453.770   95.528    3.606  379.050
  454.020   93.132    3.816  379.044
  454.270   88.929    3.816  382.384
  454.520   85.930    3.405  381.028
  454.770   85.944    3.097  376.325
  455.020   87.765    3.405  373.631
  455.270   87.779    3.814  376.295
  455.520   85.383    3.814  375.612
  455.770   84.195    3.742  374.265
  456.020   84.815    3.742  372.908
  456.270   85.424    3.741  374.908
  456.520   87.245    3.960  376.910
  456.770   85.451    4.035  378.235
  457.020   80.646    3.811  379.564
  457.270   75.850    3.600  382.234
  457.520   74.053    4.034  379.536
  457.770   71.051    4.519  374.834
  458.020   68.053    4.605  368.787
  458.270   64.452    4.692  361.396
  458.520   60.248    5.158  359.376
  458.770   56.045    5.779  352.659
