~VERSION INFORMATION
 VERS.                 2.0:   CWLS LOG ASCII STANDARD -VERSION 2.0
 WRAP.                  NO:   ONE LINE PER DEPTH STEP
~WELL INFORMATION BLOCK
#MNEM.UNIT           DATA                    DESCRIPTION OF MNEMONIC
#---------    -------------------            -------------------------------
# Generated from Intellog Unique Number	CW_73_75/WELL/913
WELL.         GULF POC DROWNED 10-15         : Well_name    - WELL
LOC .         00/10-15-075-20W4/0            : Location     - LOCATION
UWI .         00/10-15-075-20W4/0            : Uwi          - UNIQUE WELL ID
ENTR.         JAYE                           : Entered      - ENTERED BY
SRVC.         SCHLUMBERGER                   : Scn          - SERVICE COMPANY
DATE.         18 JAN 77                      : Date         - LOG DATE
STRT.M        292.608                        : top_depth    - START DEPTH
STOP.M        478.608                        : bot_depth    - STOP DEPTH
STEP.M        0.25                           : increment    - STEP LENGTH
 NULL. -999.2500:NULL Value
~CURVE INFORMATION BLOCK
#MNEM UNIT       ERCB CURVE CODE    CURVE DESCRIPTION
#-----------   ------------------   ----------------------------------
DEPT.M        00 001 00 00         : DEPTH        - DEPTH
ILD .OHMM     00 120 00 00         : RESD         - DEEP RESISTIVITY (DIL)
CALI.MM       00 280 01 00         : CAL          - CALIPER
GR  .API      00 310 00 00         : GR           - GAMMA RAY
NPHI.V/V      00 330 00 00         : PHIN         - NEUTRON POROSITY (SANDSTONE)
DPHI.V/V      00 890 00 00         : PHID         - DENSITY POROSITY (SANDSTONE)
~PARAMETER INFORMATION
#MNEM.UNIT           DATA             DESCRIPTION OF MNEMONIC
#---------         -----------     ------------------------------
GL  .M        609.6                : gl           - GROUND LEVEL ELEVATION
EREF.M        613.867              : kb           - ELEVATION OF DEPTH REFERENCE
DATM.M        609.6                : datum        - DATUM ELEVATION
TDD .M        504.444              : tdd          - TOTAL DEPTH DRILLER
RUN .         ONE                  : Run          - RUN NUMBER
MATR.         SANDSTONE            : Logunit      - NEUTRON MATRIX
TMAX.C        13.0556              : BHT          - MAXIMUM RECORDED TEMPERATURE
BHTD.M        504.139              : BHTDEP       - MAXIMUM RECORDED TEMPERATURE
RMT .C        13.3333              : MDTP         - TEMPERATURE OF MUD
MUDD.KG/M     0                    : MWT          - MUD DENSITY
NEUT.         1                    : NEUTRON      - NEUTRON TYPE
RESI.         0                    : RESIST       - RESISTIVITY TYPE
RM  .OHMM     2.61                 : RM           - RESISTIVITY OF MUD
RMC .OHMM     0                    : RMC          - RESISTIVITY OF MUD CAKE
RMF .OHMM     5.13                 : RMF          - RESISTIVITY OF MUD FILTRATE
SUFT.C        -17.7778             : SUFT         - SURFACE TEMPERATURE
~A  DEPTH     RESD      CAL       GR     PHIN     PHID
# ...
  329.108    5.988  169.756  114.601    0.462    0.284
  329.358    6.735  170.796  116.132    0.460    0.274
  329.608    7.759  174.113  111.984    0.460    0.276
  329.858    8.776  177.326  104.476    0.469    0.283
  330.108    9.585  174.438   94.891    0.483    0.313
  330.358   10.722  166.792   82.803    0.468    0.347
  330.608   11.371  165.351   75.112    0.464    0.357
  330.858   10.408  164.428   67.299    0.467    0.368
  331.108    8.982  162.160   66.204    0.486    0.375
  331.358    8.087  160.823   69.568    0.508    0.369
  331.608    7.498  164.554   74.458    0.505    0.363
  331.858    7.068  165.595   79.287    0.492    0.361
  332.108    6.638  165.396   85.643    0.478    0.347
  332.358    6.589  166.231   91.694    0.451    0.308
  332.608    6.710  169.444   95.240    0.455    0.277
  332.858    7.077  168.521   97.138    0.473    0.295
  333.108    8.049  167.081   91.768    0.492    0.314
  333.358    8.504  166.363   90.734    0.510    0.324
  333.608    8.534  166.060   92.998    0.530    0.329
  333.858    8.120  166.068   94.834    0.551    0.341
  334.108    7.501  166.385   93.068    0.523    0.356
  334.358    7.110  166.497   91.484    0.505    0.358
  334.608    6.928  166.091   91.977    0.513    0.361
  334.858    6.902  165.581   93.997    0.491    0.364
  335.108    6.977  164.967   96.567    0.490    0.353
  335.358    7.054  164.354   95.166    0.490    0.329
  335.608    7.053  164.156   92.239    0.492    0.321
  335.858    7.039  164.575   89.434    0.503    0.331
  336.108    7.064  164.169   85.896    0.493    0.331
  336.358    6.998  162.212   83.579    0.495    0.323
  336.608    6.920  162.219   82.057    0.499    0.334
  336.858    6.818  162.745   80.412    0.477    0.347
  337.108    6.718  163.474   80.294    0.456    0.355
  337.358    6.618  164.102   81.764    0.466    0.345
  337.608    6.449  164.317   83.967    0.482    0.339
  337.858    6.366  164.221   84.644    0.472    0.323
  338.108    6.306  164.331   81.166    0.477    0.344
  338.358    6.259  164.546   72.926    0.490    0.377
  338.608    6.224  164.968   70.671    0.497    0.356
  338.858    6.155  165.492   72.263    0.494    0.354
  339.108    6.098  165.913   75.260    0.466    0.355
  339.358    6.097  166.333   78.074    0.453    0.352
  339.608    6.096  166.238   80.460    0.456    0.344
  339.858    6.050  166.141   81.136    0.467    0.322
  340.108    5.950  165.943   81.385    0.472    0.319
  340.358    5.766  166.156   82.305    0.454    0.322
  340.608    5.577  166.267   86.280    0.460    0.312
  340.858    5.335  166.275   90.620    0.463    0.302
  341.108    5.180  170.314   94.961    0.457    0.293
  341.358    4.946  175.907  100.156    0.474    0.276
  341.608    4.706  173.742  105.658    0.483    0.300
  341.858    4.469  173.336  104.807    0.491    0.287
  342.108    4.291  173.033  101.635    0.504    0.302
  342.358    4.298  171.800  101.884    0.508    0.268
  342.608    4.443  178.839  104.026    0.496    0.299
  342.858    4.685  172.021  107.695    0.471    0.296
  343.108    4.987  178.854  108.921    0.477    0.252
  343.358    5.328  188.066  109.719    0.493    0.258
  343.608    5.527  182.592  110.517    0.510    0.263
  343.858    5.598  176.188  110.705    0.523    0.273
  344.108    5.395  173.092  109.671    0.476    0.286
  344.358    4.993  180.339  108.332    0.463    0.252
  344.608    4.454  190.688  106.320    0.463    0.226
  344.858    4.017  182.940  107.424    0.460    0.235
  345.108    3.617  179.430  110.788    0.465    0.239
  345.358    3.274  179.231  110.914    0.509    0.306
  345.608    3.190  177.997  104.628    0.602    0.313
  345.858    3.340  183.383  101.090    0.579    0.321
  346.108    3.750  180.184   96.941    0.566    0.367
  346.358    4.172  176.779   89.800    0.575    0.365
  346.608    4.886  178.957   81.437    0.587    0.351
  346.858    5.506  172.657   74.540    0.568    0.367
  347.108    6.217  165.320   67.826    0.518    0.366
  347.358    6.954  159.743   63.188    0.480    0.380
  347.608    7.967  160.786   60.811    0.459    0.384
  347.858    8.912  162.448   62.770    0.462    0.383
  348.108    9.988  162.972   63.018    0.482    0.376
  348.358   11.678  163.392   63.206    0.494    0.369
  348.608   13.354  163.814   64.432    0.486    0.373
  348.858   14.452  164.339   62.481    0.459    0.369
  349.108   14.800  164.449   61.142    0.450    0.370
  349.358   14.263  164.249   62.307    0.444    0.377
  349.608   13.520  164.360   63.594    0.437    0.367
  349.858   13.150  164.678   63.659    0.431    0.357
  350.108   13.052  164.686   63.664    0.436    0.359
  350.358   12.978  165.004   63.607    0.446    0.365
  350.608   12.905  164.702   66.237    0.457    0.364
  350.858   12.855  164.293   65.448    0.472    0.371
  351.108   12.457  163.889   65.086    0.470    0.368
  351.358   11.940  163.791   66.617    0.441    0.382
  351.608   11.297  163.902   68.942    0.427    0.371
  351.858   10.571  163.806   71.817    0.435    0.356
  352.108   10.021  163.709   71.394    0.425    0.353
  352.358    9.621  163.304   69.627    0.416    0.357
  352.608    9.393  163.002   65.295    0.413    0.359
  352.858    9.035  162.491   62.673    0.421    0.358
  353.108    8.853  162.498   63.656    0.452    0.341
  353.358    8.787  162.609   63.477    0.442    0.349
  353.608    8.818  162.616   63.969    0.443    0.353
  353.858    8.849  162.934   66.294    0.445    0.352
  354.108    8.897  162.321   68.803    0.451    0.341
  354.358    8.912  162.019   69.846    0.449    0.328
  354.608    8.911  161.509   70.583    0.447    0.335
  354.858    8.909  161.516   71.014    0.451    0.342
  355.108    8.908  162.247   70.774    0.441    0.340
  355.358    8.874  162.670   70.473    0.438    0.345
  355.608    8.906  162.986   71.394    0.442    0.343
  355.858    8.937  162.994   73.475    0.446    0.331
  356.108    9.069  163.104   75.556    0.454    0.332
  356.358    9.202  163.321   73.972    0.468    0.344
  356.608    9.337  163.429   69.151    0.474    0.352
  356.858    9.318  163.333   67.568    0.478    0.349
  357.108    9.164  163.237   67.756    0.473    0.348
  357.358    8.979  163.246   68.127    0.468    0.347
  357.608    8.895  163.045   68.619    0.475    0.348
  357.858    8.813  163.259   67.341    0.484    0.361
  358.108    8.763  163.061   62.826    0.476    0.366
  358.358    8.762  163.067   61.670    0.470    0.359
  358.608    8.744  163.075   64.606    0.475    0.350
  358.858    8.775  160.910   65.711    0.484    0.358
  359.108    8.726  160.917   69.439    0.475    0.362
  359.358    8.708  161.648   71.215    0.473    0.367
  359.608    8.675  163.103   70.120    0.477    0.358
  359.858    8.626  164.352   68.231    0.468    0.351
  360.108    8.546  164.981   69.518    0.458    0.346
  360.358    8.389  165.299   70.499    0.461    0.344
  360.608    8.204  165.304   71.969    0.464    0.346
  360.858    8.054  165.416   70.508    0.460    0.350
  361.108    7.833  164.907   68.558    0.465    0.356
  361.358    7.425  164.605   67.585    0.477    0.364
  361.608    6.859  164.301   67.467    0.483    0.353
  361.858    6.490  163.997   67.838    0.477    0.359
  362.108    6.175  163.903   68.087    0.485    0.368
  362.358    5.929  163.909   69.557    0.485    0.380
  362.608    5.874  163.916   68.707    0.477    0.392
  362.858    6.093  164.544   68.039    0.470    0.392
  363.108    6.379  164.241   68.409    0.468    0.386
  363.358    6.752  164.248   69.819    0.477    0.374
  363.608    6.992  164.566   71.044    0.487    0.385
  363.858    6.927  165.401   71.904    0.489    0.393
  364.108    6.651  165.718   72.458    0.494    0.401
  364.358    6.363  165.830   73.317    0.483    0.405
  364.608    6.109  165.837   74.482    0.476    0.398
  364.858    5.845  165.534   75.525    0.479    0.389
  365.108    5.664  164.714   75.651    0.484    0.382
  365.358    5.580  164.721   77.610    0.483    0.372
