~VERSION INFORMATION
 VERS.                 2.0:   CWLS LOG ASCII STANDARD -VERSION 2.0
 WRAP.                  NO:   ONE LINE PER DEPTH STEP
~WELL INFORMATION BLOCK
#MNEM.UNIT           DATA                    DESCRIPTION OF MNEMONIC
#---------    -------------------            -------------------------------
# Generated from Intellog Unique Number	CW_73_75/WELL/1028
WELL.         PCP MARTEN HILLS 10-28         : Well_name    - WELL
LOC .         00/10-28-075-04W5/0            : Location     - LOCATION
UWI .         00/10-28-075-04W5/0            : Uwi          - UNIQUE WELL ID
ENTR.         JAYE                           : Entered      - ENTERED BY
SRVC.         SCHLUMBERGER                   : Scn          - SERVICE COMPANY
DATE.         27 FEB 74                      : Date         - LOG DATE
STRT.M        670.56                         : top_depth    - START DEPTH
STOP.M        890.06                         : bot_depth    - STOP DEPTH
STEP.M        0.25                           : increment    - STEP LENGTH
 NULL. -999.2500:NULL Value
~CURVE INFORMATION BLOCK
#MNEM UNIT       ERCB CURVE CODE    CURVE DESCRIPTION
#-----------   ------------------   ----------------------------------
DEPT.M        00 001 00 00         : DEPTH        - DEPTH
ILD .OHMM     00 120 00 00         : RESD         - DEEP RESISTIVITY (DIL)
NPHI.V/V      00 330 00 00         : PHIN         - NEUTRON POROSITY (SANDSTONE)
DPHI.V/V      00 890 00 00         : PHID         - DENSITY POROSITY (SANDSTONE)
GR  .API      00 310 00 00         : GR           - GAMMA RAY
CALI.MM       00 280 01 00         : CAL          - CALIPER
~PARAMETER INFORMATION
#MNEM.UNIT           DATA             DESCRIPTION OF MNEMONIC
#---------         -----------     ------------------------------
GL  .M        943.051              : gl           - GROUND LEVEL ELEVATION
EREF.M        946.404              : kb           - ELEVATION OF DEPTH REFERENCE
DATM.M        973.531              : datum        - DATUM ELEVATION
TDD .M        903.732              : tdd          - TOTAL DEPTH DRILLER
RUN .         ONE                  : Run          - RUN NUMBER
ENG .         SIMPSOM              : Engineer     - RECORDING ENGINEER
WIT .         STIEL                : Witness      - WITNESSED BY
BASE.         EDM                  : Branch       - HOME BASE OF LOGGING UNIT
MUD .         GEL                  : Mud_type     - MUD TYPE
MATR.         SANDSTONE            : Logunit      - NEUTRON MATRIX
TMAX.C        33.3333              : BHT          - MAXIMUM RECORDED TEMPERATURE
BHTD.M        903.732              : BHTDEP       - MAXIMUM RECORDED TEMPERATURE
RMT .C        19.4444              : MDTP         - TEMPERATURE OF MUD
MUDD.KG/M     1140                 : MWT          - MUD DENSITY
NEUT.         1                    : NEUTRON      - NEUTRON TYPE
RESI.         0                    : RESIST       - RESISTIVITY TYPE
RM  .OHMM     4.6                  : RM           - RESISTIVITY OF MUD
RMC .OHMM     0                    : RMC          - RESISTIVITY OF MUD CAKE
RMF .OHMM     6.22                 : RMF          - RESISTIVITY OF MUD FILTRATE
SUFT.C        -17.7778             : SUFT         - SURFACE TEMPERATURE
~A  DEPTH     RESD     PHIN     PHID       GR      CAL
  670.560    2.109    0.547    0.204  112.686  213.697
  670.810    2.112    0.535    0.202  110.461  214.676
  671.060    2.068    0.521    0.214  107.751  215.137
  671.310    2.014    0.522    0.216  108.451  215.294
  671.560    1.954    0.538    0.200  113.165  214.616
  671.810    1.885    0.556    0.184  114.779  212.406
  672.060    1.860    0.571    0.192  114.016  211.423
  672.310    1.845    0.542    0.185  110.942  211.573
  672.560    1.830    0.535    0.194  109.511  213.171
  672.810    1.829    0.521    0.193  107.044  214.773
  673.060    1.844    0.506    0.186  104.517  216.162
  673.310    1.901    0.515    0.186   99.736  216.618
  673.560    2.030    0.511    0.196   94.956  216.667
  673.810    2.108    0.483    0.211   91.638  215.174
  674.060    2.210    0.438    0.211   89.413  213.575
  674.310    2.241    0.513    0.197   96.017  212.175
  674.560    2.115    0.534    0.217  100.066  211.926
  674.810    1.917    0.547    0.245   99.852  211.964
  675.060    1.757    0.549    0.233   96.228  211.605
  675.310    1.680    0.539    0.258   96.990  210.935
  675.560    1.810    0.474    0.271   94.400  209.128
  675.810    2.057    0.448    0.289   89.194  206.287
  676.060    2.377    0.453    0.292   86.545  205.106
  676.310    2.722    0.467    0.262   85.052  207.422
  676.560    3.197    0.466    0.235   81.490  210.047
  676.810    3.439    0.460    0.229   73.848  207.314
  677.060    3.565    0.450    0.241   68.888  203.654
  677.310    3.675    0.445    0.264   67.942  201.021
  677.560    3.761    0.448    0.266   72.234  201.591
  677.810    3.856    0.440    0.246   76.524  205.553
  678.060    3.882    0.453    0.234   79.657  210.760
  678.310    3.857    0.473    0.227   79.689  210.296
  678.560    3.847    0.468    0.248   73.872  208.486
  678.810    3.803    0.456    0.276   66.292  205.240
  679.060    3.758    0.445    0.295   70.098  204.779
  679.310    3.666    0.463    0.317   73.476  205.961
  679.560    3.538    0.495    0.295   75.207  206.627
  679.810    3.522    0.492    0.275   72.924  206.997
  680.060    3.665    0.481    0.272   67.354  207.145
  680.310    4.037    0.465    0.292   65.800  206.779
  680.560    4.382    0.443    0.320   63.089  206.526
  680.810    4.661    0.458    0.296   60.441  206.160
  681.060    4.778    0.475    0.267   58.948  205.908
  681.310    4.828    0.466    0.303   57.395  205.942
  681.560    4.860    0.447    0.317   56.998  205.707
  681.810    4.938    0.430    0.303   60.439  205.747
  682.060    4.997    0.439    0.307   63.632  205.477
  682.310    4.985    0.461    0.310   64.513  205.117
  682.560    4.972    0.479    0.314   61.742  204.551
  682.810    4.968    0.473    0.320   62.868  203.981
  683.060    4.928    0.469    0.323   65.088  203.721
  683.310    4.853    0.470    0.312   61.406  203.670
  683.560    4.743    0.469    0.309   59.059  204.124
  683.810    4.610    0.479    0.304   59.701  205.308
  684.060    4.548    0.477    0.304   60.702  205.665
  684.310    4.612    0.479    0.316   62.379  205.512
  684.560    4.763    0.478    0.312   63.683  205.984
  684.810    4.929    0.473    0.308   57.076  206.951
  685.060    5.158    0.466    0.304   57.836  208.134
  685.310    5.386    0.447    0.309   60.423  206.120
  685.560    5.442    0.482    0.315   60.576  205.655
  685.810    5.368    0.511    0.324   62.310  205.296
  686.060    5.228    0.535    0.328   66.172  205.459
  686.310    4.989    0.548    0.335   71.802  206.013
  686.560    4.868    0.470    0.327   65.380  206.474
  686.810    4.945    0.441    0.296   59.626  206.123
  687.060    5.145    0.433    0.293   55.516  205.649
  687.310    5.403    0.444    0.291   52.927  205.091
  687.560    5.643    0.447    0.291   51.376  205.126
  687.810    5.958    0.431    0.299   52.012  205.591
  688.060    6.256    0.444    0.325   54.418  206.055
  688.310    6.521    0.433    0.315   55.236  206.622
  688.560    6.662    0.421    0.302   56.241  206.778
  688.810    6.868    0.438    0.297   54.686  206.619
  689.060    7.017    0.455    0.306   51.793  205.224
  689.310    7.221    0.445    0.324   50.791  203.937
  689.560    7.390    0.431    0.332   51.916  203.876
  689.810    7.536    0.427    0.323   53.771  203.419
  690.060    7.711    0.432    0.314   54.833  203.879
  690.310    7.763    0.439    0.320   53.159  205.269
  690.560    7.644    0.445    0.326   52.033  206.760
  690.810    7.472    0.447    0.317   53.643  207.221
  691.060    7.249    0.445    0.329   57.752  205.722
  691.310    7.151    0.443    0.336   61.981  204.441
  691.560    7.054    0.443    0.323   58.847  203.670
  691.810    6.972    0.450    0.298   52.056  203.300
  692.060    6.953    0.461    0.309   51.539  202.729
  692.310    6.934    0.478    0.314   53.335  202.265
  692.560    6.943    0.491    0.322   55.494  202.313
  692.810    6.938    0.478    0.330   54.853  202.263
  693.060    6.844    0.458    0.340   52.569  202.311
  693.310    6.827    0.439    0.336   52.111  202.881
  693.560    6.721    0.438    0.327   54.701  203.231
  693.810    6.545    0.451    0.318   57.347  203.490
  694.060    6.422    0.463    0.312   61.211  203.033
  694.310    6.174    0.470    0.301   65.622  202.763
  694.560    5.859    0.459    0.284   70.644  202.302
  694.810    5.612    0.473    0.268   75.179  201.526
  695.060    5.436    0.464    0.261   73.868  200.953
  695.310    5.284    0.456    0.250   72.984  201.011
  695.560    5.155    0.444    0.268   73.380  201.260
  695.810    5.141    0.450    0.280   72.981  201.726
  696.060    5.138    0.440    0.290   75.265  201.779
  696.310    5.144    0.436    0.268   76.756  201.511
  696.560    5.140    0.426    0.256   76.665  200.434
  696.810    5.145    0.434    0.253   77.059  199.757
  697.060    5.132    0.428    0.262   76.967  199.606
  697.310    5.082    0.433    0.277   76.933  199.139
  697.560    5.040    0.430    0.266   78.180  197.742
  697.810    4.954    0.434    0.265   79.612  194.913
  698.060    4.524    0.433    0.265   84.572  195.269
  698.310    3.902    0.436    0.269   92.392  197.375
  698.560    3.447    0.446    0.239  103.744  201.863
  698.810    2.935    0.467    0.212  109.678  205.619
  699.060    2.622    0.482    0.201  104.352  206.496
  699.310    2.582    0.493    0.205   98.051  205.410
  699.560    2.642    0.494    0.225   91.200  203.712
  699.810    2.780    0.482    0.250   84.898  202.621
  700.060    2.935    0.467    0.276   77.501  202.267
  700.310    3.042    0.488    0.272   70.043  202.316
  700.560    3.063    0.483    0.275   63.983  202.266
  700.810    3.089    0.495    0.290   67.483  202.109
  701.060    3.150    0.528    0.306   71.714  202.053
  701.310    3.325    0.517    0.302   68.943  202.009
  701.560    3.630    0.514    0.297   64.530  202.048
  701.810    4.140    0.576    0.320   62.610  201.989
  702.060    5.421    0.579    0.355   60.450  201.843
  702.310    6.218    0.548    0.394   58.470  200.853
  702.560    6.434    0.441    0.335   56.307  200.388
  702.810    6.489    0.438    0.313   53.048  199.715
  703.060    6.520    0.444    0.316   53.687  198.735
  703.310    6.502    0.444    0.321   54.264  197.241
  703.560    6.498    0.445    0.329   54.111  197.915
  703.810    6.529    0.454    0.346   53.044  199.405
  704.060    6.560    0.452    0.357   51.919  202.132
  704.310    6.591    0.445    0.340   51.705  205.589
  704.560    6.611    0.460    0.317   52.341  206.876
  704.810    6.642    0.483    0.325   53.770  207.539
  705.060    6.698    0.475    0.348   53.741  208.112
  705.310    6.768    0.471    0.331   54.565  208.160
  705.560    6.862    0.465    0.322   55.625  208.311
  705.810    6.922    0.463    0.334   57.297  208.566
  706.060    7.044    0.460    0.329   59.702  208.712
  706.310    7.129    0.443    0.332   61.497  208.866
  706.560    7.177    0.451    0.342   61.952  209.029
  706.810    7.225    0.455    0.344   62.286  209.069
