~VERSION INFORMATION
 VERS.                 2.0:   CWLS LOG ASCII STANDARD -VERSION 2.0
 WRAP.                  NO:   ONE LINE PER DEPTH STEP
~WELL INFORMATION BLOCK
#MNEM.UNIT           DATA                    DESCRIPTION OF MNEMONIC
#---------    -------------------            -------------------------------
# Generated from Intellog Unique Number	CS_67_68/WELL/2192
WELL.         10-07-067-04W4                 : Well_name    - WELL
LOC .         00/10-07-067-04W4/0            : Location     - LOCATION
UWI .         00/10-07-067-04W4/0            : Uwi          - UNIQUE WELL ID
ENTR.         SP                             : Entered      - ENTERED BY
SRVC.         SCHLUMBERGER                   : Scn          - SERVICE COMPANY
STRT.M        355                            : top_depth    - START DEPTH
STOP.M        570                            : bot_depth    - STOP DEPTH
STEP.M        0.25                           : increment    - STEP LENGTH
 NULL. -999.2500:NULL Value
~CURVE INFORMATION BLOCK
#MNEM UNIT       ERCB CURVE CODE    CURVE DESCRIPTION
#-----------   ------------------   ----------------------------------
DEPT.M        00 001 00 00         : DEPTH        - DEPTH
ILD .OHMM     00 120 00 00         : RESD         - DEEP RESISTIVITY (DIL)
DPHI.V/V      00 890 00 00         : PHID         - DENSITY POROSITY (LIMESTONE)
NPHI.V/V      00 330 00 00         : PHIN         - NEUTRON POROSITY (LIMESTONE)
GR  .API      00 310 00 00         : GR           - GAMMA RAY
CALI.MM       00 280 01 00         : CAL          - CALIPER
~PARAMETER INFORMATION
#MNEM.UNIT           DATA             DESCRIPTION OF MNEMONIC
#---------         -----------     ------------------------------
GL  .M        682.01               : gl           - GROUND LEVEL ELEVATION
EREF.M        686.28               : kb           - ELEVATION OF DEPTH REFERENCE
DATM.M        686.8                : datum        - DATUM ELEVATION
TDD .M        580                  : tdd          - TOTAL DEPTH DRILLER
RUN .         ONE                  : Run          - RUN NUMBER
ENG .         BILL                 : Engineer     - RECORDING ENGINEER
WIT .         JIM                  : Witness      - WITNESSED BY
MUD .         GEL                  : Mud_type     - MUD TYPE
MATR.         LIMESTONE            : Logunit      - NEUTRON MATRIX
TMAX.C        22                   : BHT          - MAXIMUM RECORDED TEMPERATURE
BHTD.M        578.2                : BHTDEP       - MAXIMUM RECORDED TEMPERATURE
MATR.         1                    : LOGUNIT      - NEUTRON MATRIX
RMT .C        25                   : MDTP         - TEMPERATURE OF MUD
NEUT.         1                    : NEUTRON      - NEUTRON TYPE
RESI.         0                    : RESIST       - RESISTIVITY TYPE
RMC .OHMM     0.25                 : RMC          - RESISTIVITY OF MUD CAKE
RMF .OHMM     0.25                 : RMF          - RESISTIVITY OF MUD FILTRATE
SUFT.C        15                   : SUFT         - SURFACE TEMPERATURE
~A  DEPTH     RESD     PHID     PHIN       GR      CAL
# ...
  428.000    4.237    0.323    0.450   73.658  248.173
  428.250    4.013    0.300    0.480   79.799  249.317
  428.500    4.114    0.273    0.519   79.323  250.463
  428.750    4.218    0.290    0.488   72.473  251.205
  429.000    4.509    0.319    0.447   67.093  251.530
  429.250    5.111    0.334    0.442   60.795  250.838
  429.500    5.568    0.344    0.452   57.621  249.429
  429.750    6.042    0.345    0.446   60.701  248.124
  430.000    6.278    0.338    0.436   64.022  247.227
  430.250    5.991    0.331    0.430   67.221  246.639
  430.500    5.504    0.325    0.445   67.726  246.555
  430.750    5.163    0.319    0.435   66.757  246.378
  431.000    4.655    0.309    0.426   67.076  246.293
  431.250    4.317    0.301    0.419   69.050  246.314
  431.500    4.058    0.300    0.436   71.701  246.439
  431.750    3.916    0.305    0.449   73.797  246.668
  432.000    3.759    0.307    0.459   75.463  247.402
  432.250    3.683    0.301    0.470   74.925  248.548
  432.500    3.656    0.297    0.480   73.958  249.693
  432.750    3.763    0.295    0.490   75.564  250.429
  433.000    3.947    0.296    0.509   74.842  251.165
  433.250    4.243    0.303    0.482   74.306  250.984
  433.500    4.400    0.339    0.445   74.319  250.393
  433.750    4.589    0.368    0.437   74.208  248.785
  434.000    4.777    0.382    0.426   73.975  247.271
  434.250    4.917    0.389    0.414   73.376  245.354
  434.500    5.004    0.393    0.402   71.429  244.355
  434.750    5.006    0.392    0.396   71.013  244.069
  435.000    5.008    0.392    0.407   72.681  245.521
  435.250    5.010    0.389    0.431   73.674  246.769
  435.500    5.022    0.384    0.461   38.208  246.791
  435.750    5.034    0.380    0.476   40.980  246.099
  436.000    5.055    0.381    0.478   43.873  245.711
  436.250    5.163    0.377    0.500   45.908  246.346
  436.500    5.334    0.374    0.516   48.251  247.901
  436.750    5.470    0.375    0.501   49.612  248.944
  437.000    5.482    0.374    0.484   50.116  249.681
  437.250    5.443    0.372    0.462   50.311  250.115
  437.500    5.395    0.370    0.451   51.857  250.337
  437.750    5.346    0.367    0.457   54.383  250.157
  438.000    5.319    0.364    0.462   56.417  250.280
  438.250    5.301    0.359    0.449   60.844  250.508
  438.500    5.282    0.348    0.457   63.981  250.528
  438.750    5.264    0.328    0.475   65.955  251.163
  439.000    5.217    0.310    0.476   69.341  251.698
  439.250    5.160    0.305    0.473   71.374  251.718
  439.500    5.143    0.311    0.486   71.144  251.026
  439.750    5.117    0.306    0.496   72.136  250.540
  440.000    5.061    0.295    0.489   73.251  250.251
  440.250    4.996    0.289    0.483   73.571  250.279
  440.500    4.914    0.283    0.488   73.952  250.602
  440.750    4.761    0.287    0.500   74.395  251.851
  441.000    4.709    0.296    0.509   75.020  252.587
  441.250    4.667    0.301    0.515   73.257  252.914
  441.500    4.677    0.306    0.503   71.004  254.469
  441.750    4.805    0.315    0.485   68.507  255.716
  442.000    4.908    0.328    0.465   67.107  254.106
  442.250    5.119    0.335    0.466   64.242  250.961
  442.500    5.199    0.331    0.483   62.231  249.246
  442.750    5.270    0.322    0.488   64.209  248.661
  443.000    5.333    0.314    0.481   65.261  248.783
  443.250    5.396    0.308    0.473   65.948  248.701
  443.500    5.481    0.307    0.462   65.472  248.216
  443.750    5.525    0.309    0.473   62.973  247.519
  444.000    5.496    0.311    0.457   61.087  245.702
  444.250    5.457    0.312    0.441   59.015  244.600
  444.500    5.449    0.314    0.424   56.087  245.139
  444.750    5.420    0.317    0.434   55.242  246.384
  445.000    5.403    0.310    0.425   56.603  248.241
  445.250    5.384    0.301    0.413   59.683  250.204
  445.500    5.316    0.290    0.417   61.962  251.249
  445.750    5.248    0.280    0.441   65.286  251.372
  446.000    5.211    0.271    0.459   67.442  250.172
  446.250    5.145    0.296    0.474   68.925  249.070
  446.500    5.088    0.316    0.475   68.020  247.966
  446.750    4.995    0.339    0.460   63.253  247.174
  447.000    4.913    0.339    0.473   57.567  247.706
  447.250    4.742    0.319    0.466   71.247  248.543
  447.500    4.611    0.304    0.459   75.180  249.178
  447.750    4.484    0.291    0.454   75.379  248.589
  448.000    4.335    0.286    0.449   75.697  247.893
  448.250    4.184    0.283    0.450   77.180  247.405
  448.500    4.069    0.275    0.461   79.400  247.120
  448.750    3.942    0.269    0.470   80.884  246.428
  449.000    3.811    0.269    0.498   80.958  246.144
  449.250    3.678    0.269    0.496   76.132  245.758
  449.500    3.570    0.274    0.476   73.264  245.681
  449.750    3.511    0.267    0.454   77.322  245.700
  450.000    3.428    0.262    0.441   81.195  246.028
  450.250    3.391    0.260    0.442   82.985  245.849
  450.500    3.411    0.293    0.472   78.772  246.075
  450.750    3.544    0.318    0.492   72.350  246.197
  451.000    4.002    0.342    0.507   62.498  246.321
  451.250    4.351    0.359    0.486   54.974  246.549
  451.500    4.831    0.368    0.473   53.578  246.468
  451.750    5.353    0.363    0.467   51.448  246.286
  452.000    5.864    0.359    0.460   48.031  245.901
  452.250    6.340    0.361    0.455   48.347  245.821
  452.500    6.713    0.349    0.465   51.303  245.946
  452.750    7.054    0.337    0.464   53.338  245.862
  453.000    7.288    0.334    0.462   54.699  245.886
  453.250    7.360    0.330    0.461   54.589  245.292
  453.500    7.448    0.325    0.463   53.867  244.499
  453.750    7.465    0.327    0.469   54.924  245.031
  454.000    7.412    0.333    0.473   56.958  245.665
  454.250    7.401    0.331    0.474   58.319  246.608
  454.500    7.349    0.329    0.459   56.924  247.650
  454.750    7.282    0.330    0.439   55.098  248.797
  455.000    7.203    0.328    0.427   56.706  249.533
  455.250    7.193    0.336    0.436   57.575  249.555
  455.500    7.630    0.272    0.445   56.363  249.679
  455.750    8.187    0.265    0.464   49.697  250.211
  456.000    8.818    0.244    0.428   42.112  250.743
  456.250    9.179    0.207    0.246   38.879  251.687
  456.500    9.394    0.155    0.215   44.161  252.121
  456.750    9.559    0.327    0.378   49.078  252.546
  457.000    9.655    0.345    0.424   52.214  252.671
  457.250    9.658    0.358    0.449   53.698  252.594
  457.500   11.263    0.330    0.456   51.751  252.715
  457.750   14.410    0.264    0.423   45.576  252.737
  458.000   16.899    0.192    0.355   42.218  252.656
  458.250   19.301    0.055    0.199   39.168  253.090
  458.500   14.788    0.025    0.174   37.342  253.415
  458.750   11.790    0.141    0.201   41.523  254.154
  459.000    9.615    0.240    0.313   49.379  254.583
  459.250    8.174    0.279    0.357   54.478  257.159
  459.500    6.897    0.304    0.390   56.758  257.387
  459.750    6.594    0.323    0.404   56.343  257.000
  460.000    6.522    0.335    0.416   53.967  255.795
  460.250    6.513    0.346    0.421   52.876  255.004
  460.500    6.565    0.348    0.427   55.648  254.716
  460.750    6.656    0.349    0.434   59.644  254.226
  461.000    6.863    0.348    0.444   63.211  254.661
  461.250    7.364    0.312    0.457   66.963  254.685
  461.500    7.962    0.293    0.452   68.874  254.498
  461.750    8.288    0.309    0.446   60.984  253.809
  462.000    8.759    0.323    0.449   54.992  253.214
  462.250    9.083    0.333    0.461   50.593  252.216
  462.500    8.684    0.331    0.460   48.891  252.647
  462.750    8.208    0.333    0.450   48.659  253.484
  463.000    7.556    0.329    0.435   50.388  253.710
  463.250    7.196    0.329    0.423   52.362  253.327
  463.500    6.841    0.335    0.410   54.335  253.653
  463.750    6.690    0.340    0.400   56.373  253.370
  464.000    6.518    0.340    0.405   57.365  252.778
  464.250    6.399    0.339    0.414   58.175  252.190
