~VERSION INFORMATION
 VERS.                 2.0:   CWLS LOG ASCII STANDARD -VERSION 2.0
 WRAP.                  NO:   ONE LINE PER DEPTH STEP
~WELL INFORMATION BLOCK
#MNEM.UNIT           DATA                    DESCRIPTION OF MNEMONIC
#---------    -------------------            -------------------------------
# Generated from Intellog Unique Number	CS_73_76/WELL/840
WELL.         ARGO PETOLEUM CORPORATION      : Well_name    - WELL
LOC .         00/10-36-073-11W4/0            : Location     - LOCATION
UWI .         00/10-36-073-11W4/0            : Uwi          - UNIQUE WELL ID
ENTR.         SP                             : Entered      - ENTERED BY
SRVC.         SCHLUMBERGER                   : Scn          - SERVICE COMPANY
STRT.M        298.704                        : top_depth    - START DEPTH
STOP.M        517.954                        : bot_depth    - STOP DEPTH
STEP.M        0.25                           : increment    - STEP LENGTH
 NULL. -999.2500:NULL Value
~CURVE INFORMATION BLOCK
#MNEM UNIT       ERCB CURVE CODE    CURVE DESCRIPTION
#-----------   ------------------   ----------------------------------
DEPT.M        00 001 00 00         : DEPTH        - DEPTH
GR  .API      00 310 00 00         : GR           - GAMMA RAY
DPHI.V/V      00 890 00 00         : PHID         - DENSITY POROSITY (SANDSTONE)
NPHI.V/V      00 330 00 00         : PHIN         - NEUTRON POROSITY (SANDSTONE)
ILD .OHMM     00 120 00 00         : RESD         - DEEP RESISTIVITY (DIL)
~PARAMETER INFORMATION
#MNEM.UNIT           DATA             DESCRIPTION OF MNEMONIC
#---------         -----------     ------------------------------
GL  .M        654.406              : gl           - GROUND LEVEL ELEVATION
EREF.M        657.606              : kb           - ELEVATION OF DEPTH REFERENCE
DATM.M        654.406              : datum        - DATUM ELEVATION
TDD .M        523.951              : tdd          - TOTAL DEPTH DRILLER
RUN .         ONE                  : Run          - RUN NUMBER
ENG .         BILL                 : Engineer     - RECORDING ENGINEER
WIT .         JIM                  : Witness      - WITNESSED BY
MUD .         GEL                  : Mud_type     - MUD TYPE
MATR.         SANDSTONE            : Logunit      - NEUTRON MATRIX
TMAX.C        16.6667              : BHT          - MAXIMUM RECORDED TEMPERATURE
BHTD.M        523.951              : BHTDEP       - MAXIMUM RECORDED TEMPERATURE
MATR.         1                    : LOGUNIT      - NEUTRON MATRIX
RMT .C        25                   : MDTP         - TEMPERATURE OF MUD
NEUT.         1                    : NEUTRON      - NEUTRON TYPE
RESI.         0                    : RESIST       - RESISTIVITY TYPE
RMC .OHMM     0.25                 : RMC          - RESISTIVITY OF MUD CAKE
RMF .OHMM     0.25                 : RMF          - RESISTIVITY OF MUD FILTRATE
SUFT.C        15                   : SUFT         - SURFACE TEMPERATURE
~A  DEPTH       GR     PHID     PHIN     RESD
# ...
  429.204   80.073    0.227    0.511    5.320
  429.454   79.152    0.225    0.526    5.177
  429.704   69.819    0.208    0.351    4.926
  429.954   59.008    0.190    0.215    4.819
  430.204   53.263    0.017    0.204    5.531
  430.454   49.037    0.004    0.197    7.228
  430.704   47.338    0.000    0.186    9.258
  430.954   51.305    0.004    0.249   12.859
  431.204   56.457    0.062    0.365   17.390
  431.454   63.308    0.141    0.438   19.247
  431.704   66.465    0.222    0.479   15.703
  431.954   67.689    0.261    0.498   11.609
  432.204   69.571    0.245    0.507    8.829
  432.454   76.053    0.218    0.520    6.776
  432.704   80.840    0.194    0.530    5.824
  432.954   82.582    0.211    0.543    5.272
  433.204   85.039    0.207    0.521    4.867
  433.454   88.264    0.200    0.501    4.608
  433.704   86.940    0.194    0.500    4.555
  433.954   82.192    0.195    0.541    4.443
  434.204   79.103    0.214    0.573    4.447
  434.454   78.737    0.195    0.536    4.565
  434.704   78.611    0.178    0.514    4.719
  434.954   78.580    0.158    0.487    4.962
  435.204   80.792    0.155    0.478    5.169
  435.454   84.271    0.177    0.486    5.524
  435.704   83.925    0.181    0.472    5.835
  435.954   83.864    0.192    0.472    6.074
  436.204   84.626    0.209    0.487    6.205
  436.454   85.566    0.213    0.502    6.288
  436.704   87.861    0.190    0.534    6.230
  436.954   87.942    0.188    0.517    6.165
  437.204   86.633    0.180    0.503    5.981
  437.454   83.797    0.203    0.519    5.641
  437.704   80.242    0.211    0.529    5.425
  437.954   74.844    0.235    0.537    5.262
  438.204   73.745    0.253    0.518    5.100
  438.454   73.358    0.250    0.487    5.044
  438.704   74.396    0.261    0.488    4.888
  438.954   74.688    0.272    0.490    4.868
  439.204   75.107    0.268    0.478    4.778
  439.454   76.743    0.235    0.473    4.727
  439.704   77.746    0.181    0.455    4.683
  439.954   78.181    0.128    0.432    4.758
  440.204   80.143    0.132    0.428    4.801
  440.454   82.382    0.174    0.501    4.960
  440.704   82.538    0.171    0.536    5.268
  440.954   83.149    0.203    0.551    5.562
  441.204   83.434    0.203    0.536    5.723
  441.454   83.475    0.224    0.518    5.700
  441.704   82.507    0.242    0.509    5.053
  441.954   81.180    0.251    0.537    4.546
  442.204   78.657    0.261    0.585    3.990
  442.454   76.075    0.268    0.602    3.480
  442.704   77.813    0.256    0.606    3.098
  442.954   81.159    0.279    0.606    2.753
  443.204   84.572    0.261    0.606    2.449
  443.454   90.798    0.230    0.606    2.312
  443.704   92.597    0.221    0.606    2.176
  443.954   93.519    0.237    0.607    2.049
  444.204   90.934    0.242    0.607    1.980
  444.454   86.765    0.235    0.608    1.947
  444.704   81.250    0.217    0.608    2.015
  444.954   78.066    0.209    0.587    2.146
  445.204   76.360    0.228    0.562    2.306
  445.454   76.975    0.219    0.550    2.532
  445.704   78.749    0.209    0.531    2.807
  445.954   77.341    0.212    0.522    3.437
  446.204   75.305    0.203    0.510    3.782
  446.454   75.975    0.224    0.530    4.161
  446.704   75.901    0.235    0.562    4.262
  446.954   74.451    0.204    0.537    4.257
  447.204   72.039    0.164    0.507    4.264
  447.454   70.020    0.202    0.516    4.179
  447.704   64.317    0.253    0.528    4.317
  447.954   61.746    0.225    0.484    4.507
  448.204   59.513    0.222    0.463    4.906
  448.454   58.929    0.207    0.447    5.529
  448.704   53.726    0.141    0.430    6.003
  448.954   50.938    0.129    0.309    6.773
  449.204   50.990    0.180    0.314    7.678
  449.454   51.917    0.155    0.283    8.896
  449.704   48.938    0.043    0.199    9.664
  449.954   46.854    0.011    0.205   11.139
  450.204   47.240    0.013    0.240   12.535
  450.454   50.017    0.033    0.279   13.253
  450.704   53.088    0.063    0.347   14.318
  450.954   55.994    0.097    0.380   14.717
  451.204   59.046    0.180    0.411   14.264
  451.454   62.092    0.241    0.430   10.810
  451.704   62.492    0.278    0.424    7.567
  451.954   61.870    0.262    0.441    6.118
  452.204   62.004    0.249    0.457    5.342
  452.454   62.675    0.243    0.504    4.965
  452.704   60.223    0.239    0.510    4.598
  452.954   57.758    0.247    0.480    4.476
  453.204   57.766    0.233    0.464    4.538
  453.454   60.811    0.226    0.460    4.649
  453.704   63.759    0.240    0.483    4.735
  453.954   66.138    0.237    0.449    4.814
  454.204   68.283    0.227    0.425    4.918
  454.454   69.550    0.214    0.415    4.904
  454.704   75.862    0.218    0.429    5.012
  454.954   79.750    0.182    0.538    4.887
  455.204   84.666    0.174    0.577    4.666
  455.454   88.026    0.193    0.596    4.372
  455.704   89.905    0.205    0.605    3.815
  455.954   92.869    0.217    0.607    3.444
  456.204   94.661    0.227    0.609    3.079
  456.454   95.576    0.208    0.593    2.882
  456.704   94.008    0.195    0.562    2.852
  456.954   93.143    0.186    0.540    2.773
  457.204   90.298    0.177    0.528    2.831
  457.454   88.296    0.171    0.509    2.985
  457.704   88.225    0.178    0.518    3.202
  457.954   89.708    0.192    0.540    3.453
  458.204   89.884    0.207    0.528    3.598
  458.454   92.328    0.192    0.529    3.746
  458.704   91.951    0.170    0.569    3.868
  458.954   84.537    0.139    0.519    3.567
  459.204   76.998    0.129    0.443    3.194
  459.454   73.679    0.119    0.401    2.988
  459.704   73.239    0.112    0.378    3.083
  459.954   76.313    0.125    0.411    3.594
  460.204   78.782    0.136    0.440    3.895
  460.454   81.382    0.142    0.450    4.409
  460.704   76.470    0.150    0.409    4.877
  460.954   71.117    0.165    0.387    5.519
  461.204   67.102    0.190    0.390    5.956
  461.454   66.369    0.221    0.402    6.623
  461.704   65.698    0.231    0.414    7.139
  461.954   64.991    0.226    0.428    8.056
  462.204   64.532    0.228    0.442    9.097
  462.454   64.915    0.215    0.446    9.964
  462.704   66.895    0.205    0.425   11.151
  462.954   66.371    0.202    0.427   11.544
  463.204   64.850    0.212    0.423   11.530
  463.454   63.972    0.199    0.420   11.521
  463.704   62.680    0.189    0.423   11.750
  463.954   60.835    0.183    0.432   11.752
  464.204   59.919    0.201    0.430   12.567
  464.454   60.738    0.244    0.406   13.349
  464.704   59.012    0.235    0.388   14.153
  464.954   58.752    0.217    0.390   15.573
  465.204   57.814    0.208    0.385   16.341
  465.454   52.272    0.231    0.383   17.896
  465.704   43.700    0.243    0.362   18.945
  465.954   34.134    0.238    0.347   20.254
  466.204   30.477    0.256    0.352   23.614
  466.454   30.643    0.269    0.357   29.506
  466.704   32.730    0.258    0.359   39.237
  466.954   34.538    0.241    0.352   50.281
  467.204   42.922    0.236    0.343   60.553
  467.454   55.154    0.203    0.345   59.759
  467.704   71.483    0.178    0.400   20.910
  467.954   82.767    0.196    0.422   16.377
  468.204   80.272    0.226    0.415   13.989
  468.454   77.171    0.232    0.414   11.492
  468.704   78.668    0.243    0.424   10.285
  468.954   78.116    0.229    0.424    9.705
  469.204   77.183    0.193    0.393    9.376
  469.454   82.795    0.143    0.411    9.388
  469.704   87.667    0.110    0.435    9.389
  469.954   86.893    0.087    0.419    9.388
  470.204   85.855    0.108    0.384    9.386
  470.454   89.264    0.182    0.387    9.384
  470.704   92.564    0.190    0.399    9.384
  470.954   94.889    0.192    0.419    9.383
  471.204   95.800    0.198    0.431    9.377
  471.454   97.587    0.176    0.418    9.292
  471.704  100.909    0.191    0.410    9.198
  471.954  101.858    0.201    0.424    8.897
  472.204   98.761    0.203    0.418    8.864
  472.454   86.060    0.206    0.445    9.044
