~VERSION INFORMATION
 VERS.                 2.0:   CWLS LOG ASCII STANDARD -VERSION 2.0
 WRAP.                  NO:   ONE LINE PER DEPTH STEP
~WELL INFORMATION BLOCK
#MNEM.UNIT           DATA                    DESCRIPTION OF MNEMONIC
#---------    -------------------            -------------------------------
# Generated from Intellog Unique Number	CN_91_93/WELL/3146
WELL.         10-25-092-18W4                 : Well_name    - WELL
LOC .         00/10-25-092-18W4/0            : Location     - LOCATION
UWI .         00/10-25-092-18W400            : Uwi          - UNIQUE WELL ID
ENTR.         JOETTE                         : Entered      - ENTERED BY
SRVC.         SCHLUMBERGER                   : Scn          - SERVICE COMPANY
DATE.         04/12/92                       : Date         - LOG DATE
STRT.M        100                            : top_depth    - START DEPTH
STOP.M        266                            : bot_depth    - STOP DEPTH
STEP.M        0.25                           : increment    - STEP LENGTH
 NULL. -999.2500:NULL Value
~CURVE INFORMATION BLOCK
#MNEM UNIT       ERCB CURVE CODE    CURVE DESCRIPTION
#-----------   ------------------   ----------------------------------
DEPT.M        00 001 00 00         : DEPTH        - DEPTH
CALI.MM       00 280 01 00         : CAL          - CALIPER
GR  .API      00 310 00 00         : GR           - GAMMA RAY
NPHI.V/V      00 330 00 00         : PHIN         - NEUTRON POROSITY (SANDSTONE)
DPHI.V/V      00 890 00 00         : PHID         - DENSITY POROSITY (SANDSTONE)
ILD .OHMM     00 120 00 00         : RESD         - DEEP RESISTIVITY (DIL)
~PARAMETER INFORMATION
#MNEM.UNIT           DATA             DESCRIPTION OF MNEMONIC
#---------         -----------     ------------------------------
GL  .M        520.54               : gl           - GROUND LEVEL ELEVATION
EREF.M        523.54               : kb           - ELEVATION OF DEPTH REFERENCE
DATM.M        523.54               : datum        - DATUM ELEVATION
TDD .M        268.5                : tdd          - TOTAL DEPTH DRILLER
RUN .         ONE                  : Run          - RUN NUMBER
ENG .         BILL                 : Engineer     - RECORDING ENGINEER
WIT .         JIM                  : Witness      - WITNESSED BY
MUD .         GEL                  : Mud_type     - MUD TYPE
MATR.         SANDSTONE            : Logunit      - NEUTRON MATRIX
TMAX.C        25                   : BHT          - MAXIMUM RECORDED TEMPERATURE
BHTD.M        268.5                : BHTDEP       - MAXIMUM RECORDED TEMPERATURE
RMT .C        17                   : MDTP         - TEMPERATURE OF MUD
MUDD.KG/M     1135                 : MWT          - MUD DENSITY
NEUT.         1                    : NEUTRON      - NEUTRON TYPE
RESI.         0                    : RESIST       - RESISTIVITY TYPE
RM  .OHMM     6.25                 : RM           - RESISTIVITY OF MUD
RMC .OHMM     6.25                 : RMC          - RESISTIVITY OF MUD CAKE
RMF .OHMM     5.21                 : RMF          - RESISTIVITY OF MUD FILTRATE
SUFT.C        4                    : SUFT         - SURFACE TEMPERATURE
~A  DEPTH      CAL       GR     PHIN     PHID     RESD
# ...
  136.500  183.532   62.468    0.468    0.175   11.663
  136.750  181.469   62.479    0.437    0.148   12.619
  137.000  179.414   65.597    0.405    0.176   13.384
  137.250  184.612   69.962    0.414    0.215   13.117
  137.500  191.887   73.081    0.430    0.256   11.418
  137.750  192.936   76.205    0.458    0.263    9.938
  138.000  193.998   78.078    0.462    0.262    8.649
  138.250  194.011   80.573    0.461    0.257    7.831
  138.500  192.992   84.313    0.442    0.257    7.524
  138.750  190.933   84.326    0.434    0.267    7.522
  139.000  188.883   81.226    0.445    0.281    7.979
  139.250  186.828   73.154    0.457    0.276    9.160
  139.500  185.809   61.974    0.445    0.270   10.515
  139.750  184.799   58.255    0.423    0.278   10.937
  140.000  184.821   65.104    0.443    0.280   10.302
  140.250  185.870   63.873    0.487    0.292    9.328
  140.500  185.878   60.773    0.439    0.307    8.616
  140.750  185.896   57.675    0.421    0.287    9.322
  141.000  183.841   58.307    0.414    0.276   11.584
  141.250  182.831   65.156    0.415    0.248   13.299
  141.500  183.880   72.005    0.425    0.268   13.830
  141.750  184.934   72.637    0.444    0.268   12.772
  142.000  187.023   73.269    0.463    0.254   11.796
  142.250  189.113   75.766    0.448    0.220   10.896
  142.500  191.207   81.372    0.430    0.190   10.469
  142.750  192.252   83.871    0.433    0.187    9.862
  143.000  194.341   83.884    0.465    0.217    9.475
  143.250  195.399   85.757    0.483    0.234    9.287
  143.500  196.448   88.876    0.501    0.243    8.576
  143.750  197.502   92.617    0.459    0.247    8.241
  144.000  197.532   92.005    0.445    0.249    7.918
  144.250  198.577   89.532    0.440    0.254    8.073
  144.500  198.599   90.164    0.444    0.262    8.232
  144.750  197.576   93.283    0.463    0.258    8.561
  145.000  195.521   85.830    0.513    0.238    8.557
  145.250  187.249   62.217    0.541    0.178    7.448
  145.500  183.122   46.685    0.389    0.100    6.612
  145.750  183.139   67.211    0.318    0.105    5.870
  146.000  191.446   87.115    0.359    0.136    6.739
  146.250  199.757   89.615    0.458    0.211    7.585
  146.500  198.734   85.893    0.490    0.263    7.887
  146.750  195.643   80.930    0.480    0.287    7.886
  147.000  192.556   79.075    0.464    0.297    7.141
  147.250  191.533   79.707    0.444    0.274    7.281
  147.500  190.518   77.853    0.425    0.231    9.047
  147.750  190.531   72.890    0.428    0.226   12.408
  148.000  190.549   73.524    0.433    0.258   13.425
  148.250  190.570   73.535    0.428    0.268   13.963
  148.500  191.624   70.439    0.421    0.274   13.957
  148.750  196.818   69.204    0.409    0.274   13.678
  149.000  202.029   71.701    0.414    0.274   12.881
  149.250  202.046   74.823    0.428    0.266   12.379
  149.500  202.059   76.695    0.443    0.265   11.661
  149.750  201.036   78.571    0.461    0.268   11.206
  150.000  198.986   77.338    0.457    0.273    9.752
  150.250  194.854   74.240    0.467    0.263    9.188
  150.500  187.618   67.412    0.469    0.231    8.655
  150.750  182.455   60.584    0.371    0.203   10.756
  151.000  179.369   61.218    0.327    0.174   12.845
  151.250  179.386   62.472    0.367    0.208   14.746
  151.500  183.548   63.726    0.402    0.294   14.743
  151.750  188.742   71.816    0.428    0.265   13.615
  152.000  193.940   85.503    0.471    0.264   12.088
  152.250  196.034   90.490    0.493    0.274    9.344
  152.500  195.015   84.905    0.482    0.291    7.513
  152.750  189.852   74.969    0.458    0.328    6.803
  153.000  186.761   61.921    0.403    0.302    7.361
  153.250  185.746   52.606    0.399    0.272    9.516
  153.500  185.759   52.617    0.394    0.294   13.315
  153.750  187.849   58.846    0.427    0.289   15.286
  154.000  189.934   66.317    0.439    0.277   15.895
  154.250  192.032   70.679    0.433    0.270   15.577
  154.500  193.086   78.150    0.434    0.257   14.675
  154.750  194.135   80.647    0.453    0.252   12.523
  155.000  195.197   78.171    0.467    0.261    9.680
  155.250  196.242   75.697    0.459    0.262    7.631
  155.500  196.260   75.083    0.442    0.260    7.333
  155.750  196.277   74.475    0.424    0.258    6.907
  156.000  196.294   76.347    0.429    0.256    6.770
  156.250  196.312   82.575    0.445    0.253    6.505
  156.500  196.329   83.831    0.452    0.256    6.374
  156.750  196.346   82.596    0.462    0.258    6.373
  157.000  196.364   78.876    0.482    0.267    6.370
  157.250  196.386   80.130    0.506    0.267    6.625
  157.500  196.399   79.521    0.524    0.263    7.026
  157.750  194.344   78.910    0.509    0.252    7.603
  158.000  189.180   78.299    0.496    0.248    8.391
  158.250  184.017   73.335    0.478    0.239    9.825
  158.500  178.854   66.507    0.450    0.170   11.970
  158.750  174.727   61.544    0.396    0.072   20.008
  159.000  174.748   54.716    0.291    0.033   30.907
  159.250  175.806   50.997    0.261    0.022   37.652
  159.500  176.855   50.385    0.234    0.016   43.227
  159.750  183.098   50.396    0.244    0.034   42.361
  160.000  186.215   59.110    0.285    0.166   21.192
  160.250  190.382   71.554    0.372    0.191   12.418
  160.500  193.507   83.376    0.417    0.228   10.809
  160.750  194.557   88.984    0.458    0.211    8.522
  161.000  195.619   88.373    0.526    0.220    6.719
  161.250  195.628   93.357    0.515    0.221    5.965
  161.500  195.645   96.473    0.518    0.214    5.731
  161.750  194.626  100.214    0.523    0.201    5.617
  162.000  193.607  101.473    0.531    0.192    5.505
  162.250  192.589   98.996    0.529    0.179    5.612
  162.500  192.606   92.787    0.527    0.159    5.953
  162.750  191.592   78.499    0.525    0.105    6.192
  163.000  191.613   58.613    0.478    0.049    6.699
  163.250  191.626   44.325    0.391    0.001    7.844
  163.500  191.639   42.470    0.340    0.014    9.747
  163.750  192.697   61.134    0.296    0.049   12.354
  164.000  194.787   77.930    0.326    0.133   12.596
  164.250  202.057   92.861    0.412    0.174    9.930
  164.500  209.332   86.032    0.469    0.155    7.829
  164.750  212.453   77.961    0.494    0.140    6.680
  165.000  213.507   76.106    0.396    0.130    7.086
  165.250  215.601   78.603    0.392    0.194   10.314
  165.500  218.731   77.371    0.404    0.225   11.609
  165.750  222.889   74.897    0.417    0.250   12.562
  166.000  229.118   75.526    0.416    0.260   14.421
  166.250  233.289   77.404    0.404    0.254   16.555
  166.500  234.334   76.796    0.397    0.254   16.881
  166.750  236.432   75.558    0.393    0.255   17.209
  167.000  237.481   76.190    0.399    0.246   16.868
  167.250  238.531   79.936    0.427    0.239   16.860
  167.500  241.661   81.187    0.445    0.228   16.524
  167.750  244.787   83.065    0.438    0.222   16.194
  168.000  246.881   82.451    0.438    0.218   15.560
  168.250  247.934   79.977    0.432    0.217   14.951
  168.500  247.951   78.120    0.427    0.222   13.807
  168.750  247.964   76.887    0.440    0.227   13.010
  169.000  245.918   79.384    0.455    0.224   12.014
  169.250  244.895   80.638    0.442    0.222   11.316
  169.500  242.836   81.273    0.445    0.224   11.091
  169.750  237.681   78.796    0.458    0.232   10.871
  170.000  237.690   76.320    0.453    0.240   11.084
  170.250  232.531   71.976    0.438    0.203   12.230
  170.500  229.440   70.743    0.400    0.145   13.765
  170.750  226.349   74.486    0.357    0.190   14.316
  171.000  224.290   76.984    0.370    0.222   15.488
  171.250  221.203   74.505    0.387    0.212   15.794
  171.500  220.180   72.650    0.382    0.209   15.787
  171.750  218.134   73.282    0.391    0.243   16.096
  172.000  218.147   75.158    0.394    0.267   16.091
  172.250  217.124   73.303    0.389    0.258   16.733
  172.500  215.073   73.313    0.394    0.257   17.062
  172.750  214.050   77.676    0.409    0.265   17.742
