~VERSION INFORMATION
 VERS.                 2.0:   CWLS LOG ASCII STANDARD -VERSION 2.0
 WRAP.                  NO:   ONE LINE PER DEPTH STEP
~WELL INFORMATION BLOCK
#MNEM.UNIT           DATA                    DESCRIPTION OF MNEMONIC
#---------    -------------------            -------------------------------
# Generated from Intellog Unique Number	CW_82_90/WELL/3454
WELL.         TEXACO CORN LAKE               : Well_name    - WELL
LOC .         00/11-24-088-25W4/0            : Location     - LOCATION
UWI .         00/11-24-088-25W4/0            : Uwi          - UNIQUE WELL ID
ENTR.         MAX                            : Entered      - ENTERED BY
SRVC.         SCHLUMBERGER                   : Scn          - SERVICE COMPANY
STRT.M        190                            : top_depth    - START DEPTH
STOP.M        422                            : bot_depth    - STOP DEPTH
STEP.M        0.25                           : increment    - STEP LENGTH
 NULL. -999.2500:NULL Value
~CURVE INFORMATION BLOCK
#MNEM UNIT       ERCB CURVE CODE    CURVE DESCRIPTION
#-----------   ------------------   ----------------------------------
DEPT.M        00 001 00 00         : DEPTH        - DEPTH
ILD .OHMM     00 120 00 00         : RESD         - DEEP RESISTIVITY (DIL)
NPHI.V/V      00 330 00 00         : PHIN         - NEUTRON POROSITY (SANDSTONE)
DPHI.V/V      00 890 00 00         : PHID         - DENSITY POROSITY (SANDSTONE)
CALI.MM       00 280 01 00         : CAL          - CALIPER
GR  .API      00 310 00 00         : GR           - GAMMA RAY
~PARAMETER INFORMATION
#MNEM.UNIT           DATA             DESCRIPTION OF MNEMONIC
#---------         -----------     ------------------------------
GL  .M        623.1                : gl           - GROUND LEVEL ELEVATION
EREF.M        626.7                : kb           - ELEVATION OF DEPTH REFERENCE
DATM.M        623.1                : datum        - DATUM ELEVATION
TDD .M        424.8                : tdd          - TOTAL DEPTH DRILLER
RUN .         ONE                  : Run          - RUN NUMBER
ENG .         BILL                 : Engineer     - RECORDING ENGINEER
WIT .         JIM                  : Witness      - WITNESSED BY
MUD .         GEL                  : Mud_type     - MUD TYPE
MATR.         SANDSTONE            : Logunit      - NEUTRON MATRIX
TMAX.C        31                   : BHT          - MAXIMUM RECORDED TEMPERATURE
BHTD.M        424.8                : BHTDEP       - MAXIMUM RECORDED TEMPERATURE
MATR.         1                    : LOGUNIT      - NEUTRON MATRIX
RMT .C        21                   : MDTP         - TEMPERATURE OF MUD
NEUT.         1                    : NEUTRON      - NEUTRON TYPE
RESI.         0                    : RESIST       - RESISTIVITY TYPE
RMC .OHMM     4.03                 : RMC          - RESISTIVITY OF MUD CAKE
RMF .OHMM     4.45                 : RMF          - RESISTIVITY OF MUD FILTRATE
SUFT.C        -15                  : SUFT         - SURFACE TEMPERATURE
~A  DEPTH     RESD     PHIN     PHID      CAL       GR
  190.000    4.079    0.528    0.341  229.301   92.821
  190.250    3.938    0.515    0.318  229.383   82.786
  190.500    3.950    0.497    0.302  228.981   78.988
  190.750    3.852    0.502    0.300  229.053   78.154
  191.000    3.823    0.531    0.292  228.157   76.709
  191.250    3.693    0.514    0.290  227.725   74.097
  191.500    3.567    0.499    0.280  229.793   72.664
  191.750    3.544    0.515    0.285  233.838   71.824
  192.000    3.428    0.519    0.304  237.378   71.873
  192.250    3.463    0.525    0.298  238.952   70.446
  192.500    3.375    0.522    0.300  238.046   69.890
  192.750    3.261    0.517    0.305  237.614   71.730
  193.000    3.180    0.516    0.302  237.706   72.373
  193.250    3.158    0.525    0.304  237.304   72.416
  193.500    3.165    0.541    0.305  237.386   72.773
  193.750    3.144    0.564    0.312  237.963   72.823
  194.000    3.094    0.564    0.321  237.540   71.680
  194.250    3.015    0.542    0.330  237.622   69.951
  194.500    2.968    0.522    0.323  240.679   69.407
  194.750    2.920    0.531    0.316  236.809   69.753
  195.000    2.900    0.552    0.331  236.880   69.796
  195.250    2.880    0.536    0.321  236.983   71.043
  195.500    2.860    0.518    0.305  237.055   72.278
  195.750    2.842    0.513    0.309  237.137   73.822
  196.000    2.850    0.517    0.312  238.227   74.742
  196.250    2.910    0.531    0.306  239.792   76.273
  196.500    2.944    0.553    0.299  239.863   77.810
  196.750    3.007    0.540    0.292  238.453   79.342
  197.000    3.070    0.516    0.283  236.569   81.176
  197.250    3.166    0.517    0.272  232.215   83.596
  197.500    3.264    0.512    0.261  231.289   85.127
  197.750    3.364    0.507    0.258  233.347   85.776
  198.000    3.500    0.524    0.261  235.909   86.412
  198.250    3.678    0.533    0.267  236.002   87.054
  198.500    3.789    0.532    0.274  237.555   87.696
  198.750    3.944    0.536    0.274  237.154   87.751
  199.000    3.636    0.541    0.269  236.248   87.794
  199.250    3.479    0.523    0.277  234.837   87.850
  199.500    3.269    0.534    0.277  231.966   87.905
  199.750    2.876    0.529    0.268  230.566   87.954
  200.000    2.728    0.521    0.252  229.660   88.893
  200.250    2.708    0.533    0.253  231.213   89.238
  200.500    2.742    0.541    0.235  235.258   88.392
  200.750    2.800    0.531    0.242  239.796   86.669
  201.000    2.832    0.550    0.260  243.820   86.422
  201.250    2.840    0.563    0.258  243.913   87.657
  201.500    2.846    0.565    0.252  242.996   89.478
  201.750    2.854    0.548    0.241  242.595   91.312
  202.000    2.861    0.552    0.240  242.667   91.368
  202.250    2.894    0.548    0.261  235.832   92.306
  202.500    2.984    0.539    0.259  233.959   94.127
  202.750    3.048    0.537    0.243  234.524   95.659
  203.000    3.114    0.531    0.234  236.089   94.825
  203.250    3.240    0.543    0.229  241.131   93.096
  203.500    3.308    0.535    0.234  242.181   91.953
  203.750    3.412    0.530    0.247  243.251   91.718
  204.000    3.482    0.532    0.264  243.837   92.650
  204.250    3.557    0.511    0.247  242.921   91.817
  204.500    3.566    0.535    0.233  241.542   90.378
  204.750    3.542    0.541    0.229  244.578   90.723
  205.000    3.552    0.524    0.213  244.166   88.401
  205.250    3.561    0.515    0.193  236.858   88.450
  205.500    3.571    0.514    0.218  237.424   91.766
  205.750    3.611    0.530    0.254  239.976   91.519
  206.000    3.621    0.548    0.240  241.550   90.975
  206.250    3.630    0.565    0.243  243.114   92.217
  206.500    3.638    0.551    0.248  243.701   95.224
  206.750    3.614    0.538    0.245  242.280   97.058
  207.000    3.623    0.522    0.235  239.398   97.403
  207.250    3.634    0.520    0.227  238.492  100.429
  207.500    3.642    0.535    0.232  236.598  100.762
  207.750    3.685    0.540    0.229  231.235  100.521
  208.000    3.765    0.535    0.222  231.811   99.972
  208.250    3.843    0.520    0.213  233.890  100.910
  208.500    4.037    0.502    0.213  233.982  100.965
  208.750    4.086    0.489    0.196  234.054  100.125
  209.000    4.173    0.496    0.176  234.640   98.989
  209.250    4.260    0.501    0.154  234.702   98.445
  209.500    4.272    0.510    0.172  232.314   98.204
  209.750    4.281    0.517    0.227  234.887   98.544
  210.000    4.214    0.504    0.228  234.958   99.192
  210.250    4.145    0.486    0.224  235.040   98.945
  210.500    4.082    0.483    0.205  236.121  100.476
  210.750    4.051    0.490    0.212  236.687  101.408
  211.000    3.987    0.496    0.228  234.298  101.167
  211.250    3.888    0.502    0.237  231.921   99.728
  211.500    3.862    0.508    0.247  231.015   98.308
  211.750    3.799    0.491    0.251  231.107   98.048
  212.000    3.811    0.481    0.251  231.662   96.912
  212.250    3.819    0.475    0.250  234.225   97.257
  212.500    3.864    0.495    0.243  235.779   97.628
  212.750    3.909    0.524    0.232  239.833   97.967
  213.000    3.994    0.541    0.238  239.422   97.708
  213.250    4.079    0.541    0.228  233.565   93.020
  213.500    4.167    0.536    0.223  238.598   91.884
  213.750    4.255    0.521    0.227  240.656   93.415
  214.000    4.429    0.510    0.231  235.797   93.755
  214.250    4.563    0.498    0.231  235.385   93.211
  214.500    4.792    0.491    0.224  236.456   92.087
  214.750    5.178    0.482    0.211  236.538   90.346
  215.000    5.591    0.475    0.205  235.127   87.431
  215.250    6.688    0.466    0.213  235.240   84.824
  215.500    7.289    0.450    0.233  235.806   83.083
  215.750    7.312    0.435    0.220  237.370   81.354
  216.000    7.190    0.420    0.187  231.020   79.624
  216.250    6.694    0.422    0.159  229.630   79.081
  216.500    6.227    0.438    0.179  230.196   81.804
  216.750    5.799    0.448    0.197  230.278   86.596
  217.000    5.548    0.456    0.226  231.348   90.498
  217.250    5.260    0.465    0.230  234.888   94.111
  217.500    4.895    0.477    0.215  234.980   96.241
  217.750    4.726    0.488    0.229  235.072   95.988
  218.000    4.608    0.511    0.238  235.144   96.339
  218.250    4.493    0.528    0.242  235.237   94.604
  218.500    4.506    0.536    0.239  235.319   93.171
  218.750    4.516    0.512    0.242  235.390   92.627
  219.000    4.568    0.498    0.242  234.978   92.677
  219.250    4.708    0.493    0.235  234.566   93.615
  219.500    5.182    0.487    0.229  234.659   93.078
  219.750    5.700    0.480    0.214  234.731   90.756
  220.000    6.451    0.468    0.224  234.319   83.981
  220.250    7.165    0.456    0.239  234.421   80.177
  220.500    8.413    0.428    0.238  234.493   73.699
  220.750   12.699    0.408    0.239  236.067   62.182
  221.000   13.591    0.386    0.256  236.139   31.991
  221.250   12.411    0.353    0.228  232.279   30.255
  221.500   10.235    0.356    0.211  227.421   33.275
  221.750    8.363    0.357    0.194  226.999   39.845
  222.000    7.496    0.376    0.195  227.081   50.275
  222.250    5.845    0.432    0.206  227.163   60.705
  222.500    5.003    0.463    0.257  228.727   67.880
  222.750    5.402    0.505    0.267  234.264   66.151
  223.000    6.055    0.523    0.269  230.383   64.416
  223.250    6.854    0.515    0.290  240.840   60.013
  223.500    7.468    0.481    0.285  236.970   52.948
  223.750    8.612    0.459    0.288  230.650   49.440
  224.000    9.560    0.448    0.304  229.240   47.711
  224.250   10.327    0.430    0.303  227.840   47.173
  224.500    9.086    0.427    0.318  227.911   47.216
  224.750    7.493    0.453    0.324  228.981   49.056
  225.000    7.039    0.458    0.308  231.544   50.872
  225.250    7.889    0.474    0.299  235.084   55.380
  225.500    9.179    0.494    0.282  242.587   57.201
  225.750   10.105    0.494    0.312  239.200   54.292
  226.000   10.707    0.453    0.283  227.920   50.778
  226.250   11.248    0.439    0.277  226.530   46.091
