~VERSION INFORMATION
 VERS.                 2.0:   CWLS LOG ASCII STANDARD -VERSION 2.0
 WRAP.                  NO:   ONE LINE PER DEPTH STEP
~WELL INFORMATION BLOCK
#MNEM.UNIT           DATA                    DESCRIPTION OF MNEMONIC
#---------    -------------------            -------------------------------
# Generated from Intellog Unique Number	CW_76_78/WELL/2821
WELL.         TENN AMOCO A1 MCMULLEN 11-35   : Well_name    - WELL
LOC .         00/11-35-077-01W5/0            : Location     - LOCATION
UWI .         00/11-35-077-01W5/0            : Uwi          - UNIQUE WELL ID
ENTR.         JJ                             : Entered      - ENTERED BY
SRVC.         SCHLUMBERGER                   : Scn          - SERVICE COMPANY
DATE.         13 FEB 71                      : Date         - LOG DATE
STRT.M        445.008                        : top_depth    - START DEPTH
STOP.M        573.008                        : bot_depth    - STOP DEPTH
STEP.M        0.25                           : increment    - STEP LENGTH
 NULL. -999.2500:NULL Value
~CURVE INFORMATION BLOCK
#MNEM UNIT       ERCB CURVE CODE    CURVE DESCRIPTION
#-----------   ------------------   ----------------------------------
DEPT.M        00 001 00 00         : DEPTH        - DEPTH
DELT.US/F     00 520 00 00         : DELT         - SONIC TRAVEL TIME
GR  .API      00 310 00 00         : GR           - GAMMA RAY
CALI.MM       00 280 01 00         : CAL          - CALIPER
ILD .OHMM     00 120 00 00         : RESD         - DEEP RESISTIVITY (DIL)
~PARAMETER INFORMATION
#MNEM.UNIT           DATA             DESCRIPTION OF MNEMONIC
#---------         -----------     ------------------------------
GL  .M        624.23               : gl           - GROUND LEVEL ELEVATION
EREF.M        628.543              : kb           - ELEVATION OF DEPTH REFERENCE
DATM.M        624.23               : datum        - DATUM ELEVATION
TDD .M        585.216              : tdd          - TOTAL DEPTH DRILLER
RUN .         ONE                  : Run          - RUN NUMBER
ENG .         BUETON               : Engineer     - RECORDING ENGINEER
BASE.         EDM                  : Branch       - HOME BASE OF LOGGING UNIT
MUD .         FRESH GEL            : Mud_type     - MUD TYPE
MATR.         SANDSTONE            : Logunit      - NEUTRON MATRIX
TMAX.C        30                   : BHT          - MAXIMUM RECORDED TEMPERATURE
BHTD.M        585.521              : BHTDEP       - MAXIMUM RECORDED TEMPERATURE
RMT .C        12.7778              : MDTP         - TEMPERATURE OF MUD
MUDD.KG/M     1140                 : MWT          - MUD DENSITY
NEUT.         1                    : NEUTRON      - NEUTRON TYPE
RESI.         0                    : RESIST       - RESISTIVITY TYPE
RM  .OHMM     4.9                  : RM           - RESISTIVITY OF MUD
RMC .OHMM     4.56                 : RMC          - RESISTIVITY OF MUD CAKE
RMF .OHMM     5.4                  : RMF          - RESISTIVITY OF MUD FILTRATE
SUFT.C        5                    : SUFT         - SURFACE TEMPERATURE
~A  DEPTH     DELT       GR      CAL     RESD
# ...
  488.508  290.720   60.324  223.360    4.986
  488.758  333.923   66.042  223.522    4.694
  489.008  354.714   71.696  223.782    4.767
  489.258  324.743   69.471  224.365    5.009
  489.508  295.361   61.628  224.421    5.218
  489.758  264.138   57.566  224.070    5.404
  490.008  291.423   62.064  223.829    5.427
  490.258  331.678   69.860  224.101    5.095
  490.508  339.494   74.786  224.255    4.554
  490.758  346.075   76.525  224.214    4.191
  491.008  351.677   75.892  224.159    3.997
  491.258  358.585   75.436  224.111    3.853
  491.508  351.800   77.674  224.487    3.810
  491.758  358.121   80.824  224.644    3.749
  492.008  367.716   82.995  224.608    3.753
  492.258  357.393   77.779  224.668    3.722
  492.508  352.314   77.759  224.939    3.706
  492.758  359.095   78.770  225.104    3.728
  493.008  360.884   80.271  224.747    3.752
  493.258  357.378   81.219  223.990    3.809
  493.508  357.281   77.403  223.831    3.857
  493.758  354.494   75.607  223.577    3.913
  494.008  345.876   76.375  223.115    3.953
  494.258  343.478   77.203  222.455    3.985
  494.508  353.798   76.750  221.906    4.002
  494.758  359.722   75.745  221.333    4.015
  495.008  357.129   70.713  220.769    4.040
  495.258  339.075   65.309  220.102    4.078
  495.508  328.365   64.792  219.340    4.158
  495.758  325.381   69.103  219.398    4.181
  496.008  355.085   71.949  220.700    4.205
  496.258  341.950   68.934  221.690    4.164
  496.508  337.853   67.864  222.368    4.086
  496.758  336.237   70.352  223.046    4.046
  497.008  344.978   68.001  223.638    4.027
  497.258  354.450   68.459  224.101    3.988
  497.508  355.920   71.859  224.463    3.962
  497.758  351.562   75.864  224.739    3.947
  498.008  349.365   70.824  224.787    3.954
  498.258  352.473   74.350  224.538    3.937
  498.508  360.296   79.760  224.506    3.935
  498.758  356.064   78.690  224.869    3.919
  499.008  354.000   76.347  225.958    3.917
  499.258  358.815   75.830  227.777    3.917
  499.508  367.093   74.100  224.021    3.973
  499.758  372.628   76.815  222.628    4.094
  500.008  363.948   77.461  223.519    4.303
  500.258  360.563   66.563  224.915    4.739
  500.508  360.010   70.451  225.809    5.318
  500.758  356.500   73.538  226.077    5.939
  501.008  346.899   71.919  226.439    6.519
  501.258  337.103   66.578  227.011    7.254
  501.508  340.010   70.652  226.774    7.858
  501.758  344.694   66.471  226.200    8.333
  502.008  346.496   61.001  225.660    8.986
  502.258  296.933   55.421  225.611    9.501
  502.508  237.215   51.728  225.560   10.153
  502.758  251.981   50.662  225.612   10.920
  503.008  267.341   51.064  225.774   11.774
  503.258  275.364   53.789  225.840   12.806
  503.508  248.076   56.141  226.112   14.345
  503.758  225.048   52.326  226.276   15.645
  504.008  229.195   48.759  226.533   16.103
  504.258  228.119   44.762  226.396   12.328
  504.508  219.953   45.467  226.864    9.804
  504.758  248.027   50.511  226.714    7.682
  505.008  286.905   60.996  226.251    6.342
  505.258  332.400   68.062  226.729    5.140
  505.508  341.141   70.781  225.968    4.542
  505.758  339.207   67.214  226.539    4.400
  506.008  341.465   66.823  228.356    4.383
  506.258  341.415   71.075  228.001    4.414
  506.508  338.178   67.139  227.124    4.446
  506.758  327.597   62.831  226.677    4.510
  507.008  322.055   67.209  226.545    4.573
  507.258  330.079   68.094  226.688    4.540
  507.508  338.954   65.746  227.475    4.450
  507.758  339.705   68.594  228.873    4.353
  508.008  339.798   75.599  230.087    4.191
  508.258  345.067   78.562  230.757    3.886
  508.508  336.193   74.626  231.658    3.708
  508.758  322.595   73.743  232.221    3.659
  509.008  337.168   78.003  232.078    3.869
  509.258  356.328   82.382  231.305    4.205
  509.508  350.134   85.092  229.193    5.060
  509.758  325.463   83.050  225.936    6.494
  510.008  311.669   74.232  222.175    8.406
  510.258  327.229   69.128  219.959    9.785
  510.508  341.999   66.782  218.767   10.776
  510.758  346.024   68.350  218.625   11.470
  511.008  326.071   68.016  217.451   12.236
  511.258  343.329   64.015  219.261   12.816
  511.508  343.033   60.443  222.631   13.227
  511.758  295.502   56.752  224.753   12.944
  512.008  224.320   54.158  225.847   11.805
  512.258  233.652   58.354  224.472    9.789
  512.508  292.837   62.977  223.395    8.369
  512.758  302.559   65.813  222.829    7.489
  513.008  309.983   70.375  222.572    6.506
  513.258  312.381   73.160  222.335    5.634
  513.508  314.445   75.939  222.181    5.197
  513.758  316.631   70.661  223.900    5.052
  514.008  317.907   73.999  225.811    5.020
  514.258  319.446   78.376  230.328    5.019
  514.508  322.873   81.522  230.379    4.971
  514.758  325.403   84.065  228.277    4.922
  515.008  334.269   85.992  229.570    4.624
  515.258  343.609   88.652  234.900    4.379
  515.508  359.295   91.990  233.514    3.993
  515.758  347.860   89.945  225.090    3.912
  516.008  330.720   84.662  221.318    3.897
  516.258  328.855   75.907  221.482    3.893
  516.508  330.390   72.334  222.266    3.909
  516.758  334.674   68.394  218.192    3.981
  517.008  342.173   71.974  217.109    4.303
  517.258  350.260   77.508  221.428    4.714
  517.508  337.322   67.898  223.644    5.263
  517.758  284.027   62.608  223.392    5.828
  518.008  233.939   52.987  222.623    6.044
  518.258  252.768   56.997  223.121    5.407
  518.508  276.778   67.905  223.051    4.946
  518.758  339.891   72.707  222.599    4.269
  519.008  358.324   77.141  221.516    3.905
  519.258  354.429   80.293  218.174    4.138
  519.508  348.561   67.866  216.047    4.581
  519.758  345.966   52.928  214.061    5.155
  520.008  350.129   40.011  214.096    5.654
  520.258  352.058   32.284  213.756    6.184
  520.508  350.116   22.849  213.698    7.403
  520.758  353.494   17.818  213.348    9.813
  521.008  359.414   16.747  213.829   12.055
  521.258  362.985   18.316  215.122   14.523
  521.508  363.279   19.208  217.879   16.241
  521.758  359.108   19.236  220.619   16.127
  522.008  359.212   19.271  217.999   13.312
  522.258  363.238   17.907  217.449   10.197
  522.508  370.275   17.020  217.289    8.366
  522.758  371.550   16.818  217.034    6.600
  523.008  368.040   17.097  216.900    5.116
  523.258  363.608   18.167  216.735    4.357
  523.508  362.132   19.975  216.591    3.760
  523.758  364.002   20.869  216.646    3.436
  524.008  366.052   20.167  216.916    3.220
  524.258  365.306   19.658  217.706    3.115
  524.508  360.880   19.815  217.973    3.065
  524.758  355.793   20.392  218.360    2.991
  525.008  353.461   21.160  218.512    2.861
  525.258  352.378   23.399  218.353    2.734
  525.508  352.747   23.246  218.307    2.596
  525.758  353.619   22.373  218.488    2.465
  526.008  353.580   23.017  218.750    2.288
  526.258  354.537   24.271  219.122    2.176
  526.508  356.398   24.923  219.182    2.140
  526.758  353.477   24.644  219.235    2.084
  527.008  350.099   23.090  219.004    2.044
  527.258  347.310   22.515  219.065    2.043
  527.508  347.935   22.368  219.093    2.034
  527.758  349.605   22.586  218.741    2.079
  528.008  346.750   23.172  218.817    2.099
  528.258  345.206   24.311  218.877    2.148
  528.508  347.854   26.183  218.828    2.163
  528.758  350.181   27.009  218.576    2.160
  529.008  348.705   27.351  218.652    2.154
  529.258  342.048   27.500  219.002    2.121
  529.508  342.801   27.295  219.063    2.097
  529.758  343.283   26.903  219.236    2.080
  530.008  342.469   26.389  219.484    2.061
  530.258  340.597   27.462  219.341    2.013
  530.508  340.562   32.812  219.719    2.013
  530.758  342.231   34.990  220.188    2.062
  531.008  342.847   36.057  220.445    2.125
  531.258  344.179   38.416  220.307    2.465
  531.508  346.440   40.535  220.272    2.721
  531.758  349.818   40.994  220.121    3.316
