~VERSION INFORMATION
 VERS.                 2.0:   CWLS LOG ASCII STANDARD -VERSION 2.0
 WRAP.                  NO:   ONE LINE PER DEPTH STEP
~WELL INFORMATION BLOCK
#MNEM.UNIT           DATA                    DESCRIPTION OF MNEMONIC
#---------    -------------------            -------------------------------
# Generated from Intellog Unique Number	CS_69_70/WELL/904
NULL.         -999.25                        : NULL_VALUE
WELL.         MAYNARD EXPLORATION            : Well_name    - WELL              
LOC .         00/16-33-070-15W4/0            : Location     - LOCATION          
UWI .         00/16-33-070-15W4/0            : Uwi          - UNIQUE WELL ID    
ENTR.         SP                             : Entered      - ENTERED BY        
SRVC.         SCHLUMBERGER                   : Scn          - SERVICE COMPANY   
STRT.M        265                            : top_depth    - START DEPTH       
STOP.M        476                            : bot_depth    - STOP DEPTH        
STEP.M        0.25                           : increment    - STEP LENGTH       
~CURVE INFORMATION BLOCK
#MNEM UNIT       ERCB CURVE CODE    CURVE DESCRIPTION
#-----------   ------------------   ----------------------------------
DEPT.M        00 001 00 00         : DEPTH        - DEPTH                       
ILD .OHMM     00 120 00 00         : RESD         - DEEP RESISTIVITY (DIL)      
DPHI.V/V      00 890 00 00         : PHID         - DENSITY POROSITY (LIMESTONE)
NPHI.V/V      00 330 00 00         : PHIN         - NEUTRON POROSITY (LIMESTONE)
GR  .API      00 310 00 00         : GR           - GAMMA RAY                   
~PARAMETER INFORMATION       
#MNEM.UNIT           DATA             DESCRIPTION OF MNEMONIC
#---------         -----------     ------------------------------
GL  .M        570.01               : gl           - GROUND LEVEL ELEVATION      
EREF.M        573.21               : kb           - ELEVATION OF DEPTH REFERENCE
DATM.M        570.01               : datum        - DATUM ELEVATION             
TDD .M        486                  : tdd          - TOTAL DEPTH DRILLER         
RUN .         ONE                  : Run          - RUN NUMBER                  
ENG .         BILL                 : Engineer     - RECORDING ENGINEER          
WIT .         JIM                  : Witness      - WITNESSED BY                
MUD .         GEL                  : Mud_type     - MUD TYPE                    
MATR.         LIMESTONE            : Logunit      - NEUTRON MATRIX              
TMAX.C        21                   : BHT          - MAXIMUM RECORDED TEMPERATURE
BHTD.M        486                  : BHTDEP       - MAXIMUM RECORDED TEMPERATURE
MATR.         1                    : LOGUNIT      - NEUTRON MATRIX              
RMT .C        25                   : MDTP         - TEMPERATURE OF MUD          
NEUT.         1                    : NEUTRON      - NEUTRON TYPE                
RESI.         0                    : RESIST       - RESISTIVITY TYPE            
RMC .OHMM     0.25                 : RMC          - RESISTIVITY OF MUD CAKE     
RMF .OHMM     0.25                 : RMF          - RESISTIVITY OF MUD FILTRATE 
SUFT.C        15                   : SUFT         - SURFACE TEMPERATURE         
~A  DEPTH     RESD     PHID     PHIN       GR
# ...
  439.000   10.994    0.213    0.312   65.227
  439.250   11.419    0.233    0.321   65.591
  439.500   11.787    0.251    0.323   66.259
  439.750   12.171    0.264    0.339   66.380
  440.000   12.654    0.261    0.335   66.075
  440.250   13.070    0.248    0.331   64.311
  440.500   13.463    0.243    0.342   62.608
  440.750   14.158    0.249    0.355   62.182
  441.000   14.338    0.258    0.368   62.971
  441.250   14.983    0.256    0.376   63.396
  441.500   15.457    0.242    0.359   64.550
  441.750   15.703    0.229    0.350   65.401
  442.000   15.883    0.216    0.353   64.975
  442.250   16.218    0.207    0.357   60.657
  442.500   16.431    0.197    0.360   59.805
  442.750   16.261    0.184    0.347   61.690
  443.000   14.860    0.170    0.334   64.364
  443.250   13.451    0.177    0.324   67.343
  443.500   11.373    0.196    0.323   70.382
  443.750    9.727    0.205    0.333   75.489
  444.000    8.538    0.213    0.341   85.095
  444.250    7.357    0.202    0.348   96.707
  444.500    6.216    0.189    0.354  102.969
  444.750    5.345    0.177    0.363  107.711
  445.000    5.036    0.170    0.381  111.176
  445.250    4.964    0.188    0.390  112.392
  445.500    5.137    0.199    0.386  106.067
  445.750    5.464    0.214    0.372  100.473
  446.000    6.239    0.224    0.373   92.081
  446.250    7.570    0.229    0.366   82.960
  446.500    8.671    0.239    0.342   71.042
  446.750   10.279    0.254    0.318   60.948
  447.000   12.505    0.268    0.319   55.901
  447.250   14.129    0.276    0.327   57.785
  447.500   13.780    0.256    0.335   63.439
  447.750   11.009    0.225    0.344   68.181
  448.000    9.363    0.222    0.349   76.084
  448.250    8.198    0.219    0.345   82.772
  448.500    7.286    0.195    0.338   84.170
  448.750    6.627    0.183    0.333   85.081
  449.000    6.269    0.175    0.327   86.844
  449.250    6.050    0.166    0.323   90.187
  449.500    5.929    0.156    0.327   93.287
  449.750    6.175    0.179    0.334   92.496
  450.000    6.796    0.211    0.327   87.753
  450.250    7.808    0.237    0.303   62.154
  450.500    8.575    0.257    0.285   51.088
  450.750    9.392    0.269    0.269   52.120
  451.000    9.833    0.255    0.283   55.403
  451.250    9.875    0.216    0.303   59.050
  451.500    9.322    0.182    0.314   62.880
  451.750    8.711    0.165    0.319   67.075
  452.000    8.231    0.160    0.318   71.026
  452.250    7.801    0.165    0.318   74.856
  452.500    7.557    0.181    0.317   74.673
  452.750    7.420    0.200    0.317   67.072
  453.000    7.494    0.215    0.330   63.849
  453.250    7.658    0.229    0.341   66.888
  453.500    7.798    0.232    0.332   70.110
  453.750    7.913    0.240    0.326   73.392
  454.000    7.972    0.256    0.323   76.006
  454.250    7.777    0.268    0.340   77.343
  454.500    7.053    0.260    0.357   80.139
  454.750    6.500    0.234    0.346   82.571
  455.000    6.239    0.203    0.338   85.124
  455.250    5.629    0.181    0.331   87.190
  455.500    5.304    0.161    0.318   74.665
  455.750    4.743    0.151    0.306   52.836
  456.000    4.263    0.213    0.293   44.505
  456.250    3.775    0.259    0.279   47.970
  456.500    3.401    0.295    0.301   49.611
  456.750    3.100    0.287    0.320   45.780
  457.000    2.873    0.272    0.333   39.699
  457.250    2.670    0.282    0.339   36.050
  457.500    2.525    0.302    0.325   35.016
  457.750    2.379    0.302    0.313   35.684
  458.000    2.323    0.296    0.310   36.413
  458.250    2.316    0.293    0.316   37.142
  458.500    2.285    0.289    0.310   38.356
  458.750    2.270    0.284    0.306   38.782
  459.000    2.271    0.289    0.309   39.267
  459.250    2.027    0.299    0.314   38.111
  459.500    2.036    0.311    0.316   35.618
  459.750    2.062    0.317    0.312   34.948
  460.000    1.819    0.313    0.314   34.765
  460.250    1.868    0.297    0.315   36.406
  460.500    1.927    0.287    0.316   40.722
  460.750    2.083    0.277    0.327   47.045
  461.000    2.426    0.255    0.341   57.077
  461.250    2.892    0.211    0.346   70.635
  461.500    3.554    0.156    0.342   93.678
  461.750    4.223    0.129    0.347   99.636
  462.000    4.811    0.129    0.341  101.581
  462.250    5.449    0.141    0.331  103.526
  462.500    5.849    0.154    0.325  104.498
  462.750    5.883    0.167    0.336  104.255
  463.000    5.819    0.182    0.349  100.849
  463.250    5.714    0.183    0.358   97.504
  463.500    5.634    0.170    0.348   96.166
  463.750    5.586    0.161    0.337   97.624
  464.000    5.554    0.153    0.346  101.454
  464.250    5.556    0.150    0.351  106.013
  464.500    5.556    0.164    0.357  108.202
  464.750    5.574    0.173    0.355   98.837
  465.000    5.649    0.176    0.341   93.243
  465.250    5.699    0.179    0.328   87.101
  465.500    5.847    0.189    0.317   82.114
  465.750    5.995    0.207    0.317   77.493
  466.000    6.142    0.225    0.330   71.351
  466.250    6.290    0.241    0.338   66.000
  466.500    6.430    0.254    0.344   65.148
  466.750    6.415    0.265    0.338   63.992
  467.000    6.130    0.207    0.332   62.045
  467.250    5.700    0.166    0.325   60.281
  467.500    5.326    0.181    0.320   58.335
  467.750    4.862    0.225    0.331   56.936
  468.000    4.407    0.250    0.338   56.145
  468.250    4.024    0.263    0.343   57.724
  468.500    3.748    0.277    0.339   57.967
  468.750    3.586    0.275    0.335   55.413
  469.000    3.498    0.266    0.332   51.156
  469.250    3.458    0.227    0.338   47.933
  469.500    3.419    0.194    0.341   45.560
  469.750    3.363    0.202    0.341   44.040
  470.000    3.331    0.247    0.327   43.553
  470.250    3.226    0.268    0.316   43.673
  470.500    2.934    0.274    0.334   44.402
  470.750    2.658    0.277    0.330   45.496
  471.000    2.463    0.282    0.334   48.170
  471.250    2.407    0.296    0.340   48.961
  471.500    2.450    0.306    0.345   50.723
  471.750    2.508    0.287    0.350   54.979
  472.000    2.745    0.274    0.351   66.591
  472.250    3.211    0.242    0.343   84.406
  472.500    3.824    0.189    0.336   99.727
  472.750    4.159    0.163    0.332  103.010
  473.000    4.649    0.153    0.342  106.536
  473.250    4.952    0.164    0.348  111.825
  473.500    5.255    0.147    0.366  115.898
  473.750    5.411    0.137    0.367  113.769
  474.000    5.559    0.130    0.355  110.241
  474.250    5.625    0.137    0.349  108.234
  474.500    5.496    0.150    0.344  111.517
  474.750    5.415    0.164    0.348  115.225
  475.000    5.384    0.162    0.359  117.048
  475.250    5.409    0.152    0.365  117.960
  475.500    5.468    0.145    0.370  117.898
  475.750    5.542    0.140    0.372  114.006
  476.000    5.657    0.144    0.366  108.412
