~VERSION INFORMATION
 VERS.                 2.0:   CWLS LOG ASCII STANDARD -VERSION 2.0
 WRAP.                  NO:   ONE LINE PER DEPTH STEP
~WELL INFORMATION BLOCK
#MNEM.UNIT           DATA                    DESCRIPTION OF MNEMONIC
#---------    -------------------            -------------------------------
# Generated from Intellog Unique Number	CX_WELLS/WELL/2307
WELL.         CDN SUP CR RAP                 : Well_name    - WELL
LOC .         00/11-29-089-12W4/0            : Location     - LOCATION
UWI .         00/11-29-089-12W400            : Uwi          - UNIQUE WELL ID
ENTR.         RJA                            : Entered      - ENTERED BY
SRVC.         SCHLUMBERGER                   : Scn          - SERVICE COMPANY
STRT.M        100                            : top_depth    - START DEPTH
STOP.M        255                            : bot_depth    - STOP DEPTH
STEP.M        0.25                           : increment    - STEP LENGTH
 NULL. -999.2500:NULL Value
~CURVE INFORMATION BLOCK
#MNEM UNIT       ERCB CURVE CODE    CURVE DESCRIPTION
#-----------   ------------------   ----------------------------------
DEPT.M        00 001 00 00         : DEPTH        - DEPTH
GR  .API      00 310 00 00         : GR           - GAMMA RAY
NPHI.V/V      00 330 00 00         : PHIN         - NEUTRON POROSITY (SANDSTONE)
DPHI.V/V      00 890 00 00         : PHID         - DENSITY POROSITY (SANDSTONE)
ILD .OHMM     00 120 00 00         : RESD         - DEEP RESISTIVITY (DIL)
~PARAMETER INFORMATION
#MNEM.UNIT           DATA             DESCRIPTION OF MNEMONIC
#---------         -----------     ------------------------------
GL  .M        520.9                : gl           - GROUND LEVEL ELEVATION
EREF.M        525                  : kb           - ELEVATION OF DEPTH REFERENCE
DATM.M        525                  : datum        - DATUM ELEVATION
TDD .M        255                  : tdd          - TOTAL DEPTH DRILLER
RUN .         ONE                  : Run          - RUN NUMBER
ENG .         BILL                 : Engineer     - RECORDING ENGINEER
WIT .         JIM                  : Witness      - WITNESSED BY
MUD .         GEL                  : Mud_type     - MUD TYPE
MATR.         SANDSTONE            : Logunit      - NEUTRON MATRIX
TMAX.C        39                   : BHT          - MAXIMUM RECORDED TEMPERATURE
BHTD.M        255                  : BHTDEP       - MAXIMUM RECORDED TEMPERATURE
MATR.         1                    : LOGUNIT      - NEUTRON MATRIX
RMT .C        25                   : MDTP         - TEMPERATURE OF MUD
NEUT.         1                    : NEUTRON      - NEUTRON TYPE
RESI.         0                    : RESIST       - RESISTIVITY TYPE
RMC .OHMM     0.25                 : RMC          - RESISTIVITY OF MUD CAKE
RMF .OHMM     0.25                 : RMF          - RESISTIVITY OF MUD FILTRATE
SUFT.C        15                   : SUFT         - SURFACE TEMPERATURE
~A  DEPTH       GR     PHIN     PHID     RESD
# ...
  230.500  103.097    0.235    0.012   20.465
  230.750  114.260    0.237    0.019   20.492
  231.000  102.563    0.236    0.024   20.518
  231.250   82.218    0.234    0.024   20.553
  231.500   73.600    0.232    0.022   21.378
  231.750   63.140    0.226    0.021   21.803
  232.000   58.857    0.224    0.020   22.265
  232.250   56.428    0.218    0.015   22.707
  232.500   53.392    0.206    0.005   23.168
  232.750   51.580    0.195   -0.004   24.088
  233.000   49.780    0.178   -0.006   25.012
  233.250   48.576    0.166   -0.006   26.487
  233.500   46.147    0.159   -0.007   29.101
  233.750   44.346    0.154   -0.008   31.945
  234.000   43.152    0.148   -0.006   37.072
  234.250   41.341    0.142   -0.006   44.654
  234.500   40.755    0.138   -0.004   50.877
  234.750   38.943    0.134    0.003   62.393
  235.000   36.514    0.129    0.010   69.822
  235.250   34.096    0.122    0.011   73.941
  235.500   31.049    0.118    0.013   76.843
  235.750   29.237    0.111    0.012   84.389
  236.000   27.426    0.111    0.012   92.637
  236.250   28.714    0.115    0.012   94.599
  236.500   31.835    0.125    0.011   88.002
  236.750   37.437    0.165    0.007   77.502
  237.000   39.354    0.170    0.004   67.012
  237.250   36.297    0.160    0.001   57.941
  237.500   30.789    0.147    0.001   49.164
  237.750   28.360    0.127    0.002   50.184
  238.000   30.245    0.132    0.003   51.203
  238.250   33.994    0.162    0.002   51.291
  238.500   44.538    0.186    0.005   46.864
  238.750   52.623    0.196    0.008   41.291
  239.000   54.518    0.192    0.009   38.428
  239.250   55.796    0.185    0.008   35.748
  239.500   55.231    0.179    0.005   32.067
  239.750   52.184    0.174    0.003   32.136
  240.000   49.744    0.170    0.001   32.191
  240.250   45.472    0.166    0.002   32.246
  240.500   39.954    0.165    0.005   33.511
  240.750   34.425    0.161    0.006   33.554
  241.000   35.724    0.162    0.003   35.534
  241.250   38.237    0.170    0.001   41.237
  241.500   40.740    0.177   -0.002   45.287
  241.750   44.489    0.189   -0.004   44.538
  242.000   50.730    0.198   -0.001   41.467
  242.250   53.244    0.207    0.002   37.198
  242.500   55.139    0.210    0.004   33.368
  242.750   55.789    0.210    0.005   31.617
  243.000   57.087    0.212    0.005   29.437
  243.250   57.726    0.214    0.004   28.435
  243.500   59.015    0.215    0.003   27.940
  243.750   59.675    0.216    0.005   27.502
  244.000   59.727    0.217    0.010   27.560
  244.250   58.544    0.213    0.010   27.584
  244.500   57.958    0.205    0.010   27.643
  244.750   57.382    0.202    0.008   27.702
  245.000   56.796    0.196    0.007   27.726
  245.250   56.870    0.185    0.004   27.785
  245.500   56.901    0.178    0.002   27.833
  245.750   56.954    0.166   -0.002   28.925
  246.000   56.986    0.166   -0.003   31.187
  246.250   57.028    0.166   -0.007   33.625
  246.500   57.080    0.165   -0.008   38.311
  246.750   57.101    0.163   -0.013   42.909
  247.000   56.536    0.154   -0.017   44.555
  247.250   56.578    0.089   -0.016   47.184
  247.500   56.024    0.047   -0.016   48.121
  247.750   56.055    0.040   -0.016   48.224
  248.000   55.480    0.036   -0.015   44.062
  248.250   54.904    0.031   -0.015   40.989
  248.500   54.318    0.024   -0.014   38.855
  248.750   54.360    0.018   -0.012   37.516
  249.000   53.816    0.014   -0.010   35.562
  249.250   53.847    0.014   -0.008   34.337
  249.500   53.879    0.016   -0.008   34.440
  249.750   53.921    0.021   -0.009   33.855
  250.000   53.963    0.025   -0.011   33.899
  250.250   54.016    0.025   -0.012   33.971
  250.500   54.665    0.025   -0.014   34.029
  250.750   54.718    0.024   -0.016   35.380
  251.000   54.781    0.024   -0.015   36.068
  251.250   54.812    0.024   -0.015   38.212
  251.500   55.462    0.030   -0.015   38.988
  251.750   55.514    0.037   -0.015   39.038
  252.000   55.557    0.043   -0.015   38.425
  252.250   55.599    0.051   -0.015   38.474
  252.500   55.033    0.054   -0.016   37.163
  252.750   54.458    0.049   -0.015   36.517
  253.000   52.636    0.047   -0.014   33.985
  253.250   49.589    0.047   -0.014   31.628
  253.500   43.453    0.048   -0.014   29.448
  253.750   34.846    0.047   -0.014   28.421
  254.000   27.474    0.042   -0.014   28.494
  254.250   19.474    0.037   -0.014   28.530
  254.500    9.632    0.033   -0.014   29.110
  254.750    6.595    0.036   -0.016   30.252
  255.000    4.784    0.039   -0.017   31.439
