~VERSION INFORMATION
 VERS.                 2.0:   CWLS LOG ASCII STANDARD -VERSION 2.0
 WRAP.                  NO:   ONE LINE PER DEPTH STEP
~WELL INFORMATION BLOCK
#MNEM.UNIT           DATA                    DESCRIPTION OF MNEMONIC
#---------    -------------------            -------------------------------
# Generated from Intellog Unique Number	CS_69_70/WELL/871
WELL.         GULF OIL CANADA LIMITED        : Well_name    - WELL
LOC .         00/10-27-069-15W4/0            : Location     - LOCATION
UWI .         00/10-27-069-15W4/0            : Uwi          - UNIQUE WELL ID
ENTR.         SP                             : Entered      - ENTERED BY
SRVC.         SCHLUMBERGER                   : Scn          - SERVICE COMPANY
STRT.M        274.32                         : top_depth    - START DEPTH
STOP.M        478.32                         : bot_depth    - STOP DEPTH
STEP.M        0.25                           : increment    - STEP LENGTH
 NULL. -999.2500:NULL Value
~CURVE INFORMATION BLOCK
#MNEM UNIT       ERCB CURVE CODE    CURVE DESCRIPTION
#-----------   ------------------   ----------------------------------
DEPT.M        00 001 00 00         : DEPTH        - DEPTH
GR  .API      00 310 00 00         : GR           - GAMMA RAY
DPHI.V/V      00 890 00 00         : PHID         - DENSITY POROSITY (SANDSTONE)
NPHI.V/V      00 330 00 00         : PHIN         - NEUTRON POROSITY (SANDSTONE)
ILD .OHMM     00 120 00 00         : RESD         - DEEP RESISTIVITY (DIL)
~PARAMETER INFORMATION
#MNEM.UNIT           DATA             DESCRIPTION OF MNEMONIC
#---------         -----------     ------------------------------
GL  .M        561.746              : gl           - GROUND LEVEL ELEVATION
EREF.M        565.252              : kb           - ELEVATION OF DEPTH REFERENCE
DATM.M        561.746              : datum        - DATUM ELEVATION
TDD .M        480.06               : tdd          - TOTAL DEPTH DRILLER
RUN .         ONE                  : Run          - RUN NUMBER
ENG .         BILL                 : Engineer     - RECORDING ENGINEER
WIT .         JIM                  : Witness      - WITNESSED BY
MUD .         GEL                  : Mud_type     - MUD TYPE
MATR.         SANDSTONE            : Logunit      - NEUTRON MATRIX
TMAX.C        13.3333              : BHT          - MAXIMUM RECORDED TEMPERATURE
BHTD.M        480.06               : BHTDEP       - MAXIMUM RECORDED TEMPERATURE
MATR.         1                    : LOGUNIT      - NEUTRON MATRIX
RMT .C        25                   : MDTP         - TEMPERATURE OF MUD
NEUT.         1                    : NEUTRON      - NEUTRON TYPE
RESI.         0                    : RESIST       - RESISTIVITY TYPE
RMC .OHMM     0.25                 : RMC          - RESISTIVITY OF MUD CAKE
RMF .OHMM     0.25                 : RMF          - RESISTIVITY OF MUD FILTRATE
SUFT.C        15                   : SUFT         - SURFACE TEMPERATURE
~A  DEPTH       GR     PHID     PHIN     RESD
# ...
  361.320   57.312   -0.013    0.190    4.427
  361.570   54.195   -0.020    0.164    5.678
  361.820   55.985   -0.023    0.171    6.840
  362.070   61.899   -0.020    0.271    6.682
  362.320   69.898    0.024    0.340    5.316
  362.570   75.329    0.134    0.368    4.425
  362.820   81.386    0.159    0.392    3.740
  363.070   86.918    0.158    0.413    3.505
  363.320   92.167    0.145    0.415    3.372
  363.570   93.988    0.134    0.416    3.413
  363.820   93.695    0.126    0.422    3.623
  364.070   91.667    0.123    0.412    3.875
  364.320   90.524    0.125    0.399    4.065
  364.570   89.321    0.132    0.398    4.229
  364.820   88.728    0.130    0.400    4.307
  365.070   89.139    0.130    0.403    4.329
  365.320   91.277    0.145    0.405    4.281
  365.570   93.659    0.149    0.413    4.225
  365.820   95.252    0.158    0.403    4.213
  366.070   94.380    0.145    0.403    4.250
  366.320   92.267    0.116    0.400    4.329
  366.570   90.040    0.101    0.390    4.427
  366.820   88.864    0.106    0.386    4.524
  367.070   89.479    0.096    0.381    4.591
  367.320   91.525    0.086    0.384    4.721
  367.570   93.149    0.077    0.399    4.717
  367.820   94.566    0.096    0.408    4.696
  368.070   95.065    0.100    0.419    4.711
  368.320   93.966    0.098    0.409    4.736
  368.570   92.449    0.110    0.404    4.738
  368.820   91.730    0.119    0.405    4.684
  369.070   92.156    0.100    0.408    4.629
  369.320   93.485    0.102    0.410    4.555
  369.570   96.336    0.105    0.410    4.452
  369.820   99.751    0.103    0.414    4.340
  370.070  102.177    0.116    0.419    4.108
  370.320  100.495    0.115    0.419    4.004
  370.570   98.260    0.109    0.425    4.027
  370.820   97.706    0.101    0.436    4.119
  371.070   98.922    0.103    0.443    4.163
  371.320  100.060    0.120    0.439    4.244
  371.570  100.628    0.123    0.440    4.386
  371.820  100.783    0.129    0.433    4.650
  372.070  100.228    0.124    0.425    4.914
  372.320   99.192    0.111    0.418    4.807
  372.570   98.389    0.101    0.410    4.899
  372.820   97.483    0.109    0.406    4.997
  373.070   97.296    0.107    0.412    5.081
  373.320   98.988    0.098    0.422    5.153
  373.570  100.807    0.090    0.431    5.186
  373.820   98.419    0.084    0.422    5.160
  374.070   95.822    0.082    0.412    5.129
  374.320   96.079    0.081    0.406    5.111
  374.570   98.740    0.085    0.412    5.096
  374.820  100.912    0.096    0.420    5.103
  375.070  102.251    0.091    0.425    5.128
  375.320  102.477    0.080    0.427    5.158
  375.570  102.409    0.074    0.428    5.226
  375.820  101.014    0.084    0.413    5.299
  376.070   99.363    0.089    0.408    5.387
  376.320   97.112    0.075    0.406    5.468
  376.570   95.312    0.081    0.412    5.566
  376.820   95.023    0.086    0.390    5.628
  377.070   95.523    0.079    0.373    5.650
  377.320   97.098    0.093    0.372    5.635
  377.570   98.803    0.082    0.403    5.560
  377.820  100.985    0.069    0.440    5.457
  378.070  102.718    0.076    0.442    5.257
  378.320  103.006    0.092    0.428    4.994
  378.570  101.678    0.104    0.423    4.711
  378.820  100.885    0.103    0.432    4.557
  379.070  104.703    0.090    0.425    4.481
  379.320  109.076    0.086    0.425    4.422
  379.570  110.442    0.108    0.432    4.366
  379.820  104.624    0.121    0.434    4.374
  380.070  102.083    0.118    0.421    4.369
  380.320  104.680    0.115    0.412    4.321
  380.570  105.424    0.117    0.409    4.229
  380.820  102.917    0.137    0.409    4.101
  381.070  101.267    0.150    0.415    3.953
  381.320  101.074    0.160    0.414    3.801
  381.570  100.723    0.168    0.415    3.427
  381.820   99.797    0.176    0.422    2.936
  382.070  102.697    0.191    0.469    2.471
  382.320  106.807    0.181    0.512    2.124
  382.570  110.273    0.187    0.549    1.937
  382.820  108.836    0.181    0.568    1.785
  383.070  107.078    0.186    0.578    1.767
  383.320  106.270    0.196    0.554    1.914
  383.570  106.404    0.169    0.528    2.123
  383.820  107.161    0.150    0.506    2.360
  384.070  108.504    0.123    0.485    2.623
  384.320  110.344    0.133    0.464    2.925
  384.570  110.383    0.138    0.448    3.158
  384.820  109.960    0.148    0.432    3.376
  385.070  108.416    0.148    0.424    3.540
  385.320  106.699    0.148    0.426    3.663
  385.570  106.088    0.138    0.427    3.797
  385.820  105.773    0.124    0.439    3.867
  386.070  104.674    0.111    0.435    3.873
  386.320  102.209    0.107    0.425    3.831
  386.570   98.010    0.109    0.419    3.749
  386.820   91.527    0.117    0.420    3.643
  387.070   86.269    0.142    0.419    3.553
  387.320   85.655    0.166    0.413    3.418
  387.570   81.723    0.176    0.406    3.240
  387.820   83.958    0.164    0.402    3.123
  388.070   86.297    0.167    0.401    2.973
  388.320   88.078    0.174    0.404    2.854
  388.570   89.373    0.176    0.410    2.749
  388.820   84.726    0.177    0.414    2.673
  389.070   79.835    0.189    0.412    2.609
  389.320   78.106    0.175    0.409    2.647
  389.570   76.969    0.155    0.396    3.018
  389.820   75.454    0.120    0.271    3.839
  390.070   71.344   -0.002    0.230    4.602
  390.320   66.974   -0.026    0.209    5.218
  390.570   63.356    0.020    0.224    4.896
  390.820   61.917    0.167    0.281    4.015
  391.070   61.473    0.214    0.341    3.299
  391.320   63.083    0.230    0.388    2.821
  391.570   65.003    0.242    0.405    2.465
  391.820   66.381    0.233    0.406    2.215
  392.070   67.058    0.226    0.403    2.136
  392.320   67.609    0.222    0.400    2.144
  392.570   68.381    0.219    0.400    2.177
  392.820   68.533    0.223    0.400    2.262
  393.070   67.931    0.219    0.390    2.347
  393.320   65.704    0.205    0.382    2.505
  393.570   63.948    0.165    0.373    2.765
  393.820   62.943    0.040    0.342    3.058
  394.070   60.484    0.015    0.243    3.286
  394.320   57.340   -0.013    0.191    3.176
  394.570   59.090    0.112    0.223    2.938
  394.820   63.116    0.152    0.283    2.651
  395.070   66.816    0.200    0.369    2.459
  395.320   68.583    0.206    0.394    2.328
  395.570   68.629    0.203    0.401    2.403
  395.820   68.298    0.193    0.395    2.634
  396.070   68.136    0.171    0.375    3.068
  396.320   68.357    0.113    0.344    3.482
  396.570   65.176    0.016    0.313    3.770
  396.820   62.342   -0.004    0.284    3.617
  397.070   65.794    0.103    0.307    3.391
  397.320   69.856    0.186    0.358    3.081
  397.570   72.290    0.193    0.394    2.754
  397.820   73.970    0.197    0.402    2.553
  398.070   74.497    0.200    0.408    2.481
  398.320   75.259    0.199    0.414    2.465
  398.570   75.794    0.201    0.418    2.514
  398.820   78.512    0.183    0.420    2.574
  399.070   85.013    0.163    0.408    2.653
  399.320   91.460    0.150    0.400    2.774
  399.570   95.943    0.145    0.401    2.867
  399.820   99.543    0.118    0.409    2.998
  400.070  102.030    0.109    0.415    3.151
  400.320   99.648    0.110    0.416    3.296
  400.570   95.401    0.115    0.404    3.467
  400.820   89.127    0.120    0.400    3.603
  401.070   89.661    0.123    0.413    3.751
  401.320   91.032    0.120    0.420    3.879
  401.570   92.032    0.112    0.411    3.965
  401.820   90.662    0.098    0.402    4.031
  402.070   93.654    0.080    0.396    4.100
  402.320   97.703    0.086    0.395    4.110
  402.570  101.391    0.111    0.410    4.085
  402.820  103.522    0.117    0.424    4.019
  403.070  104.164    0.121    0.425    3.907
  403.320  104.632    0.125    0.416    3.744
  403.570  101.653    0.131    0.412    3.528
  403.820  100.529    0.137    0.418    3.211
  404.070  103.150    0.140    0.438    3.020
  404.320  104.923    0.145    0.454    2.992
  404.570  107.249    0.140    0.467    3.014
