~VERSION INFORMATION
 VERS.                 2.0:   CWLS LOG ASCII STANDARD -VERSION 2.0
 WRAP.                  NO:   ONE LINE PER DEPTH STEP
~WELL INFORMATION BLOCK
#MNEM.UNIT           DATA                    DESCRIPTION OF MNEMONIC
#---------    -------------------            -------------------------------
# Generated from Intellog Unique Number	CS_73_76/WELL/2192
WELL.         BOW VALLEY INDUSTRIES LTD      : Well_name    - WELL
LOC .         00/10-17-074-13W4/0            : Location     - LOCATION
UWI .         00/10-17-074-13W4/0            : Uwi          - UNIQUE WELL ID
ENTR.         SP                             : Entered      - ENTERED BY
SRVC.         SCHLUMBERGER                   : Scn          - SERVICE COMPANY
STRT.M        365                            : top_depth    - START DEPTH
STOP.M        602                            : bot_depth    - STOP DEPTH
STEP.M        0.25                           : increment    - STEP LENGTH
 NULL. -999.2500:NULL Value
~CURVE INFORMATION BLOCK
#MNEM UNIT       ERCB CURVE CODE    CURVE DESCRIPTION
#-----------   ------------------   ----------------------------------
DEPT.M        00 001 00 00         : DEPTH        - DEPTH
ILD .OHMM     00 120 00 00         : RESD         - DEEP RESISTIVITY (DIL)
DPHI.V/V      00 890 00 00         : PHID         - DENSITY POROSITY (LIMESTONE)
NPHI.V/V      00 330 00 00         : PHIN         - NEUTRON POROSITY (LIMESTONE)
GR  .API      00 310 00 00         : GR           - GAMMA RAY
~PARAMETER INFORMATION
#MNEM.UNIT           DATA             DESCRIPTION OF MNEMONIC
#---------         -----------     ------------------------------
GL  .M        724.21               : gl           - GROUND LEVEL ELEVATION
EREF.M        727.56               : kb           - ELEVATION OF DEPTH REFERENCE
DATM.M        724.21               : datum        - DATUM ELEVATION
TDD .M        609                  : tdd          - TOTAL DEPTH DRILLER
RUN .         ONE                  : Run          - RUN NUMBER
ENG .         BILL                 : Engineer     - RECORDING ENGINEER
WIT .         JIM                  : Witness      - WITNESSED BY
MUD .         GEL                  : Mud_type     - MUD TYPE
MATR.         LIMESTONE            : Logunit      - NEUTRON MATRIX
TMAX.C        18                   : BHT          - MAXIMUM RECORDED TEMPERATURE
BHTD.M        609                  : BHTDEP       - MAXIMUM RECORDED TEMPERATURE
MATR.         1                    : LOGUNIT      - NEUTRON MATRIX
RMT .C        25                   : MDTP         - TEMPERATURE OF MUD
NEUT.         1                    : NEUTRON      - NEUTRON TYPE
RESI.         0                    : RESIST       - RESISTIVITY TYPE
RMC .OHMM     0.25                 : RMC          - RESISTIVITY OF MUD CAKE
RMF .OHMM     0.25                 : RMF          - RESISTIVITY OF MUD FILTRATE
SUFT.C        15                   : SUFT         - SURFACE TEMPERATURE
~A  DEPTH     RESD     PHID     PHIN       GR
# ...
  539.000    3.164    0.182    0.486  109.352
  539.250    3.225    0.193    0.479  108.146
  539.500    3.412    0.155    0.476  108.756
  539.750    3.609    0.139    0.442  109.971
  540.000    3.816    0.118    0.425  107.556
  540.250    3.888    0.143    0.417  100.909
  540.500    4.949    0.161    0.411   97.283
  540.750    7.040    0.171    0.393   92.450
  541.000    9.650    0.153    0.333   84.593
  541.250   13.227    0.128    0.295   81.573
  541.500   17.151    0.104    0.257   78.553
  541.750   18.480    0.088    0.301   75.534
  542.000   18.834    0.162    0.325   76.750
  542.250   17.823    0.193    0.332   79.174
  542.500   16.869    0.213    0.337   81.599
  542.750   16.877    0.218    0.349   77.973
  543.000   18.523    0.233    0.342   74.349
  543.250   21.897    0.222    0.348   75.566
  543.500   24.480    0.235    0.359   79.200
  543.750   26.373    0.253    0.379   81.623
  544.000   27.384    0.269    0.388   87.071
  544.250   24.067    0.280    0.393   97.359
  544.500   20.762    0.254    0.380  104.626
  544.750   16.632    0.236    0.370  107.049
  545.000   14.086    0.213    0.362  109.471
  545.250   12.610    0.179    0.340  113.711
  545.500   10.880    0.176    0.331  116.741
  545.750   10.107    0.174    0.342  117.954
  546.000    9.050    0.166    0.354  118.566
  546.250    8.564    0.157    0.361  120.384
  546.500    7.812    0.145    0.372  122.808
  546.750    7.671    0.159    0.378  127.652
  547.000    7.259    0.162    0.383  130.078
  547.250    6.999    0.168    0.389  127.058
  547.500    7.002    0.166    0.400  117.387
  547.750    7.976    0.161    0.395  114.366
  548.000    9.253    0.149    0.373  105.300
  548.250   11.563    0.166    0.354  101.674
  548.500   13.922    0.155    0.343   95.025
  548.750   15.857    0.196    0.355   92.006
  549.000   17.082    0.220    0.369   89.593
  549.250   17.737    0.253    0.374   85.367
  549.500   18.418    0.252    0.379   84.161
  549.750   18.423    0.282    0.337   84.163
  550.000   18.436    0.272    0.320   82.958
  550.250   18.443    0.236    0.327   83.572
  550.500   17.783    0.212    0.333   81.759
  550.750   17.788    0.206    0.324   79.344
  551.000   17.800    0.204    0.320   79.350
  551.250   17.807    0.196    0.317   79.355
  551.500   18.148    0.209    0.318   78.150
  551.750   18.843    0.202    0.333   80.574
  552.000   19.562    0.202    0.349   77.555
  552.250   20.308    0.234    0.355   73.326
  552.500   20.698    0.246    0.364   68.493
  552.750   18.191    0.220    0.373   73.338
  553.000   15.696    0.192    0.356   76.365
  553.250   14.052    0.186    0.345   82.419
  553.500   13.055    0.198    0.340   83.634
  553.750   12.355    0.203    0.333   80.614
  554.000   11.909    0.213    0.333   74.572
  554.250   11.067    0.232    0.349   70.341
  554.500   10.867    0.255    0.358   63.696
  554.750   10.284    0.266    0.364   61.279
  555.000    9.915    0.275    0.367   58.260
  555.250   10.295    0.255    0.357   58.870
  555.500   13.599    0.256    0.359   61.296
  555.750   17.631    0.271    0.367   66.138
  556.000   22.441    0.282    0.369   76.427
  556.250   17.649    0.265    0.362   82.480
  556.500   12.890    0.236    0.356   92.767
  556.750   10.715    0.150    0.368  116.966
  557.000    8.273    0.084    0.392  119.996
  557.250    7.136    0.075    0.409  115.163
  557.500    5.933    0.072    0.416  112.142
  557.750    5.410    0.107    0.414  106.705
  558.000    6.514    0.164    0.385   98.241
  558.250    9.096    0.215    0.376   83.126
  558.500   15.286    0.258    0.351   78.895
  558.750   19.097    0.294    0.324   75.877
  559.000   24.307    0.281    0.335   76.487
  559.250   27.177    0.270    0.350   77.702
  559.500   26.693    0.272    0.361   78.917
  559.750   24.348    0.271    0.371   80.737
  560.000   22.621    0.264    0.392   81.345
  560.250   21.804    0.257    0.379   86.794
  560.500   19.164    0.254    0.373   91.032
  560.750   17.480    0.239    0.364   91.039
  561.000   16.541    0.224    0.380   95.277
  561.250   15.653    0.208    0.369  100.726
  561.500   14.816    0.200    0.379  103.755
  561.750   14.284    0.200    0.384  103.155
  562.000   13.517    0.213    0.377  104.975
  562.250   12.558    0.208    0.375  108.609
  562.500   11.038    0.176    0.375  112.243
  562.750   10.254    0.154    0.365  118.298
  563.000    9.527    0.148    0.362  122.538
  563.250    8.530    0.159    0.362  123.751
  563.500    8.222    0.152    0.353  125.569
  563.750    7.781    0.140    0.356  124.365
  564.000    7.932    0.146    0.360  121.346
  564.250    8.390    0.154    0.359  117.723
  564.500    8.549    0.164    0.348  118.331
  564.750    8.877    0.169    0.337  126.805
  565.000    9.389    0.181    0.341  121.971
  565.250    9.568    0.199    0.354  120.161
  565.500    9.751    0.212    0.336  116.538
  565.750    9.940    0.185    0.330  110.496
  566.000    9.760    0.180    0.312  108.079
  566.250    9.766    0.212    0.303   92.963
  566.500    9.770    0.234    0.315   84.500
  566.750    9.777    0.240    0.320   81.481
  567.000    9.601    0.221    0.313   91.769
  567.250    9.605    0.200    0.320  100.242
  567.500    9.433    0.176    0.330  105.085
  567.750    9.265    0.177    0.346  104.488
  568.000    8.935    0.164    0.352  104.490
  568.250    8.774    0.142    0.352  106.310
  568.500    8.777    0.128    0.357  106.315
  568.750    8.619    0.161    0.363  103.905
  569.000    8.008    0.180    0.359  102.696
  569.250    7.721    0.174    0.358   96.652
  569.500    6.912    0.194    0.378   81.536
  569.750    5.748    0.218    0.392   69.444
  570.000    5.242    0.244    0.400   40.416
  570.250    4.780    0.257    0.378   35.582
  570.500    4.441    0.275    0.363   31.958
  570.750    4.202    0.284    0.360   28.940
  571.000    3.693    0.300    0.365   27.130
  571.250    3.431    0.291    0.357   25.925
  571.500    3.247    0.280    0.346   30.165
  571.750    3.189    0.290    0.341   33.193
  572.000    3.251    0.278    0.344   40.459
  572.250    3.374    0.270    0.349   47.115
  572.500    3.636    0.255    0.359   56.192
  572.750    3.775    0.269    0.365   50.754
  573.000    3.640    0.290    0.349   42.293
  573.250    3.445    0.313    0.346   38.667
  573.500    3.200    0.292    0.358   38.067
  573.750    2.973    0.279    0.367   32.628
  574.000    2.866    0.280    0.347   27.191
  574.250    2.815    0.291    0.358   25.383
  574.500    2.817    0.304    0.369   25.386
  574.750    2.617    0.312    0.373   25.392
  575.000    2.372    0.313    0.358   27.542
  575.250    2.414    0.323    0.357   28.131
  575.500    2.377    0.313    0.347   26.884
  575.750    2.338    0.309    0.359   26.858
  576.000    2.263    0.310    0.349   26.842
  576.250    2.227    0.311    0.351   26.809
  576.500    2.229    0.308    0.358   27.409
  576.750    2.231    0.314    0.358   27.379
  577.000    2.233    0.317    0.340   27.363
  577.250    2.235    0.306    0.340   27.945
  577.500    2.237    0.296    0.351   28.540
  577.750    2.239    0.320    0.362   28.518
  578.000    2.242    0.313    0.355   27.882
  578.250    2.206    0.293    0.346   27.241
  578.500    2.171    0.296    0.339   26.613
  578.750    2.173    0.297    0.348   26.593
  579.000    2.176    0.305    0.339   25.957
  579.250    2.142    0.298    0.350   25.941
  579.500    2.254    0.313    0.360   26.523
  579.750    2.295    0.307    0.373   28.340
  580.000    2.296    0.304    0.373   30.146
  580.250    2.338    0.293    0.354   31.360
  580.500    2.380    0.306    0.359   33.776
  580.750    2.507    0.313    0.349   34.375
  581.000    2.553    0.336    0.367   33.131
  581.250    2.598    0.327    0.355   30.049
  581.500    2.690    0.314    0.344   29.416
  581.750    2.738    0.286    0.336   30.006
  582.000    2.740    0.294    0.331   30.584
  582.250    2.652    0.291    0.341   31.181
