~VERSION INFORMATION
 VERS.                 2.0:   CWLS LOG ASCII STANDARD -VERSION 2.0
 WRAP.                  NO:   ONE LINE PER DEPTH STEP
~WELL INFORMATION BLOCK
#MNEM.UNIT           DATA                    DESCRIPTION OF MNEMONIC
#---------    -------------------            -------------------------------
# Generated from Intellog Unique Number	CW_76_78/WELL/1029
WELL.         PETROMK ET AL MARTENCK 11-32   : Well_name    - WELL
LOC .         00/11-32-077-05W5/0            : Location     - LOCATION
UWI .         00/11-32-077-05W5/0            : Uwi          - UNIQUE WELL ID
ENTR.         JAYE                           : Entered      - ENTERED BY
SRVC.         SCHLUMBERGER                   : Scn          - SERVICE COMPANY
DATE.         5 MAR 79                       : Date         - LOG DATE
STRT.M        385                            : top_depth    - START DEPTH
STOP.M        595                            : bot_depth    - STOP DEPTH
STEP.M        0.25                           : increment    - STEP LENGTH
 NULL. -999.2500:NULL Value
~CURVE INFORMATION BLOCK
#MNEM UNIT       ERCB CURVE CODE    CURVE DESCRIPTION
#-----------   ------------------   ----------------------------------
DEPT.M        00 001 00 00         : DEPTH        - DEPTH
ILD .OHMM     00 120 00 00         : RESD         - DEEP RESISTIVITY (DIL)
DPHI.V/V      00 890 00 00         : PHID         - DENSITY POROSITY (SANDSTONE)
NPHI.V/V      00 330 00 00         : PHIN         - NEUTRON POROSITY (SANDSTONE)
GR  .API      00 310 00 00         : GR           - GAMMA RAY
CALI.MM       00 280 01 00         : CAL          - CALIPER
~PARAMETER INFORMATION
#MNEM.UNIT           DATA             DESCRIPTION OF MNEMONIC
#---------         -----------     ------------------------------
GL  .M        684.5                : gl           - GROUND LEVEL ELEVATION
EREF.M        688.5                : kb           - ELEVATION OF DEPTH REFERENCE
DATM.M        684.5                : datum        - DATUM ELEVATION
TDD .M        1896                 : tdd          - TOTAL DEPTH DRILLER
RUN .         ONE                  : Run          - RUN NUMBER
BASE.         EDM                  : Branch       - HOME BASE OF LOGGING UNIT
MATR.         SANDSTONE            : Logunit      - NEUTRON MATRIX
TMAX.C        22.2                 : BHT          - MAXIMUM RECORDED TEMPERATURE
BHTD.M        1896.3               : BHTDEP       - MAXIMUM RECORDED TEMPERATURE
RMT .C        22.2                 : MDTP         - TEMPERATURE OF MUD
MUDD.KG/M     0                    : MWT          - MUD DENSITY
NEUT.         1                    : NEUTRON      - NEUTRON TYPE
RESI.         0                    : RESIST       - RESISTIVITY TYPE
RM  .OHMM     0.0791               : RM           - RESISTIVITY OF MUD
RMC .OHMM     0                    : RMC          - RESISTIVITY OF MUD CAKE
RMF .OHMM     0.0851               : RMF          - RESISTIVITY OF MUD FILTRATE
SUFT.C        4.5                  : SUFT         - SURFACE TEMPERATURE
~A  DEPTH     RESD     PHID     PHIN       GR      CAL
# ...
  458.000    4.334    0.263    1.004   53.315  213.151
  458.250    4.336    0.271    1.038   53.721  213.599
  458.500    4.395    0.288    1.035   54.316  214.667
  458.750    4.504    0.295    1.037   54.912  215.211
  459.000    4.523    0.282    1.053   56.683  215.245
  459.250    4.525    0.276    1.052   56.905  215.279
  459.500    4.460    0.284    1.049   54.834  215.004
  459.750    4.292    0.294    1.056   53.754  214.521
  460.000    4.215    0.285    1.039   53.606  214.148
  460.250    4.492    0.275    1.022   53.953  214.177
  460.500    4.655    0.266    1.006   54.299  214.415
  460.750    4.674    0.261    1.027   55.264  215.171
  461.000    4.677    0.273    1.054   56.292  215.206
  461.250    4.965    0.282    1.077   56.641  214.723
  461.500    4.885    0.267    1.074   56.989  214.448
  461.750    4.405    0.268    1.053   57.211  214.376
  462.000    4.154    0.260    1.028   57.554  214.102
  462.250    4.087    0.256    1.032   58.521  214.243
  462.500    4.104    0.269    1.017   61.351  214.482
  462.750    4.167    0.281    1.027   60.519  214.312
  463.000    4.231    0.279    1.048   58.258  214.131
  463.250    4.210    0.271    1.037   57.862  213.859
  463.500    4.127    0.264    1.070   58.084  213.893
  463.750    3.979    0.254    1.081   58.806  214.135
  464.000    3.829    0.255    1.062   65.167  214.165
  464.250    3.671    0.241    1.055   71.159  213.785
  464.500    3.598    0.244    1.060   69.583  213.718
  464.750    3.456    0.273    1.053   67.509  214.471
  465.000    3.432    0.281    1.032   70.275  219.981
  465.250    3.719    0.269    1.015   79.740  227.757
  465.500    4.355    0.241    1.030   85.608  236.672
  465.750    4.888    0.223    1.064   89.491  243.520
  466.000    4.352    0.234    1.068   91.328  240.147
  466.250    3.802    0.250    1.063   92.913  242.350
  466.500    3.978    0.238    1.060   95.744  246.412
  466.750    4.262    0.230    1.053   97.951  245.826
  467.000    4.217    0.215    1.061  100.219  246.067
  467.250    4.126    0.224    1.065  101.003  247.241
  467.500    4.090    0.227    1.033   99.176  248.408
  467.750    4.161    0.225    1.005   95.427  249.163
  468.000    4.256    0.227    0.994   95.094  249.093
  468.250    4.298    0.230    1.010   95.437  249.335
  468.500    4.252    0.221    1.025   94.853  250.709
  468.750    4.231    0.207    1.037   91.296  252.190
  469.000    4.352    0.218    1.067   88.600  254.493
  469.250    4.638    0.237    1.100   84.665  257.833
  469.500    4.700    0.261    1.062   78.498  237.315
  469.750    4.456    0.273    1.026   70.595  225.992
  470.000    4.965    0.259    1.016   64.054  223.341
  470.250    5.193    0.180    1.016   58.509  223.685
  470.500    6.254    0.111    0.880   54.141  224.648
  470.750   16.017    0.096    0.822   57.216  225.507
  471.000   17.036    0.193    0.872   67.178  225.645
  471.250    6.572    0.249    1.010   72.487  225.994
  471.500    4.933    0.270    1.036   77.675  226.332
  471.750    4.963    0.264    1.034   74.608  226.571
  472.000    5.011    0.252    1.047   71.046  226.507
  472.250    4.725    0.255    1.059   70.772  226.851
  472.500    4.852    0.277    1.038   68.949  226.777
  472.750    5.179    0.255    1.038   66.132  226.809
  473.000    5.240    0.234    1.048   65.980  226.741
  473.250    5.080    0.216    0.926   62.978  226.671
  473.500    5.044    0.181    0.848   60.285  226.608
  473.750    9.392    0.189    0.889   61.375  226.328
  474.000    6.343    0.233    0.993   65.879  226.362
  474.250    4.127    0.259    1.039   69.884  226.187
  474.500    3.913    0.269    1.054   71.909  225.704
  474.750    4.352    0.253    1.039   70.456  225.947
  475.000    4.586    0.262    1.046   70.121  226.293
  475.250    4.673    0.269    1.027   70.155  226.528
  475.500    4.423    0.266    1.011   71.060  226.566
  475.750    4.071    0.256    1.013   74.447  226.599
  476.000    3.917    0.247    1.019   81.308  226.325
  476.250    4.007    0.236    1.032   86.866  225.737
  476.500    4.061    0.248    1.047   82.308  225.668
  476.750    3.738    0.255    1.053   78.313  226.007
  477.000    3.321    0.238    1.041   80.086  226.454
  477.250    3.423    0.219    1.031   84.342  228.554
  477.500    3.799    0.213    1.022   86.735  234.061
  477.750    4.056    0.206    1.042   83.979  228.827
  478.000    3.789    0.218    1.035   80.728  229.176
  478.250    3.694    0.236    1.016   83.619  231.995
  478.500    3.793    0.220    0.997   85.330  236.161
  478.750    3.974    0.222    0.991   84.189  240.943
  479.000    4.494    0.204    1.004   84.722  246.552
  479.250    5.293    0.218    1.004   84.198  250.407
  479.500    5.896    0.219    1.012   82.125  253.333
  479.750    6.088    0.208    1.008   83.962  254.089
  480.000    6.046    0.186    1.013   84.186  253.920
  480.250    5.196    0.203    1.032   84.964  253.021
  480.500    4.002    0.214    1.058   86.365  248.613
  480.750    3.809    0.197    1.046   86.961  255.774
  481.000    4.725    0.180    1.019   87.679  261.280
  481.250    5.555    0.213    1.024   87.593  263.172
  481.500    5.640    0.198    1.009   86.510  261.972
  481.750    5.499    0.186    1.003   85.619  258.386
  482.000    4.940    0.185    1.012   86.957  253.876
  482.250    4.121    0.185    1.033   90.218  257.731
  482.500    4.279    0.197    1.021   90.503  259.624
  482.750    4.697    0.177    1.031   87.561  256.558
  483.000    4.545    0.192    1.030   88.344  254.425
  483.250    4.068    0.199    1.019   86.891  253.323
  483.500    3.973    0.207    1.006   85.749  252.736
  483.750    4.321    0.211    0.992   85.474  254.526
  484.000    4.562    0.199    1.061   83.775  263.234
  484.250    4.641    0.228    1.087   81.390  285.263
  484.500    4.116    0.237    1.124   82.421  293.456
  484.750    3.831    0.261    1.144   82.520  303.402
  485.000    3.741    0.286    1.125   83.672  275.044
  485.250    3.771    0.273    1.046   83.895  242.130
  485.500    3.851    0.235    1.043   79.527  228.120
  485.750    4.258    0.240    1.053   78.323  224.644
  486.000    5.043    0.253    1.058   78.855  223.643
  486.250    5.197    0.254    1.044   80.070  224.917
  486.500    4.731    0.237    1.032   78.370  226.605
  486.750    4.020    0.227    1.043   78.094  228.289
  487.000    3.481    0.209    1.042   83.840  233.487
  487.250    3.180    0.225    1.029   89.272  238.579
  487.500    3.217    0.234    1.010   91.480  239.234
  487.750    3.291    0.244    0.993   89.222  232.661
  488.000    2.990    0.228    1.004   87.149  230.835
  488.250    2.845    0.217    1.003   86.379  233.035
  488.500    3.478    0.201    0.965   84.181  238.237
  488.750    5.429    0.187    0.995   84.900  244.257
  489.000    5.732    0.191    1.022   85.001  253.173
  489.250    4.599    0.213    1.033   84.292  258.574
  489.500    4.500    0.202    1.016   85.567  261.396
  489.750    4.486    0.213    0.998   87.216  262.152
  490.000    4.160    0.215    0.996   87.751  263.432
  490.250    4.247    0.184    1.010   89.212  265.013
  490.500    4.517    0.191    1.008   91.916  267.011
  490.750    4.630    0.196    0.998   91.394  269.002
  491.000    4.438    0.188    1.029   83.986  273.372
  491.250    4.608    0.203    1.053   83.340  275.161
  491.500    4.377    0.221    1.055   83.502  261.564
  491.750    3.839    0.239    1.036   82.734  249.308
  492.000    3.245    0.237    1.011   83.449  251.820
  492.250    3.175    0.223    1.002   83.671  247.725
  492.500    3.671    0.228    1.031   87.679  251.889
  492.750    4.665    0.213    1.043   91.500  261.526
  493.000    4.970    0.197    1.031   92.283  265.071
  493.250    4.617    0.207    1.033   91.696  268.100
  493.500    4.172    0.198    1.026   84.164  260.698
  493.750    3.755    0.181    1.016   83.892  226.757
  494.000    3.750    0.193    1.038   85.355  216.878
  494.250    3.773    0.227    1.056   85.267  252.331
