~VERSION INFORMATION
 VERS.                 2.0:   CWLS LOG ASCII STANDARD -VERSION 2.0
 WRAP.                  NO:   ONE LINE PER DEPTH STEP
~WELL INFORMATION BLOCK
#MNEM.UNIT           DATA                    DESCRIPTION OF MNEMONIC
#---------    -------------------            -------------------------------
# Generated from Intellog Unique Number	CW_70_72/WELL/1054
NULL.         -999.25                        : NULL_VALUE
WELL.         AMOCO WINTERSHALL CALL 11-06   : Well_name    - WELL              
LOC .         11-06-072-19W4                 : Location     - LOCATION          
UWI .         00/11-06-072-19W4/0            : Uwi          - UNIQUE WELL ID    
ENTR.         JAYE                           : Entered      - ENTERED BY        
SRVC.         SCHLUMBERGER                   : Scn          - SERVICE COMPANY   
DATE.         11 MAR 78                      : Date         - LOG DATE          
STRT.M        310.896                        : top_depth    - START DEPTH       
STOP.M        487.646                        : bot_depth    - STOP DEPTH        
STEP.M        0.25                           : increment    - STEP LENGTH       
~CURVE INFORMATION BLOCK
#MNEM UNIT       ERCB CURVE CODE    CURVE DESCRIPTION
#-----------   ------------------   ----------------------------------
DEPT.M        00 001 00 00         : DEPTH        - DEPTH                       
DPHI.V/V      00 890 00 00         : PHID         - DENSITY POROSITY (SANDSTONE)
NPHI.V/V      00 330 00 00         : PHIN         - NEUTRON POROSITY (SANDSTONE)
GR  .API      00 310 00 00         : GR           - GAMMA RAY                   
CALI.MM       00 280 01 00         : CAL          - CALIPER                     
ILD .OHMM     00 120 00 00         : RESD         - DEEP RESISTIVITY (DIL)      
~PARAMETER INFORMATION       
#MNEM.UNIT           DATA             DESCRIPTION OF MNEMONIC
#---------         -----------     ------------------------------
GL  .M        592.684              : gl           - GROUND LEVEL ELEVATION      
EREF.M        595.884              : kb           - ELEVATION OF DEPTH REFERENCE
DATM.M        592.684              : datum        - DATUM ELEVATION             
TDD .M        502.92               : tdd          - TOTAL DEPTH DRILLER         
RUN .         ONE                  : Run          - RUN NUMBER                  
MATR.         SANDSTONE            : Logunit      - NEUTRON MATRIX              
TMAX.C        23.3333              : BHT          - MAXIMUM RECORDED TEMPERATURE
BHTD.M        503.834              : BHTDEP       - MAXIMUM RECORDED TEMPERATURE
RMT .C        23.3333              : MDTP         - TEMPERATURE OF MUD          
MUDD.KG/M     0                    : MWT          - MUD DENSITY                 
NEUT.         1                    : NEUTRON      - NEUTRON TYPE                
RESI.         0                    : RESIST       - RESISTIVITY TYPE            
RM  .OHMM     2.4                  : RM           - RESISTIVITY OF MUD          
RMC .OHMM     0                    : RMC          - RESISTIVITY OF MUD CAKE     
RMF .OHMM     2.45                 : RMF          - RESISTIVITY OF MUD FILTRATE 
SUFT.C        -17.7778             : SUFT         - SURFACE TEMPERATURE         
~A  DEPTH     PHID     PHIN       GR      CAL     RESD
# ...
  383.896    0.252    0.455   85.198  182.709    5.276
  384.146    0.235    0.461   79.870  182.103    5.509
  384.396    0.207    0.459   80.383  182.339    5.698
  384.646    0.214    0.447   82.632  181.837    5.805
  384.896    0.232    0.434   85.067  181.542    5.861
  385.146    0.220    0.435   89.243  181.460    5.859
  385.396    0.198    0.441   92.548  181.587    5.892
  385.646    0.189    0.443   91.445  181.296    5.890
  385.896    0.197    0.445   90.590  180.586    5.870
  386.146    0.187    0.447   90.481  179.871    5.858
  386.396    0.175    0.450   90.928  180.002    5.835
  386.646    0.166    0.437   91.998  180.654    5.856
  386.896    0.139    0.418   94.435  194.141    5.888
  387.146    0.153    0.416   97.989  203.736    5.931
  387.396    0.181    0.434  100.486  203.128    5.976
  387.646    0.173    0.436  101.868  202.523    6.044
  387.896    0.154    0.442  102.440  201.810    6.066
  388.146    0.151    0.467  103.386  200.149    6.111
  388.396    0.149    0.469  105.573  199.126    6.133
  388.646    0.151    0.461  108.196  199.044    6.154
  388.896    0.152    0.452  107.341  199.485    6.155
  389.146    0.147    0.455  103.629  201.190    6.095
  389.396    0.145    0.460  100.662  201.529    5.992
  389.646    0.135    0.475   98.564  201.662    6.026
  389.896    0.138    0.497   97.024  201.998    6.027
  390.146    0.142    0.480   98.964  200.444    6.059
  390.396    0.135    0.468  102.146  198.258    6.232
  390.646    0.145    0.466  107.500  197.022    6.397
  390.896    0.155    0.463  106.708  195.466    6.396
  391.146    0.169    0.455  104.423  192.755    6.113
  391.396    0.177    0.451  104.003  191.414    5.628
  391.646    0.170    0.453  104.202  192.277    5.319
  391.896    0.152    0.471  104.901  195.037    4.925
  392.146    0.125    0.486  106.032  198.108    4.576
  392.396    0.163    0.501  107.599  201.497    4.276
  392.646    0.182    0.513  102.519  204.469    4.357
  392.896    0.182    0.482   95.390  206.490    4.644
  393.146    0.171    0.449   95.653  203.251    4.794
  393.396    0.159    0.443   99.207  194.125    4.722
  393.646    0.193    0.452  101.581  190.046    4.625
  393.896    0.227    0.449  102.527  189.544    4.446
  394.146    0.215    0.451   99.311  191.881    4.202
  394.396    0.210    0.455   99.449  197.060    4.039
  394.646    0.203    0.471  100.829  202.556    3.890
  394.896    0.198    0.489  105.502  204.996    3.788
  395.146    0.204    0.503  106.572  205.230    3.684
  395.396    0.206    0.513  105.157  203.885    3.614
  395.646    0.190    0.519  103.869  202.856    3.540
  395.896    0.188    0.523  103.757  196.045    3.487
  396.146    0.196    0.533  104.205  193.020    3.441
  396.396    0.210    0.532  103.847  191.992    3.396
  396.646    0.210    0.510  102.930  191.384    3.357
  396.896    0.201    0.511  102.076  191.195    3.363
  397.146    0.201    0.517  101.530  191.116    3.375
  397.396    0.200    0.510  100.859  191.349    3.407
  397.646    0.192    0.506   99.817  191.266    3.472
  397.896    0.177    0.516   98.465  190.766    3.610
  398.146    0.191    0.514   96.056  191.209    3.899
  398.396    0.195    0.505   92.467  196.071    4.471
  398.646    0.205    0.503   88.009  194.096    4.985
  398.896    0.215    0.486   81.564  190.017    5.334
  399.146    0.199    0.462   78.410  191.093    5.475
  399.396    0.186    0.451   79.419  194.272    5.292
  399.646    0.209    0.463   83.531  197.556    5.096
  399.896    0.227    0.470   79.446  198.843    5.105
  400.146    0.232    0.466   76.975  199.076    5.290
  400.396    0.242    0.461   77.674  198.785    5.586
  400.646    0.238    0.457   78.370  198.703    5.821
  400.896    0.212    0.455   77.079  198.725    5.766
  401.146    0.189    0.455   76.162  198.751    5.481
  401.396    0.201    0.460   76.176  198.986    5.121
  401.646    0.222    0.464   76.377  199.008    4.795
  401.896    0.225    0.458   76.576  198.191    4.610
  402.146    0.207    0.453   76.715  195.899    4.531
  402.396    0.225    0.443   76.852  193.927    4.514
  402.646    0.238    0.436   76.371  193.318    4.522
  402.896    0.248    0.427   75.328  193.552    4.651
  403.146    0.255    0.426   73.354  194.731    4.902
  403.396    0.209    0.428   71.319  196.756    5.610
  403.646    0.154    0.422   68.599  198.355    7.777
  403.896    0.084    0.396   65.632  195.854   11.407
  404.146    0.045    0.274   65.893  199.037   13.356
  404.396    0.023    0.249   68.579  201.161   14.366
  404.646    0.039    0.254   71.264  201.815   14.046
  404.896    0.051    0.264   72.830  200.997   12.062
  405.146    0.068    0.281   74.895  199.759   10.017
  405.396    0.092    0.300   77.269  198.732    8.315
  405.646    0.134    0.336   81.009  196.126    6.588
  405.896    0.194    0.368   83.756  189.945    5.542
  406.146    0.251    0.408   78.802  179.028    4.398
  406.396    0.276    0.435   75.400  175.686    3.996
  406.646    0.278    0.435   72.617  175.499    3.812
  406.896    0.269    0.438   70.271  178.995    3.784
  407.146    0.249    0.432   72.770  182.277    3.783
  407.396    0.238    0.417   75.827  184.827    3.770
  407.646    0.255    0.421   72.736  186.848    3.776
  407.896    0.273    0.428   71.010  190.870    3.776
  408.146    0.283    0.433   72.267  193.525    3.824
  408.396    0.278    0.433   73.585  193.548    3.955
  408.646    0.290    0.437   75.090  192.412    4.272
  408.896    0.283    0.437   76.408  187.703    4.596
  409.146    0.260    0.430   77.791  179.629    5.029
  409.396    0.235    0.423   78.922  181.228    5.420
  409.646    0.212    0.416   80.241  184.618    5.734
  409.896    0.193    0.404   80.874  185.798    5.723
  410.146    0.174    0.377   81.384  180.879    5.668
  410.396    0.220    0.334   83.076  184.690    5.460
  410.646    0.241    0.386   86.195  190.079    5.267
  410.896    0.239    0.408   87.638  193.995    5.053
  411.146    0.224    0.425   86.037  194.963    4.803
  411.396    0.218    0.438   83.690  195.936    4.617
  411.646    0.238    0.451   80.849  196.171    4.480
  411.896    0.231    0.457   81.049  195.665    4.438
  412.146    0.207    0.460   82.427  195.267    4.404
  412.396    0.204    0.465   84.865  194.871    4.329
  412.646    0.197    0.470   88.171  194.052    4.193
  412.896    0.203    0.476   94.087  192.817    4.001
  413.146    0.188    0.481   97.454  192.102    3.823
  413.396    0.190    0.492  100.326  188.551    3.641
  413.646    0.196    0.470  102.202  183.947    3.441
  413.896    0.180    0.462  104.949  186.176    3.222
  414.146    0.191    0.461  108.379  191.459    2.972
  414.396    0.191    0.474  111.933  193.797    2.783
  414.646    0.195    0.487  116.482  194.139    2.659
  414.896    0.201    0.518  115.067  195.849    2.808
  415.146    0.206    0.543  114.148  196.498    3.131
  415.396    0.209    0.528  113.977  193.052    3.658
  415.646    0.205    0.495  112.935  195.180    4.299
  415.896    0.189    0.468  109.780  199.197    4.548
  416.146    0.196    0.448  105.820  202.801    4.652
  416.396    0.186    0.437  105.337  205.453    4.704
  416.646    0.187    0.442  109.078  207.895    4.765
  416.896    0.181    0.456  113.625  208.549    4.901
  417.146    0.171    0.479  112.087  203.312    5.049
  417.396    0.151    0.485  105.579  193.660    5.174
  417.646    0.153    0.459  100.810  193.791    5.271
  417.896    0.145    0.442   96.538  197.073    5.320
  418.146    0.150    0.435   95.310  200.042    5.360
  418.396    0.183    0.432   97.187  201.753    5.410
  418.646    0.194    0.429  100.680  202.615    5.460
  418.896    0.192    0.439  104.172  202.744    5.511
  419.146    0.169    0.461  102.198  202.452    5.541
  419.396    0.136    0.458  100.413  202.160    5.584
  419.646    0.160    0.432  101.171  200.713    5.604
  419.896    0.166    0.432  103.110  194.529    5.615
  420.146    0.154    0.435  103.745  192.869    5.656
