~VERSION INFORMATION
 VERS.                 2.0:   CWLS LOG ASCII STANDARD -VERSION 2.0
 WRAP.                  NO:   ONE LINE PER DEPTH STEP
~WELL INFORMATION BLOCK
#MNEM.UNIT           DATA                    DESCRIPTION OF MNEMONIC
#---------    -------------------            -------------------------------
# Generated from Intellog Unique Number	CS_71_72/WELL/857
WELL.         AEC IPIATIK GRIST              : Well_name    - WELL
LOC .         00/10-17-071-06W4/0            : Location     - LOCATION
UWI .         00/10-17-071-06W4/0            : Uwi          - UNIQUE WELL ID
ENTR.         SP                             : Entered      - ENTERED BY
SRVC.         SCHLUMBERGER                   : Scn          - SERVICE COMPANY
STRT.M        300                            : top_depth    - START DEPTH
STOP.M        515                            : bot_depth    - STOP DEPTH
STEP.M        0.25                           : increment    - STEP LENGTH
 NULL. -999.2500:NULL Value
~CURVE INFORMATION BLOCK
#MNEM UNIT       ERCB CURVE CODE    CURVE DESCRIPTION
#-----------   ------------------   ----------------------------------
DEPT.M        00 001 00 00         : DEPTH        - DEPTH
ILD .OHMM     00 120 00 00         : RESD         - DEEP RESISTIVITY (DIL)
DPHI.V/V      00 890 00 00         : PHID         - DENSITY POROSITY (LIMESTONE)
NPHI.V/V      00 330 00 00         : PHIN         - NEUTRON POROSITY (LIMESTONE)
GR  .API      00 310 00 00         : GR           - GAMMA RAY
~PARAMETER INFORMATION
#MNEM.UNIT           DATA             DESCRIPTION OF MNEMONIC
#---------         -----------     ------------------------------
GL  .M        653                  : gl           - GROUND LEVEL ELEVATION
EREF.M        657.2                : kb           - ELEVATION OF DEPTH REFERENCE
DATM.M        653                  : datum        - DATUM ELEVATION
TDD .M        615                  : tdd          - TOTAL DEPTH DRILLER
RUN .         ONE                  : Run          - RUN NUMBER
ENG .         BILL                 : Engineer     - RECORDING ENGINEER
WIT .         JIM                  : Witness      - WITNESSED BY
MUD .         GEL                  : Mud_type     - MUD TYPE
MATR.         LIMESTONE            : Logunit      - NEUTRON MATRIX
TMAX.C        16                   : BHT          - MAXIMUM RECORDED TEMPERATURE
BHTD.M        615                  : BHTDEP       - MAXIMUM RECORDED TEMPERATURE
MATR.         1                    : LOGUNIT      - NEUTRON MATRIX
RMT .C        25                   : MDTP         - TEMPERATURE OF MUD
NEUT.         1                    : NEUTRON      - NEUTRON TYPE
RESI.         0                    : RESIST       - RESISTIVITY TYPE
RMC .OHMM     0.25                 : RMC          - RESISTIVITY OF MUD CAKE
RMF .OHMM     0.25                 : RMF          - RESISTIVITY OF MUD FILTRATE
SUFT.C        15                   : SUFT         - SURFACE TEMPERATURE
~A  DEPTH     RESD     PHID     PHIN       GR
# ...
  430.500    2.248    0.232    0.580   89.571
  430.750    2.425    0.225    0.569   91.415
  431.000    2.776    0.226    0.538   93.447
  431.250    3.214    0.214    0.521   93.760
  431.500    3.728    0.202    0.504   92.436
  431.750    3.996    0.203    0.521   88.373
  432.000    4.465    0.208    0.526   85.037
  432.250    4.708    0.201    0.489   82.740
  432.500    4.855    0.207    0.465   81.600
  432.750    4.914    0.204    0.451   81.249
  433.000    4.819    0.187    0.459   82.240
  433.250    4.742    0.177    0.465   81.707
  433.500    4.633    0.151    0.468   80.384
  433.750    4.433    0.121    0.419   80.524
  434.000    4.227    0.111    0.402   82.187
  434.250    4.153    0.154    0.417   84.212
  434.500    4.266    0.177    0.438   86.178
  434.750    4.959    0.190    0.466   87.048
  435.000    5.580    0.202    0.487   84.385
  435.250    6.883    0.193    0.481   81.232
  435.500    7.746    0.216    0.467   76.984
  435.750    9.051    0.224    0.477   72.491
  436.000   10.998    0.245    0.464   70.131
  436.250   12.899    0.277    0.450   65.762
  436.500   14.145    0.263    0.418   62.308
  436.750   14.589    0.156    0.393   60.189
  437.000   14.463    0.052    0.261   58.442
  437.250   13.286    0.062    0.235   57.785
  437.500   11.434    0.121    0.247   57.623
  437.750   10.289    0.169    0.347   57.819
  438.000    9.173    0.208    0.390   59.242
  438.250    8.088    0.241    0.430   60.106
  438.500    7.625    0.265    0.459   61.221
  438.750    7.325    0.278    0.441   62.455
  439.000    7.063    0.274    0.423   63.814
  439.250    6.696    0.266    0.428   64.439
  439.500    5.521    0.264    0.436   64.761
  439.750    4.551    0.256    0.426   66.119
  440.000    3.780    0.257    0.415   69.609
  440.250    3.345    0.251    0.411   76.082
  440.500    3.101    0.218    0.413   85.238
  440.750    3.002    0.182    0.457   90.495
  441.000    2.976    0.180    0.504   92.767
  441.250    2.974    0.191    0.539   94.918
  441.500    2.998    0.199    0.505   96.213
  441.750    3.086    0.204    0.481   96.411
  442.000    3.384    0.198    0.464   94.052
  442.250    4.129    0.193    0.454   92.910
  442.500    4.629    0.197    0.465   91.653
  442.750    5.562    0.210    0.483   89.962
  443.000    6.609    0.207    0.515   84.308
  443.250    7.523    0.207    0.454   73.420
  443.500    8.052    0.227    0.420   70.205
  443.750    8.257    0.211    0.408   70.224
  444.000    8.126    0.176    0.419   70.241
  444.250    7.605    0.155    0.431   68.489
  444.500    6.376    0.136    0.414   64.849
  444.750    5.325    0.108    0.394   65.905
  445.000    4.541    0.141    0.406   69.457
  445.250    4.336    0.206    0.424   74.228
  445.500    4.900    0.212    0.432   78.326
  445.750    5.910    0.199    0.433   80.348
  446.000    7.221    0.189    0.453   81.523
  446.250    8.374    0.182    0.415   81.478
  446.500    9.409    0.175    0.394   77.291
  446.750    9.703    0.211    0.392   72.376
  447.000    9.675    0.236    0.403   69.527
  447.250    9.648    0.242    0.407   66.741
  447.500    9.566    0.230    0.408   65.659
  447.750    9.433    0.217    0.415   67.752
  448.000    9.232    0.215    0.407   68.557
  448.250    9.188    0.212    0.394   69.122
  448.500    9.456    0.204    0.391   68.590
  448.750    9.899    0.201    0.397   68.241
  449.000   10.362    0.178    0.406   67.772
  449.250   10.506    0.091    0.402   66.812
  449.500   10.167    0.046    0.368   64.513
  449.750    9.515    0.065    0.358   67.211
  450.000    9.090    0.155    0.372   71.374
  450.250    9.199    0.179    0.398   74.805
  450.500    9.647    0.189    0.416   76.340
  450.750   10.250    0.197    0.416   78.434
  451.000   10.869    0.202    0.427   78.080
  451.250   11.333    0.219    0.435   77.487
  451.500   11.578    0.241    0.422   78.357
  451.750   11.375    0.250    0.426   79.897
  452.000   10.845    0.246    0.423   80.096
  452.250   10.360    0.229    0.417   79.869
  452.500    9.971    0.208    0.417   81.225
  452.750    9.905    0.200    0.412   83.070
  453.000   10.486    0.192    0.401   84.552
  453.250   11.458    0.197    0.393   84.445
  453.500   12.331    0.202    0.401   80.440
  453.750   13.471    0.206    0.392   74.732
  454.000   14.745    0.219    0.381   69.325
  454.250   15.666    0.237    0.380   65.013
  454.500   16.154    0.252    0.371   57.901
  454.750   16.476    0.243    0.343   51.033
  455.000   16.153    0.233    0.334   48.186
  455.250   14.810    0.227    0.340   49.116
  455.500   12.277    0.221    0.336   49.438
  455.750   10.253    0.213    0.325   47.931
  456.000    8.742    0.212    0.315   54.589
  456.250    8.089    0.194    0.310   65.756
  456.500    7.586    0.184    0.333   74.729
  456.750    7.246    0.173    0.365   80.839
  457.000    7.025    0.174    0.402   85.792
  457.250    6.928    0.171    0.424   88.976
  457.500    6.908    0.164    0.411   91.430
  457.750    6.927    0.163    0.403   94.192
  458.000    6.971    0.149    0.403   95.790
  458.250    7.043    0.143    0.403   97.147
  458.500    7.129    0.145    0.408   94.239
  458.750    7.228    0.139    0.414   91.879
  459.000    7.343    0.133    0.410   91.046
  459.250    7.336    0.130    0.399   89.967
  459.500    7.152    0.127    0.398   88.883
  459.750    6.987    0.122    0.399   89.084
  460.000    6.954    0.145    0.401   90.135
  460.250    6.999    0.154    0.392   91.496
  460.500    7.190    0.166    0.406   92.367
  460.750    7.429    0.161    0.413   92.319
  461.000    7.733    0.154    0.406   90.997
  461.250    7.724    0.149    0.399   89.183
  461.500    8.054    0.150    0.402   85.730
  461.750    8.198    0.157    0.416   81.905
  462.000    8.189    0.157    0.413   77.716
  462.250    8.227    0.159    0.399   79.379
  462.500    8.328    0.160    0.384   81.957
  462.750    8.555    0.162    0.374   83.252
  463.000    8.871    0.169    0.364   83.876
  463.250    9.147    0.175    0.365   78.654
  463.500    9.363    0.171    0.371   76.720
  463.750    9.514    0.166    0.369   76.496
  464.000    9.431    0.162    0.367   78.338
  464.250    9.440    0.157    0.374   80.187
  464.500    9.537    0.175    0.383   80.626
  464.750    9.761    0.178    0.380   80.704
  465.000   10.085    0.196    0.383   79.257
  465.250   10.340    0.190    0.379   77.326
  465.500   10.682    0.181    0.361   76.490
  465.750   11.119    0.177    0.361   76.269
  466.000   11.425    0.180    0.374   76.463
  466.250   11.582    0.191    0.378   76.721
  466.500   12.537    0.199    0.385   76.311
  466.750   15.442    0.206    0.383   75.294
  467.000   16.367    0.200    0.377   73.908
  467.250   18.527    0.193    0.392   71.609
  467.500   19.867    0.200    0.413   66.447
  467.750   21.072    0.223    0.397   58.299
  468.000   21.643    0.241    0.375   53.928
  468.250   22.204    0.233    0.361   51.812
  468.500   22.505    0.209    0.342   55.792
  468.750   23.601    0.188    0.330   58.548
  469.000   24.749    0.169    0.325   60.087
  469.250   25.711    0.168    0.344   54.499
  469.500   26.712    0.188    0.368   50.982
  469.750   27.648    0.226    0.387   51.485
  470.000   28.406    0.269    0.402   52.660
  470.250   28.802    0.274    0.411   52.984
  470.500   28.347    0.263    0.399   53.302
  470.750   25.893    0.265    0.393   56.123
  471.000   23.257    0.276    0.410   58.759
  471.250   20.389    0.285    0.404   60.543
  471.500   17.776    0.271    0.412   61.657
  471.750   15.701    0.264    0.418   62.952
  472.000   13.895    0.257    0.416   64.676
  472.250   12.250    0.248    0.412   67.006
  472.500   10.820    0.242    0.416   68.793
  472.750    9.594    0.240    0.412   69.295
  473.000    8.878    0.232    0.400   70.531
  473.250    8.231    0.219    0.387   74.386
  473.500    7.704    0.206    0.380   79.643
  473.750    7.400    0.197    0.380   84.293
