~VERSION INFORMATION
 VERS.                 2.0:   CWLS LOG ASCII STANDARD -VERSION 2.0
 WRAP.                  NO:   ONE LINE PER DEPTH STEP
~WELL INFORMATION BLOCK
#MNEM.UNIT           DATA                    DESCRIPTION OF MNEMONIC
#---------    -------------------            -------------------------------
# Generated from Intellog Unique Number	CS_69_70/WELL/889
WELL.         BOW VALLEY INDUSTRIES          : Well_name    - WELL
LOC .         00/11-21-069-13W4/0            : Location     - LOCATION
UWI .         00/11-21-069-13W4/0            : Uwi          - UNIQUE WELL ID
ENTR.         SP                             : Entered      - ENTERED BY
SRVC.         SCHLUMBERGER                   : Scn          - SERVICE COMPANY
STRT.M        270                            : top_depth    - START DEPTH
STOP.M        472                            : bot_depth    - STOP DEPTH
STEP.M        0.25                           : increment    - STEP LENGTH
 NULL. -999.2500:NULL Value
~CURVE INFORMATION BLOCK
#MNEM UNIT       ERCB CURVE CODE    CURVE DESCRIPTION
#-----------   ------------------   ----------------------------------
DEPT.M        00 001 00 00         : DEPTH        - DEPTH
ILD .OHMM     00 120 00 00         : RESD         - DEEP RESISTIVITY (DIL)
DPHI.V/V      00 890 00 00         : PHID         - DENSITY POROSITY (LIMESTONE)
NPHI.V/V      00 330 00 00         : PHIN         - NEUTRON POROSITY (LIMESTONE)
GR  .API      00 310 00 00         : GR           - GAMMA RAY
~PARAMETER INFORMATION
#MNEM.UNIT           DATA             DESCRIPTION OF MNEMONIC
#---------         -----------     ------------------------------
GL  .M        568.76               : gl           - GROUND LEVEL ELEVATION
EREF.M        571.5                : kb           - ELEVATION OF DEPTH REFERENCE
DATM.M        568.76               : datum        - DATUM ELEVATION
TDD .M        480                  : tdd          - TOTAL DEPTH DRILLER
RUN .         ONE                  : Run          - RUN NUMBER
ENG .         BILL                 : Engineer     - RECORDING ENGINEER
WIT .         JIM                  : Witness      - WITNESSED BY
MUD .         GEL                  : Mud_type     - MUD TYPE
MATR.         LIMESTONE            : Logunit      - NEUTRON MATRIX
TMAX.C        24.2                 : BHT          - MAXIMUM RECORDED TEMPERATURE
BHTD.M        480                  : BHTDEP       - MAXIMUM RECORDED TEMPERATURE
MATR.         1                    : LOGUNIT      - NEUTRON MATRIX
RMT .C        25                   : MDTP         - TEMPERATURE OF MUD
NEUT.         1                    : NEUTRON      - NEUTRON TYPE
RESI.         0                    : RESIST       - RESISTIVITY TYPE
RMC .OHMM     0.25                 : RMC          - RESISTIVITY OF MUD CAKE
RMF .OHMM     0.25                 : RMF          - RESISTIVITY OF MUD FILTRATE
SUFT.C        15                   : SUFT         - SURFACE TEMPERATURE
~A  DEPTH     RESD     PHID     PHIN       GR
# ...
  400.500    3.189    0.222    0.476  113.564
  400.750    3.455    0.227    0.451  107.640
  401.000    3.674    0.202    0.436  103.710
  401.250    3.973    0.191    0.424   99.418
  401.500    4.194    0.228    0.412   96.034
  401.750    4.370    0.224    0.405   92.589
  402.000    4.404    0.191    0.394   88.720
  402.250    4.284    0.157    0.388   87.876
  402.500    4.105    0.129    0.378   89.875
  402.750    3.934    0.146    0.369   91.390
  403.000    3.892    0.177    0.397   92.300
  403.250    4.047    0.199    0.424   93.028
  403.500    5.511    0.226    0.423   88.737
  403.750    7.731    0.187    0.424   85.715
  404.000    8.972    0.160    0.426   81.121
  404.250    9.703    0.139    0.420   75.679
  404.500    9.438    0.034    0.372   69.452
  404.750    8.845    0.018    0.237   66.673
  405.000    6.633    0.027    0.219   76.171
  405.250    5.696    0.073    0.266   84.641
  405.500    5.289    0.125    0.317   95.289
  405.750    5.069    0.146    0.371  100.857
  406.000    5.014    0.154    0.392  103.157
  406.250    5.025    0.160    0.393  105.640
  406.500    5.063    0.169    0.399  106.671
  406.750    5.112    0.162    0.396  106.129
  407.000    5.179    0.151    0.394  105.709
  407.250    5.229    0.143    0.404  105.590
  407.500    5.308    0.171    0.408  105.230
  407.750    5.379    0.166    0.412  104.932
  408.000    5.410    0.159    0.407  102.876
  408.250    5.432    0.156    0.401  102.032
  408.500    5.413    0.161    0.405  102.095
  408.750    5.344    0.171    0.407  102.824
  409.000    5.276    0.167    0.390  103.915
  409.250    5.170    0.156    0.384  106.216
  409.500    5.020    0.162    0.395  107.731
  409.750    4.874    0.187    0.404  108.459
  410.000    4.803    0.191    0.410  108.764
  410.250    4.768    0.189    0.414  108.283
  410.500    4.841    0.179    0.406  107.076
  410.750    4.923    0.168    0.397  105.990
  411.000    5.111    0.161    0.393  105.025
  411.250    5.218    0.155    0.406  104.301
  411.500    5.356    0.164    0.414  103.820
  411.750    5.408    0.172    0.424  102.915
  412.000    5.388    0.157    0.428  102.132
  412.250    5.271    0.144    0.407  102.255
  412.500    5.223    0.132    0.395  102.742
  412.750    5.157    0.119    0.404  103.591
  413.000    5.120    0.149    0.416  104.804
  413.250    5.102    0.139    0.419  105.654
  413.500    5.093    0.121    0.412  106.140
  413.750    5.085    0.149    0.415  106.565
  414.000    5.067    0.181    0.410  107.656
  414.250    5.069    0.201    0.400  109.716
  414.500    5.060    0.178    0.392  111.956
  414.750    5.062    0.160    0.387  114.802
  415.000    5.043    0.173    0.389  112.325
  415.250    5.017    0.180    0.393  109.847
  415.500    4.641    0.179    0.400  107.309
  415.750    3.353    0.175    0.410  105.679
  416.000    2.713    0.183    0.406  105.379
  416.250    2.383    0.187    0.421  105.140
  416.500    2.242    0.236    0.460  104.598
  416.750    2.152    0.237    0.493  103.391
  417.000    2.181    0.257    0.517  101.640
  417.250    2.222    0.257    0.502   99.465
  417.500    2.350    0.266    0.503   98.137
  417.750    2.702    0.267    0.509   97.050
  418.000    3.267    0.261    0.514   96.449
  418.250    3.994    0.269    0.481   95.786
  418.500    4.892    0.255    0.445   94.820
  418.750    5.511    0.230    0.422   93.371
  419.000    6.038    0.200    0.403   90.653
  419.250    6.362    0.151    0.387   87.812
  419.500    6.715    0.128    0.373   84.791
  419.750    7.036    0.113    0.359   82.495
  420.000    7.331    0.099    0.347   82.739
  420.250    7.639    0.119    0.335   84.798
  420.500    7.842    0.107    0.327   82.866
  420.750    7.829    0.100    0.320   79.541
  421.000    7.163    0.136    0.328   75.734
  421.250    6.220    0.131    0.286   71.321
  421.500    5.659    0.090    0.283   80.154
  421.750    5.149    0.102    0.316   91.105
  422.000    4.825    0.125    0.362   97.942
  422.250    4.676    0.136    0.408  101.331
  422.500    4.583    0.152    0.402  104.298
  422.750    4.609    0.113    0.394  108.595
  423.000    4.645    0.122    0.394  108.053
  423.250    4.663    0.153    0.397  101.403
  423.500    4.612    0.147    0.377  102.615
  423.750    4.445    0.127    0.360  106.186
  424.000    4.228    0.129    0.367  109.152
  424.250    3.818    0.158    0.404  111.816
  424.500    3.605    0.174    0.445  113.150
  424.750    3.442    0.182    0.464  112.305
  425.000    3.317    0.186    0.477  111.643
  425.250    3.185    0.195    0.477  113.158
  425.500    3.145    0.178    0.479  115.096
  425.750    3.093    0.176    0.481  116.671
  426.000    3.065    0.174    0.474  118.005
  426.250    3.043    0.182    0.467  118.430
  426.500    3.038    0.181    0.471  118.614
  426.750    3.136    0.189    0.475  119.162
  427.000    3.417    0.197    0.492  119.708
  427.250    3.311    0.183    0.507  120.557
  427.500    3.179    0.175    0.493  121.104
  427.750    3.047    0.169    0.455  116.147
  428.000    2.942    0.133    0.433  123.166
  428.250    2.888    0.135    0.423  125.830
  428.500    3.141    0.171    0.457  121.660
  428.750    3.652    0.180    0.487  115.916
  429.000    4.490    0.196    0.506   99.588
  429.250    5.540    0.194    0.482   87.433
  429.500    6.172    0.180    0.419   79.028
  429.750    6.700    0.165    0.379   73.466
  430.000    6.967    0.172    0.337   73.772
  430.250    7.287    0.162    0.358   73.714
  430.500    7.523    0.141    0.370   71.357
  430.750    7.580    0.125    0.378   74.747
  431.000    7.171    0.171    0.386   78.076
  431.250    6.204    0.194    0.384   82.252
  431.500    5.623    0.178    0.382   85.884
  431.750    5.521    0.202    0.374   89.697
  432.000    5.982    0.215    0.367   91.817
  432.250    6.481    0.209    0.360   91.517
  432.500    7.207    0.212    0.376   82.266
  432.750    7.678    0.236    0.332   64.788
  433.000    8.015    0.231    0.314   57.593
  433.250    8.152    0.189    0.296   53.362
  433.500    8.200    0.190    0.296   56.449
  433.750    7.543    0.199    0.316   58.085
  434.000    6.786    0.145    0.277   57.603
  434.250    6.174    0.106    0.255   62.748
  434.500    5.808    0.069    0.254   68.798
  434.750    5.433    0.056    0.334   76.967
  435.000    5.121    0.092    0.365   81.687
  435.250    4.456    0.135    0.386   84.169
  435.500    3.798    0.168    0.388   82.115
  435.750    3.028    0.190    0.382   78.731
  436.000    2.543    0.218    0.378   74.621
  436.250    2.280    0.236    0.380   70.994
  436.500    2.193    0.254    0.381   67.912
  436.750    2.185    0.278    0.373   65.616
  437.000    2.206    0.275    0.368   65.316
  437.250    2.236    0.271    0.365   67.013
  437.500    2.364    0.277    0.368   70.523
  437.750    2.561    0.270    0.369   81.958
  438.000    2.896    0.259    0.364   91.577
  438.250    3.330    0.256    0.362   97.991
  438.500    3.759    0.239    0.370   99.143
  438.750    4.290    0.224    0.376  105.254
  439.000    4.744    0.213    0.370  112.576
  439.250    5.101    0.199    0.379  119.594
  439.500    5.445    0.178    0.386  124.859
  439.750    5.663    0.170    0.391  126.495
  440.000    5.814    0.176    0.394  124.804
  440.250    5.946    0.192    0.389  122.448
  440.500    6.116    0.178    0.379  120.575
  440.750    6.278    0.165    0.371  118.763
  441.000    6.566    0.158    0.363  117.858
  441.250    6.690    0.150    0.360  109.877
  441.500    6.868    0.171    0.366   97.118
  441.750    7.038    0.151    0.364   93.673
  442.000    7.171    0.126    0.353  101.115
  442.250    7.280    0.102    0.349  106.863
  442.500    7.364    0.173    0.355  108.862
  442.750    7.420    0.188    0.355  100.276
  443.000    7.547    0.200    0.357   94.533
  443.250    7.733    0.213    0.368   90.362
  443.500    7.720    0.229    0.377   87.401
  443.750    7.371    0.250    0.360   89.823
