~VERSION INFORMATION
 VERS.                 2.0:   CWLS LOG ASCII STANDARD -VERSION 2.0
 WRAP.                  NO:   ONE LINE PER DEPTH STEP
~WELL INFORMATION BLOCK
#MNEM.UNIT           DATA                    DESCRIPTION OF MNEMONIC
#---------    -------------------            -------------------------------
# Generated from Intellog Unique Number	CS_73_76/WELL/1964
WELL.         AMOCO                          : Well_name    - WELL
LOC .         00/11-05-073-05W4/0            : Location     - LOCATION
UWI .         00/11-05-073-05W4/0            : Uwi          - UNIQUE WELL ID
ENTR.         T                              : Entered      - ENTERED BY
SRVC.         SCHLUMBERGER                   : Scn          - SERVICE COMPANY
STRT.M        325                            : top_depth    - START DEPTH
STOP.M        550                            : bot_depth    - STOP DEPTH
STEP.M        0.25                           : increment    - STEP LENGTH
 NULL. -999.2500:NULL Value
~CURVE INFORMATION BLOCK
#MNEM UNIT       ERCB CURVE CODE    CURVE DESCRIPTION
#-----------   ------------------   ----------------------------------
DEPT.M        00 001 00 00         : DEPTH        - DEPTH
GR  .API      00 310 00 00         : GR           - GAMMA RAY
NPHI.V/V      00 330 00 00         : PHIN         - NEUTRON POROSITY (SANDSTONE)
DPHI.V/V      00 890 00 00         : PHID         - DENSITY POROSITY (SANDSTONE)
ILD .OHMM     00 120 00 00         : RESD         - DEEP RESISTIVITY (DIL)
~PARAMETER INFORMATION
#MNEM.UNIT           DATA             DESCRIPTION OF MNEMONIC
#---------         -----------     ------------------------------
GL  .M        703.6                : gl           - GROUND LEVEL ELEVATION
EREF.M        708.1                : kb           - ELEVATION OF DEPTH REFERENCE
DATM.M        708.1                : datum        - DATUM ELEVATION
TDD .M        566                  : tdd          - TOTAL DEPTH DRILLER
RUN .         ONE                  : Run          - RUN NUMBER
ENG .         BILL                 : Engineer     - RECORDING ENGINEER
WIT .         JIM                  : Witness      - WITNESSED BY
MUD .         GEL                  : Mud_type     - MUD TYPE
MATR.         SANDSTONE            : Logunit      - NEUTRON MATRIX
TMAX.C        18                   : BHT          - MAXIMUM RECORDED TEMPERATURE
BHTD.M        566                  : BHTDEP       - MAXIMUM RECORDED TEMPERATURE
MATR.         1                    : LOGUNIT      - NEUTRON MATRIX
RMT .C        25                   : MDTP         - TEMPERATURE OF MUD
NEUT.         1                    : NEUTRON      - NEUTRON TYPE
RESI.         0                    : RESIST       - RESISTIVITY TYPE
RMC .OHMM     1.2                  : RMC          - RESISTIVITY OF MUD CAKE
RMF .OHMM     1.5                  : RMF          - RESISTIVITY OF MUD FILTRATE
SUFT.C        15                   : SUFT         - SURFACE TEMPERATURE
~A  DEPTH       GR     PHIN     PHID     RESD
# ...
  368.500   89.731    0.435    0.161    5.514
  368.750   91.572    0.444    0.190    5.318
  369.000   92.215    0.448    0.235    4.945
  369.250   95.245    0.453    0.258    4.767
  369.500  106.079    0.464    0.246    4.690
  369.750  115.137    0.488    0.228    4.696
  370.000  110.972    0.497    0.223    4.705
  370.250  103.221    0.522    0.222    4.624
  370.500   99.656    0.525    0.232    4.298
  370.750   91.305    0.494    0.239    4.222
  371.000   87.152    0.468    0.250    3.997
  371.250   84.807    0.444    0.259    3.859
  371.500   83.041    0.421    0.267    3.863
  371.750   81.285    0.409    0.267    3.797
  372.000   75.943    0.405    0.261    3.805
  372.250   71.778    0.445    0.264    3.740
  372.500   67.025    0.446    0.275    3.677
  372.750   67.068    0.439    0.282    3.549
  373.000   70.109    0.433    0.288    3.486
  373.250   73.760    0.427    0.296    3.302
  373.500   74.402    0.431    0.302    3.184
  373.750   72.036    0.437    0.303    2.962
  374.000   67.294    0.441    0.300    2.908
  374.250   67.326    0.446    0.297    2.807
  374.500   72.176    0.450    0.288    2.758
  374.750   74.017    0.451    0.286    2.763
  375.000   74.660    0.452    0.289    2.821
  375.250   75.902    0.446    0.293    2.826
  375.500   75.945    0.439    0.295    2.830
  375.750   74.189    0.429    0.303    2.784
  376.000   73.633    0.425    0.308    2.735
  376.250   72.477    0.421    0.308    2.688
  376.500   72.530    0.421    0.307    2.643
  376.750   73.184    0.431    0.307    2.649
  377.000   73.216    0.431    0.305    2.701
  377.250   73.848    0.429    0.302    2.809
  377.500   75.689    0.427    0.297    2.921
  377.750   80.550    0.424    0.292    3.038
  378.000   81.770    0.422    0.285    3.046
  378.250   83.034    0.418    0.276    2.992
  378.500   83.666    0.415    0.265    2.833
  378.750   83.698    0.418    0.271    2.734
  379.000   82.542    0.430    0.291    2.636
  379.250   76.589    0.439    0.296    2.545
  379.500   68.239    0.437    0.300    2.500
  379.750   61.698    0.437    0.309    2.413
  380.000   59.342    0.440    0.319    2.373
  380.250   59.985    0.447    0.322    2.332
  380.500   61.227    0.449    0.327    2.291
  380.750   63.668    0.447    0.326    2.253
  381.000   65.510    0.448    0.317    2.257
  381.250   65.563    0.452    0.317    2.219
  381.500   66.195    0.456    0.318    2.181
  381.750   67.437    0.462    0.313    2.144
  382.000   66.281    0.471    0.317    2.108
  382.250   63.926    0.461    0.322    2.111
  382.500   63.358    0.439    0.322    2.114
  382.750   66.399    0.423    0.322    2.199
  383.000   72.448    0.419    0.325    2.375
  383.250   76.088    0.429    0.330    2.469
  383.500   80.939    0.431    0.324    2.769
  383.750   83.979    0.432    0.299    3.104
  384.000   86.410    0.435    0.268    3.354
  384.250   86.453    0.437    0.242    3.235
  384.500   83.498    0.437    0.248    3.121
  384.750   78.755    0.436    0.263    3.010
  385.000   75.790    0.434    0.265    2.850
  385.250   74.634    0.438    0.294    2.751
  385.500   72.899    0.443    0.303    2.605
  385.750   71.733    0.444    0.303    2.559
  386.000   69.988    0.440    0.281    2.661
  386.250   69.410    0.441    0.288    2.820
  386.500   79.045    0.445    0.296    2.935
  386.750   84.484    0.447    0.287    2.995
  387.000   87.546    0.442    0.273    3.116
  387.250   85.790    0.437    0.260    3.239
  387.500   84.035    0.442    0.257    3.307
  387.750   82.879    0.449    0.253    3.312
  388.000   82.311    0.460    0.240    3.316
  388.250   81.155    0.469    0.246    3.259
  388.500   79.400    0.460    0.256    3.204
  388.750   80.042    0.464    0.262    3.092
  389.000   77.098    0.471    0.255    3.039
  389.250   74.732    0.471    0.233    2.825
  389.500   71.778    0.466    0.259    2.676
  389.750   69.422    0.440    0.263    2.532
  390.000   67.056    0.436    0.272    2.397
  390.250   64.102    0.434    0.281    2.269
  390.500   64.744    0.436    0.294    2.032
  390.750   68.406    0.439    0.312    1.923
  391.000   70.847    0.440    0.321    1.890
  391.250   70.890    0.448    0.316    1.791
  391.500   70.922    0.468    0.315    1.759
  391.750   70.987    0.468    0.314    1.729
  392.000   71.008    0.468    0.315    1.701
  392.250   70.451    0.471    0.316    1.671
  392.500   66.908    0.475    0.317    1.554
  392.750   63.953    0.479    0.320    1.499
  393.000   62.187    0.482    0.322    1.418
  393.250   59.832    0.475    0.324    1.293
  393.500   57.487    0.460    0.327    1.180
  393.750   53.933    0.449    0.329    1.097
  394.000   51.588    0.440    0.335    1.057
  394.250   50.422    0.436    0.338    1.059
  394.500   52.852    0.446    0.341    1.144
  394.750   55.914    0.460    0.339    1.331
  395.000   55.336    0.462    0.326    1.734
  395.250   51.803    0.469    0.284    2.779
  395.500   49.426    0.479    0.250    5.078
  395.750   45.273    0.491    0.209    6.999
  396.000   42.340    0.439    0.189    8.304
  396.250   41.761    0.427    0.143    7.859
  396.500   40.017    0.285    0.109    6.525
  396.750   38.860    0.142   -0.023    4.932
  397.000   37.694    0.110   -0.017    3.870
  397.250   36.537    0.107    0.015    2.426
  397.500   38.978    0.117    0.055    2.383
  397.750   45.616    0.129    0.110    2.255
  398.000   53.453    0.202    0.197    2.096
  398.250   56.505    0.355    0.257    1.806
  398.500   55.349    0.436    0.281    1.587
  398.750   54.792    0.424    0.307    1.420
  399.000   55.435    0.426    0.321    1.271
  399.250   56.677    0.443    0.326    1.181
  399.500   57.330    0.431    0.331    1.324
  399.750   56.174    0.428    0.327    1.541
  400.000   52.609    0.439    0.296    2.007
  400.250   48.455    0.412    0.194    2.520
  400.500   46.688    0.312   -0.016    3.283
  400.750   49.751    0.175   -0.008    3.479
  401.000   53.980    0.178    0.004    2.888
  401.250   58.219    0.212    0.094    2.063
  401.500   60.671    0.264    0.311    1.712
  401.750   61.303    0.408    0.318    1.422
  402.000   60.746    0.436    0.328    1.249
  402.250   57.203    0.449    0.335    1.205
  402.500   55.437    0.455    0.338    1.162
  402.750   54.291    0.461    0.339    1.122
  403.000   54.345    0.459    0.339    1.103
  403.250   54.966    0.458    0.339    1.084
  403.500   55.630    0.458    0.338    1.065
  403.750   55.662    0.467    0.342    1.047
  404.000   55.116    0.470    0.346    1.029
  404.250   54.549    0.466    0.347    1.031
  404.500   54.592    0.448    0.347    1.014
  404.750   55.834    0.442    0.345    0.997
  405.000   57.065    0.453    0.344    0.998
  405.250   61.327    0.465    0.347    1.000
  405.500   64.356    0.470    0.350    1.020
  405.750   64.399    0.455    0.349    1.061
  406.000   61.445    0.436    0.347    1.083
  406.250   58.501    0.436    0.349    1.127
  406.500   56.145    0.437    0.357    1.172
  406.750   56.777    0.450    0.353    1.195
  407.000   59.218    0.461    0.347    1.195
  407.250   61.060    0.469    0.336    1.247
  407.500   61.114    0.462    0.329    1.158
  407.750   59.947    0.451    0.325    1.138
  408.000   59.390    0.449    0.327    1.119
  408.250   58.834    0.453    0.332    1.100
  408.500   61.885    0.455    0.336    1.102
  408.750   63.716    0.463    0.342    1.125
  409.000   67.977    0.465    0.344    1.148
  409.250   69.808    0.462    0.342    1.149
  409.500   71.671    0.459    0.334    1.151
  409.750   72.303    0.464    0.327    1.153
  410.000   73.545    0.470    0.324    1.134
  410.250   74.187    0.478    0.322    1.136
  410.500   75.418    0.483    0.319    1.138
  410.750   75.462    0.479    0.313    1.183
  411.000   74.916    0.474    0.308    1.207
  411.250   74.348    0.469    0.313    1.305
  411.500   74.391    0.457    0.317    1.331
  411.750   80.440    0.446    0.324    1.410
