~VERSION INFORMATION
 VERS.                 2.0:   CWLS LOG ASCII STANDARD -VERSION 2.0
 WRAP.                  NO:   ONE LINE PER DEPTH STEP
~WELL INFORMATION BLOCK
#MNEM.UNIT           DATA                    DESCRIPTION OF MNEMONIC
#---------    -------------------            -------------------------------
# Generated from Intellog Unique Number	CW_79_81/WELL/913
WELL.         HOMESTEAD ET AL WEAVER         : Well_name    - WELL
LOC .         00/11-25-080-01W5/0            : Location     - LOCATION
UWI .         00/11-25-080-01W5/0            : Uwi          - UNIQUE WELL ID
ENTR.         MAX                            : Entered      - ENTERED BY
SRVC.         SCHLUMBERGER                   : Scn          - SERVICE COMPANY
STRT.M        260                            : top_depth    - START DEPTH
STOP.M        505                            : bot_depth    - STOP DEPTH
STEP.M        0.25                           : increment    - STEP LENGTH
 NULL. -999.2500:NULL Value
~CURVE INFORMATION BLOCK
#MNEM UNIT       ERCB CURVE CODE    CURVE DESCRIPTION
#-----------   ------------------   ----------------------------------
DEPT.M        00 001 00 00         : DEPTH        - DEPTH
ILD .OHMM     00 120 00 00         : RESD         - DEEP RESISTIVITY (DIL)
NPHI.V/V      00 330 00 00         : PHIN         - NEUTRON POROSITY (SANDSTONE)
DPHI.V/V      00 890 00 00         : PHID         - DENSITY POROSITY (SANDSTONE)
CALI.MM       00 280 01 00         : CAL          - CALIPER
GR  .API      00 310 00 00         : GR           - GAMMA RAY
~PARAMETER INFORMATION
#MNEM.UNIT           DATA             DESCRIPTION OF MNEMONIC
#---------         -----------     ------------------------------
GL  .M        580                  : gl           - GROUND LEVEL ELEVATION
EREF.M        583.67               : kb           - ELEVATION OF DEPTH REFERENCE
DATM.M        580                  : datum        - DATUM ELEVATION
TDD .M        515                  : tdd          - TOTAL DEPTH DRILLER
RUN .         ONE                  : Run          - RUN NUMBER
ENG .         BILL                 : Engineer     - RECORDING ENGINEER
WIT .         JIM                  : Witness      - WITNESSED BY
MUD .         GEL                  : Mud_type     - MUD TYPE
MATR.         SANDSTONE            : Logunit      - NEUTRON MATRIX
TMAX.C        24                   : BHT          - MAXIMUM RECORDED TEMPERATURE
BHTD.M        515                  : BHTDEP       - MAXIMUM RECORDED TEMPERATURE
RMT .C        16                   : MDTP         - TEMPERATURE OF MUD
MUDD.KG/M     1100                 : MWT          - MUD DENSITY
NEUT.         1                    : NEUTRON      - NEUTRON TYPE
RESI.         0                    : RESIST       - RESISTIVITY TYPE
RM  .OHMM     6.62                 : RM           - RESISTIVITY OF MUD
RMC .OHMM     0                    : RMC          - RESISTIVITY OF MUD CAKE
RMF .OHMM     4.5                  : RMF          - RESISTIVITY OF MUD FILTRATE
SUFT.C        4                    : SUFT         - SURFACE TEMPERATURE
~A  DEPTH     RESD     PHIN     PHID      CAL       GR
  260.000    2.827    0.514    0.240  184.185   94.494
  260.250    2.805    0.519    0.244  175.212   92.420
  260.500    2.860    0.525    0.248  180.280   90.951
  260.750    3.056    0.524    0.247  188.357   88.874
  261.000    3.485    0.516    0.245  191.934   78.676
  261.250    4.609    0.489    0.257  193.492   73.589
  261.500    6.629    0.352    0.238  177.486   57.074
  261.750    9.012    0.360    0.203  172.030   45.067
  262.000   15.747    0.427    0.295  166.561   46.306
  262.250   20.254    0.463    0.336  163.606   48.445
  262.500   27.807    0.448    0.335  164.168   46.968
  262.750   28.100    0.446    0.323  164.723   46.708
  263.000   27.118    0.451    0.322  161.768   46.740
  263.250   27.412    0.449    0.318  162.824   47.374
  263.500   27.959    0.434    0.301  162.383   47.402
  263.750   29.593    0.408    0.257  162.436   45.930
  264.000   35.683    0.359    0.216  169.517   42.953
  264.250   41.825    0.308    0.191  170.573   37.871
  264.500   50.433    0.293    0.190  172.125   32.483
  264.750   55.924    0.285    0.199  173.683   31.312
  265.000   56.522    0.303    0.210  166.214   35.263
  265.250   55.558    0.337    0.232  165.258   39.203
  265.500   53.599    0.371    0.257  169.330   42.248
  265.750   50.776    0.410    0.275  169.384   43.483
  266.000   49.002    0.440    0.284  168.936   46.528
  266.250   47.722    0.455    0.286  169.498   48.963
  266.500   47.330    0.455    0.292  170.053   48.999
  266.750   47.402    0.438    0.283  171.109   47.230
  267.000   47.908    0.418    0.256  170.661   45.449
  267.250   46.657    0.411    0.266  169.217   44.583
  267.500   46.297    0.439    0.276  169.271   47.018
  267.750   46.360    0.448    0.284  168.810   48.554
  268.000   44.733    0.446    0.311  169.365   45.883
  268.250   41.200    0.427    0.310  170.428   45.618
  268.500   37.609    0.444    0.297  169.485   45.044
  268.750   35.960    0.458    0.302  170.040   45.373
  269.000   34.686    0.464    0.310  169.084   47.516
  269.250   32.261    0.472    0.315  169.144   49.056
  269.500   31.408    0.474    0.317  169.191   50.292
  269.750   32.343    0.461    0.315  169.252   51.226
  270.000   33.929    0.449    0.303  169.305   51.263
  270.250   34.922    0.449    0.305  168.356   50.685
  270.500   34.010    0.454    0.311  166.898   49.518
  270.750   30.759    0.457    0.315  161.443   49.554
  271.000   28.594    0.456    0.307  160.493   50.180
  271.250   26.590    0.452    0.291  162.051   50.216
  271.500   25.185    0.435    0.270  163.602   49.048
  271.750   24.987    0.395    0.245  164.178   47.877
  272.000   25.726    0.393    0.250  164.719   48.511
  272.250   25.761    0.408    0.282  166.277   49.450
  272.500   25.322    0.423    0.292  166.337   49.478
  272.750   24.437    0.429    0.295  164.887   50.413
  273.000   22.094    0.435    0.295  164.432   51.347
  273.250   21.717    0.447    0.281  163.998   51.376
  273.500   21.543    0.469    0.249  164.539   51.111
  273.750   22.394    0.482    0.258  165.094   53.855
  274.000   23.481    0.498    0.295  165.656   55.090
  274.250   25.564    0.507    0.316  167.221   53.317
  274.500   26.817    0.493    0.320  167.268   51.243
  274.750   27.366    0.486    0.328  164.814   48.564
  275.000   27.389    0.487    0.325  164.379   48.299
  275.250   27.686    0.486    0.300  164.928   49.230
  275.500   27.719    0.478    0.297  164.975   49.563
  275.750   27.757    0.469    0.317  164.527   49.896
  276.000   27.799    0.463    0.325  165.583   49.631
  276.250   27.580    0.474    0.330  168.144   48.163
  276.500   27.367    0.488    0.328  170.210   47.894
  276.750   27.399    0.482    0.326  169.756   47.918
  277.000   27.183    0.476    0.324  166.814   48.857
  277.250   27.225    0.481    0.321  165.356   48.889
  277.500   27.772    0.468    0.311  164.407   48.620
  277.750   28.074    0.473    0.297  163.966   48.360
  278.000   28.369    0.481    0.289  164.026   50.490
  278.250   28.145    0.475    0.315  164.066   51.132
  278.500   27.666    0.480    0.309  164.127   51.457
  278.750   27.199    0.482    0.300  164.187   53.294
  279.000   26.980    0.476    0.311  164.227   52.725
  279.250   26.762    0.475    0.314  165.785   52.159
  279.500   25.589    0.483    0.315  167.844   51.586
  279.750   24.925    0.495    0.317  168.907   50.418
  280.000   24.959    0.494    0.313  168.954   50.154
  280.250   25.456    0.481    0.303  168.520   50.190
  280.500   28.228    0.470    0.283  166.059   49.913
  280.750   28.529    0.481    0.260  161.613   49.949
  281.000   27.784    0.482    0.257  161.159   50.579
  281.250   26.809    0.475    0.308  164.221   51.819
  281.500   26.113    0.470    0.308  165.284   53.359
  281.750   25.907    0.470    0.298  165.826   54.591
  282.000   25.942    0.471    0.298  166.388   55.221
  282.250   25.973    0.470    0.298  166.943   56.460
  282.500   25.782    0.481    0.296  166.990   57.098
  282.750   25.574    0.487    0.289  167.050   57.126
  283.000   25.372    0.478    0.293  167.110   57.158
  283.250   25.402    0.470    0.289  167.150   55.385
  283.500   25.678    0.474    0.279  166.709   52.714
  283.750   26.438    0.476    0.275  165.760   51.839
  284.000   26.970    0.480    0.288  165.312   52.473
  284.250   26.265    0.477    0.299  164.864   54.314
  284.500   25.343    0.469    0.299  164.423   57.656
  284.750   24.907    0.461    0.307  163.975   62.502
  285.000   24.483    0.455    0.308  164.029   66.446
  285.250   24.074    0.461    0.306  164.082   71.894
  285.500   23.876    0.466    0.303  164.129   75.837
  285.750   23.042    0.468    0.299  164.697   81.891
  286.000   21.030    0.466    0.289  164.243   82.525
  286.250   19.016    0.469    0.276  163.287   77.442
  286.500   17.034    0.471    0.260  162.344   71.757
  286.750   14.435    0.478    0.254  160.399   69.387
  287.000   12.462    0.492    0.249  159.951   67.609
  287.250   12.483    0.486    0.244  160.506   67.646
  287.500   12.729    0.476    0.285  161.562   70.386
  287.750   13.601    0.457    0.291  162.619   70.719
  288.000   15.228    0.450    0.276  165.681   72.251
  288.250   16.271    0.459    0.233  167.747   76.195
  288.500   16.753    0.466    0.213  167.787   80.748
  288.750   16.773    0.469    0.165  167.841   81.683
  289.000   16.796    0.470    0.154  166.397   85.622
  289.250   16.666    0.475    0.226  166.444   86.557
  289.500   16.382    0.476    0.259  167.507   80.572
  289.750   15.514    0.468    0.259  168.069   70.976
  290.000   14.159    0.450    0.236  169.125   58.969
  290.250   12.339    0.419    0.215  169.172   49.373
  290.500   11.369    0.386    0.214  164.719   47.003
  290.750   10.569    0.419    0.212  164.766   54.252
  291.000   10.009    0.462    0.254  164.820   61.809
  291.250    9.481    0.475    0.259  166.378   63.346
  291.500    9.405    0.460    0.274  166.431   59.768
  291.750    9.865    0.447    0.286  163.984   58.897
  292.000   10.639    0.421    0.281  163.530   58.933
  292.250   11.797    0.418    0.280  169.106   57.457
  292.500   14.091    0.410    0.283  173.679   55.989
  292.750   16.370    0.394    0.292  171.727   54.818
  293.000   17.167    0.395    0.253  166.264   54.846
  293.250   16.110    0.434    0.270  166.311   55.781
  293.500   11.661    0.447    0.300  163.864   59.122
  293.750    9.972    0.445    0.300  162.915   68.490
  294.000    8.068    0.456    0.315  169.481   70.929
  294.250    7.161    0.462    0.331  182.579   72.762
  294.500    6.537    0.470    0.364  181.128   74.900
  294.750    6.368    0.475    0.347  171.153   77.046
  295.000    6.029    0.484    0.287  169.702   77.977
  295.250    5.503    0.509    0.295  171.260   78.009
  295.500    5.561    0.531    0.299  171.313   75.943
  295.750    6.704    0.514    0.307  168.358   73.260
  296.000    8.624    0.483    0.309  168.425   63.363
  296.250   10.992    0.471    0.319  171.474   58.581
