~VERSION INFORMATION
 VERS.                 2.0:   CWLS LOG ASCII STANDARD -VERSION 2.0
 WRAP.                  NO:   ONE LINE PER DEPTH STEP
~WELL INFORMATION BLOCK
#MNEM.UNIT           DATA                    DESCRIPTION OF MNEMONIC
#---------    -------------------            -------------------------------
# Generated from Intellog Unique Number	CN_94_101/WELL/3423
WELL.         PARAMOUNT RESOURCES LTD.       : Well_name    - WELL
LOC .         00/11-16-095-18W4/0            : Location     - LOCATION
UWI .         00/11-16-095-18W400            : Uwi          - UNIQUE WELL ID
ENTR.         JOETTE                         : Entered      - ENTERED BY
SRVC.         COMPUTALOG                     : Scn          - SERVICE COMPANY
DATE.         07/27/92                       : Date         - LOG DATE
STRT.M        175                            : top_depth    - START DEPTH
STOP.M        345                            : bot_depth    - STOP DEPTH
STEP.M        0.25                           : increment    - STEP LENGTH
 NULL. -999.2500:NULL Value
~CURVE INFORMATION BLOCK
#MNEM UNIT       ERCB CURVE CODE    CURVE DESCRIPTION
#-----------   ------------------   ----------------------------------
DEPT.M        00 001 00 00         : DEPTH        - DEPTH
ILD .OHMM     00 120 00 00         : RESD         - DEEP RESISTIVITY (DIL)
GR  .API      00 310 00 00         : GR           - GAMMA RAY
NPHI.V/V      00 330 00 00         : PHIN         - NEUTRON POROSITY (SANDSTONE)
DPHI.V/V      00 890 00 00         : PHID         - DENSITY POROSITY (SANDSTONE)
~PARAMETER INFORMATION
#MNEM.UNIT           DATA             DESCRIPTION OF MNEMONIC
#---------         -----------     ------------------------------
GL  .M        623.61               : gl           - GROUND LEVEL ELEVATION
EREF.M        626.61               : kb           - ELEVATION OF DEPTH REFERENCE
DATM.M        626.61               : datum        - DATUM ELEVATION
TDD .M        346.8                : tdd          - TOTAL DEPTH DRILLER
RUN .         ONE                  : Run          - RUN NUMBER
ENG .         BILL                 : Engineer     - RECORDING ENGINEER
WIT .         JIM                  : Witness      - WITNESSED BY
MUD .         GEL                  : Mud_type     - MUD TYPE
MATR.         SANDSTONE            : Logunit      - NEUTRON MATRIX
TMAX.C        25                   : BHT          - MAXIMUM RECORDED TEMPERATURE
BHTD.M        346.8                : BHTDEP       - MAXIMUM RECORDED TEMPERATURE
RMT .C        17.8                 : MDTP         - TEMPERATURE OF MUD
MUDD.KG/M     1120                 : MWT          - MUD DENSITY
NEUT.         1                    : NEUTRON      - NEUTRON TYPE
RESI.         0                    : RESIST       - RESISTIVITY TYPE
RM  .OHMM     3.5                  : RM           - RESISTIVITY OF MUD
RMC .OHMM     3                    : RMC          - RESISTIVITY OF MUD CAKE
RMF .OHMM     3                    : RMF          - RESISTIVITY OF MUD FILTRATE
SUFT.C        4                    : SUFT         - SURFACE TEMPERATURE
~A  DEPTH     RESD       GR     PHIN     PHID
  175.000    7.418  114.405    0.371    0.250
  175.250    6.207  114.314    0.393    0.232
  175.500    5.190  114.803    0.443    0.209
  175.750    4.781  117.704    0.483    0.210
  176.000    4.950  115.751    0.477    0.214
  176.250    5.336  113.188    0.486    0.215
  176.500    5.975  110.625    0.488    0.212
  176.750    6.201  109.282    0.502    0.213
  177.000    6.180  109.161    0.493    0.213
  177.250    5.801  111.482    0.455    0.212
  177.500    5.566  113.833    0.421    0.207
  177.750    5.233  116.123    0.438    0.226
  178.000    4.920  113.560    0.530    0.242
  178.250    4.712  110.966    0.569    0.241
  178.500    4.700  115.149    0.541    0.229
  178.750    4.858  117.499    0.474    0.213
  179.000    4.845  117.348    0.439    0.191
  179.250    4.932  112.953    0.412    0.171
  179.500    5.106  109.779    0.454    0.185
  179.750    5.093  111.489    0.447    0.198
  180.000    5.071  114.390    0.416    0.195
  180.250    4.957  116.100    0.428    0.184
  180.500    4.571  117.261    0.465    0.189
  180.750    4.215  118.360    0.499    0.210
  181.000    3.887  118.209    0.488    0.224
  181.250    3.654  118.087    0.489    0.226
  181.500    3.639  118.607    0.493    0.221
  181.750    3.773  117.845    0.495    0.218
  182.000    4.140  114.671    0.522    0.219
  182.250    4.378  112.077    0.545    0.221
  182.500    4.808  115.008    0.544    0.226
  182.750    4.881  119.191    0.510    0.229
  183.000    4.779  119.680    0.472    0.218
  183.250    4.578  117.727    0.432    0.205
  183.500    4.385  115.164    0.418    0.187
  183.750    4.286  114.402    0.435    0.181
  184.000    4.193  116.722    0.454    0.191
  184.250    4.095  117.852    0.450    0.196
  184.500    4.084  117.731    0.479    0.209
  184.750    4.150  116.999    0.507    0.218
  185.000    4.381  113.184    0.457    0.222
  185.250    4.546  110.651    0.438    0.224
  185.500    4.803  109.248    0.499    0.222
  185.750    5.374  109.768    0.523    0.218
  186.000    6.017  110.837    0.542    0.208
  186.250    6.229  111.326    0.496    0.210
  186.500    6.341  111.266    0.429    0.215
  186.750    6.073  112.976    0.414    0.210
  187.000    5.822  112.855    0.461    0.207
  187.250    5.916  110.261    0.484    0.210
  187.500    6.497  104.004    0.476    0.215
  187.750    7.004  101.471    0.446    0.211
  188.000    7.545   97.046    0.435    0.205
  188.250    8.133   94.483    0.419    0.200
  188.500    7.943   93.141    0.405    0.206
  188.750    7.468   94.240    0.411    0.217
  189.000    7.016   99.003    0.410    0.222
  189.250    7.135  103.155    0.399    0.215
  189.500    7.399   99.981    0.378    0.204
  189.750    7.810   93.755    0.388    0.202
  190.000    6.663   90.581    0.406    0.201
  190.250    5.685   99.617    0.430    0.202
  190.500    4.846  108.073    0.425    0.221
  190.750    4.826  115.858    0.409    0.252
  191.000    5.008  114.485    0.390    0.242
  191.250    5.286  113.204    0.491    0.222
  191.500    5.269  113.082    0.455    0.209
  191.750    5.154  115.403    0.444    0.203
  192.000    4.480  115.282    0.438    0.200
  192.250    4.051  107.224    0.458    0.198
  192.500    3.884  101.578    0.461    0.197
  192.750    4.100   98.404    0.455    0.200
  193.000    4.776   92.147    0.450    0.208
  193.250    5.458   87.142    0.451    0.219
  193.500    7.002   84.548    0.460    0.216
  193.750    8.158   86.899    0.465    0.188
  194.000    9.136   87.999    0.454    0.170
  194.250    8.589   87.878    0.444    0.164
  194.500    7.466   90.198    0.431    0.215
  194.750    7.297   95.541    0.463    0.235
  195.000    6.729   97.892    0.460    0.238
  195.250    5.849   97.771    0.451    0.234
  195.500    5.192  100.122    0.407    0.225
  195.750    4.513  103.053    0.391    0.222
  196.000    4.240   99.849    0.390    0.223
  196.250    4.229  101.528    0.441    0.231
  196.500    4.555  102.078    0.410    0.225
  196.750    4.812  102.567    0.400    0.224
  197.000    5.079   98.753    0.446    0.227
  197.250    5.165   99.272    0.511    0.232
  197.500    5.668  102.814    0.551    0.232
  197.750    5.769  106.936    0.517    0.232
  198.000    5.863  108.035    0.484    0.230
  198.250    5.512  106.113    0.438    0.229
  198.500    4.881  101.108    0.442    0.223
  198.750    4.864   94.851    0.450    0.211
  199.000    5.244   91.067    0.467    0.200
  199.250    5.992   85.421    0.499    0.206
  199.500    7.113   85.910    0.484    0.208
  199.750    7.655   89.482    0.430    0.159
  200.000    7.635   95.465    0.417    0.148
  200.250    6.637  100.198    0.414    0.175
  200.500    5.892  103.189    0.447    0.229
  200.750    4.922  106.731    0.476    0.248
  201.000    5.095  102.947    0.487    0.242
  201.250    5.086   99.102    0.503    0.235
  201.500    4.967   97.149    0.507    0.229
  201.750    4.762   96.417    0.484    0.225
  202.000    4.934   96.266    0.474    0.229
  202.250    5.212   96.205    0.500    0.230
  202.500    4.802   94.832    0.529    0.227
  202.750    4.432   96.542    0.514    0.226
  203.000    4.090   99.504    0.506    0.228
  203.250    3.921  102.435    0.528    0.231
  203.500    3.981  101.703    0.514    0.233
  203.750    4.125   96.087    0.508    0.225
  204.000    4.619   90.441    0.522    0.220
  204.250    5.176   86.016    0.523    0.218
  204.500    5.910   84.674    0.455    0.238
  204.750    6.496   86.353    0.417    0.252
  205.000    7.135   89.315    0.384    0.244
  205.250    7.386   91.636    0.400    0.216
  205.500    6.944   92.766    0.466    0.198
  205.750    6.403   93.865    0.483    0.216
  206.000    6.144   95.575    0.465    0.238
  206.250    5.660   98.537    0.458    0.257
  206.500    5.528   98.996    0.466    0.254
  206.750    5.954   94.601    0.482    0.244
  207.000    6.301   94.449    0.490    0.247
  207.250    6.920   97.411    0.462    0.246
  207.500    7.164  100.372    0.440    0.215
  207.750    6.735  105.745    0.423    0.171
  208.000    6.589  108.066    0.399    0.145
  208.250    6.071  109.746    0.372    0.163
  208.500    5.929  110.906    0.377    0.189
  208.750    5.914  115.669    0.390    0.182
  209.000    6.009  112.495    0.399    0.184
  209.250    6.221  106.849    0.403    0.186
  209.500    6.332  102.454    0.416    0.183
  209.750    6.434  101.081    0.401    0.193
  210.000    6.533  104.012    0.405    0.204
  210.250    6.263  108.195    0.413    0.218
  210.500    5.765  111.096    0.449    0.224
  210.750    5.645  108.532    0.451    0.216
  211.000    5.513  107.160    0.437    0.197
  211.250    5.499  106.489    0.453    0.205
  211.500    5.583  105.726    0.414    0.215
  211.750    5.564  105.635    0.390    0.213
  212.000    5.438  104.263    0.358    0.209
  212.250    5.320  103.561    0.432    0.207
  212.500    5.100  100.327    0.459    0.210
  212.750    5.083   97.183    0.475    0.224
  213.000    5.370   88.485    0.463    0.230
  213.250    6.126   79.817    0.446    0.226
  213.500    6.865   68.065    0.437    0.222
  213.750    7.401   58.115    0.506    0.221
  214.000    8.777   67.792    0.512    0.235
  214.250    8.927   78.080    0.477    0.255
  214.500    8.224   82.262    0.450    0.274
  214.750    7.438   75.395    0.419    0.292
  215.000    6.993   70.970    0.419    0.281
  215.250    6.970   78.816    0.423    0.255
  215.500    7.082   84.829    0.424    0.243
  215.750    6.917   92.644    0.407    0.247
  216.000    6.135   95.606    0.408    0.256
  216.250    5.548   97.927    0.387    0.264
  216.500    5.217   95.363    0.408    0.251
  216.750    5.001  100.126    0.418    0.233
  217.000    4.988   98.753    0.440    0.236
  217.250    5.164   95.579    0.436    0.230
  217.500    5.247   92.406    0.431    0.212
  217.750    5.133   89.812    0.449    0.223
  218.000    4.921   87.249    0.487    0.228
  218.250    4.900   88.989    0.487    0.204
