~VERSION INFORMATION
 VERS.                 2.0:   CWLS LOG ASCII STANDARD -VERSION 2.0
 WRAP.                  NO:   ONE LINE PER DEPTH STEP
~WELL INFORMATION BLOCK
#MNEM.UNIT           DATA                    DESCRIPTION OF MNEMONIC
#---------    -------------------            -------------------------------
# Generated from Intellog Unique Number	CS_73_76/WELL/3250
WELL.         CANADIAN SUPERIOR OIL          : Well_name    - WELL
LOC .         00/10-30-076-14W4/0            : Location     - LOCATION
UWI .         00/10-30-076-14W4/0            : Uwi          - UNIQUE WELL ID
ENTR.         SP                             : Entered      - ENTERED BY
SRVC.         SCHLUMBERGER                   : Scn          - SERVICE COMPANY
STRT.M        298.704                        : top_depth    - START DEPTH
STOP.M        526.954                        : bot_depth    - STOP DEPTH
STEP.M        0.25                           : increment    - STEP LENGTH
 NULL. -999.2500:NULL Value
~CURVE INFORMATION BLOCK
#MNEM UNIT       ERCB CURVE CODE    CURVE DESCRIPTION
#-----------   ------------------   ----------------------------------
DEPT.M        00 001 00 00         : DEPTH        - DEPTH
GR  .API      00 310 00 00         : GR           - GAMMA RAY
DPHI.V/V      00 890 00 00         : PHID         - DENSITY POROSITY (SANDSTONE)
NPHI.V/V      00 330 00 00         : PHIN         - NEUTRON POROSITY (SANDSTONE)
ILD .OHMM     00 120 00 00         : RESD         - DEEP RESISTIVITY (DIL)
~PARAMETER INFORMATION
#MNEM.UNIT           DATA             DESCRIPTION OF MNEMONIC
#---------         -----------     ------------------------------
GL  .M        681.076              : gl           - GROUND LEVEL ELEVATION
EREF.M        682.752              : kb           - ELEVATION OF DEPTH REFERENCE
DATM.M        681.076              : datum        - DATUM ELEVATION
TDD .M        549.25               : tdd          - TOTAL DEPTH DRILLER
RUN .         ONE                  : Run          - RUN NUMBER
ENG .         BILL                 : Engineer     - RECORDING ENGINEER
WIT .         JIM                  : Witness      - WITNESSED BY
MUD .         GEL                  : Mud_type     - MUD TYPE
MATR.         SANDSTONE            : Logunit      - NEUTRON MATRIX
TMAX.C        24.4444              : BHT          - MAXIMUM RECORDED TEMPERATURE
BHTD.M        549.25               : BHTDEP       - MAXIMUM RECORDED TEMPERATURE
MATR.         1                    : LOGUNIT      - NEUTRON MATRIX
RMT .C        25                   : MDTP         - TEMPERATURE OF MUD
NEUT.         1                    : NEUTRON      - NEUTRON TYPE
RESI.         0                    : RESIST       - RESISTIVITY TYPE
RMC .OHMM     0.25                 : RMC          - RESISTIVITY OF MUD CAKE
RMF .OHMM     0.25                 : RMF          - RESISTIVITY OF MUD FILTRATE
SUFT.C        15                   : SUFT         - SURFACE TEMPERATURE
~A  DEPTH       GR     PHID     PHIN     RESD
# ...
  429.204   67.512    0.140    0.257   11.729
  429.454   64.305    0.058    0.182   11.801
  429.704   58.325    0.052    0.177   10.054
  429.954   54.658    0.074    0.180    8.598
  430.204   51.298    0.093    0.194    7.236
  430.454   55.826    0.105    0.223    6.472
  430.704   58.838    0.141    0.277    5.671
  430.954   60.618    0.259    0.331    5.344
  431.204   61.435    0.315    0.457    5.070
  431.454   61.044    0.333    0.456    5.031
  431.704   61.464    0.336    0.456    5.020
  431.954   61.729    0.339    0.457    5.133
  432.204   62.798    0.342    0.456    5.123
  432.454   63.547    0.335    0.454    5.131
  432.704   64.161    0.323    0.459    5.006
  432.954   65.699    0.308    0.478    4.858
  433.204   66.716    0.299    0.506    4.709
  433.454   66.984    0.291    0.526    4.684
  433.704   67.555    0.295    0.525    4.756
  433.954   66.219    0.315    0.527    4.889
  434.204   63.213    0.329    0.524    5.037
  434.454   61.240    0.337    0.515    5.125
  434.704   60.305    0.324    0.498    5.114
  434.954   60.317    0.325    0.485    5.216
  435.204   60.919    0.334    0.464    5.213
  435.454   60.630    0.344    0.441    5.210
  435.704   59.141    0.351    0.452    5.307
  435.954   58.427    0.355    0.446    5.310
  436.204   58.377    0.346    0.439    5.312
  436.454   57.896    0.337    0.440    5.310
  436.704   56.971    0.347    0.451    5.265
  436.954   56.005    0.353    0.445    5.218
  437.204   54.946    0.344    0.432    5.135
  437.454   56.006    0.338    0.425    5.085
  437.704   56.639    0.340    0.419    5.026
  437.954   56.227    0.349    0.433    4.962
  438.204   56.201    0.356    0.445    4.965
  438.454   57.180    0.361    0.458    5.023
  438.704   58.851    0.357    0.468    5.108
  438.954   58.970    0.323    0.456    5.351
  439.204   58.960    0.293    0.424    5.403
  439.454   58.702    0.252    0.374    5.519
  439.704   57.722    0.238    0.396    5.511
  439.954   57.751    0.312    0.418    5.429
  440.204   57.741    0.344    0.454    5.263
  440.454   57.730    0.350    0.480    5.101
  440.704   57.659    0.357    0.507    4.851
  440.954   58.334    0.358    0.497    4.818
  441.204   58.903    0.357    0.493    4.665
  441.454   61.292    0.356    0.497    4.666
  441.704   62.465    0.367    0.490    4.665
  441.954   62.427    0.377    0.483    4.664
  442.204   62.095    0.394    0.485    4.655
  442.454   61.944    0.382    0.478    4.758
  442.704   62.378    0.329    0.467    4.750
  442.954   63.028    0.340    0.473    4.753
  443.204   62.883    0.348    0.475    4.759
  443.454   61.227    0.334    0.471    4.836
  443.704   60.949    0.346    0.481    4.971
  443.954   60.578    0.356    0.477    5.121
  444.204   60.560    0.369    0.490    5.368
  444.454   60.553    0.387    0.495    5.649
  444.704   60.544    0.364    0.488    5.814
  444.954   60.609    0.376    0.475    5.873
  445.204   59.929    0.380    0.460    6.064
  445.454   58.853    0.386    0.464    6.153
  445.704   57.826    0.381    0.463    6.020
  445.954   56.822    0.373    0.463    6.019
  446.204   55.830    0.365    0.465    5.834
  446.454   54.792    0.358    0.460    5.695
  446.704   54.494    0.354    0.457    5.697
  446.954   55.789    0.348    0.464    5.678
  447.204   57.903    0.347    0.471    5.705
  447.454   59.870    0.354    0.474    5.708
  447.704   61.498    0.360    0.477    5.820
  447.954   61.531    0.364    0.466    5.813
  448.204   59.839    0.364    0.474    5.812
  448.454   60.476    0.352    0.487    5.812
  448.704   60.380    0.356    0.498    5.813
  448.954   60.489    0.371    0.510    5.804
  449.204   57.950    0.387    0.526    5.930
  449.454   55.309    0.393    0.537    5.922
  449.704   53.254    0.391    0.543    5.830
  449.954   53.125    0.408    0.549    5.820
  450.204   54.474    0.421    0.571    5.696
  450.454   56.318    0.405    0.567    5.527
  450.704   57.401    0.364    0.537    5.357
  450.954   57.309    0.352    0.463    5.298
  451.204   59.233    0.341    0.465    5.363
  451.454   61.137    0.334    0.473    5.410
  451.704   60.945    0.340    0.478    5.594
  451.954   59.947    0.343    0.467    5.642
  452.204   58.944    0.337    0.470    5.809
  452.454   58.447    0.305    0.473    5.903
  452.704   58.467    0.268    0.422    5.974
  452.954   58.493    0.191    0.344    5.909
  453.204   59.080    0.268    0.394    5.828
  453.454   59.261    0.321    0.424    5.751
  453.704   59.617    0.338    0.453    5.287
  453.954   60.197    0.346    0.458    4.940
  454.204   61.021    0.348    0.463    4.820
  454.454   61.350    0.334    0.467    4.829
  454.704   61.960    0.347    0.461    4.870
  454.954   62.712    0.321    0.454    4.997
  455.204   63.133    0.321    0.448    4.916
  455.454   63.122    0.332    0.454    4.963
  455.704   63.121    0.342    0.462    5.006
  455.954   62.625    0.325    0.464    5.017
  456.204   62.916    0.327    0.462    4.907
  456.454   64.938    0.324    0.464    4.916
  456.704   67.326    0.317    0.463    4.916
  456.954   70.731    0.310    0.470    4.911
  457.204   76.125    0.326    0.470    4.917
  457.454   80.496    0.318    0.460    4.575
  457.704   82.841    0.294    0.457    4.568
  457.954   83.801    0.277    0.456    4.563
  458.204   84.778    0.265    0.456    4.704
  458.454   85.790    0.248    0.456    4.862
  458.704   85.282    0.260    0.456    4.998
  458.954   82.092    0.292    0.471    5.251
  459.204   78.878    0.280    0.474    5.395
  459.454   77.001    0.283    0.470    5.316
  459.704   74.275    0.298    0.485    5.149
  459.954   73.039    0.308    0.479    5.098
  460.204   72.357    0.291    0.471    5.156
  460.454   73.095    0.298    0.479    5.315
  460.704   73.042    0.271    0.470    5.579
  460.954   71.966    0.236    0.470    5.799
  461.204   71.531    0.185    0.444    5.904
  461.454   68.921    0.118    0.411    6.115
  461.704   67.785    0.094    0.323    6.030
  461.954   72.763    0.139    0.308    5.659
  462.204   78.499    0.155    0.367    5.428
  462.454   83.991    0.185    0.434    5.315
  462.704   84.809    0.223    0.470    5.488
  462.954   84.831    0.245    0.462    5.473
  463.204   85.715    0.241    0.457    5.597
  463.454   86.023    0.212    0.460    5.586
  463.704   86.988    0.209    0.498    5.657
  463.954   87.812    0.226    0.492    5.701
  464.204   88.316    0.224    0.480    5.999
  464.454   87.118    0.221    0.475    6.249
  464.704   83.800    0.225    0.480    6.474
  464.954   81.916    0.235    0.482    6.562
  465.204   80.496    0.240    0.479    6.961
  465.454   80.626    0.224    0.480    7.384
  465.704   81.998    0.216    0.479    7.611
  465.954   84.443    0.209    0.471    7.597
  466.204   85.962    0.231    0.461    7.212
  466.454   87.034    0.242    0.464    6.870
  466.704   86.598    0.240    0.455    6.665
  466.954   86.548    0.238    0.448    6.588
  467.204   83.416    0.234    0.455    6.510
  467.454   84.840    0.225    0.456    6.451
  467.704   86.863    0.223    0.451    6.247
  467.954   89.127    0.206    0.442    6.072
  468.204   92.165    0.195    0.460    5.764
  468.454   95.743    0.213    0.482    5.601
  468.704   97.346    0.232    0.496    5.424
  468.954   98.263    0.223    0.498    5.373
  469.204   97.262    0.216    0.487    5.274
  469.454   96.112    0.216    0.466    5.280
  469.704   94.104    0.232    0.458    5.280
  469.954   92.628    0.220    0.467    5.225
  470.204   90.259    0.219    0.473    5.087
  470.454   88.817    0.229    0.468    5.000
  470.704   86.550    0.230    0.467    5.004
  470.954   84.551    0.219    0.467    4.872
  471.204   86.114    0.213    0.480    4.517
  471.454   88.844    0.205    0.480    3.862
  471.704   89.279    0.226    0.480    3.297
  471.954   88.864    0.261    0.498    2.843
  472.204   88.278    0.278    0.519    2.481
  472.454   88.672    0.289    0.565    2.296
