~VERSION INFORMATION
 VERS.                 2.0:   CWLS LOG ASCII STANDARD -VERSION 2.0
 WRAP.                  NO:   ONE LINE PER DEPTH STEP
~WELL INFORMATION BLOCK
#MNEM.UNIT           DATA                    DESCRIPTION OF MNEMONIC
#---------    -------------------            -------------------------------
# Generated from Intellog Unique Number	CC_80_83/WELL/2432
NULL.         -999.25                        : NULL_VALUE
WELL.         PARA ET AL NEWBY               : Well_name
LOC .         12-29-080-05W4                 : Location     - LOCATION          
UWI .         00/12-29-080-05W400            : Uwi          - UNIQUE WELL ID    
ENTR.         DW                             : Entered      - ENTERED BY        
SRVC.         SCHLUMBERGER                   : Scn          - SERVICE COMPANY   
DATE.         17 JAN 82                      : Date         - LOG DATE
STRT.M        105                            : top_depth    - START DEPTH       
STOP.M        270.001                        : bot_depth    - STOP DEPTH        
STEP.M        0.3                            : increment    - STEP LENGTH       
~CURVE INFORMATION BLOCK
#MNEM UNIT       ERCB CURVE CODE    CURVE DESCRIPTION
#-----------   ------------------   ----------------------------------
DEPT.M        00 001 00 00         : DEPTH        - DEPTH                       
DPHI.V/V      00 890 00 00         : PHID         - DENSITY POROSITY (LIMESTONE)
NPHI.V/V      00 330 00 00         : PHIN         - NEUTRON POROSITY (LIMESTONE)
GR  .API      00 310 00 00         : GR           - GAMMA RAY                   
ILD .OHMM     00 120 00 00         : RESD         - DEEP RESISTIVITY (DIL)      
~PARAMETER INFORMATION       
#MNEM.UNIT           DATA             DESCRIPTION OF MNEMONIC
#---------         -----------     ------------------------------
GL  .M        452.33               : gl           - GROUND LEVEL ELEVATION      
EREF.M        455.33               : kb           - ELEVATION OF DEPTH REFERENCE
DATM.M        455.33               : datum        - DATUM ELEVATION             
TDD .M        277                  : tdd          - TOTAL DEPTH DRILLER         
RUN .         ONE                  : Run          - RUN NUMBER                  
ENG .         BILL                 : Engineer     - RECORDING ENGINEER          
WIT .         JIM                  : Witness      - WITNESSED BY                
MUD .         GEL                  : Mud_type     - MUD TYPE                    
MATR.         LIMESTONE            : Logunit      - NEUTRON MATRIX              
TMAX.C        24                   : BHT          - MAXIMUM RECORDED TEMPERATURE
BHTD.M        277                  : BHTDEP       - MAXIMUM RECORDED TEMPERATURE
MATR.         1                    : LOGUNIT      - NEUTRON MATRIX              
RMT .C        25                   : MDTP         - TEMPERATURE OF MUD          
NEUT.         1                    : NEUTRON      - NEUTRON TYPE                
RESI.         0                    : RESIST       - RESISTIVITY TYPE            
RMC .OHMM     0.25                 : RMC          - RESISTIVITY OF MUD CAKE     
RMF .OHMM     0.25                 : RMF          - RESISTIVITY OF MUD FILTRATE 
SUFT.C        15                   : SUFT         - SURFACE TEMPERATURE         
~A  DEPTH     PHID     PHIN       GR     RESD
  105.000    0.319    0.457   72.802   17.834
  105.300    0.315    0.465   66.512   18.185
  105.600    0.314    0.444   63.989   18.196
  105.900    0.370    0.423   67.110   17.858
  106.200    0.384    0.437   66.472   16.875
  106.500    0.355    0.458   67.713   15.346
  106.800    0.314    0.443   73.348   13.691
  107.100    0.259    0.472   84.003   10.895
  107.400    0.255    0.496  102.818    8.033
  107.700    0.273    0.524   99.039    7.885
  108.000    0.288    0.579   83.961    8.353
  108.300    0.283    0.411   78.299    8.518
  108.600    0.268    0.425   86.446    8.362
  108.900    0.264    0.383  105.261    7.900
  109.200    0.260    0.366  104.613    7.323
  109.500    0.254    0.421  105.232    6.412
  109.800    0.244    0.387  108.983    6.175
  110.100    0.233    0.411  108.969    5.833
  110.400    0.233    0.451  112.094    5.409
  110.700    0.223    0.450  115.847    5.308
  111.000    0.219    0.386  117.087    5.210
  111.300    0.219    0.412  116.444    5.114
  111.600    0.232    0.432  118.941    4.741
  111.900    0.259    0.495  117.673    4.395
  112.200    0.269    0.401  115.149    4.232
  112.500    0.291    0.445  116.392    3.924
  112.800    0.310    0.500  118.888    3.852
  113.100    0.282    0.564  120.132    3.780
  113.400    0.267    0.535  118.234    3.640
  113.700    0.257    0.533  113.827    3.506
  114.000    0.261    0.534  118.204    3.441
  114.300    0.258    0.444  120.073    3.509
  114.600    0.257    0.519  118.809    3.717
  114.900    0.262    0.590  110.634    4.171
  115.200    0.296    0.602  105.600    4.503
  115.500    0.300    0.445  104.959    4.957
  115.800    0.290    0.376  107.457    0.000
  116.100    0.278    0.373  108.698    5.458
  116.400    0.237    0.385  108.685    4.778
  116.700    0.237    0.405  106.783    4.183
  117.000    0.261    0.424  109.284    4.028
  117.300    0.275    0.459  116.174    3.954
  117.600    0.266    0.557  113.650    3.881
  117.900    0.265    0.581  109.870    3.884
  118.200    0.267    0.476  111.111    3.885
  118.500    0.272    0.510  112.353    3.887
  118.800    0.284    0.562  104.808    4.039
  119.100    0.294    0.591  104.166    3.890
  119.400    0.296    0.477  110.430    3.819
  119.700    0.296    0.486  112.928    4.124
  120.000    0.284    0.500  101.614    4.716
  120.300    0.278    0.516   97.209    5.091
  120.600    0.310    0.545   96.568    5.603
  120.900    0.320    0.501   98.438    6.657
  121.200    0.315    0.465   90.264    7.188
  121.500    0.327    0.485   87.112    8.378
  121.800    0.327    0.416   85.844    9.220
  122.100    0.319    0.414   81.436   10.954
  122.400    0.318    0.418   84.562   12.287
  122.700    0.310    0.394   88.938   14.051
  123.000    0.305    0.417   87.668   14.331
  123.300    0.302    0.431   83.890   14.065
  123.600    0.310    0.438   78.228   13.806
  123.900    0.309    0.411   74.451   13.294
  124.200    0.304    0.406   76.321   12.806
  124.500    0.288    0.416   76.304   12.811
  124.800    0.270    0.433   75.036   12.815
  125.100    0.299    0.425   76.904   12.821
  125.400    0.307    0.474   79.403   12.586
  125.700    0.304    0.442   81.271   11.018
  126.000    0.303    0.432   78.749   11.454
  126.300    0.297    0.404   78.733   11.903
  126.600    0.286    0.410   81.231   13.104
  126.900    0.289    0.439   81.846   13.110
  127.200    0.297    0.479   82.458   13.114
  127.500    0.306    0.499   84.330   12.630
  127.800    0.311    0.456   83.056   11.933
  128.100    0.308    0.481   80.532   11.275
  128.400    0.296    0.507   79.888   11.279
  128.700    0.291    0.420   79.881   11.952
  129.000    0.288    0.450   83.632   12.421
  129.300    0.290    0.484   89.267   12.664
  129.600    0.293    0.425   87.997   12.671
  129.900    0.310    0.433   82.337   12.679
  130.200    0.306    0.441   77.931   12.683
  130.500    0.295    0.420   77.917   13.700
  130.800    0.298    0.424   78.527   13.705
  131.100    0.310    0.415   77.887   13.710
  131.400    0.310    0.416   74.736   13.716
  131.700    0.307    0.459   72.840   13.724
  132.000    0.305    0.460   79.102   13.731
  132.300    0.305    0.457   80.345   14.002
  132.600    0.307    0.459   72.795   14.008
  132.900    0.309    0.473   72.154   13.750
  133.200    0.311    0.477   72.773   13.242
  133.500    0.315    0.456   75.267   12.997
  133.800    0.316    0.467   80.277   12.760
  134.100    0.316    0.446   77.122   12.765
  134.400    0.313    0.444   73.971   13.017
  134.700    0.305    0.452   73.957   13.529
  135.000    0.301    0.477   74.568   14.333
  135.300    0.303    0.488   74.555   14.616
  135.600    0.306    0.476   73.289   14.076
  135.900    0.311    0.451   70.762   13.299
  136.200    0.314    0.421   70.751   12.567
  136.500    0.314    0.409   72.621   12.335
  136.800    0.283    0.487   75.747   13.068
  137.100    0.068    0.334   73.223   14.110
  137.400    0.096    0.265   65.050   13.589
  137.700    0.157    0.396   61.897   12.598
  138.000    0.299    0.525   71.926   12.133
  138.300    0.305    0.427   77.561   12.138
  138.600    0.300    0.436   80.057   12.142
  138.900    0.294    0.511   75.020   12.623
  139.200    0.280    0.525   71.872   12.626
  139.500    0.272    0.390   73.742   12.161
  139.800    0.289    0.421   76.238   11.491
  140.100    0.298    0.469   77.476   10.652
  140.400    0.289    0.480   81.858    9.686
  140.700    0.264    0.352   86.239    8.642
  141.000    0.245    0.367   95.011    7.010
  141.300    0.248    0.406  101.274    6.254
  141.600    0.249    0.449  103.767    5.799
  141.900    0.247    0.506  104.378    5.692
  142.200    0.240    0.538  103.113    5.694
  142.500    0.237    0.458   97.451    5.590
  142.800    0.235    0.402   98.066    5.084
  143.100    0.258    0.362  101.191    4.712
  143.400    0.276    0.415  106.825    4.047
  143.700    0.284    0.464  112.462    3.476
  144.000    0.287    0.508  116.842    2.985
  144.300    0.288    0.603  109.296    2.664
  144.600    0.287    0.640  104.257    2.665
  144.900    0.301    0.662  102.991    2.666
  145.200    0.317    0.576  104.231    2.719
  145.500    0.295    0.526  109.869    2.772
  145.800    0.247    0.546  113.619    2.937
  146.100    0.253    0.551  112.352    3.172
  146.400    0.258    0.531  109.827    3.768
  146.700    0.270    0.490  109.809    4.309
  147.000    0.273    0.409  108.545    4.478
  147.300    0.250    0.410  105.393    4.928
  147.600    0.237    0.439   94.080    5.529
  147.900    0.257    0.493   94.066    6.087
  148.200    0.279    0.550   94.056    6.206
  148.500    0.279    0.516   98.434    6.451
  148.800    0.257    0.469   93.398    6.705
  149.100    0.171    0.499   84.600    7.240
  149.400    0.177    0.489   75.173    7.968
  149.700    0.213    0.484   72.021    8.605
  150.000    0.291    0.528   81.422    8.943
  150.300    0.295    0.523   84.547    8.780
  150.600    0.295    0.502   85.787    8.783
  150.900    0.280    0.432   91.421    8.299
  151.200    0.273    0.497   95.802    7.991
  151.500    0.279    0.516   97.670    7.697
  151.800    0.271    0.447   95.773    7.700
  152.100    0.260    0.408   95.133    8.158
  152.400    0.250    0.431   97.002    8.643
  152.700    0.238    0.440   95.105    8.812
  153.000    0.266    0.391   90.698    8.817
  153.300    0.258    0.398   91.311    8.821
  153.600    0.244    0.433   95.690    8.336
  153.900    0.249    0.471   99.443    8.501
  154.201    0.244    0.397  102.566    8.504
  154.501    0.263    0.440  101.928    8.190
  154.801    0.265    0.437   97.518    7.887
  155.101    0.241    0.381   96.250    7.310
  155.401    0.229    0.398   98.121    6.907
  155.701    0.215    0.437  107.522    6.651
  156.001    0.215    0.461  114.411    6.531
  156.301    0.230    0.514  109.374    6.658
  156.601    0.244    0.488  103.086    7.055
  156.901    0.252    0.489   97.422    7.193
