~VERSION INFORMATION
 VERS.                 2.0:   CWLS LOG ASCII STANDARD -VERSION 2.0
 WRAP.                  NO:   ONE LINE PER DEPTH STEP
~WELL INFORMATION BLOCK
#MNEM.UNIT           DATA                    DESCRIPTION OF MNEMONIC
#---------    -------------------            -------------------------------
# Generated from Intellog Unique Number	CW_73_75/WELL/1028
WELL.         PCP MARTEN HILLS 10-28         : Well_name    - WELL
LOC .         00/10-28-075-04W5/0            : Location     - LOCATION
UWI .         00/10-28-075-04W5/0            : Uwi          - UNIQUE WELL ID
ENTR.         JAYE                           : Entered      - ENTERED BY
SRVC.         SCHLUMBERGER                   : Scn          - SERVICE COMPANY
DATE.         27 FEB 74                      : Date         - LOG DATE
STRT.M        670.56                         : top_depth    - START DEPTH
STOP.M        890.06                         : bot_depth    - STOP DEPTH
STEP.M        0.25                           : increment    - STEP LENGTH
 NULL. -999.2500:NULL Value
~CURVE INFORMATION BLOCK
#MNEM UNIT       ERCB CURVE CODE    CURVE DESCRIPTION
#-----------   ------------------   ----------------------------------
DEPT.M        00 001 00 00         : DEPTH        - DEPTH
ILD .OHMM     00 120 00 00         : RESD         - DEEP RESISTIVITY (DIL)
NPHI.V/V      00 330 00 00         : PHIN         - NEUTRON POROSITY (SANDSTONE)
DPHI.V/V      00 890 00 00         : PHID         - DENSITY POROSITY (SANDSTONE)
GR  .API      00 310 00 00         : GR           - GAMMA RAY
CALI.MM       00 280 01 00         : CAL          - CALIPER
~PARAMETER INFORMATION
#MNEM.UNIT           DATA             DESCRIPTION OF MNEMONIC
#---------         -----------     ------------------------------
GL  .M        943.051              : gl           - GROUND LEVEL ELEVATION
EREF.M        946.404              : kb           - ELEVATION OF DEPTH REFERENCE
DATM.M        973.531              : datum        - DATUM ELEVATION
TDD .M        903.732              : tdd          - TOTAL DEPTH DRILLER
RUN .         ONE                  : Run          - RUN NUMBER
ENG .         SIMPSOM              : Engineer     - RECORDING ENGINEER
WIT .         STIEL                : Witness      - WITNESSED BY
BASE.         EDM                  : Branch       - HOME BASE OF LOGGING UNIT
MUD .         GEL                  : Mud_type     - MUD TYPE
MATR.         SANDSTONE            : Logunit      - NEUTRON MATRIX
TMAX.C        33.3333              : BHT          - MAXIMUM RECORDED TEMPERATURE
BHTD.M        903.732              : BHTDEP       - MAXIMUM RECORDED TEMPERATURE
RMT .C        19.4444              : MDTP         - TEMPERATURE OF MUD
MUDD.KG/M     1140                 : MWT          - MUD DENSITY
NEUT.         1                    : NEUTRON      - NEUTRON TYPE
RESI.         0                    : RESIST       - RESISTIVITY TYPE
RM  .OHMM     4.6                  : RM           - RESISTIVITY OF MUD
RMC .OHMM     0                    : RMC          - RESISTIVITY OF MUD CAKE
RMF .OHMM     6.22                 : RMF          - RESISTIVITY OF MUD FILTRATE
SUFT.C        -17.7778             : SUFT         - SURFACE TEMPERATURE
~A  DEPTH     RESD     PHIN     PHID       GR      CAL
# ...
  743.560    5.045    0.445    0.306   72.824  201.142
  743.810    5.192    0.456    0.299   74.800  202.428
  744.060    5.313    0.451    0.285   72.214  203.305
  744.310    5.310    0.447    0.274   70.354  202.846
  744.560    5.267    0.451    0.267   68.434  201.755
  744.810    5.205    0.448    0.267   68.103  200.775
  745.060    5.116    0.466    0.268   68.737  200.721
  745.310    5.056    0.487    0.276   69.987  201.910
  745.560    4.987    0.479    0.297   71.109  202.368
  745.810    4.947    0.454    0.293   72.176  201.084
  746.060    4.871    0.438    0.288   71.900  199.372
  746.310    4.814    0.434    0.280   68.949  196.542
  746.560    4.766    0.447    0.290   67.757  194.939
  746.810    4.728    0.467    0.301   68.945  194.577
  747.060    4.707    0.491    0.319   69.339  195.146
  747.310    4.687    0.489    0.309   67.845  196.220
  747.560    4.700    0.476    0.290   66.354  198.132
  747.810    4.739    0.471    0.277   65.107  199.825
  748.060    4.771    0.480    0.287   64.284  201.114
  748.310    4.785    0.474    0.281   64.189  201.784
  748.560    4.782    0.461    0.282   65.133  202.038
  748.810    4.761    0.457    0.279   66.744  201.992
  749.060    4.714    0.477    0.271   69.026  202.041
  749.310    4.650    0.475    0.271   67.413  201.988
  749.560    4.537    0.469    0.278   69.087  202.134
  749.810    4.425    0.464    0.286   70.882  202.395
  750.060    4.350    0.463    0.295   72.129  202.645
  750.310    4.307    0.472    0.286   70.330  202.806
  750.560    4.288    0.465    0.278   68.656  202.959
  750.810    4.301    0.451    0.280   68.930  203.002
  751.060    4.290    0.457    0.291   70.237  202.958
  751.310    4.294    0.466    0.296   70.998  202.900
  751.560    4.307    0.480    0.280   72.059  202.849
  751.810    4.319    0.500    0.286   71.847  203.104
  752.060    4.316    0.488    0.289   68.771  203.255
  752.310    4.320    0.475    0.293   68.192  203.205
  752.560    4.309    0.467    0.283   68.346  202.952
  752.810    4.313    0.486    0.276   68.253  202.786
  753.060    4.327    0.481    0.287   68.283  202.628
  753.310    4.323    0.468    0.295   70.686  202.380
  753.560    4.336    0.452    0.299   72.966  202.223
  753.810    4.349    0.447    0.293   77.986  201.955
  754.060    4.361    0.464    0.285   76.193  201.799
  754.310    4.374    0.475    0.281   73.844  201.429
  754.560    4.395    0.486    0.288   70.404  200.767
  754.810    4.408    0.481    0.297   68.489  199.982
  755.060    4.405    0.469    0.277   68.942  197.456
  755.310    4.385    0.461    0.265   72.440  195.443
  755.560    4.358    0.459    0.265   76.186  194.772
  755.810    4.331    0.461    0.289   78.526  195.341
  756.060    4.319    0.468    0.301   76.917  197.350
  756.310    4.292    0.480    0.283   77.671  199.046
  756.560    4.266    0.477    0.282   79.164  201.156
  756.810    4.216    0.473    0.273   81.444  203.479
  757.060    4.143    0.467    0.271   81.476  204.246
  757.310    4.102    0.458    0.266   80.531  201.929
  757.560    4.137    0.448    0.261   76.663  200.639
  757.810    4.211    0.440    0.249   74.317  199.764
  758.060    4.293    0.445    0.234   71.730  199.085
  758.310    4.362    0.430    0.221   67.743  198.415
  758.560    4.399    0.398    0.209   68.198  198.367
  758.810    4.396    0.435    0.182   73.522  198.515
  759.060    4.233    0.448    0.233   78.727  199.083
  759.310    4.115    0.466    0.260   82.532  199.753
  759.560    3.949    0.476    0.248   85.785  201.043
  759.810    3.804    0.490    0.225   89.287  202.632
  760.060    3.623    0.505    0.221   91.506  204.227
  760.310    3.490    0.487    0.217   93.914  205.719
  760.560    3.424    0.464    0.229   95.463  206.805
  760.810    3.421    0.452    0.249   97.499  208.292
  761.060    3.482    0.473    0.209   97.955  211.029
  761.310    3.563    0.484    0.200   94.334  212.214
  761.560    3.634    0.494    0.185   94.972  211.539
  761.810    3.719    0.475    0.199   96.278  210.250
  762.060    3.792    0.462    0.214  101.056  209.782
  762.310    3.838    0.454    0.209   97.859  209.731
  762.560    3.907    0.461    0.191   94.056  209.878
  762.810    3.947    0.469    0.177   91.042  209.313
  763.060    3.908    0.482    0.200   87.905  207.506
  763.310    3.352    0.499    0.219   85.862  203.537
  763.560    2.682    0.492    0.235   88.637  198.327
  763.810    1.403    0.481    0.250   91.522  199.923
  764.060    0.686    0.475    0.205   94.962  205.024
  764.310    0.425    0.469    0.186   96.329  209.923
  764.560    0.273    0.470    0.195   96.419  212.132
  764.810    0.317    0.481    0.205   97.790  212.605
  765.060    0.395    0.491    0.195   99.765  212.965
  765.310    0.602    0.488    0.197  101.926  213.415
  765.560    1.004    0.479    0.200   98.791  213.578
  765.810    1.376    0.477    0.205   97.481  213.524
  766.060    1.665    0.501    0.195   99.031  212.844
  766.310    2.000    0.511    0.186   99.001  211.761
  766.560    2.561    0.488    0.200   92.456  210.375
  766.810    3.127    0.466    0.194   89.257  209.283
  767.060    3.620    0.452    0.206   91.723  208.307
  767.310    3.767    0.463    0.219   92.909  207.530
  767.560    3.716    0.469    0.209   90.077  206.857
  767.810    3.726    0.474    0.212   86.148  206.288
  768.060    3.800    0.481    0.238   89.771  206.960
  768.310    3.925    0.489    0.208   92.478  207.731
  768.560    4.039    0.495    0.185   92.689  207.057
  768.810    4.103    0.479    0.205   92.111  206.590
  769.060    4.176    0.447    0.213   93.118  206.645
  769.310    4.204    0.440    0.242   94.788  206.895
  769.560    4.209    0.446    0.209   98.045  206.953
  769.810    4.229    0.449    0.198   98.928  207.411
  770.060    4.249    0.451    0.196   94.449  207.768
  770.310    4.309    0.456    0.182   92.774  207.824
  770.560    4.442    0.464    0.168   91.101  206.844
  770.810    4.588    0.475    0.182   88.633  205.648
  771.060    4.791    0.465    0.215   85.802  204.771
  771.310    5.040    0.450    0.239   81.327  204.310
  771.560    5.205    0.443    0.261   76.911  204.470
  771.810    5.279    0.450    0.262   78.584  204.305
  772.060    5.353    0.467    0.270   80.442  203.949
  772.310    5.360    0.481    0.273   82.965  203.579
  772.560    5.346    0.498    0.271   87.561  203.214
  772.810    5.322    0.491    0.262   92.217  200.892
  773.060    5.250    0.492    0.255   86.463  194.664
  773.310    5.132    0.490    0.248   82.231  196.353
  773.560    4.906    0.470    0.257   76.720  202.075
  773.810    4.666    0.470    0.265   72.854  202.751
  774.060    4.477    0.469    0.263   75.200  202.175
  774.310    4.392    0.457    0.272   77.480  201.197
  774.560    4.429    0.455    0.273   76.960  200.417
  774.810    4.608    0.451    0.277   75.345  200.164
  775.060    4.742    0.439    0.270   72.150  200.421
  775.310    4.800    0.445    0.265   71.874  200.467
  775.560    4.797    0.457    0.259   74.643  200.726
  775.810    4.776    0.466    0.270   72.482  200.670
  776.060    4.737    0.465    0.264   70.136  200.511
  776.310    4.638    0.447    0.251   71.200  200.982
  776.560    4.542    0.431    0.266   72.812  201.126
  776.810    4.448    0.430    0.275   73.573  201.181
  777.060    4.261    0.439    0.277   73.969  201.438
  777.310    4.134    0.445    0.278   74.666  201.795
  777.560    3.997    0.454    0.284   76.584  202.155
  777.810    3.864    0.468    0.291   79.233  202.307
  778.060    3.694    0.480    0.300   81.572  202.565
  778.310    3.591    0.486    0.281   80.811  202.407
  778.560    3.491    0.476    0.267   79.075  202.150
  778.810    3.424    0.458    0.270   79.228  201.267
  779.060    3.397    0.462    0.279   79.803  198.532
  779.310    3.375    0.465    0.267   82.756  197.549
  779.560    3.392    0.457    0.265   86.743  198.224
  779.810    3.408    0.463    0.250   91.336  199.403
