~VERSION INFORMATION
 VERS.                 2.0:   CWLS LOG ASCII STANDARD -VERSION 2.0
 WRAP.                  NO:   ONE LINE PER DEPTH STEP
~WELL INFORMATION BLOCK
#MNEM.UNIT           DATA                    DESCRIPTION OF MNEMONIC
#---------    -------------------            -------------------------------
# Generated from Intellog Unique Number	CS_77_79/WELL/958
WELL.         AMOCO CANADA PETROLEUM         : Well_name    - WELL
LOC .         00/10-22-077-09W4/0            : Location     - LOCATION
UWI .         00/10-22-077-09W4/0            : Uwi          - UNIQUE WELL ID
ENTR.         SP                             : Entered      - ENTERED BY
SRVC.         SCHLUMBERGER                   : Scn          - SERVICE COMPANY
STRT.M        158.496                        : top_depth    - START DEPTH
STOP.M        383.746                        : bot_depth    - STOP DEPTH
STEP.M        0.25                           : increment    - STEP LENGTH
 NULL. -999.2500:NULL Value
~CURVE INFORMATION BLOCK
#MNEM UNIT       ERCB CURVE CODE    CURVE DESCRIPTION
#-----------   ------------------   ----------------------------------
DEPT.M        00 001 00 00         : DEPTH        - DEPTH
GR  .API      00 310 00 00         : GR           - GAMMA RAY
DPHI.V/V      00 890 00 00         : PHID         - DENSITY POROSITY (SANDSTONE)
NPHI.V/V      00 330 00 00         : PHIN         - NEUTRON POROSITY (SANDSTONE)
ILD .OHMM     00 120 00 00         : RESD         - DEEP RESISTIVITY (DIL)
~PARAMETER INFORMATION
#MNEM.UNIT           DATA             DESCRIPTION OF MNEMONIC
#---------         -----------     ------------------------------
GL  .M        583.387              : gl           - GROUND LEVEL ELEVATION
EREF.M        586.13               : kb           - ELEVATION OF DEPTH REFERENCE
DATM.M        583.387              : datum        - DATUM ELEVATION
TDD .M        393.192              : tdd          - TOTAL DEPTH DRILLER
RUN .         ONE                  : Run          - RUN NUMBER
ENG .         BILL                 : Engineer     - RECORDING ENGINEER
WIT .         JIM                  : Witness      - WITNESSED BY
MUD .         GEL                  : Mud_type     - MUD TYPE
MATR.         SANDSTONE            : Logunit      - NEUTRON MATRIX
TMAX.C        17.7778              : BHT          - MAXIMUM RECORDED TEMPERATURE
BHTD.M        393.192              : BHTDEP       - MAXIMUM RECORDED TEMPERATURE
MATR.         1                    : LOGUNIT      - NEUTRON MATRIX
RMT .C        25                   : MDTP         - TEMPERATURE OF MUD
NEUT.         1                    : NEUTRON      - NEUTRON TYPE
RESI.         0                    : RESIST       - RESISTIVITY TYPE
RMC .OHMM     0.25                 : RMC          - RESISTIVITY OF MUD CAKE
RMF .OHMM     0.25                 : RMF          - RESISTIVITY OF MUD FILTRATE
SUFT.C        15                   : SUFT         - SURFACE TEMPERATURE
~A  DEPTH       GR     PHID     PHIN     RESD
# ...
  245.496  106.061    0.255    0.543    3.962
  245.746  110.016    0.261    0.551    3.685
  245.996  112.397    0.266    0.556    3.508
  246.246  112.008    0.273    0.557    3.346
  246.496  108.175    0.256    0.560    3.319
  246.746  106.969    0.269    0.586    3.283
  246.996  103.985    0.274    0.592    3.335
  247.246   99.103    0.323    0.570    3.510
  247.496   96.800    0.314    0.531    3.793
  247.746   94.817    0.302    0.513    4.531
  247.996   91.759    0.295    0.495    5.685
  248.246   91.349    0.287    0.508    6.589
  248.496   92.284    0.271    0.497    8.638
  248.746   93.222    0.276    0.488    9.609
  248.996   94.673    0.279    0.481   10.064
  249.246   96.621    0.283    0.477   10.017
  249.496   98.556    0.274    0.485    9.306
  249.746  100.826    0.258    0.493    8.548
  249.996  104.063    0.239    0.543    7.520
  250.246  106.162    0.240    0.563    6.591
  250.496  107.126    0.240    0.574    5.333
  250.746  107.141    0.253    0.573    4.360
  250.996  106.670    0.249    0.570    3.761
  251.246  107.585    0.240    0.579    3.461
  251.496  108.321    0.260    0.579    3.339
  251.746  106.218    0.261    0.569    3.292
  251.996  104.230    0.286    0.575    3.295
  252.246   99.270    0.308    0.569    3.300
  252.496   96.866    0.347    0.563    3.404
  252.746   98.387    0.411    0.566    3.496
  252.996  101.909    0.400    0.530    3.755
  253.246  102.330    0.342    0.478    3.965
  253.496  103.005    0.233    0.483    4.247
  253.746  103.540    0.227    0.501    4.753
  253.996  104.225    0.230    0.516    4.983
  254.246  103.364    0.232    0.518    5.231
  254.496  102.364    0.237    0.497    5.300
  254.746  102.625    0.227    0.501    5.685
  254.996  102.755    0.241    0.492    6.087
  255.246  100.545    0.248    0.479    6.369
  255.496  102.274    0.230    0.462    6.522
  255.746  104.181    0.238    0.485    6.362
  255.996  107.634    0.231    0.505    5.765
  256.246  109.659    0.242    0.518    4.641
  256.496  109.304    0.244    0.522    4.187
  256.746  107.468    0.255    0.535    3.841
  256.996  107.913    0.256    0.557    3.621
  257.246  111.006    0.271    0.558    3.196
  257.496  112.879    0.300    0.569    3.036
  257.746  115.474    0.308    0.585    2.909
  257.996  115.801    0.311    0.584    2.986
  258.246  117.475    0.320    0.572    3.782
  258.496  118.846    0.333    0.519    4.294
  258.746  110.244    0.300    0.489    5.456
  258.996  102.644    0.283    0.472    6.471
  259.246  102.071    0.280    0.470    7.586
  259.496  102.653    0.272    0.470    8.703
  259.746  102.608    0.267    0.466    9.205
  259.996  102.592    0.263    0.466    9.082
  260.246  102.914    0.257    0.474    8.536
  260.496  103.901    0.259    0.479    8.251
  260.746  104.895    0.263    0.478    8.006
  260.996  104.961    0.262    0.476    7.769
  261.246  104.251    0.256    0.479    7.537
  261.496  104.284    0.252    0.488    7.431
  261.746  104.038    0.249    0.492    7.494
  261.996  103.003    0.249    0.488    7.752
  262.246  102.023    0.252    0.478    8.283
  262.496  101.214    0.261    0.472    8.579
  262.746  101.245    0.270    0.465    8.939
  262.996  102.103    0.273    0.463    8.707
  263.246  104.513    0.249    0.474    8.590
  263.496  104.795    0.248    0.478    8.316
  263.746  103.091    0.258    0.494    8.066
  263.996  102.926    0.252    0.488    7.801
  264.246  100.713    0.247    0.475    7.578
  264.496  100.755    0.256    0.460    7.514
  264.746  103.252    0.258    0.476    7.451
  264.996  104.720    0.255    0.485    7.554
  265.246  104.458    0.257    0.478    7.731
  265.496  103.402    0.252    0.467    7.884
  265.746  102.817    0.246    0.466    7.876
  265.996  102.836    0.232    0.474    7.880
  266.246  102.818    0.237    0.480    7.882
  266.496  103.796    0.238    0.481    7.896
  266.746  104.850    0.229    0.475    7.700
  266.996  106.870    0.221    0.472    7.476
  267.246  108.116    0.232    0.475    7.256
  267.496  110.052    0.238    0.481    7.043
  267.746  110.559    0.230    0.480    6.833
  267.996  109.022    0.221    0.485    6.577
  268.246  110.495    0.216    0.504    6.324
  268.496  110.516    0.224    0.518    6.138
  268.746  109.044    0.230    0.507    5.991
  268.996  109.820    0.243    0.499    6.001
  269.246  110.828    0.231    0.502    6.003
  269.496  109.557    0.261    0.497    6.011
  269.746  105.049    0.264    0.500    5.898
  269.996  103.495    0.285    0.516    5.863
  270.246  100.889    0.292    0.540    5.249
  270.496   99.010    0.320    0.559    4.377
  270.746   98.734    0.333    0.577    3.486
  270.996   97.752    0.319    0.591    2.782
  271.246   97.302    0.334    0.606    2.367
  271.496   96.302    0.348    0.592    1.974
  271.746   95.324    0.365    0.568    1.860
  271.996   95.347    0.355    0.554    1.950
  272.246   95.402    0.333    0.567    2.013
  272.496   94.715    0.343    0.578    2.366
  272.746   97.182    0.366    0.545    2.705
  272.996  100.363    0.334    0.511    3.481
  273.246  101.217    0.291    0.482    4.767
  273.496   99.253    0.280    0.450    6.094
  273.746   98.152    0.303    0.412    7.613
  273.996   98.687    0.327    0.378    9.197
  274.246   99.694    0.350    0.357   11.464
  274.496   99.044    0.334    0.351   13.659
  274.746   94.343    0.305    0.383   15.181
  274.996   86.114    0.266    0.379   16.162
  275.246   81.897    0.239    0.357   17.175
  275.496   80.171    0.228    0.324   18.001
  275.746   80.153    0.227    0.309   19.082
  275.996   78.428    0.198    0.287   21.337
  276.246   81.406    0.217    0.268   23.095
  276.496   82.320    0.288    0.238   25.953
  276.746   78.582    0.344    0.230   27.984
  276.996   76.471    0.396    0.248   29.525
  277.246   75.976    0.433    0.255   30.474
  277.496   73.842    0.429    0.245   31.914
  277.746   74.057    0.437    0.233   32.646
  277.996   75.270    0.438    0.245   32.575
  278.246   74.013    0.439    0.253   32.038
  278.496   74.926    0.436    0.262   31.164
  278.746   75.892    0.435    0.246   30.877
  278.996   75.832    0.420    0.254   29.474
  279.246   75.573    0.412    0.279   27.317
  279.496   74.081    0.397    0.290   25.789
  279.746   72.858    0.365    0.293   24.212
  279.996   71.195    0.365    0.266   23.885
  280.246   72.225    0.400    0.245   23.079
  280.496   72.843    0.437    0.235   23.742
  280.746   73.534    0.460    0.232   24.480
  280.996   75.192    0.458    0.238   26.059
  281.246   73.612    0.439    0.247   26.707
  281.496   72.707    0.422    0.264   27.229
  281.746   72.109    0.403    0.279   26.503
  281.996   72.142    0.381    0.299   23.848
  282.246   71.535    0.368    0.317   22.293
  282.496   69.931    0.354    0.394   18.971
  282.746   68.112    0.345    0.445   15.384
  282.996   67.771    0.334    0.449   13.478
  283.246   69.039    0.328    0.442   12.539
  283.496   70.344    0.332    0.436    8.812
  283.746   70.270    0.324    0.436    8.806
  283.996   69.557    0.313    0.439    8.751
  284.246   69.599    0.314    0.441    8.922
  284.496   69.718    0.328    0.441    8.754
  284.746   68.311    0.338    0.440    8.765
  284.996   67.771    0.334    0.444    8.768
  285.246   67.349    0.325    0.449    8.788
  285.496   67.019    0.326    0.456    8.606
  285.746   66.522    0.336    0.458    8.464
  285.996   69.234    0.345    0.456    8.459
  286.246   70.963    0.337    0.448    8.432
  286.496   70.881    0.330    0.444    8.302
  286.746   70.699    0.324    0.441    8.232
  286.996   70.534    0.315    0.442    8.164
  287.246   69.048    0.319    0.441    8.162
  287.496   69.133    0.322    0.440    8.162
  287.746   69.459    0.327    0.439    8.161
  287.996   70.582    0.326    0.437    7.899
  288.246   71.115    0.326    0.433    7.832
  288.496   69.364    0.330    0.445    7.734
  288.746   68.673    0.337    0.454    7.732
