~VERSION INFORMATION
 VERS.                 2.0:   CWLS LOG ASCII STANDARD -VERSION 2.0
 WRAP.                  NO:   ONE LINE PER DEPTH STEP
~WELL INFORMATION BLOCK
#MNEM.UNIT           DATA                    DESCRIPTION OF MNEMONIC
#---------    -------------------            -------------------------------
# Generated from Intellog Unique Number	CS_73_76/WELL/3275
WELL.         CANADIAN WORLDWIDE ENERGY      : Well_name    - WELL
LOC .         00/13-17-076-04W4/0            : Location     - LOCATION
UWI .         00/13-17-076-04W4/0            : Uwi          - UNIQUE WELL ID
ENTR.         SP                             : Entered      - ENTERED BY
SRVC.         SCHLUMBERGER                   : Scn          - SERVICE COMPANY
STRT.M        150                            : top_depth    - START DEPTH
STOP.M        450                            : bot_depth    - STOP DEPTH
STEP.M        0.25                           : increment    - STEP LENGTH
 NULL. -999.2500:NULL Value
~CURVE INFORMATION BLOCK
#MNEM UNIT       ERCB CURVE CODE    CURVE DESCRIPTION
#-----------   ------------------   ----------------------------------
DEPT.M        00 001 00 00         : DEPTH        - DEPTH
ILD .OHMM     00 120 00 00         : RESD         - DEEP RESISTIVITY (DIL)
GR  .API      00 310 00 00         : GR           - GAMMA RAY
DPHI.V/V      00 890 00 00         : PHID         - DENSITY POROSITY (LIMESTONE)
NPHI.V/V      00 330 00 00         : PHIN         - NEUTRON POROSITY (LIMESTONE)
~PARAMETER INFORMATION
#MNEM.UNIT           DATA             DESCRIPTION OF MNEMONIC
#---------         -----------     ------------------------------
GL  .M        623.19               : gl           - GROUND LEVEL ELEVATION
EREF.M        626.29               : kb           - ELEVATION OF DEPTH REFERENCE
DATM.M        623.19               : datum        - DATUM ELEVATION
TDD .M        453                  : tdd          - TOTAL DEPTH DRILLER
RUN .         ONE                  : Run          - RUN NUMBER
ENG .         BILL                 : Engineer     - RECORDING ENGINEER
WIT .         JIM                  : Witness      - WITNESSED BY
MUD .         GEL                  : Mud_type     - MUD TYPE
MATR.         LIMESTONE            : Logunit      - NEUTRON MATRIX
TMAX.C        18                   : BHT          - MAXIMUM RECORDED TEMPERATURE
BHTD.M        453                  : BHTDEP       - MAXIMUM RECORDED TEMPERATURE
MATR.         1                    : LOGUNIT      - NEUTRON MATRIX
RMT .C        25                   : MDTP         - TEMPERATURE OF MUD
NEUT.         1                    : NEUTRON      - NEUTRON TYPE
RESI.         0                    : RESIST       - RESISTIVITY TYPE
RMC .OHMM     0.25                 : RMC          - RESISTIVITY OF MUD CAKE
RMF .OHMM     0.25                 : RMF          - RESISTIVITY OF MUD FILTRATE
SUFT.C        15                   : SUFT         - SURFACE TEMPERATURE
~A  DEPTH     RESD       GR     PHID     PHIN
# ...
  324.000   25.863   42.479    0.000    0.122
  324.250   26.660   45.520    0.034    0.134
  324.500   26.657   50.993    0.145    0.163
  324.750   24.328   57.679    0.206    0.281
  325.000   22.544   63.153    0.298    0.365
  325.250   20.575   64.981    0.333    0.408
  325.500   19.956   66.200    0.339    0.419
  325.750   19.651   68.027    0.342    0.427
  326.000   19.649   64.390    0.349    0.434
  326.250   19.647   62.575    0.354    0.442
  326.500   20.251   62.581    0.354    0.436
  326.750   20.250   65.018    0.351    0.423
  327.000   20.873   66.236    0.346    0.423
  327.250   20.555   63.813    0.339    0.449
  327.500   20.553   62.606    0.335    0.458
  327.750   20.240   63.219    0.334    0.453
  328.000   19.632   62.617    0.339    0.461
  328.250   18.753   62.622    0.346    0.466
  328.500   17.645   66.273    0.346    0.472
  328.750   15.152   71.743    0.330    0.454
  329.000   13.211   87.540    0.300    0.442
  329.250   12.243   95.441    0.233    0.451
  329.500   11.345  101.521    0.229    0.477
  329.750   10.043  105.778    0.240    0.494
  330.000    9.594  112.464    0.254    0.506
  330.250    9.165  113.078    0.249    0.506
  330.500    9.591  107.617    0.236    0.525
  330.750    9.738  115.519    0.224    0.517
  331.000   10.038  113.097    0.228    0.506
  331.250   10.036  111.280    0.238    0.511
  331.500   10.035  112.500    0.236    0.534
  331.750    9.733  116.153    0.242    0.550
  332.000    9.157  115.549    0.256    0.523
  332.250    8.748  111.307    0.263    0.517
  332.500    8.615  109.488    0.257    0.521
  332.750    8.880  100.992    0.251    0.528
  333.000    9.728   95.533    0.247    0.556
  333.250   12.791   91.895    0.246    0.517
  333.500   14.891   90.079    0.270    0.433
  333.750   16.313   90.691    0.290    0.414
  334.000   17.870   93.734    0.289    0.395
  334.250   19.576  103.458    0.291    0.404
  334.500   20.488  113.788    0.296    0.389
  334.750   21.771  111.365    0.278    0.371
  335.000   22.441  101.046    0.293    0.395
  335.250   23.132   87.691    0.320    0.415
  335.500   23.845   81.624    0.359    0.434
  335.750   25.726   76.165    0.365    0.305
  336.000   26.925   76.173    0.375    0.286
  336.250   28.611   78.607    0.351    0.273
  336.500   28.606   82.257    0.314    0.301
  336.750   28.604   84.084    0.292    0.326
  337.000   28.601   82.268    0.278    0.349
  337.250   27.741   79.846    0.313    0.377
  337.500   26.906   80.460    0.326    0.360
  337.750   26.496   79.857    0.313    0.326
  338.000   26.900   75.005    0.302    0.365
  338.250   26.897   73.796    0.299    0.401
  338.500   26.488   75.017    0.306    0.422
  338.750   25.691   75.023    0.313    0.444
  339.000   26.081   70.778    0.311    0.462
  339.250   27.296   68.356    0.290    0.489
  339.500   29.451   65.931    0.113    0.483
  339.750   34.813   61.686    0.044    0.392
  340.000   39.315   59.872    0.000    0.337
  340.250   60.190   58.661    0.000    0.143
  340.500   67.972   68.386    0.000    0.137
  340.750   67.966   75.073    0.022    0.144
  341.000   55.761   79.936    0.132    0.176
  341.250   43.048   82.371    0.199    0.311
  341.500   23.779   84.808    0.261    0.345
  341.750   22.715   89.671    0.258    0.415
  342.000   23.061   96.358    0.250    0.460
  342.250   22.709   88.469    0.240    0.422
  342.500   22.365   85.438    0.238    0.443
  342.750   20.411   88.481    0.233    0.459
  343.000   21.360   91.523    0.239    0.443
  343.250   21.686   93.351    0.246    0.399
  343.500   22.355   93.965    0.241    0.412
  343.750   23.396   93.364    0.240    0.421
  344.000   25.241   87.903    0.251    0.429
  344.250   26.823   80.015    0.263    0.417
  344.500   28.940   81.236    0.274    0.398
  344.750   31.224   83.670    0.284    0.365
  345.000   32.679   86.107    0.288    0.373
  345.250   33.685   85.505    0.276    0.377
  345.500   34.198   81.867    0.280    0.374
  345.750   33.167   77.621    0.299    0.359
  346.000   31.684   78.235    0.309    0.349
  346.250   29.811   80.063    0.288    0.367
  346.500   25.600   83.715    0.274    0.385
  346.750   23.011   86.149    0.262    0.411
  347.000   21.982   88.584    0.253    0.409
  347.250   21.647   91.019    0.251    0.443
  347.500   21.977   95.884    0.256    0.472
  347.750   21.643   90.423    0.249    0.459
  348.000   19.454   88.608    0.234    0.439
  348.250   16.706   92.258    0.224    0.460
  348.500   14.790   94.086    0.221    0.494
  348.750   14.565   92.879    0.222    0.499
  349.000   14.787   92.278    0.225    0.484
  349.250   15.475   92.283    0.228    0.461
  349.500   15.711   94.718    0.233    0.448
  349.750   15.709   96.545    0.236    0.473
  350.000    4.641  100.615    0.268    0.472
  350.250    4.306  103.683    0.280    0.498
  350.500    4.147  107.360    0.288    0.528
  350.750    4.226  100.672    0.287    0.557
  351.000    4.554   89.715    0.301    0.457
  351.250    5.289   84.857    0.312    0.438
  351.500    6.143   89.145    0.315    0.443
  351.750    7.835   85.508    0.363    0.352
  352.000   10.569   81.262    0.405    0.263
  352.250   12.985   80.672    0.425    0.279
  352.500   14.802   80.692    0.422    0.297
  352.750   15.951   81.317    0.408    0.321
  353.000   17.515   80.728    0.414    0.314
  353.250   18.524   78.310    0.408    0.300
  353.500   19.229   76.501    0.397    0.284
  353.750   18.871   75.303    0.392    0.291
  354.000   17.839   75.319    0.387    0.306
  354.250   16.550   80.219    0.383    0.322
  354.500   15.355   83.895    0.371    0.331
  354.750   12.973   85.746    0.305    0.362
  355.000   10.960   82.716    0.269    0.396
  355.250    9.435   81.517    0.243    0.409
  355.500    8.275   87.029    0.232    0.419
  355.750    7.971   90.093    0.232    0.420
  356.000    7.822   92.550    0.226    0.435
  356.250    7.969   92.571    0.232    0.442
  356.500    8.272   88.935    0.242    0.458
  356.750    8.915   90.782    0.224    0.470
  357.000    9.082   92.019    0.218    0.454
  357.250    8.748   92.038    0.227    0.421
  357.500    8.425   89.011    0.233    0.425
  357.750    8.425   85.982    0.235    0.429
  358.000    8.267   87.223    0.243    0.431
  358.250    8.267   90.908    0.242    0.430
  358.500    8.266   91.529    0.247    0.434
  358.750    8.422   90.329    0.259    0.419
  359.000    8.907   93.403    0.263    0.382
  359.250    8.906   98.296    0.242    0.386
  359.500    8.906   99.538    0.228    0.403
  359.750    8.740   98.338    0.224    0.420
  360.000    8.418   96.527    0.220    0.418
  360.250    7.810   93.496    0.227    0.410
  360.500    6.850   89.858    0.228    0.414
  360.750    5.897   91.099    0.214    0.426
  361.000    5.270   94.165    0.211    0.443
  361.250    4.622   95.408    0.244    0.461
  361.500    4.054   94.816    0.262    0.474
  361.750    3.490   89.959    0.281    0.491
  362.000    3.119   90.585    0.278    0.520
  362.250    2.840   87.556    0.270    0.520
  362.500    2.787   90.019    0.275    0.508
  362.750    2.787   91.260    0.290    0.520
  363.000    2.786   91.277    0.295    0.544
  363.250    2.786   89.467    0.298    0.526
  363.500    2.786   89.484    0.290    0.506
  363.750    2.786   96.212    0.279    0.532
  364.000    2.683  102.943    0.268    0.526
  364.250    3.002   99.302    0.262    0.522
  364.500    3.296   95.051    0.257    0.520
  364.750    3.687   90.808    0.240    0.523
  365.000    4.049   87.775    0.227    0.466
  365.250    4.445   87.794    0.232    0.451
  365.500    4.881   88.424    0.233    0.439
  365.750    5.461   91.493    0.233    0.416
  366.000    5.776   94.563    0.233    0.416
  366.250    5.996   92.752    0.234    0.418
  366.500    6.109   88.501    0.231    0.415
  366.750    6.341   85.478    0.225    0.391
  367.000    6.582   86.714    0.207    0.378
  367.250    6.582   86.122    0.195    0.378
