~VERSION INFORMATION
 VERS.                 2.0:   CWLS LOG ASCII STANDARD -VERSION 2.0
 WRAP.                  NO:   ONE LINE PER DEPTH STEP
~WELL INFORMATION BLOCK
#MNEM.UNIT           DATA                    DESCRIPTION OF MNEMONIC
#---------    -------------------            -------------------------------
# Generated from Intellog Unique Number	CS_73_76/WELL/806
WELL.         PACIFIC PHILLIPS AEC WIAU      : Well_name    - WELL
LOC .         00/10-03-073-07W4/0            : Location     - LOCATION
UWI .         00/10-03-073-07W4/0            : Uwi          - UNIQUE WELL ID
ENTR.         SP                             : Entered      - ENTERED BY
SRVC.         SCHLUMBERGER                   : Scn          - SERVICE COMPANY
STRT.M        340                            : top_depth    - START DEPTH
STOP.M        560                            : bot_depth    - STOP DEPTH
STEP.M        0.25                           : increment    - STEP LENGTH
 NULL. -999.2500:NULL Value
~CURVE INFORMATION BLOCK
#MNEM UNIT       ERCB CURVE CODE    CURVE DESCRIPTION
#-----------   ------------------   ----------------------------------
DEPT.M        00 001 00 00         : DEPTH        - DEPTH
ILD .OHMM     00 120 00 00         : RESD         - DEEP RESISTIVITY (DIL)
DPHI.V/V      00 890 00 00         : PHID         - DENSITY POROSITY (LIMESTONE)
NPHI.V/V      00 330 00 00         : PHIN         - NEUTRON POROSITY (LIMESTONE)
GR  .API      00 310 00 00         : GR           - GAMMA RAY
~PARAMETER INFORMATION
#MNEM.UNIT           DATA             DESCRIPTION OF MNEMONIC
#---------         -----------     ------------------------------
GL  .M        720.71               : gl           - GROUND LEVEL ELEVATION
EREF.M        723.71               : kb           - ELEVATION OF DEPTH REFERENCE
DATM.M        720.71               : datum        - DATUM ELEVATION
TDD .M        573                  : tdd          - TOTAL DEPTH DRILLER
RUN .         ONE                  : Run          - RUN NUMBER
ENG .         BILL                 : Engineer     - RECORDING ENGINEER
WIT .         JIM                  : Witness      - WITNESSED BY
MUD .         GEL                  : Mud_type     - MUD TYPE
MATR.         LIMESTONE            : Logunit      - NEUTRON MATRIX
TMAX.C        16                   : BHT          - MAXIMUM RECORDED TEMPERATURE
BHTD.M        573                  : BHTDEP       - MAXIMUM RECORDED TEMPERATURE
MATR.         1                    : LOGUNIT      - NEUTRON MATRIX
RMT .C        25                   : MDTP         - TEMPERATURE OF MUD
NEUT.         1                    : NEUTRON      - NEUTRON TYPE
RESI.         0                    : RESIST       - RESISTIVITY TYPE
RMC .OHMM     0.25                 : RMC          - RESISTIVITY OF MUD CAKE
RMF .OHMM     0.25                 : RMF          - RESISTIVITY OF MUD FILTRATE
SUFT.C        15                   : SUFT         - SURFACE TEMPERATURE
~A  DEPTH     RESD     PHID     PHIN       GR
# ...
  470.500    4.110    0.265    0.469   71.615
  470.750    3.480    0.251    0.493   77.090
  471.000    2.736    0.258    0.572   78.917
  471.250    2.449    0.265    0.590   80.138
  471.500    2.359    0.269    0.580   79.538
  471.750    2.492    0.254    0.581   79.545
  472.000    2.732    0.252    0.574   80.160
  472.250    2.887    0.252    0.571   78.344
  472.500    3.225    0.245    0.574   75.922
  472.750    3.668    0.248    0.563   74.713
  473.000    4.096    0.261    0.543   73.505
  473.250    4.409    0.259    0.509   73.513
  473.500    4.746    0.258    0.514   71.698
  473.750    4.923    0.252    0.492   70.490
  474.000    5.298    0.229    0.480   71.104
  474.250    5.396    0.217    0.485   71.112
  474.500    5.806    0.215    0.486   70.510
  474.750    6.023    0.211    0.482   68.698
  475.000    6.133    0.199    0.475   69.310
  475.250    6.246    0.182    0.470   70.531
  475.500    6.244    0.167    0.483   72.970
  475.750    6.015    0.224    0.483   73.581
  476.000    5.904    0.203    0.488   72.980
  476.250    5.792    0.232    0.503   72.988
  476.500    5.791    0.232    0.508   75.425
  476.750    5.789    0.235    0.495   76.038
  477.000    5.787    0.223    0.491   76.654
  477.250    5.785    0.220    0.479   77.266
  477.500    5.783    0.218    0.476   76.667
  477.750    5.782    0.206    0.475   76.066
  478.000    5.780    0.194    0.482   76.073
  478.250    5.778    0.202    0.474   77.296
  478.500    5.670    0.225    0.478   77.911
  478.750    5.565    0.243    0.469   77.309
  479.000    5.563    0.236    0.459   76.101
  479.250    5.561    0.239    0.449   74.285
  479.500    5.457    0.235    0.459   71.864
  479.750    5.557    0.233    0.464   71.263
  480.000    5.659    0.239    0.474   70.661
  480.250    5.870    0.236    0.465   71.278
  480.500    5.977    0.227    0.453   71.285
  480.750    6.087    0.208    0.451   72.505
  481.000    5.651    0.193    0.449   74.943
  481.250    5.445    0.209    0.464   76.163
  481.500    4.872    0.191    0.498   77.386
  481.750    4.359    0.222    0.494   76.784
  482.000    4.047    0.210    0.470   74.969
  482.250    4.046    0.216    0.470   72.546
  482.500    3.827    0.245    0.489   71.338
  482.750    3.424    0.257    0.519   72.559
  483.000    3.064    0.269    0.540   73.781
  483.250    2.742    0.267    0.556   73.789
  483.500    2.593    0.263    0.543   73.794
  483.750    2.453    0.262    0.539   71.373
  484.000    2.363    0.257    0.528   70.165
  484.250    2.362    0.246    0.524   73.209
  484.500    2.318    0.239    0.539   75.644
  484.750    2.360    0.233    0.551   76.867
  485.000    2.360    0.232    0.540   78.088
  485.250    2.403    0.246    0.546   79.309
  485.500    2.539    0.258    0.552   77.494
  485.750    2.634    0.264    0.543   72.643
  486.000    2.941    0.246    0.529   71.436
  486.250    3.108    0.232    0.517   70.229
  486.500    3.284    0.234    0.508   69.628
  486.750    3.667    0.243    0.512   69.632
  487.000    3.804    0.234    0.495   68.426
  487.250    3.874    0.245    0.487   69.647
  487.500    4.018    0.246    0.491   68.440
  487.750    4.168    0.240    0.493   65.410
  488.000    4.655    0.326    0.494   62.987
  488.250    5.915    0.309    0.476   61.175
  488.500    6.607    0.308    0.483   59.359
  488.750    8.396    0.311    0.486   58.149
  489.000    9.553    0.314    0.492   55.123
  489.250   11.486    0.313    0.500   54.519
  489.500   13.066    0.317    0.498   52.707
  489.750   13.554    0.321    0.492   51.498
  490.000   13.301    0.319    0.477   50.898
  490.250   13.053    0.316    0.475   51.510
  490.500   12.120    0.311    0.490   51.517
  490.750   10.647    0.300    0.503   50.919
  491.000    9.886    0.290    0.510   50.923
  491.250   10.066    0.299    0.520   50.932
  491.500   11.034    0.335    0.533   51.544
  491.750   11.876    0.334    0.507   52.767
  492.000   13.019    0.328    0.507   52.775
  492.250   14.276    0.334    0.498   52.173
  492.500   15.085    0.332    0.490   51.572
  492.750   15.362    0.324    0.480   51.580
  493.000   15.644    0.320    0.472   52.194
  493.250   16.224    0.328    0.474   52.201
  493.500   16.523    0.320    0.478   50.993
  493.750   16.826    0.310    0.491   50.395
  494.000   17.134    0.311    0.496   51.009
  494.250   17.128    0.318    0.508   51.621
  494.500   16.501    0.318    0.503   52.234
  494.750   15.606    0.318    0.495   52.244
  495.000   15.317    0.316    0.486   52.248
  495.250   15.031    0.310    0.482   51.041
  495.500   14.748    0.306    0.491   51.050
  495.750   14.745    0.305    0.480   51.661
  496.000   14.739    0.303    0.488   52.277
  496.250   14.736    0.306    0.492   52.892
  496.500   14.727    0.313    0.475   52.897
  496.750   14.724    0.322    0.467   52.904
  497.000   14.719    0.304    0.480   54.127
  497.250   14.989    0.295    0.485   54.135
  497.500   15.265    0.280    0.464   52.925
  497.750   15.543    0.270    0.451   51.716
  498.000   16.123    0.273    0.447   51.118
  498.250   17.354    0.263    0.426   49.302
  498.500   19.381    0.091    0.364   47.488
  498.750   20.861    0.062    0.242   46.887
  499.000   23.298    0.104    0.258   46.288
  499.250   25.076    0.178    0.328   47.507
  499.500   20.458    0.257    0.386   50.553
  499.750   17.320    0.301    0.452   51.774
  500.000   14.393    0.311    0.475   52.389
  500.250   13.614    0.307    0.467   53.000
  500.500   13.359    0.307    0.474   51.794
  500.750   13.604    0.307    0.482   51.799
  501.000   14.372    0.307    0.489   53.022
  501.250   14.635    0.307    0.487   53.637
  501.500   15.182    0.307    0.479   53.035
  501.750   15.459    0.302    0.474   51.221
  502.000   16.036    0.299    0.476   50.013
  502.250   16.330    0.287    0.481   48.197
  502.500   16.630    0.274    0.482   46.989
  502.750   16.932    0.265    0.478   47.603
  503.000   16.927    0.285    0.476   50.648
  503.250   16.921    0.311    0.466   51.869
  503.500   17.230    0.318    0.469   51.268
  503.750   17.225    0.312    0.478   50.669
  504.000   17.542    0.314    0.470   51.283
  504.250   17.214    0.317    0.455   51.289
  504.500   16.895    0.307    0.453   50.688
  504.750   16.277    0.308    0.462   50.087
  505.000   15.393    0.300    0.469   52.526
  505.250   14.832    0.296    0.472   54.962
  505.500   13.027    0.288    0.477   56.790
  505.750   11.445    0.280    0.472   60.440
  506.000    8.672    0.272    0.467   63.483
  506.250    8.052    0.262    0.466   66.526
  506.500    7.902    0.255    0.453   68.355
  506.750    8.197    0.272    0.447   70.184
  507.000    8.822    0.277    0.451   74.444
  507.250    9.151    0.278    0.441   75.663
  507.500    9.669    0.265    0.430   75.064
  507.750   10.406    0.275    0.423   74.463
  508.000   10.995    0.281    0.431   75.078
  508.250   11.834    0.278    0.442   75.693
  508.500   12.505    0.274    0.450   76.309
  508.750   12.972    0.263    0.454   76.314
  509.000   13.456    0.254    0.436   76.320
  509.250   13.450    0.258    0.411   75.718
  509.500   12.034    0.236    0.398   72.082
  509.750   10.970    0.220    0.395   70.266
  510.000    9.816    0.203    0.395   70.274
  510.250    9.285    0.193    0.391   70.890
  510.500    8.306    0.202    0.389   72.720
  510.750    8.003    0.194    0.392   73.331
  511.000    7.711    0.194    0.395   75.160
  511.250    7.567    0.187    0.398   77.599
  511.500    7.426    0.188    0.396   78.210
  511.750    7.424    0.196    0.390   78.825
  512.000    7.559    0.205    0.396   78.223
  512.250    7.557    0.191    0.410   73.372
  512.500    7.837    0.171    0.426   67.913
  512.750    7.835    0.197    0.431   64.883
  513.000    7.978    0.191    0.406   70.965
  513.250    7.976    0.171    0.414   74.615
  513.500    7.973    0.160    0.419   77.050
  513.750    7.824    0.176    0.424   76.450
