~VERSION INFORMATION
 VERS.                 2.0:   CWLS LOG ASCII STANDARD -VERSION 2.0
 WRAP.                  NO:   ONE LINE PER DEPTH STEP
~WELL INFORMATION BLOCK
#MNEM.UNIT           DATA                    DESCRIPTION OF MNEMONIC
#---------    -------------------            -------------------------------
# Generated from Intellog Unique Number	CS_71_72/WELL/901
WELL.         AQUITAINE COMPANY              : Well_name    - WELL
LOC .         00/11-19-071-18W4/0            : Location     - LOCATION
UWI .         00/11-19-071-18W4/0            : Uwi          - UNIQUE WELL ID
ENTR.         SP                             : Entered      - ENTERED BY
SRVC.         SCHLUMBERGER                   : Scn          - SERVICE COMPANY
STRT.M        250                            : top_depth    - START DEPTH
STOP.M        490                            : bot_depth    - STOP DEPTH
STEP.M        0.25                           : increment    - STEP LENGTH
 NULL. -999.2500:NULL Value
~CURVE INFORMATION BLOCK
#MNEM UNIT       ERCB CURVE CODE    CURVE DESCRIPTION
#-----------   ------------------   ----------------------------------
DEPT.M        00 001 00 00         : DEPTH        - DEPTH
ILD .OHMM     00 120 00 00         : RESD         - DEEP RESISTIVITY (DIL)
DPHI.V/V      00 890 00 00         : PHID         - DENSITY POROSITY (LIMESTONE)
NPHI.V/V      00 330 00 00         : PHIN         - NEUTRON POROSITY (LIMESTONE)
GR  .API      00 310 00 00         : GR           - GAMMA RAY
~PARAMETER INFORMATION
#MNEM.UNIT           DATA             DESCRIPTION OF MNEMONIC
#---------         -----------     ------------------------------
GL  .M        573                  : gl           - GROUND LEVEL ELEVATION
EREF.M        575                  : kb           - ELEVATION OF DEPTH REFERENCE
DATM.M        573                  : datum        - DATUM ELEVATION
TDD .M        492                  : tdd          - TOTAL DEPTH DRILLER
RUN .         ONE                  : Run          - RUN NUMBER
ENG .         BILL                 : Engineer     - RECORDING ENGINEER
WIT .         JIM                  : Witness      - WITNESSED BY
MUD .         GEL                  : Mud_type     - MUD TYPE
MATR.         LIMESTONE            : Logunit      - NEUTRON MATRIX
TMAX.C        18                   : BHT          - MAXIMUM RECORDED TEMPERATURE
BHTD.M        492                  : BHTDEP       - MAXIMUM RECORDED TEMPERATURE
MATR.         0                    : LOGUNIT      - NEUTRON MATRIX
RMT .C        25                   : MDTP         - TEMPERATURE OF MUD
NEUT.         1                    : NEUTRON      - NEUTRON TYPE
RESI.         0                    : RESIST       - RESISTIVITY TYPE
RMC .OHMM     0.25                 : RMC          - RESISTIVITY OF MUD CAKE
RMF .OHMM     0.25                 : RMF          - RESISTIVITY OF MUD FILTRATE
SUFT.C        15                   : SUFT         - SURFACE TEMPERATURE
~A  DEPTH     RESD     PHID     PHIN       GR
# ...
  380.500    5.002    0.251    0.414   65.149
  380.750    5.048    0.242    0.439   65.639
  381.000    5.124    0.242    0.459   59.307
  381.250    5.104    0.244    0.474   54.545
  381.500    5.151    0.235    0.465   54.978
  381.750    5.160    0.237    0.452   56.373
  382.000    5.130    0.249    0.439   57.408
  382.250    5.100    0.262    0.443   57.476
  382.500    5.177    0.268    0.465   55.069
  382.750    5.752    0.276    0.455   55.562
  383.000    6.712    0.202    0.397   53.456
  383.250    8.414    0.112    0.164   46.822
  383.500   12.637    0.059    0.140   42.123
  383.750   16.173    0.007    0.106   40.256
  384.000   18.242   -0.005    0.093   39.600
  384.250   19.263   -0.010    0.089   39.187
  384.500   19.007   -0.012    0.089   38.288
  384.750   17.166   -0.012    0.092   35.219
  385.000   14.817   -0.008    0.096   33.114
  385.250   13.107   -0.003    0.103   34.509
  385.500   11.442    0.010    0.140   42.186
  385.750    9.747    0.086    0.239   48.776
  386.000    8.605    0.148    0.294   53.978
  386.250    7.428    0.162    0.325   55.436
  386.500    6.163    0.131    0.334   54.599
  386.750    5.566    0.244    0.358   55.334
  387.000    5.064    0.273    0.395   55.762
  387.250    4.731    0.279    0.423   56.134
  387.500    4.598    0.281    0.457   56.202
  387.750    4.555    0.284    0.482   55.126
  388.000    4.537    0.292    0.469   53.442
  388.250    4.545    0.284    0.459   51.879
  388.500    4.604    0.279    0.441   49.955
  388.750    4.699    0.273    0.426   53.828
  389.000    4.761    0.270    0.421   57.641
  389.250    4.952    0.275    0.420   55.233
  389.500    5.017    0.278    0.422   52.343
  389.750    5.054    0.275    0.439   54.829
  390.000    5.072    0.271    0.436   56.770
  390.250    5.052    0.268    0.446   53.275
  390.500    4.985    0.275    0.452   50.323
  390.750    4.938    0.285    0.445   47.373
  391.000    4.919    0.279    0.437   45.691
  391.250    4.955    0.272    0.426   46.363
  391.500    5.183    0.267    0.438   48.607
  391.750    6.071    0.267    0.466   48.432
  392.000    7.205    0.270    0.438   48.321
  392.250    8.456    0.239    0.304   53.281
  392.500   10.519    0.045    0.127   56.187
  392.750   14.005    0.012    0.115   52.813
  393.000   17.326   -0.004    0.108   43.403
  393.250   18.124   -0.011    0.105   39.244
  393.500   16.491   -0.015    0.106   38.709
  393.750   12.642   -0.015    0.126   42.100
  394.000    9.350    0.017    0.174   44.643
  394.250    7.345    0.113    0.221   48.335
  394.500    6.048    0.192    0.305   50.758
  394.750    5.250    0.243    0.422   52.639
  395.000    4.942    0.270    0.476   53.613
  395.250    4.886    0.271    0.506   51.569
  395.500    4.893    0.275    0.520   47.168
  395.750    4.902    0.274    0.517   50.740
  396.000    4.929    0.267    0.511   52.983
  396.250    4.900    0.260    0.491   51.058
  396.500    4.835    0.255    0.462   49.496
  396.750    4.735    0.255    0.452   49.444
  397.000    4.585    0.258    0.453   48.668
  397.250    4.465    0.257    0.462   50.006
  397.500    4.324    0.269    0.484   51.703
  397.750    4.187    0.282    0.486   55.396
  398.000    4.084    0.284    0.482   57.759
  398.250    4.084    0.274    0.485   61.210
  398.500    4.053    0.266    0.493   63.512
  398.750    4.014    0.264    0.480   63.641
  399.000    3.975    0.277    0.469   60.630
  399.250    3.967    0.291    0.460   53.211
  399.500    3.959    0.301    0.440   47.060
  399.750    3.966    0.311    0.427   47.250
  400.000    4.018    0.310    0.421   51.788
  400.250    4.070    0.302    0.417   55.056
  400.500    4.108    0.295    0.415   57.662
  400.750    4.139    0.282    0.422   58.092
  401.000    4.185    0.265    0.460   57.919
  401.250    4.208    0.249    0.466   58.835
  401.500    4.231    0.248    0.449   59.567
  401.750    4.254    0.251    0.440   59.938
  402.000    4.269    0.251    0.456   59.401
  402.250    4.285    0.250    0.468   58.504
  402.500    4.308    0.245    0.486   58.150
  402.750    4.316    0.239    0.474   54.958
  403.000    4.290    0.232    0.450   53.215
  403.250    4.266    0.233    0.432   57.270
  403.500    4.076    0.243    0.429   60.598
  403.750    3.947    0.248    0.423   61.452
  404.000    3.758    0.252    0.422   60.977
  404.250    3.544    0.248    0.431   63.522
  404.500    3.274    0.234    0.435   68.966
  404.750    3.082    0.216    0.440   75.676
  405.000    3.001    0.200    0.488   83.716
  405.250    3.023    0.207    0.507   78.894
  405.500    3.204    0.211    0.509   76.124
  405.750    3.468    0.206    0.514   78.306
  406.000    3.669    0.203    0.522   84.051
  406.250    3.926    0.212    0.501   86.898
  406.500    4.296    0.208    0.480   83.344
  406.750    4.377    0.199    0.465   81.361
  407.000    4.545    0.193    0.450   79.193
  407.250    4.701    0.192    0.444   77.088
  407.500    4.844    0.194    0.430   80.296
  407.750    4.963    0.201    0.417   79.641
  408.000    5.172    0.198    0.407   78.927
  408.250    5.339    0.191    0.397   79.963
  408.500    5.491    0.186    0.398   80.634
  408.750    5.595    0.180    0.408   80.338
  409.000    5.679    0.188    0.409   71.228
  409.250    5.775    0.193    0.423   72.868
  409.500    5.785    0.180    0.418   72.694
  409.750    5.806    0.174    0.416   72.280
  410.000    5.750    0.169    0.423   70.658
  410.250    5.728    0.162    0.419   70.303
  410.500    5.673    0.156    0.417   73.029
  410.750    5.587    0.175    0.414   76.238
  411.000    5.565    0.203    0.410   78.844
  411.250    5.502    0.210    0.412   80.663
  411.500    5.428    0.200    0.424   81.034
  411.750    5.356    0.192    0.435   79.773
  412.000    5.265    0.179    0.446   75.555
  412.250    5.205    0.182    0.458   72.967
  412.500    5.146    0.192    0.452   68.688
  412.750    5.059    0.196    0.445   71.111
  413.000    5.039    0.189    0.443   73.293
  413.250    4.990    0.181    0.438   74.449
  413.500    4.971    0.178    0.439   72.706
  413.750    4.942    0.182    0.445   72.232
  414.000    4.950    0.209    0.462   72.543
  414.250    4.940    0.236    0.457   72.611
  414.500    4.967    0.255    0.466   71.532
  414.750    5.033    0.240    0.471   72.325
  415.000    5.254    0.240    0.454   69.858
  415.250    5.486    0.253    0.438   65.277
  415.500    5.892    0.265    0.428   61.239
  415.750    6.129    0.245    0.423   58.167
  416.000    6.497    0.231    0.434   58.538
  416.250    6.770    0.218    0.435   52.327
  416.500    6.950    0.206    0.427   49.739
  416.750    7.015    0.193    0.413   50.291
  417.000    6.896    0.202    0.410   50.843
  417.250    6.540    0.215    0.413   51.031
  417.500    6.053    0.220    0.424   53.274
  417.750    5.570    0.221    0.437   56.121
  418.000    5.273    0.221    0.436   59.028
  418.250    5.068    0.220    0.439   60.425
  418.500    4.954    0.223    0.445   58.924
  418.750    4.850    0.229    0.456   57.967
  419.000    4.813    0.236    0.446   54.351
  419.250    4.786    0.240    0.440   54.299
  419.500    4.731    0.239    0.442   56.119
  419.750    4.703    0.244    0.439   53.288
  420.000    4.676    0.248    0.428   51.184
  420.250    4.657    0.252    0.415   51.857
  420.500    4.657    0.251    0.408   53.495
  420.750    4.629    0.245    0.401   55.436
  421.000    4.744    0.239    0.408   57.255
  421.250    4.743    0.233    0.422   59.137
  421.500    4.751    0.229    0.433   60.472
  421.750    4.777    0.225    0.415   61.810
  422.000    4.812    0.230    0.413   62.844
  422.250    4.839    0.235    0.423   60.618
  422.500    4.847    0.231    0.416   56.701
  422.750    4.856    0.225    0.436   59.065
  423.000    4.873    0.222    0.423   62.032
  423.250    4.909    0.232    0.422   63.067
  423.500    5.078    0.238    0.424   58.849
  423.750    5.292    0.240    0.418   55.233
