~VERSION INFORMATION
 VERS.                 2.0:   CWLS LOG ASCII STANDARD -VERSION 2.0
 WRAP.                  NO:   ONE LINE PER DEPTH STEP
~WELL INFORMATION BLOCK
#MNEM.UNIT           DATA                    DESCRIPTION OF MNEMONIC
#---------    -------------------            -------------------------------
# Generated from Intellog Unique Number	CW_73_75/WELL/201
WELL.         CDN-SUP ET AL DRIFTWOOD 10-18  : Well_name    - WELL
LOC .         00/10-18-074-03W5/0            : Location     - LOCATION
UWI .         00/10-18-074-03W5/0            : Uwi          - UNIQUE WELL ID
ENTR.         JJ                             : Entered      - ENTERED BY
SRVC.         SCHLUMBERGER                   : Scn          - SERVICE COMPANY
DATE.         2 APR 71                       : Date         - LOG DATE
STRT.M        573.024                        : top_depth    - START DEPTH
STOP.M        701.024                        : bot_depth    - STOP DEPTH
STEP.M        0.25                           : increment    - STEP LENGTH
 NULL. -999.2500:NULL Value
~CURVE INFORMATION BLOCK
#MNEM UNIT       ERCB CURVE CODE    CURVE DESCRIPTION
#-----------   ------------------   ----------------------------------
DEPT.M        00 001 00 00         : DEPTH        - DEPTH
DELT.US/F     00 520 00 00         : DELT         - SONIC TRAVEL TIME
GR  .API      00 310 00 00         : GR           - GAMMA RAY
CALI.MM       00 280 01 00         : CAL          - CALIPER
ILD .OHMM     00 120 00 00         : RESD         - DEEP RESISTIVITY (DIL)
~PARAMETER INFORMATION
#MNEM.UNIT           DATA             DESCRIPTION OF MNEMONIC
#---------         -----------     ------------------------------
GL  .M        732.739              : gl           - GROUND LEVEL ELEVATION
EREF.M        737.006              : kb           - ELEVATION OF DEPTH REFERENCE
DATM.M        732.739              : datum        - DATUM ELEVATION
TDD .M        1700.78              : tdd          - TOTAL DEPTH DRILLER
RUN .         ONE                  : Run          - RUN NUMBER
ENG .         TALBOT               : Engineer     - RECORDING ENGINEER
WIT .         STRATULATE & SMAILES : Witness      - WITNESSED BY
BASE.         EDM                  : Branch       - HOME BASE OF LOGGING UNIT
MUD .         GEL                  : Mud_type     - MUD TYPE
MATR.         SANDSTONE            : Logunit      - NEUTRON MATRIX
TMAX.C        38.8889              : BHT          - MAXIMUM RECORDED TEMPERATURE
BHTD.M        1697.13              : BHTDEP       - MAXIMUM RECORDED TEMPERATURE
RMT .C        21.6667              : MDTP         - TEMPERATURE OF MUD
MUDD.KG/M     1176                 : MWT          - MUD DENSITY
NEUT.         1                    : NEUTRON      - NEUTRON TYPE
RESI.         0                    : RESIST       - RESISTIVITY TYPE
RM  .OHMM     2.03                 : RM           - RESISTIVITY OF MUD
RMC .OHMM     0                    : RMC          - RESISTIVITY OF MUD CAKE
RMF .OHMM     4.57                 : RMF          - RESISTIVITY OF MUD FILTRATE
SUFT.C        5                    : SUFT         - SURFACE TEMPERATURE
~A  DEPTH     DELT       GR      CAL     RESD
  573.024  343.992   50.276  242.967    5.159
  573.274  352.101   52.633  243.394    5.273
  573.524  343.926   52.935  244.139    5.338
  573.774  341.178   49.026  244.779    5.377
  574.024  340.441   52.136  244.993    5.332
  574.274  340.173   52.087  245.207    5.267
  574.524  340.107   49.732  245.528    5.155
  574.774  340.576   49.432  245.106    5.101
  575.024  341.447   51.639  245.427    5.052
  575.274  342.251   52.843  245.217    5.058
  575.524  344.731   53.095  246.281    5.033
  575.774  345.803   57.056  248.299    4.938
  576.024  347.479   56.055  248.089    4.923
  576.274  351.968   51.495  246.394    4.864
  576.524  355.118   47.636  243.744    4.788
  576.774  355.922   46.986  241.519    4.765
  577.024  355.654   49.092  238.869    4.708
  577.274  353.711   51.599  237.704    4.687
  577.524  351.969   49.094  236.539    4.623
  577.774  349.892   47.191  235.693    4.517
  578.024  348.954   47.843  234.953    4.371
  578.274  348.485   51.454  234.531    4.175
  578.524  351.031   53.009  235.488    3.988
  578.774  355.186   52.609  236.340    3.839
  579.024  360.212   53.011  237.403    3.806
  579.274  366.243   54.265  237.724    3.845
  579.524  375.290   56.121  236.347    4.142
  579.774  385.542   55.671  233.591    4.640
  580.024  388.692   53.768  229.880    5.763
  580.274  380.048   51.714  223.941    6.856
  580.524  380.450   46.301  217.471    7.356
  580.774  365.373   41.591  211.108    7.310
  581.024  359.744   42.444  205.912    7.088
  581.274  353.177   43.448  204.959    6.898
  581.524  359.945   43.198  206.235    6.765
  581.774  364.234   41.345  205.919    6.670
  582.024  361.889   39.040  205.497    6.627
  582.274  357.533   37.989  205.182    6.597
  582.524  360.214   36.837  205.184    6.519
  582.774  362.827   36.387  205.610    6.489
  583.024  360.884   35.386  205.719    6.424
  583.274  358.740   34.785  206.146    6.384
  583.524  357.534   34.636  206.043    6.379
  583.774  357.266   34.888  206.045    6.339
  584.024  356.596   35.390  206.366    6.331
  584.274  356.194   37.346  207.111    6.328
  584.524  356.261   39.904  207.326    6.359
  584.774  355.725   41.810  207.435    6.365
  585.024  355.189   42.012  207.436    6.334
  585.274  355.391   41.261  207.227    6.305
  585.524  359.210   41.713  206.487    6.303
  585.774  362.561   42.316  206.277    6.333
  586.024  361.154   40.964  206.280    6.374
  586.274  357.803   40.113  206.494    6.404
  586.524  353.515   41.467  207.028    6.363
  586.774  351.237   39.915  207.560    6.193
  587.024  350.165   41.821  208.305    5.851
  587.274  349.897   43.927  209.051    5.631
  587.524  348.959   43.878  209.690    5.471
  587.774  348.423   40.772  210.222    5.396
  588.024  347.552   41.925  211.286    5.462
  588.274  345.944   47.340  212.032    5.623
  588.524  341.521   43.081  212.564    5.899
  588.774  337.501   45.037  212.673    6.318
  589.024  344.135   50.301  212.463    6.988
  589.274  358.140   52.909  212.041    7.797
  589.524  366.986   46.895  212.468    8.999
  589.774  353.115   42.234  215.866   10.970
  590.024  336.898   36.070  218.521   13.048
  590.274  224.790   31.811  221.388   11.014
  590.524  219.228   28.604  222.664    8.954
  590.774  234.372   29.708  222.772    7.585
  591.024  274.646   32.917  223.942    6.237
  591.274  330.265   36.126  225.748    5.226
  591.524  350.636   41.090  227.554    4.621
  591.774  375.765   47.006  230.315    4.111
  592.024  376.234   53.172  235.729    3.898
  592.274  362.363   53.023  238.490    3.962
  592.524  371.209   49.265  240.402    4.041
  592.774  336.766   48.163  243.800    4.144
  593.024  356.333   48.164  246.561    4.275
  593.274  376.302   49.268  245.608    4.394
  593.524  377.106   48.969  245.823    4.382
  593.774  365.715   50.574  251.024    4.297
  594.024  365.179   52.380  256.438    4.175
  594.274  371.210   50.877  259.623    4.140
  594.524  374.091   48.974  258.777    4.029
  594.774  370.875   47.922  257.612    4.080
  595.024  369.736   47.572  258.039    3.890
  595.274  373.422   48.476  261.650    3.765
  595.524  379.185   49.379  264.410    3.761
  595.774  385.216   46.072  265.474    3.815
  596.024  383.072   47.377  263.248    3.965
  596.274  376.304   49.082  261.765    4.107
  596.524  373.221   46.326  267.497    4.204
  596.774  375.031   47.029  263.892    4.280
  597.024  375.835   47.381  256.467    4.375
  597.274  371.680   44.926  252.332    4.395
  597.524  371.681   44.476  249.683    4.326
  597.774  375.031   45.781  248.306    4.219
  598.024  374.897   48.639  247.353    4.106
  598.274  372.083   51.096  247.038    3.937
  598.524  368.465   49.845  246.297    3.775
  598.774  374.630   49.495  245.451    3.674
  599.024  375.568   48.945  245.029    3.645
  599.274  374.764   47.091  245.774    3.712
  599.524  374.764   44.185  247.049    3.850
  599.774  374.764   44.687  252.251    4.023
  600.024  374.764   47.445  254.694    4.324
  600.274  374.563   47.948  248.436    4.881
  600.524  374.899   49.754  231.145    5.509
  600.774  375.502   53.915  217.779    6.540
  601.024  375.234   47.149  217.038    7.382
  601.274  371.280   38.980  217.997    7.834
  601.524  362.904   38.931  218.212    7.946
  601.774  356.337   39.083  218.426    7.922
  602.024  348.966   36.527  218.427    7.727
  602.274  344.946   33.922  218.855    7.548
  602.524  341.059   31.467  219.176    7.252
  602.774  343.941   30.416  219.390    6.980
  603.024  348.297   33.374  219.924    6.780
  603.274  338.781   35.080  220.563    6.624
  603.524  326.586   33.527  220.883    6.435
  603.774  303.735   33.278  219.718    6.300
  604.024  315.730   34.181  217.493    6.247
  604.274  347.828   35.435  216.010    6.231
  604.524  355.066   36.389  215.269    6.285
  604.774  360.561   37.944  214.848    6.411
  605.024  361.097   39.699  214.320    6.539
  605.274  349.437   39.500  214.322    6.696
  605.524  346.489   38.749  214.324    6.804
  605.774  344.747   39.402  214.857    6.900
  606.024  342.736   41.358  215.391    6.920
  606.274  340.592   41.711  215.181    6.849
  606.524  335.567   42.163  215.289    6.806
  606.774  332.618   41.863  211.154    6.915
  607.024  318.345   39.408  208.823    7.392
  607.274  296.701   35.299  211.477    8.760
  607.524  237.799   31.441  214.132   11.129
  607.774  207.979   28.384  214.559   14.058
  608.024  179.165   26.631  214.456   15.954
  608.274  182.649   23.975  214.140   17.907
  608.524  184.392   25.981  214.461   19.396
  608.774  183.186   29.642  214.569   20.501
  609.024  181.444   28.139  214.890   21.797
  609.274  179.902   23.278  214.575   22.398
  609.524  179.233   24.833  214.470   23.064
  609.774  179.903   26.990  214.579   22.617
  610.024  181.913   28.395  214.475   21.206
  610.274  185.465   29.749  214.902   19.659
  610.524  189.821   29.700  215.648   17.490
  610.774  193.372   29.501  216.393   15.850
  611.024  196.053   29.101  217.880   14.096
  611.274  197.795   29.052  219.580   12.420
  611.524  200.342   28.652  221.917   10.176
  611.774  207.512   30.157  224.572    9.018
  612.024  215.822   33.617  228.182    8.311
  612.274  262.595   36.626  231.262    7.618
  612.524  318.147   36.577  233.174    7.212
  612.774  338.451   36.828  235.723    7.085
  613.024  351.719   37.983  237.423    7.078
  613.274  341.869   40.440  240.502    7.112
  613.524  345.354   40.240  242.626    7.213
  613.774  321.766   42.748  245.282    7.412
  614.024  360.364   40.995  246.557    7.736
  614.274  364.787   43.953  248.576    7.965
  614.524  369.277   44.606  249.851    8.184
  614.774  369.947   40.648  251.339    8.394
  615.024  365.860   38.844  253.463    8.595
  615.274  364.989   37.442  255.057    8.769
  615.524  367.803   36.741  256.545    8.826
  615.774  366.932   36.893  257.609    8.819
  616.024  363.113   37.094  258.991    8.844
  616.274  364.118   36.795  259.524    8.804
