~VERSION INFORMATION
 VERS.                 2.0:   CWLS LOG ASCII STANDARD -VERSION 2.0
 WRAP.                  NO:   ONE LINE PER DEPTH STEP
~WELL INFORMATION BLOCK
#MNEM.UNIT           DATA                    DESCRIPTION OF MNEMONIC
#---------    -------------------            -------------------------------
# Generated from Intellog Unique Number	CS_71_72/WELL/902
WELL.         BVX PCP WANDER                 : Well_name    - WELL
LOC .         00/11-22-071-14W4/0            : Location     - LOCATION
UWI .         00/11-22-071-14W4/0            : Uwi          - UNIQUE WELL ID
ENTR.         SP                             : Entered      - ENTERED BY
SRVC.         SCHLUMBERGER                   : Scn          - SERVICE COMPANY
STRT.M        335.28                         : top_depth    - START DEPTH
STOP.M        535.28                         : bot_depth    - STOP DEPTH
STEP.M        0.25                           : increment    - STEP LENGTH
 NULL. -999.2500:NULL Value
~CURVE INFORMATION BLOCK
#MNEM UNIT       ERCB CURVE CODE    CURVE DESCRIPTION
#-----------   ------------------   ----------------------------------
DEPT.M        00 001 00 00         : DEPTH        - DEPTH
GR  .API      00 310 00 00         : GR           - GAMMA RAY
DPHI.V/V      00 890 00 00         : PHID         - DENSITY POROSITY (SANDSTONE)
NPHI.V/V      00 330 00 00         : PHIN         - NEUTRON POROSITY (SANDSTONE)
ILD .OHMM     00 120 00 00         : RESD         - DEEP RESISTIVITY (DIL)
~PARAMETER INFORMATION
#MNEM.UNIT           DATA             DESCRIPTION OF MNEMONIC
#---------         -----------     ------------------------------
GL  .M        646.176              : gl           - GROUND LEVEL ELEVATION
EREF.M        649.224              : kb           - ELEVATION OF DEPTH REFERENCE
DATM.M        646.176              : datum        - DATUM ELEVATION
TDD .M        543.154              : tdd          - TOTAL DEPTH DRILLER
RUN .         ONE                  : Run          - RUN NUMBER
ENG .         BILL                 : Engineer     - RECORDING ENGINEER
WIT .         JIM                  : Witness      - WITNESSED BY
MUD .         GEL                  : Mud_type     - MUD TYPE
MATR.         SANDSTONE            : Logunit      - NEUTRON MATRIX
TMAX.C        25                   : BHT          - MAXIMUM RECORDED TEMPERATURE
BHTD.M        543.154              : BHTDEP       - MAXIMUM RECORDED TEMPERATURE
MATR.         1                    : LOGUNIT      - NEUTRON MATRIX
RMT .C        25                   : MDTP         - TEMPERATURE OF MUD
NEUT.         1                    : NEUTRON      - NEUTRON TYPE
RESI.         0                    : RESIST       - RESISTIVITY TYPE
RMC .OHMM     0.25                 : RMC          - RESISTIVITY OF MUD CAKE
RMF .OHMM     0.25                 : RMF          - RESISTIVITY OF MUD FILTRATE
SUFT.C        15                   : SUFT         - SURFACE TEMPERATURE
~A  DEPTH       GR     PHID     PHIN     RESD
# ...
  378.780   86.769    0.271    0.523    5.029
  379.030   80.348    0.279    0.504    5.203
  379.280   75.197    0.288    0.555    5.440
  379.530   71.172    0.293    0.575    5.945
  379.780   65.848    0.273    0.557    6.404
  380.030   64.415    0.284    0.531    6.887
  380.280   66.976    0.211    0.508    7.309
  380.530   66.907    0.182    0.507    6.866
  380.780   66.921    0.233    0.299    6.353
  381.030   70.957    0.316    0.453    5.902
  381.280   75.870    0.315    0.531    5.598
  381.530   78.008    0.299    0.573    5.460
  381.780   81.983    0.288    0.561    5.444
  382.030   84.545    0.296    0.565    5.400
  382.280   86.271    0.282    0.571    5.366
  382.530   87.119    0.267    0.555    5.313
  382.780   86.974    0.258    0.568    5.214
  383.030   87.878    0.230    0.616    5.047
  383.280   90.168    0.217    0.597    4.919
  383.530   92.703    0.234    0.574    4.840
  383.780   92.960    0.232    0.560    4.892
  384.030   93.379    0.224    0.556    4.932
  384.280   92.825    0.245    0.563    5.125
  384.530   92.218    0.264    0.537    5.092
  384.780   92.439    0.263    0.515    5.181
  385.030   92.796    0.253    0.578    5.159
  385.280   92.393    0.272    0.600    5.082
  385.530   90.826    0.273    0.635    5.073
  385.780   88.682    0.258    0.565    5.196
  386.030   84.892    0.265    0.534    5.358
  386.280   81.000    0.294    0.491    5.460
  386.530   80.509    0.280    0.534    5.570
  386.780   77.959    0.273    0.532    5.624
  387.030   77.147    0.287    0.536    5.641
  387.280   80.713    0.276    0.564    5.574
  387.530   84.153    0.269    0.552    5.409
  387.780   86.743    0.254    0.576    5.149
  388.030   88.183    0.245    0.581    4.875
  388.280   92.346    0.247    0.565    4.667
  388.530   95.210    0.261    0.552    4.514
  388.780   97.304    0.267    0.575    4.512
  389.030   97.269    0.274    0.597    4.684
  389.280   93.138    0.269    0.558    4.981
  389.530   89.606    0.247    0.553    5.316
  389.780   94.245    0.263    0.578    5.654
  390.030   94.272    0.256    0.556    5.969
  390.280   93.715    0.241    0.533    6.173
  390.530   96.047    0.238    0.507    6.295
  390.780   94.863    0.240    0.513    6.325
  391.030   89.844    0.244    0.536    6.314
  391.280   86.240    0.255    0.516    6.379
  391.530   86.022    0.254    0.468    6.481
  391.780   89.374    0.258    0.431    6.694
  392.030   93.075    0.245    0.417    6.878
  392.280   96.955    0.240    0.435    7.012
  392.530   96.718    0.231    0.461    7.071
  392.780   92.238    0.231    0.483    6.986
  393.030   91.999    0.233    0.507    6.822
  393.280   89.782    0.244    0.494    6.686
  393.530   86.646    0.252    0.488    6.626
  393.780   82.931    0.291    0.503    6.600
  394.030   79.061    0.291    0.485    6.598
  394.280   77.311    0.287    0.476    6.658
  394.530   78.440    0.290    0.480    6.726
  394.780   79.706    0.285    0.481    6.825
  395.030   82.448    0.271    0.467    6.859
  395.280   83.645    0.250    0.456    6.810
  395.530   81.446    0.237    0.493    6.717
  395.780   78.268    0.284    0.545    6.562
  396.030   78.629    0.302    0.559    6.376
  396.280   78.881    0.287    0.583    6.293
  396.530   76.548    0.276    0.546    6.141
  396.780   74.516    0.288    0.522    6.055
  397.030   74.404    0.274    0.528    5.985
  397.280   75.144    0.271    0.532    5.875
  397.530   76.857    0.272    0.542    5.776
  397.780   78.879    0.281    0.549    5.662
  398.030   78.825    0.297    0.494    5.569
  398.280   78.525    0.303    0.486    5.490
  398.530   74.379    0.313    0.498    5.449
  398.780   71.473    0.319    0.496    5.428
  399.030   72.769    0.314    0.510    5.478
  399.280   77.931    0.254    0.514    5.573
  399.530   81.091    0.275    0.529    5.635
  399.780   82.181    0.294    0.545    5.651
  400.030   81.136    0.283    0.558    5.630
  400.280   80.387    0.280    0.542    5.540
  400.530   80.167    0.292    0.544    5.491
  400.780   79.560    0.298    0.538    5.449
  401.030   82.887    0.301    0.527    5.433
  401.280   86.523    0.301    0.535    5.376
  401.530   90.498    0.279    0.530    5.291
  401.780   94.235    0.250    0.531    5.222
  402.030   96.518    0.243    0.556    5.172
  402.280   94.044    0.242    0.547    5.191
  402.530   90.067    0.261    0.524    5.227
  402.780   86.724    0.248    0.521    5.369
  403.030   84.697    0.239    0.541    5.584
  403.280   82.019    0.226    0.557    5.832
  403.530   74.068    0.221    0.578    6.048
  403.780   66.737    0.247    0.551    6.063
  404.030   59.537    0.278    0.523    5.987
  404.280   54.831    0.303    0.509    5.861
  404.530   53.993    0.327    0.502    5.735
  404.780   55.280    0.343    0.503    5.606
  405.030   55.282    0.330    0.511    5.507
  405.280   53.767    0.318    0.503    5.460
  405.530   56.170    0.326    0.486    5.440
  405.780   58.454    0.332    0.465    5.416
  406.030   59.043    0.344    0.465    5.359
  406.280   57.744    0.323    0.479    5.265
  406.530   58.189    0.335    0.488    5.179
  406.780   60.017    0.338    0.488    5.156
  407.030   62.320    0.323    0.481    5.148
  407.280   64.841    0.298    0.477    5.166
  407.530   67.120    0.298    0.489    5.162
  407.780   66.682    0.304    0.496    5.171
  408.030   64.910    0.301    0.518    5.173
  408.280   61.232    0.304    0.519    5.149
  408.530   61.247    0.321    0.502    5.113
  408.780   63.675    0.321    0.525    5.086
  409.030   65.061    0.319    0.542    5.080
  409.280   65.676    0.308    0.551    5.070
  409.530   66.224    0.302    0.560    5.072
  409.780   67.706    0.302    0.548    5.050
  410.030   70.240    0.307    0.535    5.009
  410.280   72.738    0.314    0.547    4.991
  410.530   75.917    0.304    0.515    4.957
  410.780   78.314    0.293    0.501    4.979
  411.030   79.012    0.278    0.493    4.972
  411.280   79.696    0.265    0.496    4.943
  411.530   78.289    0.261    0.512    4.869
  411.780   81.887    0.258    0.535    4.783
  412.030   89.205    0.236    0.531    4.698
  412.280   95.062    0.224    0.524    4.625
  412.530   96.466    0.223    0.534    4.602
  412.780   94.942    0.227    0.565    4.614
  413.030   91.712    0.235    0.540    4.621
  413.280   91.008    0.220    0.513    4.742
  413.530   91.398    0.219    0.502    4.919
  413.780   90.240    0.223    0.497    4.953
  414.030   89.997    0.235    0.512    4.913
  414.280   93.245    0.222    0.502    4.807
  414.530   92.997    0.219    0.505    4.667
  414.780   89.810    0.228    0.513    4.486
  415.030   87.265    0.211    0.541    4.326
  415.280   86.932    0.234    0.567    4.207
  415.530   86.569    0.262    0.546    4.101
  415.780   86.912    0.269    0.561    3.990
  416.030   86.859    0.270    0.536    3.957
  416.280   86.625    0.266    0.547    3.976
  416.530   85.696    0.255    0.540    3.967
  416.780   84.285    0.235    0.566    3.915
  417.030   82.220    0.241    0.561    3.849
  417.280   80.530    0.250    0.555    3.728
  417.530   83.783    0.239    0.548    3.582
  417.780   92.936    0.229    0.548    3.476
  418.030  100.312    0.229    0.563    3.373
  418.280   94.375    0.252    0.572    3.323
  418.530   86.267    0.258    0.570    3.319
  418.780   85.978    0.245    0.554    3.421
  419.030   85.873    0.254    0.629    3.562
  419.280   85.357    0.242    0.598    3.699
  419.530   84.104    0.251    0.582    3.802
  419.780   82.444    0.266    0.568    3.846
  420.030   80.275    0.268    0.556    3.812
  420.280   80.928    0.261    0.537    3.717
  420.530   89.458    0.266    0.545    3.525
  420.780   92.159    0.265    0.565    3.407
  421.030   93.449    0.261    0.610    3.317
  421.280   91.197    0.263    0.640    3.265
  421.530   89.918    0.265    0.628    3.275
  421.780   90.243    0.257    0.624    3.335
  422.030   90.592    0.253    0.630    3.396
