~VERSION INFORMATION
 VERS.                 2.0:   CWLS LOG ASCII STANDARD -VERSION 2.0
 WRAP.                  NO:   ONE LINE PER DEPTH STEP
~WELL INFORMATION BLOCK
#MNEM.UNIT           DATA                    DESCRIPTION OF MNEMONIC
#---------    -------------------            -------------------------------
# Generated from Intellog Unique Number	CX_WELLS/WELL/3688
WELL.         HANGINGSTONE 11A-1             : Well_name    - WELL
LOC .         00/11-01-085-11W4/0            : Location     - LOCATION
UWI .         00/11-01-085-11W400            : Uwi          - UNIQUE WELL ID
ENTR.         T                              : Entered      - ENTERED BY
SRVC.         SCHLUMBERGER                   : Scn          - SERVICE COMPANY
STRT.M        100                            : top_depth    - START DEPTH
STOP.M        310                            : bot_depth    - STOP DEPTH
STEP.M        0.25                           : increment    - STEP LENGTH
 NULL. -999.2500:NULL Value
~CURVE INFORMATION BLOCK
#MNEM UNIT       ERCB CURVE CODE    CURVE DESCRIPTION
#-----------   ------------------   ----------------------------------
DEPT.M        00 001 00 00         : DEPTH        - DEPTH
GR  .API      00 310 00 00         : GR           - GAMMA RAY
NPHI.V/V      00 330 00 00         : PHIN         - NEUTRON POROSITY (SANDSTONE)
DPHI.V/V      00 890 00 00         : PHID         - DENSITY POROSITY (SANDSTONE)
ILD .OHMM     00 120 00 00         : RESD         - DEEP RESISTIVITY (OTHER)
~PARAMETER INFORMATION
#MNEM.UNIT           DATA             DESCRIPTION OF MNEMONIC
#---------         -----------     ------------------------------
GL  .M        554                  : gl           - GROUND LEVEL ELEVATION
EREF.M        556.6                : kb           - ELEVATION OF DEPTH REFERENCE
DATM.M        556.6                : datum        - DATUM ELEVATION
TDD .M        320                  : tdd          - TOTAL DEPTH DRILLER
RUN .         ONE                  : Run          - RUN NUMBER
ENG .         BILL                 : Engineer     - RECORDING ENGINEER
WIT .         JIM                  : Witness      - WITNESSED BY
MUD .         GEL                  : Mud_type     - MUD TYPE
MATR.         SANDSTONE            : Logunit      - NEUTRON MATRIX
TMAX.C        27                   : BHT          - MAXIMUM RECORDED TEMPERATURE
BHTD.M        320                  : BHTDEP       - MAXIMUM RECORDED TEMPERATURE
MATR.         1                    : LOGUNIT      - NEUTRON MATRIX
RMT .C        25                   : MDTP         - TEMPERATURE OF MUD
NEUT.         1                    : NEUTRON      - NEUTRON TYPE
RESI.         4.24                 : RESIST       - RESISTIVITY TYPE
RMC .OHMM     3.22                 : RMC          - RESISTIVITY OF MUD CAKE
RMF .OHMM     4.54                 : RMF          - RESISTIVITY OF MUD FILTRATE
SUFT.C        4                    : SUFT         - SURFACE TEMPERATURE
~A  DEPTH       GR     PHIN     PHID     RESD
# ...
  143.500  114.852    0.404    0.259   12.091
  143.750  116.165    0.404    0.259   12.103
  144.000  116.202    0.405    0.258   12.360
  144.250  114.369    0.411    0.261   12.864
  144.500  112.524    0.420    0.267   13.388
  144.750  110.679    0.430    0.278   13.668
  145.000  108.821    0.436    0.287   13.953
  145.250  108.871    0.440    0.289   14.243
  145.500  108.920    0.442    0.293   14.267
  145.750  108.970    0.442    0.291   14.003
  146.000  109.044    0.443    0.289   14.021
  146.250  109.700    0.443    0.288   14.039
  146.500  111.013    0.437    0.281   14.062
  146.750  113.601    0.427    0.275   14.360
  147.000  113.019    0.404    0.267   15.233
  147.250  108.004    0.406    0.274   17.129
  147.500   99.211    0.413    0.299   18.886
  147.750   83.472    0.417    0.309   22.081
  148.000   78.469    0.418    0.314   24.354
  148.250   75.992    0.416    0.319   26.861
  148.500   71.621    0.410    0.302   29.635
  148.750   66.605    0.405    0.285   30.844
  149.000   59.076    0.400    0.267   32.091
  149.250   54.704    0.396    0.272   33.411
  149.500   54.754    0.391    0.277   34.097
  149.750   53.540    0.388    0.279   34.808
  150.000   50.432    0.380    0.268   34.864
  150.250   49.231    0.369    0.218   34.910
  150.500   50.543    0.355    0.212   35.626
  150.750   51.224    0.360    0.217   35.685
  151.000   50.642    0.363    0.234   35.719
  151.250   49.429    0.373    0.275   35.093
  151.500   51.373    0.377    0.301   35.127
  151.750   54.580    0.385    0.317   35.184
  152.000   55.893    0.393    0.311   34.567
  152.250   55.311    0.391    0.311   33.938
  152.500   57.899    0.386    0.318   32.078
  152.750   59.212    0.386    0.324   30.902
  153.000   56.735    0.389    0.331   30.932
  153.250   54.877    0.388    0.340   30.983
  153.500   58.097    0.393    0.339   31.013
  153.750   59.397    0.401    0.334   31.053
  154.000   57.552    0.403    0.326   31.094
  154.250   57.602    0.399    0.317   30.548
  154.500   59.546    0.398    0.303   30.588
  154.750   60.239    0.400    0.276   30.628
  155.000   58.394    0.405    0.276   30.668
  155.250   57.812    0.407    0.306   30.698
  155.500   58.493    0.407    0.308   30.738
  155.750   57.911    0.408    0.314   30.189
  156.000   56.697    0.407    0.319   30.229
  156.250   54.852    0.407    0.326   30.278
  156.500   56.165    0.406    0.332   30.308
  156.750   60.004    0.406    0.336   29.776
  157.000   64.486    0.405    0.340   29.815
  157.250   66.418    0.406    0.330   29.272
  157.500   65.836    0.406    0.321   28.217
  157.750   65.254    0.406    0.323   27.704
  158.000   65.935    0.406    0.324   26.185
  158.250   68.523    0.406    0.330   25.217
  158.500   71.731    0.406    0.334   24.284
  158.750   74.925    0.406    0.336   21.667
  159.000   81.922    0.405    0.328   20.466
  159.250   93.996    0.404    0.295   18.248
  159.500   94.033    0.406    0.283   16.265
  159.750   95.978    0.407    0.272   13.952
  160.000  103.606    0.409    0.262   11.973
  160.250  109.971    0.410    0.252   10.671
  160.500  115.729    0.415    0.242    9.518
  160.750  118.305    0.420    0.234    8.994
  161.000  120.249    0.420    0.220    8.661
  161.250  122.193    0.416    0.215    8.506
  161.500  123.518    0.420    0.210    8.853
  161.750  122.912    0.441    0.214    9.214
  162.000  123.593    0.435    0.219    9.590
  162.250  127.444    0.408    0.223   10.385
  162.500  127.493    0.399    0.220   10.598
  162.750  125.636    0.392    0.225   10.812
  163.000  121.264    0.399    0.233   10.619
  163.250  116.893    0.404    0.236   10.037
  163.500  113.153    0.409    0.225    9.854
  163.750  118.255    0.416    0.206    9.870
  164.000  122.726    0.420    0.207    9.883
  164.250  127.840    0.423    0.215    9.899
  164.500  131.679    0.416    0.221    9.909
  164.750  133.623    0.414    0.224    9.542
  165.000  133.673    0.423    0.218    8.511
  165.250  133.722    0.429    0.208    8.196
  165.500  133.772    0.435    0.204    7.596
  165.750  133.214    0.428    0.205    7.465
  166.000  132.607    0.414    0.207    7.473
  166.250  129.511    0.405    0.209    7.482
  166.500  125.759    0.406    0.211    7.490
  166.750  118.218    0.410    0.212    7.220
  167.000  121.450    0.418    0.218    7.086
  167.250  124.025    0.429    0.229    6.959
  167.500  122.180    0.440    0.234    6.704
  167.750  119.716    0.447    0.243    6.463
  168.000  120.372    0.448    0.241    6.471
  168.250  123.579    0.448    0.239    6.477
  168.500  129.313    0.447    0.239    6.486
  168.750  133.164    0.444    0.239    6.496
  169.000  133.201    0.437    0.239    6.378
  169.250  130.093    0.432    0.240    6.384
  169.500  126.366    0.431    0.241    6.152
  169.750  123.889    0.432    0.241    6.040
  170.000  122.675    0.434    0.241    6.050
  170.250  118.291    0.442    0.239    5.944
  170.500  113.288    0.445    0.238    5.948
  170.750  114.626    0.445    0.240    5.956
  171.000  115.294    0.448    0.244    6.082
  171.250  115.963    0.444    0.245    6.211
  171.500  115.381    0.440    0.246    6.340
  171.750  113.536    0.440    0.252    6.347
  172.000  110.440    0.442    0.260    6.739
  172.250  109.846    0.447    0.267    6.743
  172.500  109.263    0.456    0.275    7.155
  172.750  108.050    0.462    0.285    8.046
  173.000  103.047    0.470    0.295    8.874
  173.250   94.254    0.473    0.300   10.991
  173.500   88.620    0.466    0.264   13.618
  173.750   84.248    0.450    0.238   15.313
  174.000   79.233    0.434    0.218   16.895
  174.250   74.230    0.419    0.221   17.242
  174.500   73.016    0.416    0.246   17.270
  174.750   73.066    0.416    0.268   17.287
  175.000   73.128    0.420    0.274   17.653
  175.250   72.533    0.426    0.292   17.676
  175.500   71.332    0.426    0.277   16.387
  175.750   70.750    0.425    0.248   15.183
  176.000   70.168    0.428    0.239   13.802
  176.250   72.124    0.432    0.264   10.341
  176.500   73.412    0.425    0.271    9.587
  176.750   80.421    0.410    0.267    9.409
  177.000   88.681    0.399    0.255    8.553
  177.250   96.941    0.399    0.244    7.778
  177.500  101.436    0.431    0.242    7.349
  177.750  100.223    0.436    0.247    7.218
  178.000   98.353    0.446    0.257    7.510
  178.250   95.876    0.459    0.272    8.288
  178.500   95.926    0.462    0.284    8.792
  178.750   95.344    0.466    0.288    9.886
  179.000   94.130    0.470    0.287   10.089
  179.250   94.192    0.471    0.289   10.504
  179.500   94.254    0.471    0.293   10.929
  179.750   94.303    0.459    0.296   11.827
  180.000   92.458    0.442    0.301   12.553
  180.250   89.981    0.431    0.302   12.566
  180.500   87.480    0.440    0.302   12.578
  180.750   78.056    0.451    0.300   11.893
  181.000   71.158    0.458    0.298   11.453
  181.250   75.641    0.459    0.291   10.825
  181.500   86.427    0.455    0.286   10.624
  181.750   88.383    0.448    0.276   10.242
  182.000   92.210    0.436    0.266   10.252
  182.250   95.417    0.438    0.229   10.265
  182.500   97.362    0.447    0.159   10.085
  182.750   99.950    0.455    0.184    9.908
  183.000  101.894    0.457    0.219    9.914
  183.250  103.838    0.452    0.252    9.927
  183.500  106.414    0.444    0.256   10.134
  183.750   89.399    0.439    0.239    9.953
  184.000   81.869    0.432    0.229    9.408
  184.250   90.761    0.430    0.255    9.060
  184.500   97.758    0.432    0.264    8.399
  184.750  102.872    0.433    0.260    8.091
  185.000  103.553    0.435    0.257    8.260
  185.250  102.971    0.444    0.257    8.432
  185.500  101.757    0.452    0.258    8.608
  185.750   96.742    0.460    0.262    8.619
  186.000   94.265    0.453    0.266    8.628
  186.250  101.274    0.443    0.268    8.474
  186.500  107.008    0.439    0.265    8.168
  186.750  108.952    0.443    0.258    8.017
