~VERSION INFORMATION
 VERS.                 2.0:   CWLS LOG ASCII STANDARD -VERSION 2.0
 WRAP.                  NO:   ONE LINE PER DEPTH STEP
~WELL INFORMATION BLOCK
#MNEM.UNIT           DATA                    DESCRIPTION OF MNEMONIC
#---------    -------------------            -------------------------------
# Generated from Intellog Unique Number	CS_67_68/WELL/2200
WELL.         10-33-067-05W4                 : Well_name    - WELL
LOC .         00/10-33-067-05W4/0            : Location     - LOCATION
UWI .         00/10-33-067-05W4/0            : Uwi          - UNIQUE WELL ID
ENTR.         SP                             : Entered      - ENTERED BY
SRVC.         SCHLUMBERGER                   : Scn          - SERVICE COMPANY
STRT.M        320                            : top_depth    - START DEPTH
STOP.M        535                            : bot_depth    - STOP DEPTH
STEP.M        0.25                           : increment    - STEP LENGTH
 NULL. -999.2500:NULL Value
~CURVE INFORMATION BLOCK
#MNEM UNIT       ERCB CURVE CODE    CURVE DESCRIPTION
#-----------   ------------------   ----------------------------------
DEPT.M        00 001 00 00         : DEPTH        - DEPTH
ILD .OHMM     00 120 00 00         : RESD         - DEEP RESISTIVITY (DIL)
DPHI.V/V      00 890 00 00         : PHID         - DENSITY POROSITY (LIMESTONE)
NPHI.V/V      00 330 00 00         : PHIN         - NEUTRON POROSITY (LIMESTONE)
GR  .API      00 310 00 00         : GR           - GAMMA RAY
CALI.MM       00 280 01 00         : CAL          - CALIPER
~PARAMETER INFORMATION
#MNEM.UNIT           DATA             DESCRIPTION OF MNEMONIC
#---------         -----------     ------------------------------
GL  .M        667.11               : gl           - GROUND LEVEL ELEVATION
EREF.M        671.01               : kb           - ELEVATION OF DEPTH REFERENCE
DATM.M        671.01               : datum        - DATUM ELEVATION
TDD .M        543                  : tdd          - TOTAL DEPTH DRILLER
RUN .         ONE                  : Run          - RUN NUMBER
ENG .         BILL                 : Engineer     - RECORDING ENGINEER
WIT .         JIM                  : Witness      - WITNESSED BY
MUD .         GEL                  : Mud_type     - MUD TYPE
MATR.         LIMESTONE            : Logunit      - NEUTRON MATRIX
TMAX.C        25.5                 : BHT          - MAXIMUM RECORDED TEMPERATURE
BHTD.M        543                  : BHTDEP       - MAXIMUM RECORDED TEMPERATURE
MATR.         1                    : LOGUNIT      - NEUTRON MATRIX
RMT .C        25                   : MDTP         - TEMPERATURE OF MUD
NEUT.         1                    : NEUTRON      - NEUTRON TYPE
RESI.         0                    : RESIST       - RESISTIVITY TYPE
RMC .OHMM     0.25                 : RMC          - RESISTIVITY OF MUD CAKE
RMF .OHMM     0.25                 : RMF          - RESISTIVITY OF MUD FILTRATE
SUFT.C        15                   : SUFT         - SURFACE TEMPERATURE
~A  DEPTH     RESD     PHID     PHIN       GR      CAL
# ...
  502.500    8.262    0.175    0.399   99.258  169.551
  502.750    8.870    0.183    0.391   89.131  172.429
  503.000    9.504    0.184    0.368   76.314  169.398
  503.250    9.683    0.151    0.344   82.993  166.067
  503.500    9.591    0.137    0.369   89.421  169.145
  503.750    8.997    0.129    0.378   89.926  168.661
  504.000    7.979    0.138    0.359   85.175  166.853
  504.250    7.584    0.147    0.344   87.269  164.947
  504.500    7.540    0.169    0.344   91.134  164.768
  504.750    7.426    0.192    0.349   94.999  165.203
  505.000    7.301    0.199    0.363   98.437  166.754
  505.250    7.178    0.200    0.386   99.491  168.818
  505.500    7.069    0.196    0.392   96.145  170.782
  505.750    7.095    0.188    0.398   94.145  171.927
  506.000    7.174    0.172    0.402  100.944  172.867
  506.250    7.253    0.163    0.410  105.785  173.609
  506.500    7.306    0.171    0.430  110.628  173.633
  506.750    7.903    0.179    0.441  112.419  172.743
  507.000    8.992    0.181    0.429  110.721  171.545
  507.250   10.503    0.177    0.423  105.664  170.553
  507.500   11.729    0.174    0.415   93.031  170.581
  507.750   13.776    0.218    0.415   74.717  170.604
  508.000   16.643    0.281    0.430   52.980  170.325
  508.250   22.330    0.307    0.445   38.576  168.113
  508.500   30.300    0.326    0.433   26.127  167.425
  508.750   38.721    0.335    0.412   20.888  167.250
  509.000   42.917    0.332    0.387   34.040  166.969
  509.250   32.885    0.293    0.374   46.276  166.077
  509.500   27.211    0.268    0.370   59.123  164.778
  509.750   26.156    0.248    0.368   69.343  163.789
  510.000   26.646    0.255    0.382   55.732  163.608
  510.250   28.233    0.284    0.413   37.723  164.754
  510.500   30.885    0.322    0.408   27.290  166.920
  510.750   34.487    0.331    0.386   25.413  170.208
  511.000   36.068    0.319    0.370   28.665  173.693
  511.250   30.695    0.300    0.383   30.212  163.433
  511.500   25.493    0.302    0.379   30.224  162.751
  511.750   21.940    0.313    0.363   32.441  162.670
  512.000   19.096    0.293    0.355   40.094  162.696
  512.250   16.904    0.281    0.369   46.830  163.027
  512.500   14.963    0.282    0.381   42.508  162.956
  512.750   13.345    0.298    0.386   31.221  163.491
  513.000   11.724    0.309    0.375   26.713  164.235
  513.250   10.674    0.312    0.369   29.968  164.565
  513.500    9.699    0.314    0.366   41.775  164.793
  513.750    8.748    0.315    0.375   52.423  164.917
  514.000    7.773    0.292    0.377   61.543  164.741
  514.250    6.790    0.278    0.380   52.820  163.542
  514.500    5.888    0.279    0.384   41.350  161.940
  514.750    5.011    0.307    0.385   32.689  161.156
  515.000    4.264    0.327    0.384   28.182  160.471
  515.250    3.740    0.333    0.372   25.448  159.982
  515.500    3.528    0.330    0.358   22.963  159.093
  515.750    3.404    0.324    0.347   21.876  159.116
  516.000    3.378    0.316    0.337   21.157  160.466
  516.250    3.365    0.319    0.337   20.867  161.001
  516.500    3.377    0.321    0.348   21.373  161.026
  516.750    3.433    0.323    0.352   21.937  161.053
  517.000    3.591    0.328    0.353   21.831  160.977
  517.250    3.762    0.326    0.356   21.052  160.596
  517.500    3.854    0.319    0.346   25.650  159.705
  517.750    3.882    0.311    0.339   32.631  158.714
  518.000    3.831    0.301    0.329   37.107  158.638
  518.250    3.781    0.300    0.349   36.757  159.069
  518.500    3.822    0.303    0.364   35.062  159.811
  518.750    3.982    0.289    0.357   48.092  160.242
  519.000    4.126    0.264    0.349   57.579  160.573
  519.250    4.251    0.249    0.356   64.070  161.007
  519.500    4.242    0.263    0.366   60.847  161.340
  519.750    4.147    0.288    0.384   53.591  161.466
  520.000    4.461    0.296    0.395   47.008  161.697
  520.250    4.944    0.296    0.381   41.708  161.114
  520.500    5.469    0.255    0.319   43.434  161.037
  520.750    6.073    0.223    0.309   52.493  160.555
  521.000    6.631    0.192    0.317   60.085  160.069
  521.250    6.909    0.192    0.323   62.425  158.567
  521.500    7.051    0.237    0.327   56.818  157.677
  521.750    7.346    0.209    0.336   85.489  157.706
  522.000    7.741    0.181    0.354  104.936  158.649
  522.250    8.095    0.168    0.360  109.901  159.487
  522.500    8.293    0.170    0.354  112.543  160.429
  522.750    8.062    0.170    0.351  103.700  160.454
  523.000    7.706    0.173    0.352   97.545  160.787
  523.250    7.016    0.163    0.353   90.960  161.737
  523.500    6.327    0.178    0.355   79.428  161.758
  523.750    5.815    0.218    0.357   70.522  161.884
  524.000    5.166    0.256    0.345   63.022  161.806
  524.250    4.994    0.282    0.333   51.795  161.123
  524.500    4.919    0.281    0.318   47.901  160.541
  524.750    4.800    0.274    0.324   48.160  160.661
  525.000    4.657    0.282    0.344   45.858  160.693
  525.250    4.519    0.286    0.350   43.978  160.817
  525.500    4.319    0.290    0.330   45.580  161.250
  525.750    4.160    0.293    0.329   50.729  161.279
  526.000    3.991    0.300    0.342   49.705  161.100
  526.250    3.887    0.308    0.355   43.002  160.619
  526.500    3.778    0.314    0.358   38.066  160.436
  526.750    3.736    0.321    0.356   34.049  159.959
  527.000    3.749    0.331    0.354   32.658  159.981
  527.250    3.805    0.332    0.355   36.768  160.718
  527.500    3.912    0.324    0.356   40.879  161.668
  527.750    4.153    0.318    0.360   45.414  161.995
  528.000    4.493    0.314    0.364   43.291  162.223
  528.250    5.073    0.311    0.365   69.703  162.146
  528.500    5.655    0.288    0.364   86.889  162.584
  528.750    6.117    0.234    0.359   91.242  163.122
  529.000    6.517    0.211    0.364   92.480  163.345
  529.250    6.740    0.203    0.365   91.519  163.070
  529.500    6.751    0.206    0.356   91.839  162.691
  529.750    6.263    0.210    0.356   94.115  162.306
  530.000    5.766    0.215    0.370   94.439  161.718
  530.250    5.574    0.230    0.383   91.336  161.644
  530.500    5.625    0.249    0.371   91.657  161.675
  530.750    6.084    0.237    0.367   95.766  161.797
  531.000    6.411    0.201    0.376   99.449  161.519
  531.250    6.642    0.184    0.370   99.280  161.236
  531.500    6.397    0.194    0.365   95.813  161.267
  531.750    6.137    0.203    0.374   92.041  161.800
  532.000    5.977    0.213    0.367   87.535  161.928
  532.250    5.810    0.220    0.366   90.238  161.547
  532.500    5.627    0.211    0.389   94.592  161.264
  532.750    5.563    0.191    0.398   94.853  160.891
  533.000    5.521    0.218    0.396   83.628  160.708
  533.250    5.551    0.243    0.432   78.571  160.633
  533.500    8.832    0.229    0.451   73.332  160.350
  533.750   15.261    0.209    0.397   61.615  159.868
  534.000   22.027    0.175    0.293   47.332  159.591
  534.250   27.628    0.145    0.294   33.905  159.617
  534.500   34.522    0.045    0.153   33.128  159.946
  534.750   43.623    0.021    0.150   36.931  160.378
  535.000   50.571    0.007    0.152   38.473  160.001
