~VERSION INFORMATION
 VERS.                 2.0:   CWLS LOG ASCII STANDARD -VERSION 2.0
 WRAP.                  NO:   ONE LINE PER DEPTH STEP
~WELL INFORMATION BLOCK
#MNEM.UNIT           DATA                    DESCRIPTION OF MNEMONIC
#---------    -------------------            -------------------------------
# Generated from Intellog Unique Number	CS_77_79/WELL/988
WELL.         HOME OIL COMPANY               : Well_name    - WELL
LOC .         00/11-06-077-07W4/0            : Location     - LOCATION
UWI .         00/11-06-077-07W4/0            : Uwi          - UNIQUE WELL ID
ENTR.         SP                             : Entered      - ENTERED BY
SRVC.         SCHLUMBERGER                   : Scn          - SERVICE COMPANY
STRT.M        145                            : top_depth    - START DEPTH
STOP.M        380                            : bot_depth    - STOP DEPTH
STEP.M        0.25                           : increment    - STEP LENGTH
 NULL. -999.2500:NULL Value
~CURVE INFORMATION BLOCK
#MNEM UNIT       ERCB CURVE CODE    CURVE DESCRIPTION
#-----------   ------------------   ----------------------------------
DEPT.M        00 001 00 00         : DEPTH        - DEPTH
ILD .OHMM     00 120 00 00         : RESD         - DEEP RESISTIVITY (DIL)
DPHI.V/V      00 890 00 00         : PHID         - DENSITY POROSITY (LIMESTONE)
NPHI.V/V      00 330 00 00         : PHIN         - NEUTRON POROSITY (LIMESTONE)
GR  .API      00 310 00 00         : GR           - GAMMA RAY
~PARAMETER INFORMATION
#MNEM.UNIT           DATA             DESCRIPTION OF MNEMONIC
#---------         -----------     ------------------------------
GL  .M        571.96               : gl           - GROUND LEVEL ELEVATION
EREF.M        575.65               : kb           - ELEVATION OF DEPTH REFERENCE
DATM.M        571.96               : datum        - DATUM ELEVATION
TDD .M        390.3                : tdd          - TOTAL DEPTH DRILLER
RUN .         ONE                  : Run          - RUN NUMBER
ENG .         BILL                 : Engineer     - RECORDING ENGINEER
WIT .         JIM                  : Witness      - WITNESSED BY
MUD .         GEL                  : Mud_type     - MUD TYPE
MATR.         LIMESTONE            : Logunit      - NEUTRON MATRIX
TMAX.C        28                   : BHT          - MAXIMUM RECORDED TEMPERATURE
BHTD.M        390.3                : BHTDEP       - MAXIMUM RECORDED TEMPERATURE
MATR.         0                    : LOGUNIT      - NEUTRON MATRIX
RMT .C        25                   : MDTP         - TEMPERATURE OF MUD
NEUT.         1                    : NEUTRON      - NEUTRON TYPE
RESI.         0                    : RESIST       - RESISTIVITY TYPE
RMC .OHMM     0.25                 : RMC          - RESISTIVITY OF MUD CAKE
RMF .OHMM     0.25                 : RMF          - RESISTIVITY OF MUD FILTRATE
SUFT.C        15                   : SUFT         - SURFACE TEMPERATURE
~A  DEPTH     RESD     PHID     PHIN       GR
# ...
  319.000    3.493    0.234    0.489  103.468
  319.250    3.560    0.235    0.530  103.463
  319.500    3.560    0.246    0.547  105.877
  319.750    3.562    0.234    0.553  105.872
  320.000    3.562    0.223    0.547  105.262
  320.250    3.498    0.224    0.554  102.838
  320.500    3.564    0.231    0.553  102.228
  320.750    3.701    0.246    0.503  101.617
  321.000    3.988    0.250    0.511  104.032
  321.250    4.218    0.255    0.540  102.815
  321.500    4.806    0.256    0.540  102.811
  321.750    5.477    0.240    0.458   93.734
  322.000    6.126    0.220    0.363   87.077
  322.250    7.520    0.213    0.324   82.233
  322.500    8.730    0.230    0.328   81.018
  322.750    9.949    0.245    0.335   77.989
  323.000   10.524    0.269    0.330   76.169
  323.250   10.926    0.264    0.339   76.164
  323.500   11.557    0.266    0.344   77.369
  323.750   12.454    0.267    0.335   79.177
  324.000   13.173    0.240    0.339   78.568
  324.250   13.933    0.227    0.350   80.981
  324.500   14.737    0.228    0.351   79.768
  324.750   14.741    0.243    0.364   73.109
  325.000   13.944    0.284    0.385   61.613
  325.250   12.474    0.396    0.460   52.535
  325.500   11.581    0.093    0.440   57.369
  325.750   10.361    0.202    0.289   68.251
  326.000    9.800    0.191    0.335   82.760
  326.250    9.099    0.189    0.339   86.384
  326.500    9.102    0.198    0.338   88.799
  326.750    9.449    0.191    0.322   86.978
  327.000   10.375    0.183    0.306   88.181
  327.250   10.771    0.179    0.298   89.992
  327.500   10.976    0.191    0.300   89.382
  327.750   10.980    0.201    0.322   83.934
  328.000   10.781    0.210    0.355   83.929
  328.250   10.584    0.228    0.359   76.061
  328.500   10.012    0.220    0.352   75.451
  328.750    9.649    0.205    0.342   82.099
  329.000    9.651    0.200    0.350   84.513
  329.250    9.835    0.188    0.334   83.903
  329.500    9.838    0.174    0.315   93.575
  329.750   10.025    0.156    0.306   91.755
  330.000   10.029    0.160    0.311   86.307
  330.250   10.031    0.179    0.314   83.882
  330.500   10.033    0.183    0.328   88.715
  330.750    9.852    0.183    0.329   91.129
  331.000    9.853    0.200    0.340   83.867
  331.250   10.043    0.216    0.328   79.024
  331.500   10.045    0.206    0.320   85.670
  331.750   10.236    0.200    0.310   88.690
  332.000   10.431    0.197    0.309   81.427
  332.250   10.630    0.201    0.336   80.211
  332.500   10.633    0.204    0.358   80.812
  332.750   10.439    0.203    0.341   84.436
  333.000   10.250    0.206    0.345   84.430
  333.250   10.252    0.219    0.364   85.635
  333.500   10.448    0.217    0.365   85.025
  333.750   10.647    0.204    0.352   94.697
  334.000   10.850    0.181    0.355   90.457
  334.250   10.457    0.197    0.381   86.825
  334.500   10.077    0.206    0.331   85.608
  334.750   10.079    0.189    0.326   88.628
  335.000   10.662    0.205    0.364   88.019
  335.250   11.069    0.224    0.355   86.804
  335.500   11.709    0.218    0.354   90.426
  335.750   11.931    0.200    0.355   94.050
  336.000   12.387    0.186    0.363   94.046
  336.250   12.162    0.185    0.349   88.597
  336.500   11.292    0.196    0.336   80.730
  336.750   10.883    0.209    0.359   84.353
  337.000   10.488    0.221    0.375   84.953
  337.250   10.490    0.231    0.337   82.529
  337.500   10.111    0.222    0.346   87.967
  337.750   10.113    0.224    0.369   87.357
  338.000   10.115    0.214    0.335   94.004
  338.250   10.309    0.209    0.360   90.370
  338.500   10.504    0.196    0.365   90.969
  338.750   10.907    0.182    0.371   99.432
  339.000   11.115    0.196    0.337   98.822
  339.250   11.540    0.206    0.323   93.979
  339.500   11.981    0.210    0.316   85.506
  339.750   12.209    0.218    0.338   80.058
  340.000   12.915    0.230    0.315   80.053
  340.250   13.916    0.214    0.357   86.701
  340.500   15.277    0.190    0.373   92.744
  340.750   16.773    0.181    0.349   85.480
  341.000   16.777    0.198    0.343   77.008
  341.250   14.194    0.203    0.321   67.931
  341.500   12.935    0.217    0.330   60.669
  341.750   12.009    0.241    0.326   57.035
  342.000   10.945    0.262    0.335   55.215
  342.250   10.353    0.253    0.331   63.676
  342.500    9.978    0.209    0.337   92.703
  342.750    9.980    0.180    0.340   97.536
  343.000   10.361    0.192    0.358   94.507
  343.250   10.960    0.192    0.376   88.453
  343.500   10.963    0.197    0.337   84.819
  343.750   10.763    0.181    0.298   87.837
  344.000   10.766    0.192    0.320   90.857
  344.250   10.572    0.185    0.347   91.457
  344.500   10.379    0.172    0.334   81.169
  344.750   10.002    0.170    0.334   76.326
  345.000    9.461    0.220    0.356   79.950
  345.250    9.117    0.201    0.359   94.460
  345.500    9.120    0.200    0.328   90.826
  345.750    9.294    0.205    0.331   93.240
  346.000    9.472    0.184    0.378  101.702
  346.250    9.835    0.163    0.371  110.165
  346.500   10.021    0.158    0.368  107.740
  346.750   10.023    0.196    0.379  107.131
  347.000   10.215    0.199    0.371  102.286
  347.250   10.030    0.197    0.373   96.233
  347.500    9.847    0.218    0.369   93.204
  347.750    9.849    0.225    0.349   80.498
  348.000    9.852    0.221    0.329   78.678
  348.250   10.040    0.205    0.324   83.512
  348.500   10.043    0.199    0.312   86.531
  348.750   10.234    0.197    0.306   90.759
  349.000   10.049    0.217    0.328   88.334
  349.250   10.051    0.222    0.366   84.096
  349.500    9.868    0.218    0.380   81.067
  349.750    9.511    0.217    0.351   77.433
  350.000    8.559    0.196    0.338  100.802
  350.250    8.559    0.177    0.351  102.613
  350.500    9.397    0.180    0.368   98.350
  350.750    9.754    0.168    0.369   98.342
  351.000   10.125    0.165    0.377   98.332
  351.250   10.910    0.155    0.368   97.108
  351.500   12.668    0.157    0.324   89.203
  351.750   13.650    0.203    0.313   78.870
  352.000   14.436    0.223    0.323   72.787
  352.250   14.709    0.214    0.333   75.815
  352.500   14.436    0.227    0.350   66.089
  352.750   14.169    0.245    0.361   74.578
  353.000   13.398    0.180    0.306   71.535
  353.250   13.150    0.219    0.332   63.023
  353.500   12.907    0.223    0.364   80.623
  353.750   12.204    0.157    0.326   99.438
  354.000   11.978    0.175    0.334   94.570
  354.250   11.756    0.188    0.338   92.129
  354.500   11.756    0.168    0.328   96.371
  354.750   11.978    0.193    0.302   90.289
  355.000   12.434    0.221    0.323   79.350
  355.250   13.907    0.169    0.326   97.555
  355.500   14.986    0.171    0.311   90.260
  355.750   17.078    0.221    0.334   63.531
  356.000   19.102    0.242    0.334   58.056
  356.250   22.597    0.208    0.344   51.972
  356.500   25.752    0.276    0.378   46.499
  356.750   27.749    0.288    0.362   41.629
  357.000   28.272    0.289    0.345   41.013
  357.250   26.237    0.298    0.367   42.214
  357.500   25.276    0.295    0.379   43.422
  357.750   27.235    0.290    0.383   59.201
  358.000   29.900    0.231    0.358   73.157
  358.250   32.219    0.211    0.321   70.110
  358.500   34.717    0.233    0.347   64.028
  358.750   37.409    0.257    0.396   63.410
  359.000   41.069    0.268    0.380   62.185
  359.250   45.087    0.265    0.353   61.569
  359.500   54.342    0.236    0.335   56.700
  359.750   66.731    0.267    0.338   46.976
  360.000   96.936    0.305    0.357   39.680
  360.250  133.145    0.321    0.375   39.061
  360.500  143.469    0.313    0.366   39.659
  360.750  138.210    0.307    0.378   40.254
  361.000  128.265    0.315    0.423   40.854
  361.250  125.893    0.319    0.414   39.630
  361.500  128.265    0.324    0.372   38.403
  361.750  130.682    0.336    0.377   37.787
  362.000  128.265    0.341    0.386   36.563
  362.250  106.421    0.330    0.414   38.373
