~VERSION INFORMATION
 VERS.                 2.0:   CWLS LOG ASCII STANDARD -VERSION 2.0
 WRAP.                  NO:   ONE LINE PER DEPTH STEP
~WELL INFORMATION BLOCK
#MNEM.UNIT           DATA                    DESCRIPTION OF MNEMONIC
#---------    -------------------            -------------------------------
# Generated from Intellog Unique Number	CS_77_79/WELL/973
WELL.         FRANCANA LEISMERE              : Well_name    - WELL
LOC .         00/10-27-078-07W4/0            : Location     - LOCATION
UWI .         00/10-27-078-07W4/0            : Uwi          - UNIQUE WELL ID
ENTR.         JHS                            : Entered      - ENTERED BY
SRVC.         SCHLUMBERGER                   : Scn          - SERVICE COMPANY
STRT.M        110                            : top_depth    - START DEPTH
STOP.M        345                            : bot_depth    - STOP DEPTH
STEP.M        0.25                           : increment    - STEP LENGTH
 NULL. -999.2500:NULL Value
~CURVE INFORMATION BLOCK
#MNEM UNIT       ERCB CURVE CODE    CURVE DESCRIPTION
#-----------   ------------------   ----------------------------------
DEPT.M        00 001 00 00         : DEPTH        - DEPTH
DPHI.V/V      00 890 00 00         : PHID         - DENSITY POROSITY (LIMESTONE)
NPHI.V/V      00 330 00 00         : PHIN         - NEUTRON POROSITY (LIMESTONE)
GR  .API      00 310 00 00         : GR           - GAMMA RAY
ILD .OHMM     00 120 00 00         : RESD         - DEEP RESISTIVITY (DIL)
~PARAMETER INFORMATION
#MNEM.UNIT           DATA             DESCRIPTION OF MNEMONIC
#---------         -----------     ------------------------------
GL  .M        548.21               : gl           - GROUND LEVEL ELEVATION
EREF.M        555.72               : kb           - ELEVATION OF DEPTH REFERENCE
DATM.M        555.72               : datum        - DATUM ELEVATION
TDD .M        351                  : tdd          - TOTAL DEPTH DRILLER
RUN .         ONE                  : Run          - RUN NUMBER
ENG .         BILL                 : Engineer     - RECORDING ENGINEER
WIT .         JIM                  : Witness      - WITNESSED BY
MUD .         GEL                  : Mud_type     - MUD TYPE
MATR.         LIMESTONE            : Logunit      - NEUTRON MATRIX
TMAX.C        13                   : BHT          - MAXIMUM RECORDED TEMPERATURE
BHTD.M        351                  : BHTDEP       - MAXIMUM RECORDED TEMPERATURE
MATR.         1                    : LOGUNIT      - NEUTRON MATRIX
RMT .C        25                   : MDTP         - TEMPERATURE OF MUD
NEUT.         1                    : NEUTRON      - NEUTRON TYPE
RESI.         0                    : RESIST       - RESISTIVITY TYPE
RMC .OHMM     0.25                 : RMC          - RESISTIVITY OF MUD CAKE
RMF .OHMM     0.25                 : RMF          - RESISTIVITY OF MUD FILTRATE
SUFT.C        15                   : SUFT         - SURFACE TEMPERATURE
~A  DEPTH     PHID     PHIN       GR     RESD
# ...
  197.000    0.344    0.443   58.554   23.506
  197.250    0.349    0.459   59.192   24.005
  197.500    0.348    0.452   57.388   24.023
  197.750    0.348    0.450   56.180   24.538
  198.000    0.358    0.446   54.986   24.561
  198.250    0.348    0.440   53.785   24.609
  198.500    0.345    0.449   55.655   24.649
  198.750    0.338    0.450   58.123   24.695
  199.000    0.336    0.435   58.159   24.717
  199.250    0.344    0.436   56.948   24.750
  199.500    0.344    0.446   55.142   24.795
  199.750    0.352    0.454   56.392   24.374
  200.000    0.345    0.450   59.481   24.407
  200.250    0.334    0.451   60.724   23.991
  200.500    0.340    0.466   61.974   24.030
  200.750    0.334    0.453   61.397   24.053
  201.000    0.336    0.442   61.414   23.648
  201.250    0.343    0.440   61.445   23.240
  201.500    0.338    0.447   58.406   23.269
  201.750    0.341    0.472   55.373   22.867
  202.000    0.348    0.468   53.558   22.057
  202.250    0.352    0.459   56.644   22.085
  202.500    0.353    0.455   57.904   22.118
  202.750    0.346    0.455   55.476   21.749
  203.000    0.337    0.450   54.277   21.765
  203.250    0.333    0.443   56.140   21.812
  203.500    0.336    0.435   58.613   21.432
  203.750    0.343    0.438   61.096   21.475
  204.000    0.339    0.463   61.726   21.496
  204.250    0.334    0.479   63.591   21.534
  204.500    0.333    0.485   66.067   21.168
  204.750    0.344    0.471   65.486   21.190
  205.000    0.350    0.454   64.887   21.222
  205.250    0.352    0.443   63.688   21.256
  205.500    0.347    0.450   62.496   21.286
  205.750    0.346    0.471   62.520   20.915
  206.000    0.337    0.476   63.158   21.762
  206.250    0.336    0.484   64.405   21.800
  206.500    0.337    0.472   66.267   20.237
  206.750    0.342    0.464   65.687   17.082
  207.000    0.353    0.469   64.480   12.876
  207.250    0.338    0.473   65.730   10.076
  207.500    0.322    0.466   71.268    8.506
  207.750    0.269    0.451   77.426    7.320
  208.000    0.240    0.442   81.115    6.796
  208.250    0.231    0.449   86.039    6.554
  208.500    0.221    0.483   88.514    6.563
  208.750    0.243    0.486   89.772    6.574
  209.000    0.236    0.475   89.184    6.340
  209.250    0.227    0.478   88.590    6.111
  209.500    0.200    0.474   91.676    5.674
  209.750    0.208    0.489   95.991    5.471
  210.000    0.221    0.502   98.463    5.376
  210.250    0.217    0.505   99.715    5.185
  210.500    0.216    0.513   97.297    4.906
  210.750    0.237    0.504   95.483    4.470
  211.000    0.236    0.507   95.502    4.309
  211.250    0.231    0.539   98.598    4.155
  211.500    0.233    0.546   99.229    4.084
  211.750    0.208    0.542   97.422    4.169
  212.000    0.212    0.545   94.385    4.175
  212.250    0.250    0.537   91.958    4.025
  212.500    0.239    0.521   91.995    3.883
  212.750    0.229    0.529   92.631    4.038
  213.000    0.236    0.541   92.649    4.281
  213.250    0.252    0.531   92.066    4.715
  213.500    0.250    0.529   92.090    4.997
  213.750    0.259    0.542   93.953    5.300
  214.000    0.253    0.543   95.813    5.307
  214.250    0.238    0.527   94.006    5.022
  214.500    0.235    0.510   92.808    4.750
  214.750    0.227    0.507   92.828    4.410
  215.000    0.236    0.546   91.019    4.095
  215.250    0.238    0.550   92.270    3.947
  215.500    0.229    0.557   94.743    3.807
  215.750    0.218    0.549   94.162    3.742
  216.000    0.211    0.533   93.572    3.678
  216.250    0.232    0.538   94.209    3.683
  216.500    0.238    0.534   96.071    3.619
  216.750    0.227    0.554   97.933    3.558
  217.000    0.236    0.534   97.346    3.494
  217.250    0.251    0.549   93.086    3.499
  217.500    0.261    0.591   91.278    3.572
  217.750    0.259    0.593   94.368    3.860
  218.000    0.262    0.584   93.780    4.500
  218.250    0.276    0.535   92.577    5.146
  218.500    0.266    0.505   96.275    6.596
  218.750    0.262    0.508   91.405    7.986
  219.000    0.253    0.518   85.919    8.632
  219.250    0.276    0.492   77.989    8.479
  219.500    0.276    0.467   76.179    7.727
  219.750    0.269    0.448   77.431    7.174
  220.000    0.270    0.452   76.228    7.051
  220.250    0.256    0.480   78.093    7.062
  220.500    0.235    0.507   81.180    7.208
  220.750    0.225    0.496   83.043    7.356
  221.000    0.252    0.468   82.452    7.510
  221.250    0.253    0.453   80.031    7.377
  221.500    0.249    0.442   78.835    7.252
  221.750    0.244    0.443   81.308    7.541
  222.000    0.240    0.491   81.946    8.309
  222.250    0.256    0.492   80.752    8.975
  222.500    0.243    0.466   78.937    9.516
  222.750    0.241    0.461   78.346    9.895
  223.000    0.237    0.460   78.375   10.105
  223.250    0.249    0.465   76.563   10.118
  223.500    0.251    0.441   72.309    9.943
  223.750    0.243    0.428   71.730    9.406
  224.000    0.249    0.425   72.355    8.735
  224.250    0.256    0.428   75.447    8.107
  224.500    0.239    0.436   77.302    7.251
  224.750    0.226    0.450   81.623    6.730
  225.000    0.218    0.466   82.261    6.247
  225.250    0.208    0.474   80.446    5.799
  225.500    0.227    0.490   81.082    5.485
  225.750    0.221    0.504   81.717    4.904
  226.000    0.217    0.525   80.522    4.384
  226.250    0.243    0.499   83.610    3.918
  226.500    0.232    0.490   87.923    3.638
  226.750    0.246    0.521   92.237    3.783
  227.000    0.262    0.551   94.090    4.166
  227.250    0.276    0.546   96.566    4.765
  227.500    0.263    0.543   95.986    5.554
  227.750    0.260    0.538   89.890    6.725
  228.000    0.297    0.510   82.568    8.299
  228.250    0.290    0.479   77.082    9.494
  228.500    0.306    0.472   72.817   10.259
  228.750    0.308    0.464   66.722   10.672
  229.000    0.303    0.454   63.688   10.894
  229.250    0.306    0.454   63.105   10.710
  229.500    0.308    0.460   63.742   10.720
  229.750    0.309    0.462   63.771   10.338
  230.000    0.314    0.460   63.178    9.967
  230.250    0.320    0.467   65.051    9.083
  230.500    0.303    0.465   66.289    8.431
  230.750    0.295    0.473   68.771    8.285
  231.000    0.282    0.487   71.853    8.301
  231.250    0.260    0.502   78.613    8.467
  231.500    0.237    0.499   81.699    8.642
  231.750    0.242    0.484   82.338    9.172
  232.000    0.258    0.472   79.919    9.356
  232.250    0.259    0.457   81.167    9.372
  232.500    0.267    0.456   79.355    9.384
  232.750    0.284    0.470   82.445    9.397
  233.000    0.268    0.489   84.914    9.594
  233.250    0.281    0.499   84.939    9.610
  233.500    0.276    0.487   84.356    9.447
  233.750    0.276    0.491   83.154    9.282
  234.000    0.281    0.498   83.181    8.945
  234.250    0.273    0.492   80.147    8.466
  234.500    0.277    0.484   83.233    8.164
  234.750    0.269    0.480   83.263    8.027
  235.000    0.256    0.483   83.282    8.037
  235.250    0.243    0.475   85.762    8.044
  235.500    0.236    0.471   88.849    8.059
  235.750    0.233    0.488   88.258    8.071
  236.000    0.227    0.504   91.352    7.934
  236.250    0.242    0.499   91.986    7.797
  236.500    0.245    0.482   88.340    7.379
  236.750    0.256    0.468   89.591    7.246
  237.000    0.247    0.462   92.063    6.857
  237.250    0.241    0.473   93.923    6.247
  237.500    0.232    0.490   96.400    5.909
  237.750    0.221    0.492   95.200    5.383
  238.000    0.215    0.490   91.554    4.376
  238.250    0.221    0.504   90.353    3.557
  238.500    0.251    0.510   91.607    3.005
  238.750    0.261    0.551   93.466    2.789
  239.000    0.278    0.575   92.879    2.638
  239.250    0.276    0.584   96.580    2.593
  239.500    0.292    0.599   99.051    2.648
  239.750    0.260    0.589   97.246    2.753
  240.000    0.243    0.563   93.594    3.032
  240.250    0.247    0.540   89.950    3.402
