~VERSION INFORMATION
 VERS.                 2.0:   CWLS LOG ASCII STANDARD -VERSION 2.0
 WRAP.                  NO:   ONE LINE PER DEPTH STEP
~WELL INFORMATION BLOCK
#MNEM.UNIT           DATA                    DESCRIPTION OF MNEMONIC
#---------    -------------------            -------------------------------
# Generated from Intellog Unique Number	CW_70_72/WELL/1056
NULL.         -999.25                        : NULL_VALUE
WELL.         SACKVILLE ET AL MITSUE 11-12   : Well_name    - WELL              
LOC .         11-12-071-03W5                 : Location     - LOCATION          
UWI .         00/11-12-071-03W5/2            : Uwi          - UNIQUE WELL ID    
ENTR.         JAYE                           : Entered      - ENTERED BY        
SRVC.         SCHLUMBERGER                   : Scn          - SERVICE COMPANY   
DATE.         9 DEC 77                       : Date         - LOG DATE          
STRT.M        417.576                        : top_depth    - START DEPTH       
STOP.M        652.326                        : bot_depth    - STOP DEPTH        
STEP.M        0.25                           : increment    - STEP LENGTH       
~CURVE INFORMATION BLOCK
#MNEM UNIT       ERCB CURVE CODE    CURVE DESCRIPTION
#-----------   ------------------   ----------------------------------
DEPT.M        00 001 00 00         : DEPTH        - DEPTH                       
DPHI.V/V      00 890 00 00         : PHID         - DENSITY POROSITY (SANDSTONE)
NPHI.V/V      00 330 00 00         : PHIN         - NEUTRON POROSITY (SANDSTONE)
GR  .API      00 310 00 00         : GR           - GAMMA RAY                   
CALI.MM       00 280 01 00         : CAL          - CALIPER                     
ILD .OHMM     00 120 00 00         : RESD         - DEEP RESISTIVITY (DIL)      
~PARAMETER INFORMATION       
#MNEM.UNIT           DATA             DESCRIPTION OF MNEMONIC
#---------         -----------     ------------------------------
GL  .M        610.514              : gl           - GROUND LEVEL ELEVATION      
EREF.M        613.562              : kb           - ELEVATION OF DEPTH REFERENCE
DATM.M        610.514              : datum        - DATUM ELEVATION             
TDD .M        659.892              : tdd          - TOTAL DEPTH DRILLER         
RUN .         ONE                  : Run          - RUN NUMBER                  
ENG .         KOOYMAN              : Engineer     - RECORDING ENGINEER          
WIT .         MINKEN/PODULSKY      : Witness      - WITNESSED BY                
BASE.         EDM                  : Branch       - HOME BASE OF LOGGING UNIT   
MUD .         GEL                  : Mud_type     - MUD TYPE                    
MATR.         SANDSTONE            : Logunit      - NEUTRON MATRIX              
TMAX.C        23.8889              : BHT          - MAXIMUM RECORDED TEMPERATURE
BHTD.M        658.063              : BHTDEP       - MAXIMUM RECORDED TEMPERATURE
RMT .C        10                   : MDTP         - TEMPERATURE OF MUD          
MUDD.KG/M     1140                 : MWT          - MUD DENSITY                 
NEUT.         1                    : NEUTRON      - NEUTRON TYPE                
RESI.         0                    : RESIST       - RESISTIVITY TYPE            
RM  .OHMM     4.33                 : RM           - RESISTIVITY OF MUD          
RMC .OHMM     0                    : RMC          - RESISTIVITY OF MUD CAKE     
RMF .OHMM     4.09                 : RMF          - RESISTIVITY OF MUD FILTRATE 
SUFT.C        -17.7778             : SUFT         - SURFACE TEMPERATURE         
~A  DEPTH     PHID     PHIN       GR      CAL     RESD
# ...
  600.076    0.293    0.474   83.401  158.909    2.896
  600.326    0.279    0.458   84.262  158.992    2.959
  600.576    0.269    0.446   88.488  158.658    3.041
  600.826    0.259    0.447   88.103  158.639    3.177
  601.076    0.253    0.457   84.102  158.936    3.283
  601.326    0.278    0.435   80.228  157.543    3.354
  601.576    0.270    0.422   80.028  156.574    3.414
  601.826    0.229    0.409   82.509  158.769    3.443
  602.076    0.200    0.404   84.367  159.911    3.473
  602.326    0.172    0.398   82.611  160.417    3.463
  602.576    0.226    0.396   79.421  161.030    3.434
  602.826    0.268    0.401   78.226  161.115    3.412
  603.076    0.269    0.403   76.219  161.307    3.428
  603.326    0.267    0.395   78.388  161.602    3.392
  603.576    0.255    0.404   82.615  161.796    3.403
  603.826    0.248    0.424   87.775  162.092    3.450
  604.076    0.246    0.451   89.882  161.966    3.512
  604.326    0.237    0.431   87.501  162.051    3.582
  604.576    0.241    0.421   88.612  162.034    3.619
  604.826    0.246    0.432   90.034  162.010    3.657
  605.076    0.243    0.416   90.270  161.779    3.688
  605.326    0.235    0.405   95.245  161.548    3.719
  605.576    0.231    0.389   96.479  161.319    3.765
  605.826    0.226    0.387   95.720  161.196    3.818
  606.076    0.217    0.383   94.275  161.382    3.865
  606.326    0.225    0.383   94.637  161.573    3.934
  606.576    0.235    0.390   94.936  161.344    3.968
  606.826    0.227    0.400   93.492  161.220    4.023
  607.076    0.207    0.383   93.542  161.201    4.096
  607.326    0.196    0.375   95.525  161.075    4.177
  607.576    0.203    0.377   98.940  160.843    4.332
  607.826    0.204    0.377   98.430  160.716    4.603
  608.076    0.178    0.364   97.359  160.808    4.847
  608.326    0.174    0.353   96.039  160.894    5.199
  608.576    0.163    0.339   95.964  161.401    5.609
  608.826    0.148    0.328   96.388  162.326    6.199
  609.076    0.129    0.313   96.440  162.835    6.600
  609.326    0.117    0.308   99.793  164.188    6.618
  609.576    0.120    0.313  108.505  165.015    6.252
  609.826    0.152    0.355  114.788  164.992    5.710
  610.076    0.163    0.375  121.256  164.444    5.464
  610.326    0.144    0.381  118.566  163.476    5.614
  610.576    0.137    0.353  113.382  162.508    5.889
  610.826    0.128    0.329  110.316  161.537    6.436
  611.076    0.113    0.315  113.047  161.095    7.248
  611.326    0.103    0.308  109.857  160.756    6.720
  611.576    0.115    0.324  107.166  160.740    6.045
  611.826    0.136    0.361  105.908  160.932    5.552
  612.076    0.156    0.396  106.457  161.121    5.314
  612.326    0.145    0.412  106.694  161.208    5.192
  612.576    0.136    0.382  107.991  161.397    5.110
  612.826    0.130    0.364  110.472  161.483    5.086
  613.076    0.126    0.369  113.701  161.780    5.120
  613.326    0.126    0.376  115.060  162.288    5.221
  613.576    0.117    0.378  108.630  162.903    5.335
  613.826    0.111    0.338   96.965  163.834    5.461
  614.076    0.103    0.338  109.666  164.973    5.548
  614.326    0.123    0.353  118.378  165.483    5.628
  614.576    0.127    0.377  116.371  166.093    5.771
  614.826    0.136    0.375  114.118  166.604    5.886
  615.076    0.131    0.369  113.045  166.687    6.036
  615.326    0.123    0.363  110.542  166.563    6.122
  615.576    0.097    0.361  108.161  166.437    6.162
  615.826    0.101    0.366  109.770  166.208    6.180
  616.076    0.116    0.366  111.130  164.815    6.106
  616.326    0.129    0.368  111.119  163.107    6.066
  616.576    0.138    0.369  110.484  161.501    6.094
  616.826    0.136    0.370  108.228  160.851    6.147
  617.076    0.125    0.370  103.793  160.410    6.292
  617.326    0.109    0.373  101.413  160.071    6.536
  617.576    0.107    0.367  100.900  160.052    6.730
  617.826    0.120    0.349  100.952  160.457    6.993
  618.076    0.112    0.350  103.060  160.855    7.186
  618.326    0.093    0.357  107.472  160.942    7.384
  618.576    0.078    0.332  110.453  160.819    7.616
  618.826    0.073    0.310  112.310  160.900    7.839
  619.076    0.083    0.310  114.354  160.990    7.789
  619.326    0.104    0.316  115.652  161.284    7.384
  619.576    0.105    0.321  114.954  161.370    7.120
  619.826    0.115    0.326  112.325  161.457    7.261
  620.076    0.129    0.334  109.447  161.016    7.645
  620.326    0.106    0.338  104.326  160.469    8.231
  620.576    0.086    0.328  101.760  159.706    8.731
  620.826    0.075    0.295  106.297  159.585    9.209
  621.076    0.074    0.276  111.706  159.458    9.375
  621.326    0.075    0.283  116.180  159.539    8.905
  621.576    0.069    0.294  119.534  159.628    8.287
  621.826    0.088    0.304  122.576  160.241    7.554
  622.076    0.107    0.310  125.556  161.068    6.733
  622.326    0.100    0.312  129.656  162.105    5.643
  622.576    0.113    0.325  136.312  163.981    4.480
  622.826    0.164    0.350  135.614  165.440    3.543
  623.076    0.178    0.391  133.111  166.898    2.604
  623.326    0.202    0.447  134.470  168.778    2.162
  623.576    0.230    0.495  140.005  169.814    1.857
  623.826    0.230    0.523  148.779  170.214    1.734
  624.076    0.207    0.546  172.572  169.775    1.733
  624.326    0.179    0.514  175.550  167.644    1.811
  624.576    0.161    0.488  170.429  166.568    1.935
  624.826    0.167    0.459  163.937  166.863    2.099
  625.076    0.175    0.436  161.120  167.373    2.298
  625.326    0.175    0.463  158.555  166.826    2.540
  625.576    0.170    0.483  150.131  165.224    2.904
  625.826    0.161    0.469  143.451  163.407    3.300
  626.076    0.114    0.422  136.772  161.907    3.787
  626.326    0.050    0.390  129.407  161.047    4.378
  626.576    0.054    0.370  122.479  160.076    5.515
  626.826    0.068    0.347  116.796  159.637    6.557
  627.076    0.084    0.360  113.420  159.722    6.686
  627.326    0.074    0.357  117.769  159.910    6.222
  627.576    0.085    0.347  123.117  159.787    5.944
  627.826    0.097    0.353  124.537  159.555    5.806
  628.076    0.109    0.360  123.216  159.430    5.779
  628.326    0.112    0.355  121.150  159.308    6.073
  628.576    0.098    0.333  115.904  158.969    6.454
  628.826    0.074    0.311  110.533  158.633    7.174
  629.076    0.054    0.309  106.471  158.508    8.308
  629.326    0.023    0.294  103.156  158.168    8.682
  629.576   -0.005    0.269  107.320  158.572    7.974
  629.826   -0.006    0.271  121.703  159.397    6.835
  630.076    0.093    0.334  126.988  159.693    6.289
  630.326    0.105    0.373  124.421  159.355    6.201
  630.576    0.097    0.386  117.991  158.705    6.505
  630.826    0.085    0.337  112.496  158.050    6.708
  631.076    0.069    0.302  110.054  157.927    6.468
  631.326    0.052    0.288  113.158  158.858    5.523
  631.576    0.058    0.352  120.312  161.687    4.950
  631.826    0.088    0.401  127.778  164.937    4.974
  632.076    0.112    0.416  128.950  163.967    5.208
  632.326    0.128    0.352  125.512  160.673    5.670
  632.576    0.108    0.327  118.956  159.179    6.231
  632.826    0.096    0.332  117.263  157.790    6.862
  633.076    0.102    0.323  114.198  156.713    7.670
  633.326    0.088    0.309  116.928  156.271    8.136
  633.576    0.098    0.300  121.963  156.359    7.612
  633.826    0.111    0.307  123.198  155.282    7.085
  634.076    0.106    0.316  124.495  153.681    6.483
  634.326    0.094    0.319  128.098  155.558    6.112
  634.576    0.091    0.319  127.339  157.227    5.806
  634.826    0.085    0.326  125.270  158.580    5.474
  635.076    0.085    0.335  124.074  159.827    5.327
  635.326    0.103    0.344  122.629  160.758    5.693
  635.576    0.122    0.354  120.810  161.790    6.257
  635.826    0.148    0.355  108.897  161.878    7.179
  636.076    0.188    0.308   97.606  158.586    8.778
  636.326    0.289    0.182   82.140  154.663   11.480
