~VERSION INFORMATION
 VERS.                 2.0:   CWLS LOG ASCII STANDARD -VERSION 2.0
 WRAP.                  NO:   ONE LINE PER DEPTH STEP
~WELL INFORMATION BLOCK
#MNEM.UNIT           DATA                    DESCRIPTION OF MNEMONIC
#---------    -------------------            -------------------------------
# Generated from Intellog Unique Number	CS_67_68/WELL/829
WELL.         SUNCOR                         : Well_name    - WELL
LOC .         00/11-10-068-18W4/0            : Location     - LOCATION
UWI .         00/11-10-068-18W4/0            : Uwi          - UNIQUE WELL ID
ENTR.         SP                             : Entered      - ENTERED BY
SRVC.         SCHLUMBERGER                   : Scn          - SERVICE COMPANY
STRT.M        275                            : top_depth    - START DEPTH
STOP.M        500                            : bot_depth    - STOP DEPTH
STEP.M        0.25                           : increment    - STEP LENGTH
 NULL. -999.2500:NULL Value
~CURVE INFORMATION BLOCK
#MNEM UNIT       ERCB CURVE CODE    CURVE DESCRIPTION
#-----------   ------------------   ----------------------------------
DEPT.M        00 001 00 00         : DEPTH        - DEPTH
ILD .OHMM     00 120 00 00         : RESD         - DEEP RESISTIVITY (DIL)
DPHI.V/V      00 890 00 00         : PHID         - DENSITY POROSITY (LIMESTONE)
NPHI.V/V      00 330 00 00         : PHIN         - NEUTRON POROSITY (LIMESTONE)
GR  .API      00 310 00 00         : GR           - GAMMA RAY
~PARAMETER INFORMATION
#MNEM.UNIT           DATA             DESCRIPTION OF MNEMONIC
#---------         -----------     ------------------------------
GL  .M        556                  : gl           - GROUND LEVEL ELEVATION
EREF.M        559.4                : kb           - ELEVATION OF DEPTH REFERENCE
DATM.M        556                  : datum        - DATUM ELEVATION
TDD .M        537                  : tdd          - TOTAL DEPTH DRILLER
RUN .         ONE                  : Run          - RUN NUMBER
ENG .         BILL                 : Engineer     - RECORDING ENGINEER
WIT .         JIM                  : Witness      - WITNESSED BY
MUD .         GEL                  : Mud_type     - MUD TYPE
MATR.         LIMESTONE            : Logunit      - NEUTRON MATRIX
TMAX.C        21                   : BHT          - MAXIMUM RECORDED TEMPERATURE
BHTD.M        527                  : BHTDEP       - MAXIMUM RECORDED TEMPERATURE
MATR.         1                    : LOGUNIT      - NEUTRON MATRIX
RMT .C        25                   : MDTP         - TEMPERATURE OF MUD
NEUT.         1                    : NEUTRON      - NEUTRON TYPE
RESI.         0                    : RESIST       - RESISTIVITY TYPE
RMC .OHMM     0.25                 : RMC          - RESISTIVITY OF MUD CAKE
RMF .OHMM     0.25                 : RMF          - RESISTIVITY OF MUD FILTRATE
SUFT.C        15                   : SUFT         - SURFACE TEMPERATURE
~A  DEPTH     RESD     PHID     PHIN       GR
# ...
  449.000    3.869    0.166    0.428  108.534
  449.250    4.080    0.171    0.410  106.289
  449.500    4.182    0.165    0.414  100.320
  449.750    4.279    0.145    0.398   94.042
  450.000    4.353    0.127    0.391   83.612
  450.250    4.396    0.168    0.402   77.703
  450.500    4.440    0.210    0.392   77.903
  450.750    4.559    0.248    0.388   83.115
  451.000    4.861    0.193    0.397   87.104
  451.250    5.201    0.149    0.380   89.992
  451.500    5.736    0.117    0.352   82.067
  451.750    6.115    0.100    0.332   75.608
  452.000    6.362    0.121    0.314   70.737
  452.250    6.595    0.142    0.351   73.076
  452.500    6.902    0.162    0.370   76.213
  452.750    7.154    0.152    0.357   77.450
  453.000    7.389    0.134    0.332   73.618
  453.250    7.518    0.110    0.306   70.826
  453.500    7.452    0.095    0.288   69.559
  453.750    6.752    0.103    0.326   79.109
  454.000    6.005    0.116    0.355   88.901
  454.250    5.252    0.142    0.372   96.314
  454.500    4.785    0.171    0.384   97.003
  454.750    4.493    0.172    0.394   96.778
  455.000    4.420    0.164    0.397   97.038
  455.250    4.599    0.169    0.402   98.582
  455.500    4.759    0.174    0.404  100.127
  455.750    4.860    0.162    0.393  101.245
  456.000    4.963    0.151    0.386  100.469
  456.250    5.041    0.143    0.378   95.292
  456.500    5.005    0.149    0.373   94.392
  456.750    4.906    0.167    0.370   97.590
  457.000    4.685    0.177    0.391  100.053
  457.250    4.557    0.172    0.403  100.861
  457.500    4.483    0.172    0.391  101.613
  457.750    4.477    0.178    0.389  100.529
  458.000    4.487    0.172    0.395   99.144
  458.250    4.489    0.166    0.399   98.304
  458.500    4.517    0.158    0.396   98.690
  458.750    4.528    0.152    0.390   99.500
  459.000    4.581    0.147    0.395  100.129
  459.250    4.643    0.144    0.402  100.390
  459.500    4.707    0.141    0.409  100.224
  459.750    4.771    0.172    0.403  100.058
  460.000    4.855    0.192    0.381  100.017
  460.250    4.848    0.178    0.364  101.071
  460.500    4.905    0.169    0.355  105.000
  460.750    4.962    0.164    0.351  108.256
  461.000    5.030    0.164    0.362  109.983
  461.250    5.052    0.160    0.381  108.595
  461.500    5.017    0.149    0.385  101.097
  461.750    5.009    0.143    0.387   95.615
  462.000    4.947    0.137    0.404   91.967
  462.250    4.794    0.113    0.374   92.473
  462.500    4.296    0.125    0.376   94.570
  462.750    3.653    0.171    0.414   98.008
  463.000    3.224    0.196    0.441  100.347
  463.250    2.763    0.220    0.483   99.081
  463.500    2.565    0.227    0.495   99.465
  463.750    2.440    0.232    0.491  101.071
  464.000    2.369    0.229    0.486  103.778
  464.250    2.641    0.211    0.478  105.445
  464.500    3.198    0.178    0.474  104.850
  464.750    3.915    0.150    0.473   98.453
  465.000    4.687    0.122    0.425   93.338
  465.250    5.119    0.107    0.397   89.140
  465.500    5.478    0.116    0.374   92.154
  465.750    5.722    0.133    0.369   94.734
  466.000    5.965    0.142    0.392   96.831
  466.250    6.126    0.131    0.410   89.271
  466.500    6.233    0.121    0.413   82.752
  466.750    6.307    0.131    0.332   88.145
  467.000    6.262    0.143    0.310   97.757
  467.250    6.138    0.149    0.346  104.680
  467.500    6.050    0.158    0.364  106.833
  467.750    5.930    0.146    0.369  102.878
  468.000    5.811    0.125    0.356   87.990
  468.250    5.632    0.102    0.345   81.650
  468.500    5.328    0.082    0.330   75.374
  468.750    5.040    0.099    0.348   84.129
  469.000    4.618    0.131    0.395   97.589
  469.250    4.296    0.141    0.424  103.106
  469.500    4.117    0.131    0.426  106.728
  469.750    3.990    0.135    0.411  110.596
  470.000    3.896    0.146    0.402  112.874
  470.250    3.812    0.156    0.424  106.598
  470.500    3.764    0.160    0.434  103.499
  470.750    3.682    0.144    0.439  104.923
  471.000    3.596    0.152    0.427  107.201
  471.250    3.557    0.165    0.408  109.298
  471.500    3.539    0.159    0.393  111.515
  471.750    3.534    0.152    0.392  112.385
  472.000    3.549    0.153    0.423  109.532
  472.250    3.618    0.149    0.438  107.715
  472.500    3.743    0.137    0.413  107.488
  472.750    3.859    0.116    0.404  106.411
  473.000    3.933    0.096    0.403  105.628
  473.250    3.980    0.073    0.391  103.264
  473.500    3.989    0.075    0.394  102.058
  473.750    3.969    0.127    0.413  105.621
  474.000    4.031    0.153    0.427  108.575
  474.250    4.070    0.161    0.420  109.871
  474.500    4.057    0.141    0.415  104.084
  474.750    4.029    0.102    0.382  105.813
  475.000    3.963    0.098    0.352  112.185
  475.250    3.813    0.127    0.368  118.619
  475.500    3.600    0.146    0.432  120.226
  475.750    3.575    0.154    0.468  118.408
  476.000    4.046    0.137    0.425  107.123
  476.250    4.674    0.123    0.368   98.707
  476.500    5.638    0.122    0.339   92.004
  476.750    6.699    0.129    0.313   87.011
  477.000    8.156    0.134    0.305   82.447
  477.250    9.043    0.140    0.311   78.983
  477.500   10.027    0.164    0.296   75.515
  477.750   11.370    0.178    0.277   69.790
  478.000   12.537    0.209    0.258   63.577
  478.250   13.593    0.239    0.248   60.416
  478.500   14.329    0.259    0.256   58.049
  478.750   15.248    0.247    0.267   58.739
  479.000   15.141    0.248    0.273   59.858
  479.250   13.669    0.242    0.276   60.302
  479.500   13.498    0.201    0.290   59.709
  479.750   15.712    0.165    0.330   55.327
  480.000   18.460    0.126    0.354   39.335
  480.250   21.649    0.109    0.351   33.733
  480.500   24.641    0.126    0.327   30.269
  480.750   27.632    0.150    0.315   31.201
  481.000   29.348    0.108    0.307   32.380
  481.250   29.972    0.036    0.288   28.794
  481.500   25.871    0.018    0.271   30.277
  481.750   23.051    0.032    0.255   37.014
  482.000   20.615    0.040    0.240   48.825
  482.250   18.961    0.035    0.269   58.679
  482.500   20.712    0.065    0.284   52.281
  482.750   22.165    0.089    0.285   43.011
  483.000   22.806    0.121    0.275   53.602
  483.250   22.648    0.132    0.296   63.090
  483.500   21.707    0.148    0.308   68.603
  483.750   20.002    0.156    0.313   73.328
  484.000   18.534    0.166    0.305   72.245
  484.250   17.143    0.169    0.300   71.162
  484.500   16.247    0.166    0.303   76.190
  484.750   15.570    0.160    0.330   82.993
  485.000   16.202    0.152    0.356   85.817
  485.250   17.667    0.148    0.346   86.567
  485.500   18.485    0.144    0.323   79.497
  485.750   19.199    0.156    0.297   69.800
  486.000   19.316    0.168    0.314   72.814
  486.250   18.967    0.170    0.350   73.256
  486.500   17.642    0.170    0.366   69.730
  486.750   15.228    0.164    0.348   64.249
  487.000   14.164    0.152    0.335   60.603
  487.250   14.384    0.193    0.346   58.540
  487.500   16.311    0.230    0.370   56.846
  487.750   17.586    0.248    0.384   59.248
  488.000   18.265    0.263    0.395   60.914
  488.250   18.583    0.274    0.405   60.931
  488.500   18.247    0.280    0.390   67.304
  488.750   16.109    0.286    0.402   72.331
  489.000   14.705    0.338    0.415   74.120
  489.250   13.127    0.338    0.438   69.127
  489.500   11.437    0.321    0.429   71.285
  489.750   10.267    0.297    0.421   74.601
  490.000    9.165    0.260    0.423   69.427
  490.250    9.050    0.241    0.430   63.456
  490.500    9.208    0.188    0.390   56.141
  490.750    9.387    0.128    0.367   50.230
  491.000    9.643    0.106    0.373   46.217
  491.250   10.107    0.089    0.382   41.041
  491.500    9.704    0.083    0.347   46.313
  491.750    9.094    0.103    0.320   49.081
  492.000    8.348    0.169    0.342   49.831
  492.250    6.417    0.140    0.364   50.825
