~VERSION INFORMATION
 VERS.                 2.0:   CWLS LOG ASCII STANDARD -VERSION 2.0
 WRAP.                  NO:   ONE LINE PER DEPTH STEP
~WELL INFORMATION BLOCK
#MNEM.UNIT           DATA                    DESCRIPTION OF MNEMONIC
#---------    -------------------            -------------------------------
# Generated from Intellog Unique Number	CW_70_72/WELL/1074
NULL.         -999.25                        : NULL_VALUE
WELL.         NORTHSTAR ET AL TOMATO 16-20   : Well_name    - WELL              
LOC .         16-20-072-23W4                 : Location     - LOCATION          
UWI .         00/16-20-072-23W4/0            : Uwi          - UNIQUE WELL ID    
ENTR.         JAYE                           : Entered      - ENTERED BY        
SRVC.         COMPUTALOG                     : Scn          - SERVICE COMPANY   
DATE.         18 FEB 81                      : Date         - LOG DATE          
STRT.M        430                            : top_depth    - START DEPTH       
STOP.M        639.75                         : bot_depth    - STOP DEPTH        
STEP.M        0.25                           : increment    - STEP LENGTH       
~CURVE INFORMATION BLOCK
#MNEM UNIT       ERCB CURVE CODE    CURVE DESCRIPTION
#-----------   ------------------   ----------------------------------
DEPT.M        00 001 00 00         : DEPTH        - DEPTH                       
DPHI.V/V      00 890 00 00         : PHID         - DENSITY POROSITY (SANDSTONE)
NPHI.V/V      00 330 00 00         : PHIN         - NEUTRON POROSITY (SANDSTONE)
GR  .API      00 310 00 00         : GR           - GAMMA RAY                   
CALI.MM       00 280 01 00         : CAL          - CALIPER                     
ILD .OHMM     00 120 00 00         : RESD         - DEEP RESISTIVITY (DLL)      
~PARAMETER INFORMATION       
#MNEM.UNIT           DATA             DESCRIPTION OF MNEMONIC
#---------         -----------     ------------------------------
GL  .M        674.7                : gl           - GROUND LEVEL ELEVATION      
EREF.M        678.7                : kb           - ELEVATION OF DEPTH REFERENCE
DATM.M        674.7                : datum        - DATUM ELEVATION             
TDD .M        644                  : tdd          - TOTAL DEPTH DRILLER         
RUN .         ONE                  : Run          - RUN NUMBER                  
ENG .         ABHNDROTH            : Engineer     - RECORDING ENGINEER          
WIT .         SNELLING/FERRIS      : Witness      - WITNESSED BY                
BASE.         MEDICINE HAT         : Branch       - HOME BASE OF LOGGING UNIT   
MUD .         GEL CHEN             : Mud_type     - MUD TYPE                    
MATR.         SANDSTONE            : Logunit      - NEUTRON MATRIX              
TMAX.C        32                   : BHT          - MAXIMUM RECORDED TEMPERATURE
BHTD.M        642                  : BHTDEP       - MAXIMUM RECORDED TEMPERATURE
RMT .C        16                   : MDTP         - TEMPERATURE OF MUD          
MUDD.KG/M     1080                 : MWT          - MUD DENSITY                 
NEUT.         1                    : NEUTRON      - NEUTRON TYPE                
RESI.         1                    : RESIST       - RESISTIVITY TYPE            
RM  .OHMM     3.5                  : RM           - RESISTIVITY OF MUD          
RMC .OHMM     2.75                 : RMC          - RESISTIVITY OF MUD CAKE     
RMF .OHMM     4.5                  : RMF          - RESISTIVITY OF MUD FILTRATE 
SUFT.C        0                    : SUFT         - SURFACE TEMPERATURE         
~A  DEPTH     PHID     PHIN       GR      CAL     RESD
# ...
  466.500    0.197    0.444  102.677  157.778    4.516
  466.750    0.197    0.418   94.102  158.245    4.772
  467.000    0.199    0.378   95.411  160.655    4.996
  467.250    0.207    0.349  114.917  163.602    5.230
  467.500    0.233    0.364  120.811  165.714    5.423
  467.750    0.261    0.346  109.656  168.864    5.518
  468.000    0.230    0.328   82.742  169.317    5.510
  468.250    0.201    0.317   70.513  160.626    5.481
  468.500    0.168    0.373   71.035  157.341    5.474
  468.750    0.195    0.412   72.702  157.686    5.506
  469.000    0.236    0.448   84.327  160.840    5.603
  469.250    0.275    0.474  105.337  164.614    5.702
  469.500    0.300    0.449   95.473  168.495    5.780
  469.750    0.289    0.422   82.454  163.646    5.837
  470.000    0.274    0.409   69.939  152.464    5.873
  470.250    0.263    0.394   59.643  150.427    5.909
  470.500    0.253    0.380   57.445  150.771    5.923
  470.750    0.258    0.423   71.002  152.471    5.925
  471.000    0.266    0.449   74.246  155.933    5.905
  471.250    0.269    0.450   72.834  157.321    5.885
  471.500    0.257    0.399   80.017  157.251    5.888
  471.750    0.234    0.360   90.282  157.186    5.890
  472.000    0.214    0.344   89.586  156.913    5.859
  472.250    0.207    0.361   78.502  156.216    5.839
  472.500    0.224    0.378   62.906  154.593    5.798
  472.750    0.239    0.370   51.037  152.445    5.746
  473.000    0.249    0.344   50.984  151.131    5.705
  473.250    0.253    0.363   62.038  150.855    5.643
  473.500    0.255    0.393   70.511  151.622    5.603
  473.750    0.257    0.437   72.536  152.276    5.511
  474.000    0.259    0.430   64.174  153.455    5.441
  474.250    0.257    0.392   56.247  153.807    5.392
  474.500    0.256    0.365   60.563  154.152    5.323
  474.750    0.260    0.375   65.669  155.333    5.478
  475.000    0.263    0.381   59.385  159.524    5.888
  475.250    0.253    0.401   61.340  160.701    6.377
  475.500    0.241    0.398   73.466  161.052    6.816
  475.750    0.207    0.353   80.579  161.296    7.149
  476.000    0.164    0.325   78.879  161.641    7.555
  476.250    0.148    0.284   70.590  161.987    8.090
  476.500    0.156    0.335   62.803  162.644    8.662
  476.750    0.153    0.358   61.820  162.679    9.651
  477.000    0.071    0.265   58.975  162.512   10.916
  477.250    0.011    0.205   51.688  161.924   12.025
  477.500   -0.018    0.173   44.474  161.753   12.925
  477.750   -0.021    0.153   39.121  161.786   11.117
  478.000   -0.024    0.140   34.556  161.927    9.580
  478.250    0.044    0.155   44.391  161.754    8.178
  478.500    0.112    0.325   66.044  161.479    7.222
  478.750    0.141    0.395   78.531  161.098    6.354
  479.000    0.176    0.399   76.043  160.407    5.928
  479.250    0.169    0.407   79.357  159.405    5.646
  479.500    0.151    0.436   79.091  158.609    5.470
  479.750    0.138    0.442   83.267  158.127    5.360
  480.000    0.140    0.455   90.020  159.515    5.362
  480.250    0.153    0.414   85.384  162.876    5.456
  480.500    0.173    0.430   87.912  165.921    5.647
  480.750    0.197    0.404   96.386  167.724    6.013
  481.000    0.249    0.380   91.535  166.722    6.699
  481.250    0.332    0.356   81.671  164.886    7.825
  481.500    0.367    0.437   70.012  164.404    8.394
  481.750    0.554    0.800   52.984  161.949    8.194
  482.000    0.457    0.540   24.995  160.741    7.790
  482.250    0.324    0.382   10.976  159.631    7.323
  482.500    0.280    0.308   18.302  158.522    6.793
  482.750    0.271    0.318   28.566  157.624    6.325
  483.000    0.286    0.329   42.269  157.037    5.967
  483.250    0.292    0.334   38.349  156.247    5.673
  483.500    0.291    0.343   44.176  156.071    5.475
  483.750    0.293    0.366   52.574  156.112    5.324
  484.000    0.296    0.384   53.025  156.249    5.237
  484.250    0.300    0.375   39.649  156.281    5.200
  484.500    0.304    0.380   29.425  156.110    5.212
  484.750    0.310    0.393   31.594  155.938    5.293
  485.000    0.317    0.404   30.755  155.457    5.458
  485.250    0.314    0.419   25.904  155.494    5.900
  485.500    0.306    0.360   26.498  156.047    6.414
  485.750    0.289    0.312   27.019  157.330    6.933
  486.000    0.266    0.286   20.306  158.404    6.949
  486.250    0.245    0.282   13.594  158.957    6.631
  486.500    0.221    0.286   10.891  158.893    6.400
  486.750    0.244    0.294    9.550  158.926    6.119
  487.000    0.268    0.303   12.652  158.651    5.806
  487.250    0.283    0.296   18.331  158.896    5.541
  487.500    0.287    0.285   24.941  159.246    5.358
  487.750    0.295    0.302   32.770  159.182    5.270
  488.000    0.301    0.323   39.237  159.106    5.193
  488.250    0.300    0.376   26.650  158.831    5.156
  488.500    0.297    0.408   23.590  158.766    5.119
  488.750    0.296    0.425   33.854  158.488    5.093
  489.000    0.298    0.387   39.103  158.318    5.085
  489.250    0.304    0.358   30.455  157.521    5.087
  489.500    0.310    0.364   24.175  156.311    5.089
  489.750    0.309    0.374   23.978  154.893    5.072
  490.000    0.308    0.382   28.510  153.480    5.074
  490.250    0.305    0.369   29.677  152.783    5.096
  490.500    0.304    0.389   36.648  152.506    5.146
  490.750    0.304    0.404   36.667  152.544    5.217
  491.000    0.310    0.385   32.460  153.928    5.268
  491.250    0.317    0.356   26.536  156.979    5.371
  491.500    0.317    0.367   26.628  157.015    5.517
  491.750    0.315    0.395   30.518  155.906    5.797
  492.000    0.308    0.401   38.917  154.488    6.161
  492.250    0.294    0.355   41.589  154.008    6.401
  492.500    0.279    0.364   42.324  155.290    6.538
  492.750    0.260    0.350   40.768  156.987    6.616
  493.000    0.258    0.369   38.641  157.960    6.593
  493.250    0.272    0.357   36.225  158.412    6.584
  493.500    0.283    0.365   36.603  158.860    6.649
  493.750    0.284    0.355   43.500  158.898    6.855
  494.000    0.282    0.360   38.076  158.933    7.313
  494.250    0.296    0.430   28.927  158.456    8.226
  494.500    0.306    0.470   30.453  158.483    9.339
  494.750    0.240    0.232   31.191  158.419   11.012
  495.000    0.128    0.111   28.773  158.660   12.960
  495.250    0.031    0.103   20.056  158.383   14.714
  495.500    0.020    0.105   15.418  156.239   17.251
  495.750    0.020    0.112   16.014  155.861   17.000
  496.000    0.051    0.126   20.331  155.485   11.811
  496.250    0.161    0.149   20.780  154.476    8.985
  496.500    0.228    0.239   20.228  154.097    7.831
  496.750    0.294    0.412   22.754  153.613    6.660
  497.000    0.322    0.453   26.500  154.488    5.881
  497.250    0.324    0.466   23.726  154.832    5.404
  497.500    0.325    0.428   27.471  155.181    5.119
  497.750    0.325    0.382   28.210  155.633    4.987
  498.000    0.329    0.382   24.147  156.078    4.896
  498.250    0.333    0.471   19.798  156.844    4.833
  498.500    0.332    0.498   19.960  156.880    4.781
  498.750    0.327    0.466   25.496  156.602    4.756
  499.000    0.312    0.416   28.168  156.222    4.731
  499.250    0.316    0.445   22.313  157.509    4.706
  499.500    0.330    0.456   21.616  159.307    4.682
  499.750    0.331    0.471   23.714  153.632    4.657
  500.000    0.321    0.485   24.024  151.796    4.668
  500.250    0.318    0.486   25.689  152.455    4.679
  500.500    0.314    0.453   22.415  156.647    4.681
  500.750    0.313    0.418   26.305  158.761    4.692
  501.000    0.315    0.398   29.261  158.491    4.711
  501.250    0.314    0.387   24.051  158.110    4.722
  501.500    0.311    0.388   20.060  157.937    4.742
  501.750    0.308    0.381   21.942  157.660    4.753
  502.000    0.313    0.376   22.393  157.490    4.764
  502.250    0.314    0.379   21.626  157.520    4.793
  502.500    0.311    0.388   23.796  157.868    4.813
  502.750    0.311    0.375   25.965  156.763    4.842
