~VERSION INFORMATION
 VERS.                 2.0:   CWLS LOG ASCII STANDARD -VERSION 2.0
 WRAP.                  NO:   ONE LINE PER DEPTH STEP
~WELL INFORMATION BLOCK
#MNEM.UNIT           DATA                    DESCRIPTION OF MNEMONIC
#---------    -------------------            -------------------------------
# Generated from Intellog Unique Number	CC_80_83/WELL/2329
NULL.         -999.25                        : NULL_VALUE
WELL.         HOMESTEAD ET AL COWPAR         : Well_name    - WELL
LOC .         10-02-082-05W4                 : Location     - LOCATION          
UWI .         00/10-02-082-05W4/0            : Uwi          - UNIQUE WELL ID    
ENTR.         DW                             : Entered      - ENTERED BY        
DATE.         18 FEB 75                      : Date         - LOG DATE
SRVC.         SCHLUMBERGER                   : Scn          - SERVICE COMPANY   
STRT.M        60.96                          : top_depth    - START DEPTH       
STOP.M        268.222                        : bot_depth    - STOP DEPTH        
STEP.M        0.3048                         : increment    - STEP LENGTH       
~CURVE INFORMATION BLOCK
#MNEM UNIT       ERCB CURVE CODE    CURVE DESCRIPTION
#-----------   ------------------   ----------------------------------
DEPT.M        00 001 00 00         : DEPTH        - DEPTH                       
DPHI.V/V      00 890 00 00         : PHID         - DENSITY POROSITY (LIMESTONE)
NPHI.V/V      00 330 00 00         : PHIN         - NEUTRON POROSITY (LIMESTONE)
GR  .API      00 310 00 00         : GR           - GAMMA RAY                   
ILD .OHMM     00 120 00 00         : RESD         - DEEP RESISTIVITY (DIL)      
~PARAMETER INFORMATION       
#MNEM.UNIT           DATA             DESCRIPTION OF MNEMONIC
#---------         -----------     ------------------------------
GL  .M        455.981              : gl           - GROUND LEVEL ELEVATION      
EREF.M        459.638              : kb           - ELEVATION OF DEPTH REFERENCE
DATM.M        459.638              : datum        - DATUM ELEVATION             
TDD .M        282.55               : tdd          - TOTAL DEPTH DRILLER         
RUN .         ONE                  : Run          - RUN NUMBER                  
ENG .         BILL                 : Engineer     - RECORDING ENGINEER          
WIT .         JIM                  : Witness      - WITNESSED BY                
MUD .         GEL                  : Mud_type     - MUD TYPE                    
MATR.         LIMESTONE            : Logunit      - NEUTRON MATRIX              
TMAX.C        19.4444              : BHT          - MAXIMUM RECORDED TEMPERATURE
BHTD.M        282.55               : BHTDEP       - MAXIMUM RECORDED TEMPERATURE
MATR.         1                    : LOGUNIT      - NEUTRON MATRIX              
RMT .C        25                   : MDTP         - TEMPERATURE OF MUD          
NEUT.         1                    : NEUTRON      - NEUTRON TYPE                
RESI.         0                    : RESIST       - RESISTIVITY TYPE            
RMC .OHMM     0.25                 : RMC          - RESISTIVITY OF MUD CAKE     
RMF .OHMM     0.25                 : RMF          - RESISTIVITY OF MUD FILTRATE 
SUFT.C        15                   : SUFT         - SURFACE TEMPERATURE         
~A  DEPTH     PHID     PHIN       GR     RESD
   60.960    0.234    0.516   43.836   17.479
   61.265    0.245    0.484   45.063   17.810
   61.570    0.256    0.495   46.908   17.810
   61.874    0.256    0.524   48.754   17.809
   62.179    0.218    0.550   49.983   17.809
   62.484    0.274    0.487   48.742   18.147
   62.789    0.303    0.500   45.031   18.491
   63.094    0.283    0.477   43.173   18.842
   63.398    0.255    0.488   41.315   18.841
   63.703    0.261    0.492   46.248   18.489
   64.008    0.243    0.483   52.416   17.806
   64.313    0.228    0.493   51.173   17.148
   64.618    0.267    0.510   48.081   17.147
   64.922    0.297    0.505   44.986   16.827
   65.227    0.304    0.493   44.982   16.513
   65.532    0.349    0.510   64.732   15.606
   65.837    0.520    0.537   81.396   14.204
   66.142    0.605    0.590   72.744   13.938
   66.446    0.610    0.609   69.034   13.938
   66.751    0.600    0.606   71.496   13.678
   67.056    0.566    0.423   74.577   12.927
   67.361    0.253    0.423   76.424   11.989
   67.666    0.255    0.460   78.886   11.330
   67.970    0.261    0.450   84.436   10.911
   68.275    0.253    0.466   86.284   10.508
   68.580    0.263    0.444   81.954    9.931
   68.885    0.263    0.441   83.801    9.210
   69.190    0.257    0.472   91.203    8.870
   69.494    0.238    0.460   91.198    8.382
   69.799    0.231    0.436   80.077    8.073
   70.104    0.238    0.465   78.836    7.629
   70.409    0.262    0.483   93.030    7.347
   70.714    0.271    0.482   99.814    7.347
   71.018    0.273    0.449  101.661    7.347
   71.323    0.234    0.457  102.273    7.346
   71.628    0.239    0.513   96.710    7.346
   71.933    0.227    0.486   89.911    7.346
   72.238    0.207    0.485   82.496    6.943
   72.542    0.214    0.502   70.142    6.686
   72.847    0.236    0.523   66.430    6.561
   73.152    0.239    0.536   67.660    6.685
   73.457    0.260    0.486   65.183    7.485
   73.762    0.269    0.435   59.620    9.559
   74.066    0.253    0.424   49.736   11.324
   74.371    0.233    0.430   49.111   12.918
   74.676    0.256    0.445   57.749   13.668
   74.981    0.285    0.459   61.447   14.461
   75.286    0.289    0.437   54.030   14.736
   75.591    0.296    0.423   52.173   15.591
   75.895    0.272    0.439   57.102   16.810
   76.200    0.281    0.451   60.184   17.455
   76.505    0.269    0.429   60.797   17.786
   76.810    0.286    0.428   58.321   17.454
   77.115    0.293    0.415   53.993   16.187
   77.419    0.284    0.432   49.665   14.733
   77.724    0.285    0.439   48.424   14.458
   78.029    0.278    0.442   55.207   15.588
   78.334    0.284    0.448   58.907   16.493
   78.638    0.317    0.471   58.901   16.806
   78.943    0.312    0.424   52.720   16.492
   79.248    0.306    0.439   57.034   16.184
   79.553    0.299    0.453   57.646   16.491
   79.858    0.300    0.453   53.318   17.123
   80.162    0.310    0.443   57.632   18.118
   80.467    0.287    0.432   57.628   18.117
   80.772    0.279    0.457   53.916   18.117
   81.077    0.274    0.459   48.969   17.122
   81.382    0.306    0.452   46.491   16.488
   81.686    0.273    0.448   47.105   17.777
   81.991    0.327    0.487   52.654   20.280
   82.296    0.349    0.512   59.441   21.058
   82.601    0.325    0.450   97.715   22.704
   82.906    0.324    0.421  102.647   23.135
   83.210    0.294    0.422   91.527   22.279
   83.515    0.263    0.438   81.025   17.118
   83.820    0.257    0.462   78.549   12.907
   84.125    0.250    0.507   96.448   10.493
   84.430    0.278    0.467   97.059   11.747
   84.734    0.298    0.435   97.051   13.655
   85.039    0.304    0.448  100.132   15.002
   85.344    0.289    0.467  103.212   15.287
   85.649    0.283    0.476  105.058   14.447
   85.954    0.278    0.485  106.288   13.913
   86.258    0.263    0.459  106.899   13.149
   86.563    0.236    0.465  103.806   12.427
   86.868    0.193    0.495   90.834   12.427
   87.173    0.164    0.506   74.157   12.194
   87.478    0.214    0.475   56.863   13.148
   87.782    0.215    0.464   53.151   14.445
   88.087    0.234    0.494   53.763   16.479
   88.392    0.308    0.507   54.989   19.520
   88.697    0.286    0.504   57.452   22.691
   89.002    0.268    0.468   58.066   24.009
   89.306    0.307    0.470   56.824   24.464
   89.611    0.326    0.468   54.966   23.560
   89.916    0.330    0.468   59.896   22.689
   90.221    0.315    0.461   65.447   21.043
   90.526    0.318    0.461   68.529   19.152
   90.831    0.305    0.475   66.669   17.106
   91.135    0.307    0.461   63.578   15.569
   91.440    0.287    0.453   58.633   14.994
   91.745    0.280    0.483   54.303   15.864
   92.050    0.259    0.509   76.524   17.761
   92.355    0.276    0.472   83.926   18.442
   92.659    0.183    0.447   85.772   18.441
   92.964    0.124    0.461   79.592   17.428
   93.269    0.156    0.461   67.854   15.566
   93.574    0.230    0.475   64.761   14.437
   93.879    0.225    0.511   63.520   13.903
   94.183    0.229    0.535   62.278   13.644
   94.488    0.203    0.520   61.037   13.643
   94.793    0.253    0.435   59.178   14.435
   95.098    0.249    0.436   58.554   15.274
   95.403    0.261    0.462   58.546   16.467
   95.707    0.301    0.479   58.542   17.099
   96.012    0.285    0.469   58.533   18.091
   96.317    0.294    0.465   57.913   20.639
   96.622    0.351    0.462   57.906   21.837
   96.927    0.334    0.469   56.663   23.991
   97.231    0.317    0.479   56.041   25.385
   97.536    0.324    0.437   55.417   26.357
   97.841    0.322    0.440   56.026   26.357
   98.146    0.330    0.460   57.255   25.864
   98.451    0.313    0.463   59.102   25.382
   98.755    0.312    0.462   59.713   23.987
   99.060    0.322    0.461   57.854   23.540
   99.365    0.311    0.451   55.996   23.986
   99.670    0.318    0.444   59.076   24.441
   99.975    0.338    0.455   85.002   23.538
  100.279    0.318    0.444   88.699   21.830
  100.584    0.313    0.422   86.222   17.091
  100.889    0.297    0.436   79.426    9.183
  101.194    0.290    0.516   72.627    6.302
  101.499    0.260    0.566   73.237    5.421
  101.803    0.266    0.544   76.319    5.629
  102.108    0.296    0.497   81.871    6.544
  102.413    0.290    0.487   84.332    8.357
  102.718    0.295    0.494   83.092    9.356
  103.023    0.310    0.507   80.616    8.678
  103.327    0.332    0.518   81.226    7.898
  103.632    0.254    0.540   81.834    7.188
  103.937    0.301    0.531   81.830    6.922
  104.242    0.271    0.528   81.826    6.922
  104.547    0.248    0.523   82.435    7.188
  104.851    0.236    0.508   81.812    7.463
  105.156    0.255    0.492   63.283    7.605
  105.461    0.250    0.488   62.659    7.896
  105.766    0.284    0.497   65.740    8.355
  106.071    0.324    0.494   66.967    8.840
  106.375    0.297    0.499   66.962   11.290
  106.680    0.332    0.508   65.103   12.640
  106.985    0.302    0.474   62.011   13.887
  107.290    0.290    0.471   58.299   14.150
  107.595    0.313    0.440   53.354   14.419
  107.899    0.307    0.427   47.173   15.546
  108.204    0.306    0.434   40.376   16.142
  108.509    0.358    0.481   31.725   16.141
  108.814    0.487    0.559   34.187   15.840
  109.119    0.534    0.577   45.913   15.544
  109.423    0.407    0.491   59.489   14.690
  109.728    0.368    0.394   62.569   14.416
  110.033    0.397    0.417   61.944   14.969
  110.338    0.360    0.464   61.939   16.139
  110.643    0.302    0.454   68.725   17.400
  110.947    0.286    0.464   74.275   18.760
  111.252    0.296    0.470   77.974   19.116
  111.557    0.297    0.453   86.611   18.759
  111.862    0.309    0.449   96.484   14.966
  112.167    0.310    0.477   98.945   11.284
  112.471    0.270    0.516  103.879    8.041
  112.776    0.248    0.512  114.369    6.537
  113.081    0.206    0.485  111.893    5.839
  113.386    0.237    0.513  108.181    5.415
  113.691    0.227    0.543  106.941    5.118
