~VERSION INFORMATION
 VERS.                 2.0:   CWLS LOG ASCII STANDARD -VERSION 2.0
 WRAP.                  NO:   ONE LINE PER DEPTH STEP
~WELL INFORMATION BLOCK
#MNEM.UNIT           DATA                    DESCRIPTION OF MNEMONIC
#---------    -------------------            -------------------------------
# Generated from Intellog Unique Number	CW_82_90/WELL/3072
WELL.         10-08-086-22W4                 : Well_name    - WELL
LOC .         00/10-08-086-22W4/0            : Location     - LOCATION
UWI .         00/10-08-086-22W4/0            : Uwi          - UNIQUE WELL ID
ENTR.         MAX                            : Entered      - ENTERED BY
SRVC.         SCHLUMBERGER                   : Scn          - SERVICE COMPANY
STRT.M        167.64                         : top_depth    - START DEPTH
STOP.M        373.39                         : bot_depth    - STOP DEPTH
STEP.M        0.25                           : increment    - STEP LENGTH
 NULL. -999.2500:NULL Value
~CURVE INFORMATION BLOCK
#MNEM UNIT       ERCB CURVE CODE    CURVE DESCRIPTION
#-----------   ------------------   ----------------------------------
DEPT.M        00 001 00 00         : DEPTH        - DEPTH
GR  .API      00 310 00 00         : GR           - GAMMA RAY
ILD .OHMM     00 120 00 00         : RESD         - DEEP RESISTIVITY (DIL)
NPHI.V/V      00 330 00 00         : PHIN         - NEUTRON POROSITY (SANDSTONE)
DPHI.V/V      00 890 00 00         : PHID         - DENSITY POROSITY (SANDSTONE)
CALI.MM       00 280 01 00         : CAL          - CALIPER
~PARAMETER INFORMATION
#MNEM.UNIT           DATA             DESCRIPTION OF MNEMONIC
#---------         -----------     ------------------------------
GL  .M        576.925              : gl           - GROUND LEVEL ELEVATION
EREF.M        580.187              : kb           - ELEVATION OF DEPTH REFERENCE
DATM.M        576.925              : datum        - DATUM ELEVATION
TDD .M        373.075              : tdd          - TOTAL DEPTH DRILLER
RUN .         ONE                  : Run          - RUN NUMBER
ENG .         BILL                 : Engineer     - RECORDING ENGINEER
WIT .         JIM                  : Witness      - WITNESSED BY
MUD .         GEL                  : Mud_type     - MUD TYPE
MATR.         SANDSTONE            : Logunit      - NEUTRON MATRIX
TMAX.C        20.5556              : BHT          - MAXIMUM RECORDED TEMPERATURE
BHTD.M        373.075              : BHTDEP       - MAXIMUM RECORDED TEMPERATURE
MATR.         1                    : LOGUNIT      - NEUTRON MATRIX
RMT .C        6.66667              : MDTP         - TEMPERATURE OF MUD
NEUT.         1                    : NEUTRON      - NEUTRON TYPE
RESI.         0                    : RESIST       - RESISTIVITY TYPE
RMC .OHMM     5.5                  : RMC          - RESISTIVITY OF MUD CAKE
RMF .OHMM     3.23                 : RMF          - RESISTIVITY OF MUD FILTRATE
SUFT.C        -15                  : SUFT         - SURFACE TEMPERATURE
~A  DEPTH       GR     RESD     PHIN     PHID      CAL
# ...
  277.140   88.758   14.279    0.442    0.228  158.204
  277.390   89.041   14.149    0.424    0.210  157.712
  277.640   89.038   14.148    0.404    0.266  157.218
  277.890   90.756   14.147    0.432    0.271  156.727
  278.140   93.910   14.145    0.433    0.259  156.719
  278.390   97.638   14.017    0.427    0.248  156.713
  278.640   99.070   13.889    0.433    0.241  156.221
  278.890   98.492   13.888    0.436    0.234  155.729
  279.140   98.775   13.762    0.435    0.229  155.721
  279.390  100.206   13.637    0.431    0.213  156.203
  279.640  102.499   13.513    0.424    0.207  156.195
  279.890  105.653   13.512    0.427    0.199  156.675
  280.140  106.797   13.149    0.432    0.221  157.153
  280.390  104.497   13.029    0.434    0.224  157.149
  280.640  102.197   12.794    0.436    0.228  158.600
  280.890  101.332   12.450    0.441    0.225  159.566
  281.140   99.892   12.116    0.445    0.220  159.559
  281.390   99.602   11.898    0.451    0.214  160.524
  281.640  100.172   12.114    0.462    0.210  162.464
  281.890  100.169   12.789    0.474    0.205  162.456
  282.140   97.868   12.788    0.451    0.199  159.533
  282.390   95.568   12.111    0.401    0.161  158.555
  282.640  101.305   10.766    0.383    0.125  158.061
  282.890  104.172   10.013    0.428    0.220  158.056
  283.140  101.585    9.656    0.496    0.234  157.564
  283.390   98.135    9.832    0.488    0.248  157.557
  283.640   95.836   10.665    0.464    0.259  157.063
  283.890   89.804   12.551    0.451    0.260  156.571
  284.140   85.781   14.116    0.441    0.252  156.079
  284.390   84.629   15.038    0.415    0.231  156.073
  284.640   86.921   14.767    0.383    0.169  156.066
  284.890   89.789   14.241    0.398    0.145  156.061
  285.140   93.516   11.564    0.411    0.185  156.540
  285.390   95.236    9.306    0.447    0.190  157.992
  285.640   98.102    7.835    0.456    0.217  158.472
  285.890  101.256    7.092    0.461    0.221  158.464
  286.140  104.409    6.656    0.484    0.216  157.972
  286.390  103.832    6.655    0.505    0.226  157.966
  286.640  103.541    6.777    0.536    0.222  158.445
  286.890  104.111    7.219    0.536    0.215  158.439
  287.140  104.968    7.831    0.515    0.205  158.433
  287.390  104.391    8.495    0.498    0.193  158.426
  287.640  104.387    9.997    0.482    0.187  158.906
  287.890  106.966   11.449    0.478    0.162  158.900
  288.140  107.824   11.978    0.472    0.182  157.919
  288.390  109.829   11.551    0.470    0.192  157.428
  288.640  111.261   10.940    0.477    0.176  156.449
  288.890  114.128   11.342    0.497    0.177  160.332
  289.140  115.273   11.866    0.497    0.216  169.562
  289.390  111.250   12.302    0.459    0.225  167.125
  289.640  105.449   11.836    0.464    0.230  159.958
  289.890  103.140   12.491    0.416    0.227  159.494
  290.140  100.830   13.181    0.432    0.223  160.010
  290.390   97.653   14.959    0.427    0.216  161.513
  290.640   95.050   17.765    0.440    0.202  161.534
  290.890   90.416   21.097    0.428    0.167  160.578
  291.140   80.845   28.453    0.401    0.125  160.117
  291.390   73.600   44.377    0.321    0.073  160.138
  291.640   70.419   45.987    0.273    0.036  160.162
  291.890   68.690   37.627    0.272    0.029  160.193
  292.140   68.707   30.234    0.326    0.146  159.722
  292.390   71.337   24.963    0.400    0.193  159.255
  292.640   71.932   22.167    0.443    0.206  157.315
  292.890   72.531   20.595    0.430    0.220  154.883
  293.140   73.415   20.212    0.407    0.221  153.921
  293.390   76.046   19.654    0.382    0.188  155.421
  293.640   78.963   18.939    0.378    0.142  157.907
  293.890   84.210   17.757    0.415    0.205  158.921
  294.140   90.034   16.203    0.444    0.207  158.454
  294.390   97.019   15.334    0.429    0.182  158.478
  294.640  103.424   14.774    0.453    0.185  158.506
  294.890  107.216   15.449    0.466    0.195  160.009
  295.140  100.840   16.605    0.450    0.180  160.522
  295.390   93.012   19.188    0.442    0.156  161.035
  295.640   86.636   22.377    0.404    0.135  162.046
  295.890   76.774   25.623    0.351    0.088  162.563
  296.140   72.145   27.536    0.308    0.048  161.121
  296.390   75.353   28.538    0.295    0.037  160.158
  296.640   83.502   26.277    0.339    0.090  158.704
  296.890   87.002   22.706    0.376    0.116  156.272
  297.140   90.794   18.244    0.420    0.189  156.299
  297.390   92.842   15.905    0.455    0.242  155.835
  297.640   92.566   15.608    0.490    0.256  155.859
  297.890   92.294   15.596    0.475    0.235  156.373
  298.140   92.016   15.730    0.456    0.231  157.882
  298.390   91.159   16.599    0.447    0.230  156.916
  298.640   89.726   17.515    0.483    0.225  155.957
  298.890   89.739   17.988    0.501    0.215  155.007
  299.140   89.753   18.811    0.497    0.202  155.517
  299.390   90.060   19.845    0.482    0.229  155.541
  299.640   90.072   20.383    0.461    0.241  155.077
  299.890   90.670   20.551    0.434    0.207  154.609
  300.140   91.846   20.351    0.430    0.208  154.634
  300.390   94.186   19.792    0.463    0.234  155.645
  300.640   95.653   18.058    0.468    0.230  156.161
  300.890   95.957   17.244    0.479    0.231  155.697
  301.140   95.102   16.618    0.495    0.207  155.232
  301.390   93.374   16.454    0.484    0.223  155.745
  301.640   92.228   17.049    0.471    0.231  156.760
  301.890   90.209   18.325    0.459    0.216  157.273
  302.140   87.900   19.336    0.453    0.201  157.300
  302.390   88.786   19.857    0.425    0.185  157.325
  302.640   93.159   19.841    0.431    0.183  157.352
  302.890   97.530   19.291    0.443    0.216  156.396
  303.140   96.385   18.423    0.446    0.204  155.436
  303.390   95.818   17.120    0.455    0.196  155.458
  303.640   95.253   16.648    0.471    0.211  156.469
  303.890   96.139   17.251    0.474    0.196  156.004
  304.140   96.736   18.370    0.470    0.187  155.540
  304.390   95.591   19.207    0.459    0.179  155.561
  304.640   92.410   19.549    0.453    0.141  156.078
  304.890   94.171   19.536    0.414    0.130  156.600
  305.140   96.215   18.996    0.424    0.117  156.621
  305.390  100.296   17.973    0.454    0.141  156.646
  305.640  105.250   16.702    0.470    0.171  156.676
  305.890  105.265   16.390    0.487    0.189  156.700
  306.140  100.631   16.379    0.474    0.182  156.725
  306.390   97.745   16.666    0.454    0.153  156.752
  306.640   99.500   16.807    0.451    0.143  156.285
  306.890  102.421   16.795    0.455    0.169  155.817
  307.140  103.307   16.629    0.459    0.159  156.340
  307.390  102.161   16.172    0.464    0.195  156.850
  307.640  101.304   15.581    0.469    0.207  155.900
  307.890  100.449   15.431    0.481    0.211  155.426
  308.140   99.300   15.700    0.485    0.197  155.450
  308.390   97.282   16.125    0.482    0.179  154.986
  308.640   94.394   17.645    0.456    0.176  155.010
  308.890   92.664   18.452    0.416    0.172  155.041
  309.140   94.423   18.106    0.392    0.092  156.046
  309.390  100.828   16.977    0.415    0.095  156.562
  309.640  102.875   16.358    0.471    0.133  156.596
  309.890  107.831   15.765    0.478    0.109  157.106
  310.140  111.620   14.782    0.476    0.190  157.625
  310.390  112.219   14.245    0.448    0.203  157.649
  310.640  109.908   13.976    0.438    0.200  157.185
  310.890  102.953   14.225    0.434    0.187  155.245
  311.140  100.643   15.010    0.413    0.173  154.774
  311.390  100.659   15.555    0.407    0.146  154.799
  311.640  102.707   15.263    0.406    0.131  154.829
  311.890  108.531   14.575    0.419    0.164  154.359
  312.140  110.869   13.791    0.425    0.174  154.386
  312.390  107.690   13.907    0.425    0.155  154.417
  312.640  102.768   14.283    0.409    0.131  154.438
  312.890  102.202   14.532    0.403    0.135  153.967
  313.140  102.216   14.923    0.417    0.190  153.503
  313.390  101.653   15.463    0.426    0.192  153.036
