~VERSION INFORMATION
 VERS.                 2.0:   CWLS LOG ASCII STANDARD -VERSION 2.0
 WRAP.                  NO:   ONE LINE PER DEPTH STEP
~WELL INFORMATION BLOCK
#MNEM.UNIT           DATA                    DESCRIPTION OF MNEMONIC
#---------    -------------------            -------------------------------
# Generated from Intellog Unique Number	CS_71_72/WELL/921
WELL.         HUDSON'S BAY OIL AND GAS       : Well_name    - WELL
LOC .         00/13-15-071-12W4/0            : Location     - LOCATION
UWI .         00/13-15-071-12W4/0            : Uwi          - UNIQUE WELL ID
ENTR.         SP                             : Entered      - ENTERED BY
SRVC.         SCHLUMBERGER                   : Scn          - SERVICE COMPANY
STRT.M        260                            : top_depth    - START DEPTH
STOP.M        480                            : bot_depth    - STOP DEPTH
STEP.M        0.25                           : increment    - STEP LENGTH
 NULL. -999.2500:NULL Value
~CURVE INFORMATION BLOCK
#MNEM UNIT       ERCB CURVE CODE    CURVE DESCRIPTION
#-----------   ------------------   ----------------------------------
DEPT.M        00 001 00 00         : DEPTH        - DEPTH
ILD .OHMM     00 120 00 00         : RESD         - DEEP RESISTIVITY (DIL)
DPHI.V/V      00 890 00 00         : PHID         - DENSITY POROSITY (LIMESTONE)
NPHI.V/V      00 330 00 00         : PHIN         - NEUTRON POROSITY (LIMESTONE)
GR  .API      00 310 00 00         : GR           - GAMMA RAY
~PARAMETER INFORMATION
#MNEM.UNIT           DATA             DESCRIPTION OF MNEMONIC
#---------         -----------     ------------------------------
GL  .M        597.56               : gl           - GROUND LEVEL ELEVATION
EREF.M        601.56               : kb           - ELEVATION OF DEPTH REFERENCE
DATM.M        597.96               : datum        - DATUM ELEVATION
TDD .M        484                  : tdd          - TOTAL DEPTH DRILLER
RUN .         ONE                  : Run          - RUN NUMBER
ENG .         BILL                 : Engineer     - RECORDING ENGINEER
WIT .         JIM                  : Witness      - WITNESSED BY
MUD .         GEL                  : Mud_type     - MUD TYPE
MATR.         LIMESTONE            : Logunit      - NEUTRON MATRIX
TMAX.C        22                   : BHT          - MAXIMUM RECORDED TEMPERATURE
BHTD.M        484                  : BHTDEP       - MAXIMUM RECORDED TEMPERATURE
MATR.         1                    : LOGUNIT      - NEUTRON MATRIX
RMT .C        25                   : MDTP         - TEMPERATURE OF MUD
NEUT.         1                    : NEUTRON      - NEUTRON TYPE
RESI.         0                    : RESIST       - RESISTIVITY TYPE
RMC .OHMM     0.25                 : RMC          - RESISTIVITY OF MUD CAKE
RMF .OHMM     0.25                 : RMF          - RESISTIVITY OF MUD FILTRATE
SUFT.C        15                   : SUFT         - SURFACE TEMPERATURE
~A  DEPTH     RESD     PHID     PHIN       GR
# ...
  390.500    4.209    0.219    0.445   73.885
  390.750    4.224    0.214    0.433   78.496
  391.000    4.483    0.210    0.428   79.578
  391.250    4.533    0.203    0.429   75.292
  391.500    4.679    0.196    0.430   72.407
  391.750    4.929    0.192    0.432   71.295
  392.000    4.956    0.191    0.430   71.581
  392.250    5.010    0.191    0.430   74.061
  392.500    4.961    0.202    0.442   77.757
  392.750    4.941    0.193    0.456   81.824
  393.000    4.746    0.189    0.462   85.463
  393.250    4.657    0.184    0.455   87.696
  393.500    4.534    0.182    0.451   88.776
  393.750    4.447    0.183    0.441   88.575
  394.000    4.420    0.187    0.435   85.752
  394.250    4.410    0.194    0.440   82.993
  394.500    4.400    0.198    0.452   81.511
  394.750    4.398    0.201    0.473   80.153
  395.000    4.380    0.207    0.484   78.977
  395.250    4.370    0.211    0.471   80.115
  395.500    4.336    0.214    0.469   81.134
  395.750    4.301    0.211    0.480   78.922
  396.000    4.236    0.215    0.472   80.548
  396.250    4.171    0.223    0.471   82.660
  396.500    4.122    0.215    0.480   81.790
  396.750    4.082    0.204    0.499   79.333
  397.000    4.080    0.199    0.485   81.511
  397.250    4.101    0.206    0.470   83.807
  397.500    4.130    0.217    0.480   84.947
  397.750    4.184    0.223    0.475   82.124
  398.000    4.230    0.213    0.462   83.142
  398.250    4.268    0.207    0.468   83.124
  398.500    4.291    0.200    0.475   79.327
  398.750    4.256    0.193    0.451   82.294
  399.000    4.223    0.190    0.438   85.080
  399.250    4.127    0.187    0.469   86.706
  399.500    4.003    0.192    0.478   84.067
  399.750    3.789    0.207    0.481   82.585
  400.000    3.493    0.211    0.488   84.457
  400.250    3.202    0.212    0.479   87.787
  400.500    2.870    0.214    0.482   90.635
  400.750    2.651    0.218    0.490   90.374
  401.000    2.448    0.224    0.501   83.163
  401.250    2.317    0.230    0.503   80.158
  401.500    2.334    0.237    0.525   79.285
  401.750    2.544    0.240    0.542   80.242
  402.000    2.747    0.231    0.512   81.810
  402.250    3.010    0.174    0.476   82.643
  402.500    3.202    0.152    0.454   76.714
  402.750    3.438    0.145    0.442   71.211
  403.000    3.509    0.179    0.441   69.304
  403.250    3.587    0.207    0.445   69.529
  403.500    3.647    0.226    0.448   69.876
  403.750    3.680    0.222    0.443   70.039
  404.000    3.720    0.209    0.433   71.971
  404.250    3.719    0.232    0.428   75.183
  404.500    3.710    0.246    0.438   78.757
  404.750    3.688    0.245    0.440   82.207
  405.000    3.680    0.231    0.427   83.782
  405.250    3.748    0.218    0.418   87.174
  405.500    4.009    0.211    0.429   84.353
  405.750    4.755    0.206    0.447   77.448
  406.000    5.515    0.198    0.461   68.409
  406.250    6.242    0.151    0.478   57.726
  406.500    6.778    0.081    0.488   51.249
  406.750    7.169    0.022    0.374   53.056
  407.000    7.344    0.096    0.280   58.951
  407.250    6.899    0.135    0.377   71.914
  407.500    5.877    0.157    0.429   80.794
  407.750    5.169    0.177    0.454   86.809
  408.000    4.801    0.177    0.459   83.925
  408.250    4.544    0.177    0.448   78.847
  408.500    4.350    0.181    0.444   77.793
  408.750    4.243    0.188    0.455   79.236
  409.000    4.218    0.194    0.480   81.046
  409.250    4.272    0.190    0.464   82.309
  409.500    4.245    0.177    0.454   79.914
  409.750    4.244    0.160    0.456   79.165
  410.000    4.242    0.148    0.437   81.278
  410.250    4.257    0.169    0.425   82.235
  410.500    4.294    0.182    0.439   81.118
  410.750    4.309    0.193    0.441   83.783
  411.000    4.316    0.194    0.435   86.564
  411.250    4.329    0.190    0.432   87.403
  411.500    4.312    0.189    0.441   83.300
  411.750    4.294    0.196    0.450   83.339
  412.000    4.253    0.198    0.451   85.578
  412.250    4.195    0.195    0.443   88.117
  412.500    4.177    0.193    0.452   89.199
  412.750    4.176    0.191    0.457   89.361
  413.000    4.182    0.190    0.449   89.586
  413.250    4.173    0.187    0.453   89.626
  413.500    4.187    0.187    0.462   89.430
  413.750    4.273    0.189    0.469   88.434
  414.000    4.352    0.190    0.453   89.698
  414.250    4.375    0.187    0.435   91.994
  414.500    4.348    0.179    0.422   92.827
  414.750    4.274    0.174    0.413   92.506
  415.000    4.091    0.167    0.418   88.891
  415.250    3.909    0.131    0.429   83.327
  415.500    3.721    0.134    0.427   78.251
  415.750    3.684    0.164    0.419   79.083
  416.000    3.553    0.189    0.418   80.529
  416.250    3.351    0.193    0.428   82.275
  416.500    3.020    0.193    0.440   83.229
  416.750    2.671    0.196    0.435   83.216
  417.000    2.332    0.202    0.437   82.100
  417.250    2.106    0.220    0.474   75.562
  417.500    1.963    0.238    0.504   74.324
  417.750    1.810    0.250    0.505   82.592
  418.000    1.772    0.240    0.479   89.827
  418.250    1.961    0.233    0.516   92.915
  418.500    2.300    0.231    0.537   91.252
  418.750    2.683    0.242    0.518   86.907
  419.000    3.135    0.240    0.485   83.231
  419.250    3.595    0.231    0.457   81.020
  419.500    3.955    0.222    0.463   78.745
  419.750    4.113    0.217    0.438   78.849
  420.000    3.982    0.221    0.418   79.196
  420.250    3.748    0.233    0.438   78.082
  420.500    3.501    0.247    0.462   77.637
  420.750    3.573    0.229    0.482   78.956
  421.000    3.779    0.149    0.445   80.159
  421.250    4.072    0.175    0.420   81.297
  421.500    4.340    0.195    0.420   81.828
  421.750    4.838    0.198    0.447   82.175
  422.000    5.273    0.207    0.468   78.864
  422.250    5.662    0.214    0.485   75.251
  422.500    5.910    0.150    0.458   70.480
  422.750    5.297    0.046    0.292   71.498
  423.000    4.529    0.124    0.318   75.560
  423.250    3.851    0.169    0.383   80.052
  423.500    3.451    0.185    0.416   86.251
  423.750    3.002    0.191    0.440   93.300
  424.000    2.799    0.198    0.456   95.782
  424.250    2.639    0.206    0.473   94.058
  424.500    2.502    0.214    0.487   89.773
  424.750    2.418    0.220    0.488   89.449
  425.000    2.350    0.210    0.488   91.869
  425.250    2.275    0.199    0.490   97.700
  425.500    2.202    0.197    0.495   99.267
  425.750    2.197    0.197    0.505   96.076
  426.000    2.377    0.195    0.486   91.792
  426.250    2.576    0.162    0.491   88.180
  426.500    2.715    0.127    0.489   84.321
  426.750    2.860    0.122    0.458   86.678
  427.000    2.843    0.160    0.457   90.318
  427.250    2.789    0.186    0.476   91.580
  427.500    2.751    0.189    0.489   93.570
  427.750    2.659    0.188    0.482   96.231
  428.000    2.579    0.190    0.468   98.226
  428.250    2.657    0.193    0.454   98.454
  428.500    2.879    0.199    0.467   95.874
  428.750    3.005    0.203    0.491   91.957
  429.000    3.055    0.190    0.500   89.378
  429.250    2.952    0.171    0.468   89.054
  429.500    2.742    0.187    0.435   90.253
  429.750    2.462    0.204    0.444   92.187
  430.000    2.313    0.204    0.456   95.338
  430.250    2.235    0.203    0.466   98.915
  430.500    2.432    0.203    0.518  101.090
  430.750    2.929    0.202    0.526  101.802
  431.000    3.487    0.190    0.506  102.332
  431.250    3.859    0.194    0.492  100.060
  431.500    4.261    0.198    0.484   93.092
  431.750    4.516    0.186    0.476   88.688
  432.000    4.626    0.164    0.464   85.439
  432.250    4.563    0.148    0.421   87.611
  432.500    4.434    0.147    0.385   89.664
  432.750    4.424    0.157    0.421   87.089
  433.000    4.523    0.182    0.443   82.195
  433.250    4.884    0.184    0.437   77.362
  433.500    5.559    0.179    0.407   72.042
  433.750    6.291    0.188    0.374   67.207
