~VERSION INFORMATION
 VERS.                 2.0:   CWLS LOG ASCII STANDARD -VERSION 2.0
 WRAP.                  NO:   ONE LINE PER DEPTH STEP
~WELL INFORMATION BLOCK
#MNEM.UNIT           DATA                    DESCRIPTION OF MNEMONIC
#---------    -------------------            -------------------------------
# Generated from Intellog Unique Number	CS_77_79/WELL/984
WELL.         CANADIAN WORLDWIDE ENERGY      : Well_name    - WELL
LOC .         00/11-03-077-04W4/0            : Location     - LOCATION
UWI .         00/11-03-077-04W4/0            : Uwi          - UNIQUE WELL ID
ENTR.         SP                             : Entered      - ENTERED BY
SRVC.         SCHLUMBERGER                   : Scn          - SERVICE COMPANY
STRT.M        175                            : top_depth    - START DEPTH
STOP.M        450                            : bot_depth    - STOP DEPTH
STEP.M        0.25                           : increment    - STEP LENGTH
 NULL. -999.2500:NULL Value
~CURVE INFORMATION BLOCK
#MNEM UNIT       ERCB CURVE CODE    CURVE DESCRIPTION
#-----------   ------------------   ----------------------------------
DEPT.M        00 001 00 00         : DEPTH        - DEPTH
ILD .OHMM     00 120 00 00         : RESD         - DEEP RESISTIVITY (DIL)
DPHI.V/V      00 890 00 00         : PHID         - DENSITY POROSITY (LIMESTONE)
NPHI.V/V      00 330 00 00         : PHIN         - NEUTRON POROSITY (LIMESTONE)
GR  .API      00 310 00 00         : GR           - GAMMA RAY
~PARAMETER INFORMATION
#MNEM.UNIT           DATA             DESCRIPTION OF MNEMONIC
#---------         -----------     ------------------------------
GL  .M        577.9                : gl           - GROUND LEVEL ELEVATION
EREF.M        581.55               : kb           - ELEVATION OF DEPTH REFERENCE
DATM.M        577.9                : datum        - DATUM ELEVATION
TDD .M        450                  : tdd          - TOTAL DEPTH DRILLER
RUN .         ONE                  : Run          - RUN NUMBER
ENG .         BILL                 : Engineer     - RECORDING ENGINEER
WIT .         JIM                  : Witness      - WITNESSED BY
MUD .         GEL                  : Mud_type     - MUD TYPE
MATR.         LIMESTONE            : Logunit      - NEUTRON MATRIX
TMAX.C        23                   : BHT          - MAXIMUM RECORDED TEMPERATURE
BHTD.M        450                  : BHTDEP       - MAXIMUM RECORDED TEMPERATURE
MATR.         1                    : LOGUNIT      - NEUTRON MATRIX
RMT .C        25                   : MDTP         - TEMPERATURE OF MUD
NEUT.         1                    : NEUTRON      - NEUTRON TYPE
RESI.         0                    : RESIST       - RESISTIVITY TYPE
RMC .OHMM     0.25                 : RMC          - RESISTIVITY OF MUD CAKE
RMF .OHMM     0.25                 : RMF          - RESISTIVITY OF MUD FILTRATE
SUFT.C        15                   : SUFT         - SURFACE TEMPERATURE
~A  DEPTH     RESD     PHID     PHIN       GR
# ...
  305.500    8.522    0.271    0.461   87.341
  305.750    9.024    0.270    0.464   90.446
  306.000    9.379    0.266    0.437   90.450
  306.250    9.567    0.265    0.425   87.356
  306.500    9.753    0.269    0.415   87.361
  306.750    9.949    0.273    0.420   87.984
  307.000   10.340    0.279    0.430   81.791
  307.250   10.542    0.289    0.425   78.077
  307.500   11.167    0.304    0.416   78.082
  307.750   11.824    0.302    0.417   79.945
  308.000   12.287    0.301    0.421   87.389
  308.250   12.769    0.304    0.410   88.012
  308.500   13.018    0.312    0.405   83.679
  308.750   13.531    0.316    0.405   83.064
  309.000   13.800    0.308    0.422   86.168
  309.250   13.554    0.295    0.433   88.650
  309.500   12.346    0.286    0.422   91.754
  309.750   11.246    0.280    0.411   88.041
  310.000   10.637    0.286    0.407   89.906
  310.250   10.063    0.269    0.404   93.008
  310.500    9.521    0.259    0.411   96.732
  310.750    9.175    0.255    0.422   97.976
  311.000    9.009    0.250    0.427   96.742
  311.250    8.686    0.234    0.432   97.986
  311.500    8.692    0.227    0.436  101.709
  311.750    8.537    0.235    0.428  101.094
  312.000    8.543    0.235    0.416  101.718
  312.250    8.712    0.228    0.405  103.584
  312.500    9.058    0.224    0.404  103.589
  312.750    9.235    0.223    0.401  101.113
  313.000    9.599    0.222    0.399   96.779
  313.250    9.785    0.227    0.397   94.924
  313.500   10.170    0.235    0.397   93.068
  313.750   10.571    0.250    0.389   91.214
  314.000   10.580    0.258    0.380   90.599
  314.250   10.392    0.264    0.399   92.463
  314.500    9.829    0.266    0.422   94.947
  314.750    9.123    0.261    0.412   94.951
  315.000    8.632    0.266    0.391   95.575
  315.250    8.317    0.263    0.407   94.960
  315.500    8.167    0.241    0.430   94.345
  315.750    7.728    0.230    0.437   97.450
  316.000    7.310    0.228    0.453   98.695
  316.250    6.914    0.232    0.453   99.937
  316.500    6.538    0.220    0.453  101.802
  316.750    5.958    0.215    0.462  101.807
  317.000    5.530    0.223    0.472  101.814
  317.250    5.229    0.239    0.485  102.435
  317.500    4.765    0.250    0.498  104.919
  317.750    4.507    0.256    0.510  109.263
  318.000    4.184    0.264    0.523  111.747
  318.250    4.031    0.271    0.543  114.231
  318.500    3.886    0.277    0.532  116.715
  318.750    3.677    0.283    0.489  108.662
  319.000    3.748    0.291    0.470   99.369
  319.250    3.969    0.288    0.462   94.415
  319.500    4.534    0.278    0.470   92.561
  319.750    4.801    0.260    0.480   95.044
  320.000    5.083    0.256    0.491  100.007
  320.250    5.485    0.260    0.488   96.915
  320.500    5.918    0.266    0.473   94.439
  320.750    6.631    0.271    0.443   90.724
  321.000    7.573    0.256    0.411   87.630
  321.250    7.720    0.163    0.339   85.775
  321.500    8.330    0.118    0.324   78.341
  321.750    8.657    0.129    0.327   75.867
  322.000    8.664    0.183    0.371   80.211
  322.250    8.352    0.277    0.428   82.694
  322.500    7.754    0.299    0.443   85.799
  322.750    7.472    0.296    0.444   88.904
  323.000    7.070    0.261    0.440   90.146
  323.250    7.073    0.224    0.423   93.251
  323.500    6.948    0.203    0.414   94.495
  323.750    7.086    0.209    0.416   93.879
  324.000    7.092    0.218    0.423   93.883
  324.250    7.097    0.224    0.424   95.128
  324.500    7.108    0.228    0.423   89.554
  324.750    7.113    0.226    0.422   92.038
  325.000    6.986    0.228    0.421   94.522
  325.250    6.990    0.234    0.424   97.626
  325.500    6.995    0.238    0.432   97.011
  325.750    6.868    0.236    0.438   97.016
  326.000    6.873    0.234    0.452   97.020
  326.250    6.880    0.242    0.445   97.645
  326.500    6.886    0.250    0.432   96.409
  326.750    7.024    0.252    0.423   93.315
  327.000    6.899    0.239    0.414   95.799
  327.250    6.902    0.226    0.402  100.763
  327.500    6.653    0.224    0.380  104.486
  327.750    6.294    0.233    0.372  104.491
  328.000    5.522    0.242    0.392  100.157
  328.250    5.031    0.234    0.402   95.202
  328.500    4.847    0.220    0.406   96.446
  328.750    4.416    0.205    0.414   98.930
  329.000    3.949    0.225    0.447   98.935
  329.250    3.877    0.247    0.461   94.601
  329.500    3.214    0.271    0.463   92.127
  329.750    2.716    0.272    0.468   95.852
  330.000    2.521    0.267    0.482   97.714
  330.250    2.476    0.276    0.482   99.578
  330.500    2.343    0.281    0.481   94.006
  330.750    2.301    0.287    0.497   92.149
  331.000    2.260    0.297    0.505   92.775
  331.250    2.261    0.297    0.498   94.639
  331.500    2.350    0.279    0.492   96.502
  331.750    2.442    0.267    0.500  101.466
  332.000    2.587    0.260    0.496  103.330
  332.250    2.740    0.262    0.481  102.095
  332.500    2.901    0.258    0.467   97.761
  332.750    3.129    0.242    0.456   94.667
  333.000    3.711    0.229    0.433   92.812
  333.250    4.003    0.229    0.412   94.057
  333.500    4.486    0.224    0.408   94.680
  333.750    5.026    0.216    0.406   95.304
  334.000    5.423    0.219    0.404   92.831
  334.250    5.852    0.214    0.402   90.977
  334.500    5.968    0.206    0.401   90.979
  334.750    5.862    0.196    0.406   93.463
  335.000    5.649    0.209    0.418   96.567
  335.250    4.864    0.247    0.435   97.193
  335.500    4.514    0.258    0.448   98.436
  335.750    4.114    0.240    0.444  106.498
  336.000    3.964    0.234    0.443  110.842
  336.250    3.894    0.234    0.443  107.128
  336.500    3.896    0.234    0.443   99.695
  336.750    4.050    0.231    0.429   94.741
  337.000    4.129    0.226    0.425   94.125
  337.250    4.057    0.220    0.420   94.129
  337.500    3.983    0.217    0.420   99.713
  337.750    3.698    0.212    0.429   99.719
  338.000    3.565    0.216    0.441  100.342
  338.250    3.500    0.224    0.462  109.024
  338.500    3.438    0.229    0.471  109.029
  338.750    3.441    0.230    0.475  102.836
  339.000    3.714    0.222    0.469  103.461
  339.250    3.932    0.219    0.459  104.084
  339.500    4.407    0.226    0.443  102.230
  339.750    4.755    0.235    0.424   99.136
  340.000    5.533    0.237    0.414   95.420
  340.250    5.857    0.230    0.403   95.425
  340.500    6.689    0.226    0.393   97.289
  340.750    7.081    0.222    0.398   97.293
  341.000    7.786    0.216    0.394   92.960
  341.250    8.892    0.231    0.372   85.526
  341.500    9.593    0.263    0.346   80.572
  341.750   10.751    0.282    0.325   79.957
  342.000   11.822    0.308    0.313   79.342
  342.250   13.002    0.309    0.311   79.347
  342.500   13.510    0.292    0.315   79.351
  342.750   14.037    0.220    0.318   76.876
  343.000   14.585    0.094    0.316   66.964
  343.250   15.446    0.030    0.294   66.348
  343.500   16.359    0.134    0.285   70.692
  343.750   16.686    0.246    0.278   80.615
  344.000   16.694    0.327    0.268   83.098
  344.250   14.928    0.340    0.259   82.483
  344.500   12.848    0.335    0.264   82.488
  344.750   10.456    0.300    0.290   81.873
  345.000    8.834    0.275    0.317   80.638
  345.250    7.188    0.279    0.382   79.403
  345.500    5.848    0.288    0.413   83.126
  345.750    5.131    0.283    0.419   93.669
  346.000    5.331    0.267    0.415  101.731
  346.250    5.864    0.268    0.356   96.157
  346.500    6.446    0.294    0.265   81.905
  346.750    7.935    0.331    0.235   74.471
  347.000   10.732    0.346    0.222   80.676
  347.250   13.981    0.345    0.227   83.159
  347.500   14.804    0.336    0.241   86.264
  347.750   13.751    0.322    0.249   87.507
  348.000   13.505    0.315    0.253   85.032
  348.250   13.013    0.319    0.254   88.136
  348.500   12.538    0.307    0.254   90.001
  348.750   11.421    0.289    0.257   91.245
