~VERSION INFORMATION
 VERS.                 2.0:   CWLS LOG ASCII STANDARD -VERSION 2.0
 WRAP.                  NO:   ONE LINE PER DEPTH STEP
~WELL INFORMATION BLOCK
#MNEM.UNIT           DATA                    DESCRIPTION OF MNEMONIC
#---------    -------------------            -------------------------------
# Generated from Intellog Unique Number	CS_71_72/WELL/858
WELL.         ALLIED ET AL WANDER            : Well_name    - WELL
LOC .         00/10-17-072-13W4/0            : Location     - LOCATION
UWI .         00/10-17-072-13W4/0            : Uwi          - UNIQUE WELL ID
ENTR.         SP                             : Entered      - ENTERED BY
SRVC.         SCHLUMBERGER                   : Scn          - SERVICE COMPANY
STRT.M        313.944                        : top_depth    - START DEPTH
STOP.M        536.194                        : bot_depth    - STOP DEPTH
STEP.M        0.25                           : increment    - STEP LENGTH
 NULL. -999.2500:NULL Value
~CURVE INFORMATION BLOCK
#MNEM UNIT       ERCB CURVE CODE    CURVE DESCRIPTION
#-----------   ------------------   ----------------------------------
DEPT.M        00 001 00 00         : DEPTH        - DEPTH
GR  .API      00 310 00 00         : GR           - GAMMA RAY
DPHI.V/V      00 890 00 00         : PHID         - DENSITY POROSITY (SANDSTONE)
NPHI.V/V      00 330 00 00         : PHIN         - NEUTRON POROSITY (SANDSTONE)
ILD .OHMM     00 120 00 00         : RESD         - DEEP RESISTIVITY (DIL)
~PARAMETER INFORMATION
#MNEM.UNIT           DATA             DESCRIPTION OF MNEMONIC
#---------         -----------     ------------------------------
GL  .M        642.671              : gl           - GROUND LEVEL ELEVATION
EREF.M        645.871              : kb           - ELEVATION OF DEPTH REFERENCE
DATM.M        642.671              : datum        - DATUM ELEVATION
TDD .M        548.64               : tdd          - TOTAL DEPTH DRILLER
RUN .         ONE                  : Run          - RUN NUMBER
ENG .         BILL                 : Engineer     - RECORDING ENGINEER
WIT .         JIM                  : Witness      - WITNESSED BY
MUD .         GEL                  : Mud_type     - MUD TYPE
MATR.         SANDSTONE            : Logunit      - NEUTRON MATRIX
TMAX.C        14.4444              : BHT          - MAXIMUM RECORDED TEMPERATURE
BHTD.M        548.64               : BHTDEP       - MAXIMUM RECORDED TEMPERATURE
MATR.         1                    : LOGUNIT      - NEUTRON MATRIX
RMT .C        25                   : MDTP         - TEMPERATURE OF MUD
NEUT.         1                    : NEUTRON      - NEUTRON TYPE
RESI.         0                    : RESIST       - RESISTIVITY TYPE
RMC .OHMM     0.25                 : RMC          - RESISTIVITY OF MUD CAKE
RMF .OHMM     0.25                 : RMF          - RESISTIVITY OF MUD FILTRATE
SUFT.C        15                   : SUFT         - SURFACE TEMPERATURE
~A  DEPTH       GR     PHID     PHIN     RESD
# ...
  400.944   77.564    0.313    0.553    6.446
  401.194   79.811    0.309    0.546    6.717
  401.444   79.634    0.316    0.552    7.208
  401.694   77.802    0.318    0.506    7.477
  401.944   72.251    0.304    0.461    8.618
  402.194   67.111    0.268    0.432   10.551
  402.444   60.913    0.244    0.382   14.351
  402.694   57.685    0.211    0.251   17.895
  402.944   54.870    0.135    0.200   18.587
  403.194   60.208    0.087    0.248   14.884
  403.444   66.563    0.108    0.320    9.111
  403.694   73.679    0.204    0.387    7.165
  403.944   77.124    0.272    0.446    6.457
  404.194   78.854    0.311    0.495    6.178
  404.444   74.761    0.318    0.515    6.046
  404.694   72.846    0.314    0.544    6.059
  404.944   73.584    0.315    0.554    6.288
  405.194   74.200    0.319    0.568    6.785
  405.444   73.276    0.316    0.543    7.724
  405.694   72.983    0.313    0.503   11.636
  405.944   71.010    0.305    0.476   13.785
  406.194   68.973    0.254    0.446   18.019
  406.444   66.061    0.154    0.405   26.809
  406.694   62.599    0.108    0.136   51.008
  406.944   58.282    0.067    0.152   73.300
  407.194   56.576    0.049    0.170   50.657
  407.444   54.904    0.053    0.191   32.965
  407.694   56.521    0.056    0.208   17.607
  407.944   63.667    0.027    0.176   10.276
  408.194   70.430    0.061    0.183    7.384
  408.444   74.534    0.090    0.362    6.632
  408.694   77.589    0.341    0.448    6.288
  408.944   78.653    0.336    0.539    6.138
  409.194   78.694    0.341    0.541    6.088
  409.444   75.712    0.334    0.548    6.128
  409.694   74.683    0.325    0.546    6.247
  409.944   75.165    0.315    0.538    6.313
  410.194   75.823    0.311    0.542    6.442
  410.444   76.573    0.305    0.545    6.563
  410.694   77.002    0.315    0.537    6.564
  410.944   77.551    0.310    0.528    6.467
  411.194   75.811    0.306    0.530    6.474
  411.444   74.778    0.309    0.521    6.530
  411.694   75.351    0.303    0.512    6.670
  411.944   76.600    0.305    0.505    6.712
  412.194   78.454    0.306    0.516    6.936
  412.444   80.776    0.298    0.524    6.963
  412.694   80.182    0.291    0.503    7.101
  412.944   81.460    0.286    0.511    7.275
  413.194   83.330    0.278    0.488    7.420
  413.444   82.746    0.272    0.478    7.490
  413.694   81.784    0.285    0.487    7.495
  413.944   80.823    0.293    0.504    7.496
  414.194   80.242    0.282    0.515    7.487
  414.444   82.093    0.278    0.519    7.577
  414.694   84.050    0.287    0.511    7.661
  414.944   85.612    0.300    0.494    7.871
  415.194   86.405    0.296    0.484    7.998
  415.444   87.002    0.287    0.466    8.046
  415.694   86.680    0.285    0.473    7.928
  415.944   85.635    0.277    0.481    7.590
  416.194   83.037    0.266    0.471    7.344
  416.444   83.704    0.260    0.469    7.043
  416.694   84.426    0.255    0.489    6.737
  416.944   88.534    0.241    0.500    6.554
  417.194   92.043    0.226    0.505    6.516
  417.444   93.179    0.218    0.511    6.608
  417.694   90.394    0.248    0.521    6.883
  417.944   86.456    0.261    0.503    7.174
  418.194   84.888    0.258    0.487    7.395
  418.444   84.795    0.260    0.489    7.480
  418.694   86.286    0.258    0.470    7.339
  418.944   89.036    0.256    0.478    7.154
  419.194   90.656    0.267    0.495    6.894
  419.444   92.430    0.266    0.504    6.642
  419.694   94.477    0.268    0.511    6.523
  419.944   94.852    0.273    0.522    6.297
  420.194   95.130    0.270    0.514    6.171
  420.444   94.119    0.265    0.497    6.110
  420.694   94.135    0.259    0.511    6.023
  420.944   93.482    0.252    0.516    5.940
  421.194   94.644    0.248    0.507    5.891
  421.444   93.883    0.247    0.542    5.775
  421.694   92.963    0.259    0.523    5.779
  421.944   94.802    0.249    0.511    5.809
  422.194   98.147    0.234    0.543    6.150
  422.444   99.050    0.243    0.542    6.401
  422.694   95.714    0.239    0.504    6.667
  422.944   90.261    0.224    0.496    6.826
  423.194   89.088    0.210    0.488    6.888
  423.444   86.059    0.198    0.453    6.861
  423.694   86.783    0.179    0.409    6.626
  423.944   88.810    0.172    0.483    6.309
  424.194   88.998    0.194    0.543    5.961
  424.444   89.041    0.218    0.588    5.842
  424.694   87.948    0.234    0.597    5.900
  424.944   88.527    0.242    0.593    5.914
  425.194   89.131    0.251    0.557    5.997
  425.444   87.207    0.253    0.535    6.169
  425.694   85.355    0.257    0.517    6.435
  425.944   85.583    0.260    0.497    6.630
  426.194   85.948    0.266    0.486    6.681
  426.444   86.258    0.263    0.492    6.622
  426.694   86.306    0.258    0.506    6.632
  426.944   86.549    0.265    0.516    6.450
  427.194   87.619    0.256    0.516    5.942
  427.444   89.162    0.248    0.517    5.061
  427.694   90.980    0.247    0.519    4.215
  427.944   90.585    0.247    0.530    3.671
  428.194   95.136    0.247    0.555    2.999
  428.444   99.595    0.248    0.579    2.553
  428.694  102.429    0.250    0.606    2.174
  428.944  103.763    0.258    0.628    1.811
  429.194  104.364    0.270    0.642    1.652
  429.444  103.305    0.275    0.647    1.666
  429.694  102.350    0.265    0.653    1.778
  429.944  101.400    0.273    0.655    2.104
  430.194  100.852    0.270    0.655    2.895
  430.444  100.352    0.262    0.648    3.637
  430.694   97.305    0.255    0.625    4.237
  430.944   96.117    0.242    0.594    4.690
  431.194   97.073    0.236    0.513    5.135
  431.444   97.469    0.234    0.533    5.249
  431.694   96.189    0.232    0.541    5.029
  431.944   94.235    0.231    0.517    4.906
  432.194   92.271    0.261    0.532    4.769
  432.444   91.308    0.268    0.551    4.723
  432.694   90.393    0.266    0.558    4.685
  432.944   90.485    0.272    0.537    4.677
  433.194   89.325    0.260    0.532    4.821
  433.444   88.029    0.253    0.518    5.178
  433.694   86.262    0.251    0.506    5.720
  433.944   82.364    0.245    0.458    6.692
  434.194   78.027    0.229    0.365    7.151
  434.444   75.127    0.204    0.315    7.618
  434.694   72.949    0.165    0.287    7.772
  434.944   69.326    0.064    0.313    7.310
  435.194   69.005    0.090    0.443    6.725
  435.444   69.302    0.176    0.484    5.876
  435.694   67.894    0.323    0.508    5.350
  435.944   64.150    0.322    0.484    5.026
  436.194   61.908    0.321    0.468    4.824
  436.444   59.505    0.320    0.462    4.758
  436.694   57.953    0.318    0.458    4.771
  436.944   58.759    0.316    0.449    4.904
  437.194   60.313    0.314    0.440    4.975
  437.444   62.059    0.312    0.431    5.089
  437.694   61.760    0.302    0.429    5.134
  437.944   61.290    0.290    0.418    5.131
  438.194   64.569    0.273    0.409    5.115
  438.444   67.035    0.252    0.451    4.981
  438.694   68.113    0.314    0.491    4.714
  438.944   69.265    0.332    0.494    4.554
  439.194   71.878    0.335    0.493    4.478
  439.444   73.153    0.339    0.498    4.568
  439.694   74.463    0.335    0.500    4.654
  439.944   76.772    0.330    0.501    4.781
  440.194   81.062    0.323    0.506    4.903
  440.444   87.703    0.305    0.503    5.120
  440.694   92.581    0.285    0.511    5.224
  440.944   93.796    0.264    0.513    5.261
  441.194   94.225    0.254    0.530    4.969
  441.444   94.551    0.255    0.535    4.616
  441.694   94.477    0.259    0.514    4.354
  441.944   92.775    0.258    0.508    4.166
  442.194   87.475    0.261    0.537    4.107
  442.444   85.038    0.275    0.553    4.150
  442.694   81.694    0.285    0.566    4.145
  442.944   78.480    0.293    0.546    4.273
  443.194   77.678    0.297    0.543    4.313
  443.444   77.617    0.300    0.534    4.527
  443.694   78.122    0.292    0.535    4.651
  443.944   79.599    0.290    0.544    4.780
  444.194   81.009    0.304    0.535    4.909
