~VERSION INFORMATION
 VERS.                 2.0:   CWLS LOG ASCII STANDARD -VERSION 2.0
 WRAP.                  NO:   ONE LINE PER DEPTH STEP
~WELL INFORMATION BLOCK
#MNEM.UNIT           DATA                    DESCRIPTION OF MNEMONIC
#---------    -------------------            -------------------------------
# Generated from Intellog Unique Number	CW_82_90/WELL/702
WELL.         10-14-082-19W4                 : Well_name    - WELL
LOC .         00/10-14-082-19W4/0            : Location     - LOCATION
UWI .         00/10-14-082-19W400            : Uwi          - UNIQUE WELL ID
ENTR.         JAYE                           : Entered      - ENTERED BY
SRVC.         COMPUTALOG                     : Scn          - SERVICE COMPANY
DATE.         FEB 13 77                      : Date         - LOG DATE
STRT.M        155.448                        : top_depth    - START DEPTH
STOP.M        344.448                        : bot_depth    - STOP DEPTH
STEP.M        0.25                           : increment    - STEP LENGTH
 NULL. -999.2500:NULL Value
~CURVE INFORMATION BLOCK
#MNEM UNIT       ERCB CURVE CODE    CURVE DESCRIPTION
#-----------   ------------------   ----------------------------------
DEPT.M        00 001 00 00         : DEPTH        - DEPTH
CALI.MM       00 280 01 00         : CAL          - CALIPER
GR  .API      00 310 00 00         : GR           - GAMMA RAY
NPHI.V/V      00 330 00 00         : PHIN         - NEUTRON POROSITY (SANDSTONE)
DPHI.V/V      00 890 00 00         : PHID         - DENSITY POROSITY (SANDSTONE)
COND.MMHO                          : COND         - DEEP CONDUCTIVITY (DIL)
ILD .OHMM     00 120 00 00         : RESD         - DEEP RESISTIVITY (DIL)
~PARAMETER INFORMATION
#MNEM.UNIT           DATA             DESCRIPTION OF MNEMONIC
#---------         -----------     ------------------------------
GL  .M        573.024              : gl           - GROUND LEVEL ELEVATION
EREF.M        576.682              : kb           - ELEVATION OF DEPTH REFERENCE
DATM.M        573.024              : datum        - DATUM ELEVATION
TDD .M        347.472              : tdd          - TOTAL DEPTH DRILLER
RUN .         ONE                  : Run          - RUN NUMBER
ENG .         KING                 : Engineer     - RECORDING ENGINEER
WIT .         CARS                 : Witness      - WITNESSED BY
BASE.         MEDICINE HAT         : Branch       - HOME BASE OF LOGGING UNIT
MUD .         GEL                  : Mud_type     - MUD TYPE
MATR.         SANDSTONE            : Logunit      - NEUTRON MATRIX
TMAX.C        17.7778              : BHT          - MAXIMUM RECORDED TEMPERATURE
BHTD.M        347.472              : BHTDEP       - MAXIMUM RECORDED TEMPERATURE
RMT .C        17.7778              : MDTP         - TEMPERATURE OF MUD
MUDD.KG/M     9100                 : MWT          - MUD DENSITY
NEUT.         0                    : NEUTRON      - NEUTRON TYPE
RESI.         0                    : RESIST       - RESISTIVITY TYPE
RM  .OHMM     9.5                  : RM           - RESISTIVITY OF MUD
RMC .OHMM     0                    : RMC          - RESISTIVITY OF MUD CAKE
RMF .OHMM     0                    : RMF          - RESISTIVITY OF MUD FILTRATE
SUFT.C        4                    : SUFT         - SURFACE TEMPERATURE
~A  DEPTH      CAL       GR     PHIN     PHID     COND     RESD
# ...
  217.948  159.548   77.461    0.436    0.369  529.504   16.151
  218.198  159.458   73.984    0.456    0.364  529.478   16.116
  218.448  159.278   72.283    0.434    0.367  529.440   16.119
  218.698  159.200   74.141    0.430    0.372  529.207   16.122
  218.948  159.848   75.805    0.400    0.370  529.065   16.126
  219.198  159.969   73.367    0.386    0.365  529.431   16.168
  219.448  159.170   79.326    0.439    0.365  530.500   16.133
  219.698  158.582   80.010    0.423    0.366  531.566   15.942
  219.948  158.708   78.861    0.428    0.371  531.931   15.867
  220.198  158.635   74.221    0.426    0.373  532.389   15.871
  220.448  158.866   77.238    0.453    0.362  532.558   15.874
  220.698  158.894   78.170    0.440    0.349  532.720   15.529
  220.948  159.014   78.367    0.412    0.337  532.888   15.338
  221.198  159.054   76.543    0.406    0.332  533.050   15.224
  221.448  159.170   77.109    0.390    0.335  533.012   15.151
  221.698  159.400   80.921    0.406    0.331  532.879   15.154
  221.948  159.736   81.179    0.384    0.336  532.329   15.351
  222.198  159.970   84.255    0.386    0.347  531.902   15.743
  222.448  160.608   84.087    0.384    0.352  531.561   16.174
  222.698  161.567   75.710    0.390    0.351  531.328   16.449
  222.948  162.212   71.130    0.402    0.344  531.598   16.141
  223.198  162.552   69.124    0.407    0.348  532.658   15.524
  223.448  162.462   68.647    0.425    0.340  533.826   15.217
  223.698  162.284   67.069    0.410    0.332  534.190   15.142
  223.948  162.519   56.000    0.411    0.323  534.548   14.991
  224.198  162.550   57.054    0.407    0.312  534.414   14.916
  224.448  162.564   61.357    0.400    0.347  534.173   14.998
  224.698  163.005   62.535    0.441    0.375  534.345   15.195
  224.948  162.727   63.650    0.424    0.367  534.405   15.315
  225.198  162.445   64.398    0.420    0.356  534.475   15.318
  225.448  162.255   64.719    0.419    0.351  534.629   15.283
  225.698  162.072   64.916    0.402    0.349  534.692   15.287
  225.948  162.098   65.422    0.454    0.339  534.958   15.290
  226.198  162.536   61.575    0.448    0.342  535.131   15.255
  226.448  162.975   60.243    0.445    0.357  535.084   15.258
  226.698  163.213   55.970    0.460    0.361  534.955   15.223
  226.948  163.241   54.208    0.410    0.369  534.908   15.226
  227.198  163.053   55.263    0.402    0.375  534.881   15.229
  227.448  162.572   56.992    0.391    0.369  534.751   15.232
  227.698  162.073   56.822    0.392    0.364  534.708   15.236
  227.948  161.491   55.614    0.385    0.362  534.675   15.240
  228.198  161.505   55.932    0.402    0.362  534.531   15.243
  228.448  161.534   57.968    0.416    0.359  534.493   15.246
  228.698  161.867   59.267    0.415    0.358  534.569   15.249
  228.948  161.893   58.792    0.405    0.361  534.828   15.136
  229.198  162.023   58.194    0.400    0.367  534.897   15.140
  229.448  162.353   58.763    0.379    0.367  534.650   15.105
  229.698  162.597   59.571    0.351    0.355  534.724   15.069
  229.948  162.815   61.360    0.410    0.361  534.585   15.034
  230.198  162.634   60.700    0.436    0.365  534.749   15.038
  230.448  162.557   60.225    0.412    0.363  534.508   15.041
  230.698  162.170   61.710    0.390    0.364  534.278   15.006
  230.948  161.896   61.847    0.439    0.370  534.342   14.970
  231.198  161.922   59.472    0.447    0.369  534.301   14.974
  231.448  161.533   58.507    0.433    0.364  534.170   14.938
  231.698  161.453   59.867    0.476    0.362  534.131   14.864
  231.948  161.168   63.495    0.444    0.364  534.298   14.752
  232.198  160.882   60.630    0.409    0.364  533.961   14.677
  232.448  160.605   64.200    0.475    0.359  533.824   14.641
  232.698  160.521   70.336    0.465    0.354  533.988   14.606
  232.948  160.957   76.536    0.440    0.348  533.951   14.610
  233.198  161.190   71.466    0.437    0.346  533.918   14.652
  233.448  161.627   71.609    0.453    0.347  534.078   14.655
  233.698  161.759   70.944    0.458    0.347  534.332   14.697
  233.948  161.896   74.879    0.466    0.343  534.398   14.700
  234.198  162.029   71.584    0.471    0.339  534.174   14.704
  234.448  162.145   70.376    0.485    0.336  534.125   14.707
  234.698  162.076   64.632    0.431    0.331  534.089   14.711
  234.948  161.885   66.299    0.415    0.328  534.263   14.714
  235.198  161.919   71.641    0.450    0.323  534.731   14.679
  235.448  161.933   74.228    0.456    0.328  535.190   14.682
  235.698  161.456   74.490    0.455    0.330  535.657   14.686
  235.948  161.268   72.174    0.445    0.324  536.223   14.728
  236.198  160.984   71.085    0.448    0.321  536.386   14.731
  236.448  161.008   69.018    0.472    0.324  536.649   14.696
  236.698  161.240   72.279    0.431    0.327  537.312   14.467
  236.948  161.373   72.354    0.456    0.327  538.072   14.237
  237.198  161.394   69.981    0.463    0.322  538.946   13.969
  237.448  161.313   69.625    0.453    0.324  539.711   13.584
  237.698  161.132   73.438    0.450    0.328  540.466   13.199
  237.948  160.954   77.983    0.454    0.327  540.638   12.698
  238.198  160.878   80.693    0.499    0.330  540.402   12.391
  238.448  160.900   81.135    0.481    0.332  539.763   12.162
  238.698  161.553   82.374    0.459    0.329  540.125   12.320
  238.948  161.882   87.412    0.429    0.328  542.297   12.518
  239.198  162.321   87.794    0.430    0.332  550.168   12.404
  239.448  162.341   88.848    0.484    0.331  565.150   11.166
  239.698  161.969   93.397    0.455    0.329  576.027    8.724
  239.948  161.985   93.838    0.450    0.326  586.904    6.864
  240.198  161.495   93.607    0.470    0.316  598.682    5.547
  240.448  161.112   99.990    0.428    0.301  601.045    4.969
  240.698  161.138  106.497    0.470    0.264  599.811    4.973
  240.948  161.677  114.902    0.466    0.203  603.880    4.975
  241.198  162.111  111.425    0.486    0.171  607.947    4.901
  241.448  162.960  124.669    0.430    0.144  610.210    4.827
  241.698  164.015  135.770    0.469    0.155  610.974    4.792
  241.948  164.656  139.582    0.536    0.209  610.840    4.834
  242.198  165.199  142.842    0.553    0.210  608.801    4.876
  242.448  166.466  140.650    0.535    0.207  605.663    4.919
  242.698  167.004  138.399    0.513    0.200  602.623    4.999
  242.948  166.511  142.761    0.520    0.212  598.684    5.119
  243.198  164.997  151.839    0.551    0.204  593.139    5.433
  243.448  164.201  145.669    0.542    0.211  586.796    5.980
  243.698  163.499  151.500    0.545    0.217  577.651    6.760
  243.948  162.804  137.368    0.544    0.220  567.904    6.314
  244.198  162.417  130.153    0.504    0.219  558.455    7.529
  244.448  161.822  127.534    0.504    0.213  551.310    9.718
  244.698  161.541  132.693    0.528    0.209  544.568   11.752
  244.948  161.669  132.340    0.502    0.218  538.623   13.123
  245.198  162.519  118.573    0.458    0.238  539.087   13.519
  245.448  163.571  108.420    0.429    0.218  540.152   13.252
  245.698  163.497   84.426    0.345    0.184  540.817   12.753
  245.948  161.978   82.602    0.243    0.141  540.877   12.448
  246.198  161.795   88.987    0.330    0.253  540.641   12.337
  246.448  162.334   99.473    0.477    0.299  540.498   12.344
  246.698  163.085  101.019    0.456    0.314  540.868   12.389
  246.948  163.521   99.502    0.438    0.317  541.230   12.395
  247.198  163.647  104.173    0.463    0.308  540.693   12.402
  247.448  163.881  101.552    0.454    0.307  540.458   12.448
  247.698  163.699   95.563    0.453    0.308  540.122   12.494
  247.948  163.208   88.044    0.488    0.307  540.084   12.500
  248.198  162.923   91.611    0.485    0.306  540.352   12.545
  248.448  162.751   84.277    0.456    0.306  541.116   12.590
  248.698  162.771   88.087    0.451    0.306  542.386   12.557
  248.948  162.488   91.224    0.438    0.309  544.753   12.409
