~VERSION INFORMATION
 VERS.                 2.0:   CWLS LOG ASCII STANDARD -VERSION 2.0
 WRAP.                  NO:   ONE LINE PER DEPTH STEP
~WELL INFORMATION BLOCK
#MNEM.UNIT           DATA                    DESCRIPTION OF MNEMONIC
#---------    -------------------            -------------------------------
# Generated from Intellog Unique Number	CS_67_68/WELL/819
WELL.         GULF OIL CANADA LTD            : Well_name    - WELL
LOC .         00/11-07-068-17W4/0            : Location     - LOCATION
UWI .         00/11-07-068-17W4/0            : Uwi          - UNIQUE WELL ID
ENTR.         SP                             : Entered      - ENTERED BY
SRVC.         SCHLUMBERGER                   : Scn          - SERVICE COMPANY
STRT.M        298.704                        : top_depth    - START DEPTH
STOP.M        545.454                        : bot_depth    - STOP DEPTH
STEP.M        0.25                           : increment    - STEP LENGTH
 NULL. -999.2500:NULL Value
~CURVE INFORMATION BLOCK
#MNEM UNIT       ERCB CURVE CODE    CURVE DESCRIPTION
#-----------   ------------------   ----------------------------------
DEPT.M        00 001 00 00         : DEPTH        - DEPTH
GR  .API      00 310 00 00         : GR           - GAMMA RAY
DPHI.V/V      00 890 00 00         : PHID         - DENSITY POROSITY (SANDSTONE)
NPHI.V/V      00 330 00 00         : PHIN         - NEUTRON POROSITY (SANDSTONE)
ILD .OHMM     00 120 00 00         : RESD         - DEEP RESISTIVITY (DIL)
~PARAMETER INFORMATION
#MNEM.UNIT           DATA             DESCRIPTION OF MNEMONIC
#---------         -----------     ------------------------------
GL  .M        176.376              : gl           - GROUND LEVEL ELEVATION
EREF.M        177.595              : kb           - ELEVATION OF DEPTH REFERENCE
DATM.M        176.376              : datum        - DATUM ELEVATION
TDD .M        169.362              : tdd          - TOTAL DEPTH DRILLER
RUN .         ONE                  : Run          - RUN NUMBER
ENG .         BILL                 : Engineer     - RECORDING ENGINEER
WIT .         JIM                  : Witness      - WITNESSED BY
MUD .         GEL                  : Mud_type     - MUD TYPE
MATR.         SANDSTONE            : Logunit      - NEUTRON MATRIX
TMAX.C        20                   : BHT          - MAXIMUM RECORDED TEMPERATURE
BHTD.M        169.362              : BHTDEP       - MAXIMUM RECORDED TEMPERATURE
MATR.         1                    : LOGUNIT      - NEUTRON MATRIX
RMT .C        25                   : MDTP         - TEMPERATURE OF MUD
NEUT.         1                    : NEUTRON      - NEUTRON TYPE
RESI.         0                    : RESIST       - RESISTIVITY TYPE
RMC .OHMM     0.25                 : RMC          - RESISTIVITY OF MUD CAKE
RMF .OHMM     0.25                 : RMF          - RESISTIVITY OF MUD FILTRATE
SUFT.C        15                   : SUFT         - SURFACE TEMPERATURE
~A  DEPTH       GR     PHID     PHIN     RESD
# ...
  516.204   85.548    0.163    0.295    7.001
  516.454   83.751    0.165    0.299    6.914
  516.704   73.625    0.184    0.296    6.703
  516.954   66.817    0.197    0.294    6.511
  517.204   63.922    0.211    0.296    6.287
  517.454   62.284    0.212    0.303    6.245
  517.704   62.648    0.205    0.305    6.341
  517.954   74.086    0.196    0.304    6.576
  518.204   81.184    0.193    0.316    6.988
  518.454   87.121    0.184    0.320    7.182
  518.704   93.280    0.178    0.326    7.364
  518.954   98.630    0.172    0.340    7.467
  519.204   97.225    0.167    0.332    7.482
  519.454   98.183    0.171    0.325    7.389
  519.704  100.231    0.177    0.336    7.327
  519.954   95.899    0.180    0.329    7.140
  520.204   90.358    0.175    0.318    6.920
  520.454   87.398    0.187    0.316    6.833
  520.704   95.185    0.189    0.324    6.746
  520.954   99.295    0.177    0.314    6.704
  521.204   98.996    0.170    0.329    6.653
  521.454   87.180    0.175    0.326    6.540
  521.704   79.452    0.172    0.306    6.488
  521.954   76.155    0.194    0.296    6.439
  522.204   74.826    0.190    0.286    6.395
  522.454   74.458    0.179    0.280    6.366
  522.704   75.290    0.171    0.279    6.321
  522.954   76.373    0.169    0.279    6.224
  523.204   77.571    0.183    0.290    6.174
  523.454   79.652    0.181    0.304    6.147
  523.704   82.597    0.167    0.311    6.102
  523.954   85.126    0.178    0.305    6.121
  524.204   85.959    0.185    0.317    6.235
  524.454   79.268    0.181    0.327    6.508
  524.704   73.881    0.187    0.312    6.749
  524.954   72.830    0.195    0.294    6.926
  525.204   77.801    0.203    0.299    7.037
  525.454   81.166    0.206    0.310    7.097
  525.704   86.185    0.197    0.316    7.040
  525.954   89.287    0.182    0.328    7.065
  526.204   87.073    0.203    0.360    7.269
  526.454   83.882    0.343    0.428    7.510
  526.704   81.990    0.446    0.479    7.772
  526.954   81.314    0.490    0.552    8.133
  527.204   79.590    0.511    0.579    8.340
  527.454   74.800    0.524    0.595    8.394
  527.704   72.360    0.533    0.593    8.341
  527.954   73.237    0.521    0.557    8.158
  528.204   76.742    0.307    0.491    7.784
  528.454   82.529    0.254    0.427    7.293
  528.704   87.937    0.217    0.365    7.101
  528.954   91.999    0.197    0.345    6.766
  529.204   95.850    0.202    0.330    6.429
  529.454  100.465    0.205    0.320    6.173
  529.704  107.379    0.199    0.329    5.930
  529.954  115.472    0.193    0.350    5.756
  530.204  124.563    0.183    0.360    5.659
  530.454  131.540    0.173    0.366    5.684
  530.704  135.895    0.164    0.358    5.738
  530.954  138.902    0.160    0.370    5.708
  531.204  138.712    0.171    0.392    5.651
  531.454  135.827    0.175    0.402    5.521
  531.704  132.310    0.161    0.413    5.487
  531.954  137.271    0.157    0.417    5.165
  532.204  142.335    0.171    0.413    4.905
  532.454  144.412    0.180    0.432    4.798
  532.704  145.451    0.191    0.448    4.777
  532.954  123.507    0.198    0.457    4.904
  533.204   89.984    0.185    0.456    5.436
  533.454   71.210    0.131    0.395    5.870
  533.704   58.631    0.105    0.344    6.411
  533.954   55.750    0.087    0.329    6.857
  534.204   53.776    0.076    0.318    7.290
  534.454   53.074    0.065    0.308    7.868
  534.704   53.450    0.077    0.289    8.532
  534.954   54.237    0.090    0.275    8.698
  535.204   55.062    0.096    0.283    8.483
  535.454   55.808    0.085    0.307    8.455
  535.704   51.817    0.075    0.328    8.737
  535.954   50.053    0.069    0.317    9.338
  536.204   48.894    0.063    0.301    9.835
  536.454   48.652    0.055    0.287   10.138
  536.704   47.956    0.052    0.277   10.439
  536.954   45.290    0.061    0.272   10.429
  537.204   41.545    0.067    0.267   10.576
  537.454   39.108    0.054    0.258   10.880
  537.704   37.542    0.040    0.253   11.275
  537.954   40.350    0.033    0.251   10.356
  538.204   48.688    0.034    0.253   10.665
  538.454   53.658    0.040    0.266   11.067
  538.704   58.230    0.033    0.272   11.519
  538.954   62.115    0.045    0.260   11.892
  539.204   65.197    0.052    0.251   12.222
  539.454   67.180    0.043    0.254   12.496
  539.704   67.434    0.030    0.273   12.813
  539.954   67.565    0.020    0.284   13.000
  540.204   68.114    0.017    0.296   13.003
  540.454   71.127    0.018    0.285   12.262
  540.704   77.276    0.022    0.268   11.045
  540.954   87.972    0.031    0.282   10.301
  541.204   99.737    0.054    0.304    9.605
  541.454  103.448    0.073    0.324    9.002
  541.704  103.585    0.088    0.347    8.514
  541.954   97.725    0.100    0.359    9.323
  542.204   89.705    0.114    0.371   10.566
  542.454   80.466    0.124    0.384   12.201
  542.704   70.358    0.130    0.295   13.635
  542.954   57.274    0.051    0.280   15.928
  543.204   47.423    0.013    0.268   17.140
  543.454   46.129   -0.002    0.270   15.520
  543.704   46.976   -0.011    0.261   14.383
  543.954   44.040   -0.011    0.252   13.848
  544.204   26.418   -0.003    0.244   13.582
  544.454   17.723    0.008    0.272   13.545
  544.704   15.925    0.018    0.292   13.736
  544.954   15.395    0.027    0.297   14.156
  545.204   15.295    0.016    0.294   14.454
  545.454   15.497    0.013    0.286   14.716
