~VERSION INFORMATION
 VERS.                 2.0:   CWLS LOG ASCII STANDARD -VERSION 2.0
 WRAP.                  NO:   ONE LINE PER DEPTH STEP
~WELL INFORMATION BLOCK
#MNEM.UNIT           DATA                    DESCRIPTION OF MNEMONIC
#---------    -------------------            -------------------------------
# Generated from Intellog Unique Number	CS_73_76/WELL/3231
WELL.         10-08-076-05W4                 : Well_name    - WELL
LOC .         00/10-08-076-05W4/0            : Location     - LOCATION
UWI .         00/10-08-076-05W4/0            : Uwi          - UNIQUE WELL ID
ENTR.         SP                             : Entered      - ENTERED BY
SRVC.         SCHLUMBERGER                   : Scn          - SERVICE COMPANY
STRT.M        175                            : top_depth    - START DEPTH
STOP.M        420                            : bot_depth    - STOP DEPTH
STEP.M        0.25                           : increment    - STEP LENGTH
 NULL. -999.2500:NULL Value
~CURVE INFORMATION BLOCK
#MNEM UNIT       ERCB CURVE CODE    CURVE DESCRIPTION
#-----------   ------------------   ----------------------------------
DEPT.M        00 001 00 00         : DEPTH        - DEPTH
GR  .API      00 310 00 00         : GR           - GAMMA RAY
DPHI.V/V      00 890 00 00         : PHID         - DENSITY POROSITY (LIMESTONE)
NPHI.V/V      00 330 00 00         : PHIN         - NEUTRON POROSITY (LIMESTONE)
ILD .OHMM     00 120 00 00         : RESD         - DEEP RESISTIVITY (DIL)
~PARAMETER INFORMATION
#MNEM.UNIT           DATA             DESCRIPTION OF MNEMONIC
#---------         -----------     ------------------------------
GL  .M        578.86               : gl           - GROUND LEVEL ELEVATION
EREF.M        582.66               : kb           - ELEVATION OF DEPTH REFERENCE
DATM.M        578.86               : datum        - DATUM ELEVATION
TDD .M        429                  : tdd          - TOTAL DEPTH DRILLER
RUN .         ONE                  : Run          - RUN NUMBER
ENG .         BILL                 : Engineer     - RECORDING ENGINEER
WIT .         JIM                  : Witness      - WITNESSED BY
MUD .         GEL                  : Mud_type     - MUD TYPE
MATR.         LIMESTONE            : Logunit      - NEUTRON MATRIX
TMAX.C        21                   : BHT          - MAXIMUM RECORDED TEMPERATURE
BHTD.M        429                  : BHTDEP       - MAXIMUM RECORDED TEMPERATURE
MATR.         1                    : LOGUNIT      - NEUTRON MATRIX
RMT .C        25                   : MDTP         - TEMPERATURE OF MUD
NEUT.         1                    : NEUTRON      - NEUTRON TYPE
RESI.         0                    : RESIST       - RESISTIVITY TYPE
RMC .OHMM     0.25                 : RMC          - RESISTIVITY OF MUD CAKE
RMF .OHMM     0.25                 : RMF          - RESISTIVITY OF MUD FILTRATE
SUFT.C        15                   : SUFT         - SURFACE TEMPERATURE
~A  DEPTH       GR     PHID     PHIN     RESD
# ...
  262.000   82.888    0.256    0.477    5.594
  262.250   79.855    0.289    0.464    5.390
  262.500   76.821    0.312    0.443    5.292
  262.750   71.358    0.318    0.434    5.194
  263.000   71.361    0.289    0.428    5.099
  263.250   76.221    0.263    0.444    5.006
  263.500   86.548    0.260    0.471    4.914
  263.750   90.195    0.316    0.499    4.560
  264.000   89.590    0.331    0.481    4.232
  264.250   85.342    0.323    0.487    4.077
  264.500   82.914    0.317    0.484    4.155
  264.750   78.058    0.322    0.491    4.479
  265.000   73.810    0.323    0.506    4.920
  265.250   75.027    0.304    0.471    5.404
  265.500   74.423    0.288    0.416    5.825
  265.750   75.033    0.252    0.422    6.398
  266.000   74.428    0.252    0.433    6.897
  266.250   72.609    0.263    0.458    7.575
  266.500   71.397    0.289    0.453    8.015
  266.750   73.829    0.297    0.442    7.438
  267.000   78.690    0.291    0.450    5.213
  267.250   84.157    0.279    0.502    4.324
  267.500   90.840    0.261    0.516    4.013
  267.750   93.272    0.255    0.514    3.655
  268.000   96.311    0.261    0.486    3.521
  268.250  102.387    0.269    0.475    3.657
  268.500   85.385    0.288    0.464    4.410
  268.750   64.740    0.322    0.464    5.627
  269.000   59.277    0.350    0.460    8.338
  269.250   53.207    0.357    0.455    9.331
  269.500   49.565    0.357    0.438    9.873
  269.750   47.139    0.345    0.427   10.251
  270.000   48.964    0.337    0.433   10.846
  270.250   50.788    0.337    0.420   11.262
  270.500   53.827    0.332    0.423   11.695
  270.750   53.830    0.333    0.422   11.697
  271.000   54.440    0.336    0.429   12.146
  271.250   55.657    0.343    0.428   12.613
  271.500   56.267    0.344    0.415   13.597
  271.750   56.876    0.339    0.400   13.855
  272.000   55.057    0.323    0.412   14.660
  272.250   54.452    0.324    0.406   14.939
  272.500   54.455    0.335    0.395   15.225
  272.750   55.065    0.347    0.427   15.229
  273.000   56.889    0.356    0.460   15.231
  273.250   56.285    0.357    0.471   14.675
  273.500   54.465    0.349    0.444   14.405
  273.750   53.254    0.343    0.433   14.142
  274.000   53.864    0.339    0.422   13.882
  274.250   54.473    0.332    0.407   13.884
  274.500   52.654    0.330    0.405   13.887
  274.750   53.265    0.340    0.413   13.633
  275.000   53.874    0.345    0.424   13.384
  275.250   52.055    0.346    0.428   13.386
  275.500   50.842    0.340    0.429   12.897
  275.750   49.630    0.341    0.429   12.661
  276.000   52.670    0.349    0.421   12.429
  276.250   55.101    0.350    0.418   11.975
  276.500   55.104    0.350    0.448   11.755
  276.750   55.714    0.358    0.452   11.115
  277.000   55.109    0.369    0.439   10.710
  277.250   54.504    0.379    0.433   10.318
  277.500   55.721    0.372    0.441   10.128
  277.750   55.724    0.368    0.439    9.942
  278.000   53.905    0.372    0.439    9.761
  278.250   53.907    0.374    0.444    9.581
  278.500   53.303    0.371    0.444    9.406
  278.750   52.698    0.364    0.439    9.234
  279.000   57.559    0.361    0.430    9.235
  279.250   61.813    0.361    0.416    9.237
  279.500   61.208    0.364    0.434    9.414
  279.750   59.389    0.369    0.483    9.594
  280.000   58.177    0.369    0.471    9.596
  280.250   57.572    0.367    0.416    9.599
  280.500   60.004    0.366    0.423    9.423
  280.750   60.614    0.367    0.428    9.424
  281.000   61.831    0.374    0.424    9.251
  281.250   61.226    0.416    0.429    8.270
  281.500   61.229    0.476    0.568    7.393
  281.750   66.697    0.615    0.587    6.734
  282.000   70.343    0.554    0.586    6.250
  282.250   72.775    0.390    0.496    5.381
  282.500   73.385    0.335    0.467    5.184
  282.750   73.388    0.328    0.480    5.802
  283.000   72.176    0.315    0.485    6.373
  283.250   71.571    0.291    0.469    7.267
  283.500   70.359    0.290    0.462    7.833
  283.750   72.184    0.296    0.465    8.134
  284.000   72.793    0.302    0.468    8.446
  284.250   70.974    0.303    0.462    8.607
  284.500   72.191    0.293    0.456    8.609
  284.750   70.979    0.290    0.456    8.611
  285.000   69.767    0.291    0.479    8.776
  285.250   68.555    0.300    0.502    8.944
  285.500   66.736    0.304    0.484    8.945
  285.750   66.739    0.306    0.461    9.116
  286.000   69.171    0.295    0.458    9.291
  286.250   69.173    0.297    0.466    9.468
  286.500   68.568    0.295    0.455    9.649
  286.750   68.571    0.297    0.460    9.833
  287.000   67.359    0.303    0.452   10.021
  287.250   65.539    0.303    0.450   10.213
  287.500   65.542    0.296    0.446   10.216
  287.750   68.581    0.288    0.427   10.218
  288.000   70.406    0.279    0.425    9.845
  288.250   73.445    0.276    0.424    9.663
  288.500   72.840    0.280    0.422    9.310
  288.750   72.842    0.274    0.418    8.970
  289.000   74.060    0.269    0.447    8.642
  289.250   74.062    0.282    0.464    8.021
  289.500   76.494    0.268    0.479    7.584
  289.750   79.533    0.259    0.491    7.445
  290.000   80.143    0.251    0.496    7.173
  290.250   80.146    0.249    0.488    7.174
  290.500   79.541    0.241    0.472    7.043
  290.750   77.722    0.231    0.464    7.045
  291.000   75.903    0.235    0.457    7.046
  291.250   76.512    0.237    0.456    6.917
  291.500   78.944    0.237    0.461    6.790
  291.750   81.376    0.240    0.469    6.421
  292.000   82.593    0.247    0.477    6.071
  292.250   81.988    0.244    0.486    5.849
  292.500   78.954    0.246    0.484    5.429
  292.750   77.742    0.257    0.511    5.133
  293.000   80.174    0.271    0.529    4.946
  293.250   84.428    0.277    0.524    4.765
  293.500   86.859    0.260    0.503    4.506
  293.750   85.648    0.250    0.508    4.104
  294.000   83.828    0.264    0.578    3.669
  294.250   80.794    0.294    0.606    3.405
  294.500   82.011    0.302    0.593    2.987
  294.750   85.658    0.288    0.555    2.825
  295.000   86.269    0.269    0.528    2.879
  295.250   85.056    0.255    0.546    2.989
  295.500   86.273    0.260    0.560    3.104
  295.750   89.313    0.257    0.556    3.104
  296.000   89.922    0.253    0.522    3.105
  296.250   88.710    0.254    0.512    3.106
  296.500   85.069    0.266    0.525    3.106
  296.750   82.642    0.270    0.531    3.166
  297.000   80.216    0.272    0.541    3.349
  297.250   79.004    0.275    0.523    3.679
  297.500   78.399    0.283    0.465    4.274
  297.750   80.224    0.285    0.467    4.694
  298.000   88.121    0.283    0.479    5.156
  298.250  100.269    0.288    0.497    5.663
  298.500   99.665    0.298    0.503    5.992
  298.750   76.590    0.305    0.498    6.459
  299.000   63.232    0.315    0.495    6.834
  299.250   61.413    0.315    0.458    7.367
  299.500   65.060    0.310    0.432    7.794
  299.750   75.994    0.305    0.431    8.246
  300.000   81.462    0.298    0.424    8.562
  300.250   83.286    0.289    0.419    8.891
  300.500   74.179    0.283    0.426    9.407
  300.750   71.145    0.294    0.434    9.768
  301.000   66.897    0.296    0.470   10.142
  301.250   64.471    0.293    0.446   10.730
  301.500   63.259    0.299    0.440   10.935
  301.750   62.047    0.305    0.454   11.355
  302.000   59.620    0.304    0.438   11.572
  302.250   57.193    0.298    0.407   11.360
  302.500   55.374    0.304    0.398   11.152
  302.750   55.377    0.313    0.404   10.947
  303.000   58.416    0.316    0.409   10.747
  303.250   61.455    0.321    0.418   10.549
  303.500   63.887    0.319    0.425   10.356
  303.750   65.711    0.308    0.427   10.359
  304.000   66.321    0.305    0.434   10.168
  304.250   65.109    0.299    0.437   10.171
  304.500   62.682    0.299    0.427   10.172
  304.750   60.863    0.304    0.427    9.986
  305.000   60.866    0.315    0.434    9.621
  305.250   60.868    0.310    0.440    9.098
