~VERSION INFORMATION
 VERS.                 2.0:   CWLS LOG ASCII STANDARD -VERSION 2.0
 WRAP.                  NO:   ONE LINE PER DEPTH STEP
~WELL INFORMATION BLOCK
#MNEM.UNIT           DATA                    DESCRIPTION OF MNEMONIC
#---------    -------------------            -------------------------------
# Generated from Intellog Unique Number	CS_73_76/WELL/2201
WELL.         PEX KIRBY                      : Well_name    - WELL
LOC .         00/11-18-074-08W4/0            : Location     - LOCATION
UWI .         00/11-18-074-08W4/0            : Uwi          - UNIQUE WELL ID
ENTR.         SP                             : Entered      - ENTERED BY
SRVC.         SCHLUMBERGER                   : Scn          - SERVICE COMPANY
STRT.M        290                            : top_depth    - START DEPTH
STOP.M        505                            : bot_depth    - STOP DEPTH
STEP.M        0.25                           : increment    - STEP LENGTH
 NULL. -999.2500:NULL Value
~CURVE INFORMATION BLOCK
#MNEM UNIT       ERCB CURVE CODE    CURVE DESCRIPTION
#-----------   ------------------   ----------------------------------
DEPT.M        00 001 00 00         : DEPTH        - DEPTH
ILD .OHMM     00 120 00 00         : RESD         - DEEP RESISTIVITY (DIL)
DPHI.V/V      00 890 00 00         : PHID         - DENSITY POROSITY (LIMESTONE)
NPHI.V/V      00 330 00 00         : PHIN         - NEUTRON POROSITY (LIMESTONE)
GR  .API      00 310 00 00         : GR           - GAMMA RAY
~PARAMETER INFORMATION
#MNEM.UNIT           DATA             DESCRIPTION OF MNEMONIC
#---------         -----------     ------------------------------
GL  .M        665.27               : gl           - GROUND LEVEL ELEVATION
EREF.M        669.23               : kb           - ELEVATION OF DEPTH REFERENCE
DATM.M        665.27               : datum        - DATUM ELEVATION
TDD .M        518                  : tdd          - TOTAL DEPTH DRILLER
RUN .         ONE                  : Run          - RUN NUMBER
ENG .         BILL                 : Engineer     - RECORDING ENGINEER
WIT .         JIM                  : Witness      - WITNESSED BY
MUD .         GEL                  : Mud_type     - MUD TYPE
MATR.         LIMESTONE            : Logunit      - NEUTRON MATRIX
TMAX.C        34                   : BHT          - MAXIMUM RECORDED TEMPERATURE
BHTD.M        518                  : BHTDEP       - MAXIMUM RECORDED TEMPERATURE
MATR.         1                    : LOGUNIT      - NEUTRON MATRIX
RMT .C        25                   : MDTP         - TEMPERATURE OF MUD
NEUT.         1                    : NEUTRON      - NEUTRON TYPE
RESI.         0                    : RESIST       - RESISTIVITY TYPE
RMC .OHMM     0.25                 : RMC          - RESISTIVITY OF MUD CAKE
RMF .OHMM     0.25                 : RMF          - RESISTIVITY OF MUD FILTRATE
SUFT.C        15                   : SUFT         - SURFACE TEMPERATURE
~A  DEPTH     RESD     PHID     PHIN       GR
# ...
  377.000    7.740    0.235    0.382   88.798
  377.250    8.194    0.244    0.365   86.331
  377.500    8.676    0.250    0.358   85.098
  377.750    9.012    0.253    0.354   83.245
  378.000    9.187    0.253    0.345   80.776
  378.250    8.356    0.236    0.375   78.926
  378.500    7.045    0.222    0.402   76.460
  378.750    5.402    0.207    0.419   80.803
  379.000    4.385    0.200    0.428   90.110
  379.250    4.065    0.201    0.425   95.077
  379.500    3.628    0.208    0.427   98.806
  379.750    3.428    0.208    0.433  100.676
  380.000    3.301    0.210    0.438  105.024
  380.250    3.178    0.215    0.445  105.034
  380.500    3.119    0.221    0.456  103.182
  380.750    3.120    0.223    0.473  105.053
  381.000    3.062    0.226    0.466  106.302
  381.250    3.062    0.224    0.481  103.212
  381.500    3.062    0.218    0.481  101.980
  381.750    3.242    0.203    0.465  101.370
  382.000    3.499    0.196    0.435  100.139
  382.250    4.073    0.193    0.394   97.051
  382.500    5.116    0.207    0.379   93.341
  382.750    5.733    0.225    0.386   90.250
  383.000    6.549    0.234    0.394   87.160
  383.250    7.066    0.234    0.382   90.889
  383.500    7.481    0.230    0.370   93.377
  383.750    7.921    0.228    0.368   91.527
  384.000    8.229    0.229    0.371   87.203
  384.250    8.388    0.236    0.377   85.969
  384.500    8.389    0.244    0.393   89.079
  384.750    8.390    0.252    0.399   90.326
  385.000    8.391    0.254    0.408   87.236
  385.250    8.392    0.251    0.410   86.005
  385.500    8.394    0.247    0.400   85.395
  385.750    8.556    0.247    0.393   84.783
  386.000    8.557    0.245    0.395   84.796
  386.250    8.723    0.237    0.403   84.802
  386.500    8.724    0.223    0.405   82.334
  386.750    8.892    0.204    0.389   83.584
  387.000    9.064    0.186    0.341   86.070
  387.250    9.066    0.159    0.325   89.181
  387.500    9.067    0.149    0.325   89.808
  387.750    8.898    0.162    0.345   83.620
  388.000    8.732    0.184    0.369   79.909
  388.250    8.250    0.205    0.399   76.819
  388.500    7.944    0.222    0.410   86.128
  388.750    7.364    0.216    0.416   90.476
  389.000    7.091    0.206    0.404   89.245
  389.250    6.828    0.184    0.399   88.014
  389.500    6.701    0.171    0.396   91.743
  389.750    6.702    0.164    0.395   97.335
  390.000    6.703    0.169    0.387   99.819
  390.250    6.704    0.173    0.387  102.930
  390.500    6.705    0.177    0.401  103.557
  390.750    6.580    0.178    0.408  100.471
  391.000    6.581    0.179    0.412   98.616
  391.250    6.458    0.184    0.400   95.529
  391.500    6.338    0.194    0.397   93.678
  391.750    5.988    0.206    0.410   93.069
  392.000    5.344    0.217    0.433   93.075
  392.250    4.506    0.228    0.446   96.808
  392.500    3.390    0.238    0.448   99.294
  392.750    2.858    0.242    0.443  103.026
  393.000    2.410    0.239    0.439  105.512
  393.250    2.234    0.237    0.457  106.760
  393.500    2.234    0.237    0.515  105.531
  393.750    2.235    0.231    0.524  102.441
  394.000    3.206    0.225    0.520   99.969
  394.250    3.803    0.228    0.491   98.739
  394.500    4.687    0.238    0.451   99.987
  394.750    5.154    0.234    0.410   95.660
  395.000    5.562    0.229    0.381   93.188
  395.250    5.669    0.231    0.392   90.099
  395.500    6.002    0.239    0.393   91.347
  395.750    6.235    0.247    0.393   95.076
  396.000    6.356    0.249    0.401   94.465
  396.250    6.478    0.248    0.399   88.277
  396.500    6.479    0.242    0.398   82.709
  396.750    6.731    0.237    0.399   78.378
  397.000    6.861    0.237    0.392   80.867
  397.250    7.128    0.245    0.384   86.456
  397.500    7.265    0.253    0.368   82.127
  397.750    7.405    0.255    0.356   75.942
  398.000    7.694    0.255    0.342   73.468
  398.250    7.695    0.243    0.335   69.758
  398.500    7.843    0.236    0.330   67.906
  398.750    7.844    0.222    0.346   72.873
  399.000    7.698    0.213    0.378   79.704
  399.250    7.699    0.211    0.400   82.191
  399.500    7.414    0.220    0.405   83.438
  399.750    7.275    0.224    0.378   84.071
  400.000    7.139    0.215    0.371   82.840
  400.250    7.007    0.212    0.372   79.128
  400.500    6.876    0.204    0.382   77.277
  400.750    6.877    0.201    0.389   79.767
  401.000    6.749    0.197    0.388   87.837
  401.250    6.750    0.196    0.378   94.663
  401.500    6.751    0.197    0.373   98.389
  401.750    6.881    0.205    0.368   95.922
  402.000    6.882    0.215    0.367   96.551
  402.250    7.149    0.231    0.364   97.180
  402.500    7.287    0.242    0.362   94.088
  402.750    7.429    0.256    0.363   87.279
  403.000    7.429    0.260    0.365   82.952
  403.250    7.431    0.258    0.386   82.339
  403.500    7.292    0.251    0.405   82.969
  403.750    6.890    0.243    0.411   86.698
  404.000    6.387    0.241    0.407   87.947
  404.250    6.268    0.238    0.396   84.236
  404.500    5.922    0.230    0.390   79.906
  404.750    5.811    0.227    0.384   81.776
  405.000    5.924    0.225    0.379   85.505
  405.250    5.925    0.224    0.371   88.614
  405.500    6.040    0.222    0.369   88.622
  405.750    5.706    0.220    0.370   88.634
  406.000    5.816    0.217    0.375   92.363
  406.250    5.929    0.224    0.401   93.609
  406.500    6.159    0.247    0.427   87.422
  406.750    6.278    0.275    0.424   84.329
  407.000    6.399    0.284    0.401   80.000
  407.250    6.647    0.285    0.400   76.912
  407.500    6.905    0.279    0.416   76.301
  407.750    7.173    0.268    0.392   76.310
  408.000    8.194    0.232    0.331   75.701
  408.250    9.184    0.149    0.275   70.750
  408.500   13.682    0.069    0.228   63.940
  408.750   19.626    0.026    0.215   55.275
  409.000   22.846    0.047    0.204   50.943
  409.250   24.189    0.115    0.243   54.673
  409.500   16.869    0.167    0.317   63.363
  409.750   10.904    0.229    0.362   67.087
  410.000    8.685    0.260    0.391   75.156
  410.250    7.185    0.287    0.412   79.503
  410.500    6.412    0.295    0.398   80.753
  410.750    5.833    0.292    0.401   80.761
  411.000    5.407    0.291    0.394   78.910
  411.250    5.618    0.287    0.373   74.582
  411.500    5.836    0.283    0.362   72.112
  411.750    5.837    0.275    0.375   70.261
  412.000    6.064    0.269    0.394   70.891
  412.250    6.299    0.262    0.386   73.380
  412.500    6.797    0.256    0.379   77.107
  412.750    6.928    0.248    0.383   78.975
  413.000    6.929    0.234    0.392   80.227
  413.250    6.800    0.222    0.402   84.577
  413.500    6.185    0.240    0.411   85.823
  413.750    5.020    0.254    0.413   88.314
  414.000    3.999    0.262    0.388   87.703
  414.250    3.778    0.238    0.373   83.992
  414.500    4.234    0.213    0.387   83.382
  414.750    4.657    0.199    0.399   85.871
  415.000    4.930    0.197    0.410   88.358
  415.250    5.320    0.202    0.397   89.606
  415.500    5.632    0.208    0.388   87.756
  415.750    5.527    0.213    0.387   89.008
  416.000    5.322    0.212    0.371   90.881
  416.250    4.750    0.198    0.379   92.748
  416.500    4.574    0.182    0.382   95.234
  416.750    4.752    0.164    0.373   96.481
  417.000    5.127    0.148    0.367   90.914
  417.250    5.532    0.134    0.367   86.584
  417.500    6.564    0.111    0.319   83.495
  417.750    7.082    0.096    0.295   82.263
  418.000    8.403    0.102    0.263   78.555
  418.250    9.067    0.160    0.296   73.603
  418.500    9.783    0.179    0.340   77.331
  418.750   10.163    0.191    0.358   83.541
  419.000    9.787    0.198    0.357   88.511
  419.250    8.735    0.204    0.369   90.997
  419.500    8.253    0.205    0.380   93.484
  419.750    7.797    0.203    0.391   94.734
  420.000    7.367    0.198    0.402   96.603
  420.250    7.093    0.195    0.404   96.612
