~VERSION INFORMATION
 VERS.                 2.0:   CWLS LOG ASCII STANDARD -VERSION 2.0
 WRAP.                  NO:   ONE LINE PER DEPTH STEP
~WELL INFORMATION BLOCK
#MNEM.UNIT           DATA                    DESCRIPTION OF MNEMONIC
#---------    -------------------            -------------------------------
# Generated from Intellog Unique Number	CW_82_90/WELL/3454
WELL.         TEXACO CORN LAKE               : Well_name    - WELL
LOC .         00/11-24-088-25W4/0            : Location     - LOCATION
UWI .         00/11-24-088-25W4/0            : Uwi          - UNIQUE WELL ID
ENTR.         MAX                            : Entered      - ENTERED BY
SRVC.         SCHLUMBERGER                   : Scn          - SERVICE COMPANY
STRT.M        190                            : top_depth    - START DEPTH
STOP.M        422                            : bot_depth    - STOP DEPTH
STEP.M        0.25                           : increment    - STEP LENGTH
 NULL. -999.2500:NULL Value
~CURVE INFORMATION BLOCK
#MNEM UNIT       ERCB CURVE CODE    CURVE DESCRIPTION
#-----------   ------------------   ----------------------------------
DEPT.M        00 001 00 00         : DEPTH        - DEPTH
ILD .OHMM     00 120 00 00         : RESD         - DEEP RESISTIVITY (DIL)
NPHI.V/V      00 330 00 00         : PHIN         - NEUTRON POROSITY (SANDSTONE)
DPHI.V/V      00 890 00 00         : PHID         - DENSITY POROSITY (SANDSTONE)
CALI.MM       00 280 01 00         : CAL          - CALIPER
GR  .API      00 310 00 00         : GR           - GAMMA RAY
~PARAMETER INFORMATION
#MNEM.UNIT           DATA             DESCRIPTION OF MNEMONIC
#---------         -----------     ------------------------------
GL  .M        623.1                : gl           - GROUND LEVEL ELEVATION
EREF.M        626.7                : kb           - ELEVATION OF DEPTH REFERENCE
DATM.M        623.1                : datum        - DATUM ELEVATION
TDD .M        424.8                : tdd          - TOTAL DEPTH DRILLER
RUN .         ONE                  : Run          - RUN NUMBER
ENG .         BILL                 : Engineer     - RECORDING ENGINEER
WIT .         JIM                  : Witness      - WITNESSED BY
MUD .         GEL                  : Mud_type     - MUD TYPE
MATR.         SANDSTONE            : Logunit      - NEUTRON MATRIX
TMAX.C        31                   : BHT          - MAXIMUM RECORDED TEMPERATURE
BHTD.M        424.8                : BHTDEP       - MAXIMUM RECORDED TEMPERATURE
MATR.         1                    : LOGUNIT      - NEUTRON MATRIX
RMT .C        21                   : MDTP         - TEMPERATURE OF MUD
NEUT.         1                    : NEUTRON      - NEUTRON TYPE
RESI.         0                    : RESIST       - RESISTIVITY TYPE
RMC .OHMM     4.03                 : RMC          - RESISTIVITY OF MUD CAKE
RMF .OHMM     4.45                 : RMF          - RESISTIVITY OF MUD FILTRATE
SUFT.C        -15                  : SUFT         - SURFACE TEMPERATURE
~A  DEPTH     RESD     PHIN     PHID      CAL       GR
# ...
  263.000    7.573    0.456    0.300  221.937   59.057
  263.250    7.670    0.465    0.296  222.513   57.334
  263.500    7.833    0.476    0.297  222.595   57.371
  263.750    7.921    0.489    0.300  222.193   57.420
  264.000    8.167    0.449    0.305  222.265   57.179
  264.250    8.339    0.442    0.308  221.359   57.815
  264.500    8.760    0.438    0.305  220.957   57.568
  264.750    9.114    0.439    0.299  221.050   56.142
  265.000    9.661    0.440    0.301  221.121   54.406
  265.250   10.731    0.424    0.309  221.697   52.677
  265.500   11.269    0.418    0.318  222.273   51.837
  265.750   11.406    0.407    0.321  221.862   52.182
  266.000   11.116    0.402    0.318  221.450   53.121
  266.250   10.060    0.433    0.308  222.026   55.554
  266.500    8.608    0.449    0.290  222.602   58.567
  266.750    7.791    0.479    0.297  223.682   61.574
  267.000    7.595    0.474    0.294  224.258   66.076
  267.250    7.407    0.480    0.289  224.340   68.503
  267.500    7.370    0.495    0.293  224.422   67.360
  267.750    7.239    0.457    0.298  224.504   62.370
  268.000    7.055    0.446    0.298  223.608   60.641
  268.250    7.007    0.442    0.296  223.680   61.283
  268.500    7.027    0.446    0.294  223.773   62.234
  268.750    7.174    0.461    0.290  223.844   63.166
  269.000    7.397    0.459    0.284  223.926   64.395
  269.250    7.487    0.455    0.283  223.020   67.130
  269.500    7.576    0.448    0.284  222.608   68.649
  269.750    7.595    0.445    0.283  222.711   68.698
  270.000    7.616    0.458    0.284  222.793   66.673
  270.250    7.632    0.492    0.281  222.865   66.135
  270.500    7.649    0.488    0.274  222.947   64.110
  270.750    7.668    0.476    0.269  223.039   62.967
  271.000    7.691    0.457    0.274  222.637   61.540
  271.250    7.566    0.446    0.277  222.709   60.694
  271.500    6.974    0.449    0.283  222.791   60.447
  271.750    5.389    0.468    0.294  223.367   62.287
  272.000    4.202    0.478    0.310  224.448   64.405
  272.250    3.496    0.491    0.295  227.978   67.122
  272.500    2.752    0.507    0.280  234.976   70.141
  272.750    2.446    0.525    0.277  249.395   71.975
  273.000    2.407    0.561    0.298  254.417   71.135
  273.250    2.411    0.542    0.303  261.416   69.999
  273.500    2.440    0.567    0.309  259.028   68.856
  273.750    2.493    0.581    0.316  257.648   68.912
  274.000    2.571    0.555    0.341  253.263   69.251
  274.250    2.649    0.540    0.323  248.405   70.782
  274.500    2.782    0.577    0.309  247.015   72.913
  274.750    3.005    0.571    0.318  252.532   72.067
  275.000    3.305    0.564    0.312  255.084   70.930
  275.250    3.775    0.557    0.288  256.154   70.090
  275.500    4.231    0.538    0.280  262.164   71.041
  275.750    4.878    0.522    0.279  260.775   73.159
  276.000    5.518    0.501    0.296  251.954   73.505
  276.250    6.544    0.482    0.284  231.771   70.596
  276.500    6.558    0.467    0.265  227.911   69.163
  276.750    6.103    0.481    0.261  227.509   68.916
  277.000    5.422    0.499    0.272  227.581   68.669
  277.250    4.554    0.512    0.288  230.627   68.125
  277.500    3.719    0.519    0.301  240.095   67.878
  277.750    3.039    0.540    0.317  261.925   67.631
  278.000    2.727    0.559    0.332  298.091   67.686
  278.250    2.657    0.571    0.347  274.944   67.136
  278.500    2.639    0.569    0.388  234.001   65.111
  278.750    2.772    0.557    0.436  246.938   63.375
  279.000    2.966    0.564    0.444  249.984   65.814
  279.250    3.084    0.552    0.412  240.680   68.519
  279.500    3.241    0.565    0.354  255.603   72.428
  279.750    3.341    0.549    0.359  253.205   71.588
  280.000    3.475    0.532    0.407  242.408   70.148
  280.250    3.583    0.511    0.374  241.512   69.315
  280.500    3.626    0.515    0.316  249.499   71.439
  280.750    3.775    0.542    0.288  256.991   73.266
  281.000    3.925    0.540    0.312  262.024   74.205
  281.250    4.123    0.535    0.291  252.709   75.446
  281.500    4.330    0.534    0.306  253.790   75.489
  281.750    4.591    0.537    0.318  254.366   74.649
  282.000    4.865    0.533    0.334  249.013   73.519
  282.250    5.205    0.529    0.355  238.217   69.709
  282.500    5.317    0.529    0.373  236.333   64.126
  282.750    5.186    0.535    0.359  244.319   64.187
  283.000    4.824    0.539    0.366  236.981   65.114
  283.250    4.490    0.557    0.396  230.651   68.429
  283.500    4.217    0.559    0.368  241.117   72.925
  283.750    3.998    0.536    0.339  237.237   78.316
  284.000    3.861    0.515    0.236  235.353   79.551
  284.250    3.836    0.519    0.231  235.929   79.896
  284.500    3.882    0.517    0.217  239.459   80.538
  284.750    3.926    0.511    0.208  247.456   81.483
  285.000    3.975    0.514    0.228  250.523   83.008
  285.250    3.985    0.518    0.205  242.680   83.662
  285.500    3.921    0.513    0.193  237.328   85.194
  285.750    3.929    0.507    0.222  238.428   85.243
  286.000    3.940    0.505    0.233  239.468   84.996
  286.250    3.949    0.506    0.245  241.526   84.749
  286.500    3.960    0.538    0.263  248.524   84.205
  286.750    4.005    0.514    0.279  254.061   83.075
  287.000    4.053    0.502    0.291  246.228   82.222
  287.250    3.990    0.505    0.269  250.767   81.086
  287.500    3.963    0.523    0.289  255.789   80.252
  287.750    3.972    0.537    0.320  257.343   79.412
  288.000    4.056    0.551    0.372  250.509   77.985
  288.250    4.221    0.549    0.376  239.228   75.064
  288.500    4.474    0.545    0.338  245.239   72.143
  288.750    4.791    0.534    0.307  241.863   69.821
  289.000    4.844    0.521    0.332  233.546   68.981
  289.250    4.768    0.496    0.321  226.228   68.740
  289.500    4.521    0.503    0.306  226.814   68.196
  289.750    4.051    0.511    0.338  228.852   67.943
  290.000    3.599    0.502    0.368  237.332   72.148
  290.250    3.289    0.484    0.366  247.799   78.422
  290.500    3.206    0.493    0.362  245.411   79.960
  290.750    3.213    0.502    0.348  237.589   81.800
  291.000    3.281    0.499    0.335  228.284   81.256
  291.250    3.446    0.500    0.323  230.837   80.107
  291.500    3.757    0.503    0.307  233.399   76.606
  291.750    4.133    0.508    0.321  234.469   72.493
  292.000    4.593    0.502    0.360  238.493   68.405
  292.250    4.958    0.492    0.334  259.334   66.082
  292.500    5.612    0.468    0.298  245.584   64.347
  292.750    6.115    0.447    0.271  227.387   61.735
  293.000    6.245    0.445    0.256  226.481   61.481
  293.250    5.921    0.460    0.244  227.561   62.414
  293.500    5.311    0.473    0.254  229.105   66.026
  293.750    5.324    0.475    0.263  231.667   71.707
  294.000    5.486    0.480    0.271  235.228   73.831
  294.250    5.817    0.484    0.287  236.792   72.398
  294.500    6.111    0.490    0.302  234.383   70.076
  294.750    6.297    0.481    0.321  231.512   66.278
  295.000    6.435    0.467    0.210  232.077   65.136
  295.250    6.511    0.465    0.208  232.170   65.784
  295.500    6.586    0.480    0.233  230.276   64.641
  295.750    6.664    0.492    0.244  230.841   63.511
  296.000    6.743    0.489    0.251  228.453   63.270
  296.250    6.889    0.475    0.256  225.582   64.505
  296.500    6.904    0.454    0.255  225.170   66.036
  296.750    6.921    0.445    0.249  225.272   67.271
  297.000    6.812    0.446    0.240  225.828   67.907
  297.250    6.701    0.445    0.221  227.958   68.555
  297.500    6.297    0.441    0.217  226.980   68.901
  297.750    5.806    0.452    0.220  227.072   68.956
  298.000    5.401    0.474    0.248  227.648   68.709
  298.250    4.887    0.476    0.300  230.200   68.462
  298.500    4.344    0.478    0.329  235.233   67.918
  298.750    4.117    0.481    0.350  245.185   66.485
  299.000    4.089    0.484    0.346  266.531   66.238
  299.250    4.177    0.489    0.358  261.189   66.880
