~VERSION INFORMATION
 VERS.                 2.0:   CWLS LOG ASCII STANDARD -VERSION 2.0
 WRAP.                  NO:   ONE LINE PER DEPTH STEP
~WELL INFORMATION BLOCK
#MNEM.UNIT           DATA                    DESCRIPTION OF MNEMONIC
#---------    -------------------            -------------------------------
# Generated from Intellog Unique Number	CW_73_75/WELL/1044
WELL.         PARAMOUNT ER AL RO 11-20       : Well_name    - WELL
LOC .         00/11-20-075-22W4/0            : Location     - LOCATION
UWI .         00/11-20-075-22W4/0            : Uwi          - UNIQUE WELL ID
ENTR.         JAYE                           : Entered      - ENTERED BY
SRVC.         WESTERN ATLAS                  : Scn          - SERVICE COMPANY
DATE.         22 FEB 77                      : Date         - LOG DATE
STRT.M        359.664                        : top_depth    - START DEPTH
STOP.M        612.664                        : bot_depth    - STOP DEPTH
STEP.M        0.25                           : increment    - STEP LENGTH
 NULL. -999.2500:NULL Value
~CURVE INFORMATION BLOCK
#MNEM UNIT       ERCB CURVE CODE    CURVE DESCRIPTION
#-----------   ------------------   ----------------------------------
DEPT.M        00 001 00 00         : DEPTH        - DEPTH
ILD .OHMM     00 120 00 00         : RESD         - DEEP RESISTIVITY (DIL)
NPHI.V/V      00 330 00 00         : PHIN         - NEUTRON POROSITY (SANDSTONE)
DPHI.V/V      00 890 00 00         : PHID         - DENSITY POROSITY (SANDSTONE)
GR  .API      00 310 00 00         : GR           - GAMMA RAY
CALI.MM       00 280 01 00         : CAL          - CALIPER
~PARAMETER INFORMATION
#MNEM.UNIT           DATA             DESCRIPTION OF MNEMONIC
#---------         -----------     ------------------------------
GL  .M        651.51               : gl           - GROUND LEVEL ELEVATION
EREF.M        654.558              : kb           - ELEVATION OF DEPTH REFERENCE
DATM.M        651.51               : datum        - DATUM ELEVATION
TDD .M        624.23               : tdd          - TOTAL DEPTH DRILLER
RUN .         ONE                  : Run          - RUN NUMBER
ENG .         KING                 : Engineer     - RECORDING ENGINEER
WIT .         COMMELLY             : Witness      - WITNESSED BY
BASE.         MEDICINE HAT         : Branch       - HOME BASE OF LOGGING UNIT
MUD .         GEL CHEM             : Mud_type     - MUD TYPE
MATR.         SANDSTONE            : Logunit      - NEUTRON MATRIX
TMAX.C        20.5556              : BHT          - MAXIMUM RECORDED TEMPERATURE
BHTD.M        624.84               : BHTDEP       - MAXIMUM RECORDED TEMPERATURE
RMT .C        15                   : MDTP         - TEMPERATURE OF MUD
MUDD.KG/M     1176                 : MWT          - MUD DENSITY
NEUT.         1                    : NEUTRON      - NEUTRON TYPE
RESI.         0                    : RESIST       - RESISTIVITY TYPE
RM  .OHMM     3.4                  : RM           - RESISTIVITY OF MUD
RMC .OHMM     0                    : RMC          - RESISTIVITY OF MUD CAKE
RMF .OHMM     2.4                  : RMF          - RESISTIVITY OF MUD FILTRATE
SUFT.C        -17.7778             : SUFT         - SURFACE TEMPERATURE
~A  DEPTH     RESD     PHIN     PHID       GR      CAL
# ...
  469.164    4.114    0.460    0.206  118.183  162.771
  469.414    4.106    0.458    0.193  120.916  163.808
  469.664    4.115    0.515    0.190  125.755  164.740
  469.914    4.139    0.533    0.195  120.118  164.724
  470.164    4.163    0.519    0.208  117.462  163.759
  470.414    4.194    0.491    0.209  118.710  163.637
  470.664    4.227    0.466    0.210  115.156  164.041
  470.914    4.276    0.449    0.214  113.111  162.443
  471.164    4.323    0.476    0.220  107.756  160.949
  471.414    4.372    0.478    0.225  102.418  160.090
  471.664    4.437    0.474    0.234  102.457  159.438
  471.914    4.518    0.466    0.240  104.896  159.000
  472.164    4.582    0.456    0.248  109.136  158.669
  472.414    4.655    0.451    0.255  114.568  158.652
  472.664    4.753    0.450    0.257  120.904  158.107
  472.914    4.898    0.450    0.254  117.051  158.091
  473.164    5.167    0.448    0.231  106.021  158.285
  473.414    5.539    0.389    0.179   96.182  158.479
  473.664    6.083    0.315    0.136   87.246  158.883
  473.914    7.203    0.128    0.087   83.405  159.922
  474.164    8.877    0.080    0.026   86.742  162.330
  474.414   11.768    0.081    0.041   91.270  163.788
  474.664   12.767    0.117    0.061   99.108  163.773
  474.914   11.930    0.180    0.081  103.936  162.702
  475.164   10.273    0.342    0.104  111.768  161.102
  475.414    9.241    0.409    0.130  122.593  160.137
  475.664    7.649    0.453    0.246  127.127  159.066
  475.914    6.105    0.452    0.233  116.097  157.888
  476.164    5.593    0.442    0.212  111.945  157.347
  476.414    5.415    0.450    0.223  108.697  156.801
  476.664    5.495    0.466    0.236  105.748  156.466
  476.914    5.787    0.445    0.241  104.002  156.031
  477.164    5.934    0.452    0.242  107.632  155.591
  477.414    5.958    0.472    0.240  103.486  155.363
  477.664    6.024    0.453    0.233  104.134  155.556
  477.914    6.022    0.440    0.227  110.165  156.490
  478.164    5.934    0.447    0.229  106.917  158.265
  478.414    5.786    0.493    0.232  107.565  159.619
  478.664    5.640    0.524    0.229  112.094  160.130
  478.914    5.583    0.508    0.223  121.423  159.903
  479.164    5.608    0.469    0.216  116.977  159.675
  479.414    5.623    0.450    0.214  122.409  159.131
  479.664    5.648    0.439    0.216  122.154  158.903
  479.914    5.679    0.459    0.204  115.325  159.098
  480.164    5.735    0.434    0.191  115.364  160.346
  480.414    5.833    0.434    0.181  120.192  163.281
  480.664    5.922    0.452    0.177  116.644  165.371
  480.914    6.020    0.462    0.172  114.898  165.672
  481.164    6.075    0.489    0.170  117.337  164.390
  481.414    6.124    0.484    0.176  119.476  162.897
  481.664    6.099    0.473    0.188  125.074  161.720
  481.914    6.018    0.443    0.194  123.343  161.178
  482.164    5.945    0.445    0.198  115.602  160.950
  482.414    5.953    0.450    0.196  124.129  161.670
  482.664    6.001    0.487    0.188  124.501  162.814
  482.914    6.058    0.493    0.173  122.780  164.378
  483.164    6.090    0.494    0.165  129.183  164.679
  483.414    5.911    0.458    0.170  126.550  164.344
  483.664    5.684    0.458    0.179  133.553  164.012
  483.914    5.504    0.471    0.185  130.931  163.782
  484.164    5.359    0.468    0.189  130.112  164.190
  484.414    5.261    0.451    0.190  132.308  165.013
  484.664    5.237    0.432    0.183  127.572  165.315
  484.914    5.245    0.456    0.173  136.989  165.720
  485.164    5.252    0.478    0.169  135.559  165.915
  485.414    5.267    0.517    0.170  129.631  165.898
  485.664    5.300    0.499    0.172  137.236  165.354
  485.914    5.365    0.492    0.175  129.495  164.178
  486.164    5.414    0.498    0.183  120.252  163.211
  486.414    5.404    0.494    0.196  115.527  161.402
  486.664    5.242    0.474    0.210  124.343  158.959
  486.914    5.104    0.466    0.221  120.809  158.627
  487.164    5.006    0.453    0.211  118.488  158.400
  487.414    4.973    0.460    0.208  123.077  157.540
  487.664    4.965    0.437    0.210  134.297  156.574
  487.914    5.054    0.422    0.207  133.177  156.872
  488.164    5.216    0.432    0.199  131.457  157.805
  488.414    5.435    0.451    0.188  129.726  159.054
  488.664    5.654    0.437    0.175  132.522  160.196
  488.914    5.791    0.439    0.178  128.999  160.601
  489.164    5.784    0.478    0.197  124.563  160.901
  489.414    5.710    0.488    0.199  117.134  161.200
  489.664    5.612    0.493    0.196  128.344  161.394
  489.914    5.581    0.480    0.190  127.234  161.692
  490.164    5.588    0.491    0.186  125.203  162.099
  490.414    5.588    0.475    0.186  125.595  162.713
  490.664    5.604    0.448    0.178  123.564  163.014
  490.914    5.603    0.436    0.189  115.823  163.312
  491.164    5.619    0.443    0.193  123.137  163.400
  491.414    5.675    0.488    0.189  128.328  163.281
  491.664    5.708    0.497    0.195  126.306  163.265
  491.914    5.740    0.497    0.197  124.285  163.774
  492.164    5.764    0.485    0.196  127.082  163.967
  492.414    5.830    0.475    0.194  127.755  163.740
  492.664    5.845    0.451    0.191  126.034  163.092
  492.914    5.885    0.434    0.192  121.920  162.439
  493.164    5.901    0.444    0.196  128.011  162.107
  493.414    5.887    0.460    0.190  126.601  161.776
  493.664    5.869    0.443    0.186  125.782  161.863
  493.914    5.860    0.424    0.186  124.963  161.844
  494.164    5.876    0.425    0.197  130.453  161.724
  494.414    5.926    0.442    0.187  134.141  161.812
  494.664    5.989    0.459    0.179  130.928  161.584
  494.914    6.021    0.470    0.178  126.203  161.252
  495.164    6.014    0.481    0.175  128.378  161.234
  495.414    5.980    0.492    0.170  132.677  161.010
  495.664    5.923    0.456    0.178  129.143  161.204
  495.914    5.794    0.446    0.192  128.935  161.924
  496.164    5.672    0.440    0.196  129.328  163.700
  496.414    5.574    0.501    0.193  130.312  165.264
  496.664    5.436    0.490    0.191  135.502  166.724
  496.914    5.297    0.504    0.186  136.195  167.867
  497.164    5.158    0.441    0.181  133.873  167.639
  497.414    5.028    0.430    0.175  130.329  166.039
  497.664    4.963    0.475    0.169  115.978  164.547
  497.914    4.897    0.490    0.152  104.031  163.370
  498.164    4.995    0.436    0.125   92.685  163.249
  498.414    5.474    0.305    0.108   86.146  163.443
  498.664    6.635    0.070    0.065   76.903  163.847
  498.914    8.730    0.015    0.015   78.187  163.196
  499.164   12.084    0.028   -0.039   84.890  162.439
  499.414   12.572    0.052   -0.023   90.391  162.003
  499.664   11.216    0.155    0.143   98.296  161.461
  499.914   10.378    0.384    0.164  109.806  161.338
  500.164    9.436    0.438    0.176  111.712  160.796
  500.414    8.688    0.427    0.207  107.867  159.725
  500.664    7.859    0.419    0.221  105.556  159.181
  500.914    7.217    0.410    0.213  111.357  160.007
  501.164    7.436    0.417    0.198  115.045  162.624
  501.414    7.818    0.423    0.164  120.546  164.927
  501.664    8.077    0.447    0.164  118.214  166.915
  501.914    8.045    0.446    0.173  115.001  166.583
  502.164    7.890    0.440    0.179  115.684  165.825
  502.414    7.662    0.431    0.180  114.865  165.492
  502.664    7.427    0.429    0.177  114.046  165.160
  502.914    7.208    0.442    0.173  115.039  165.249
  503.164    7.044    0.420    0.171  119.318  164.705
  503.414    6.817    0.408    0.170  127.523  163.741
  503.664    6.484    0.414    0.170  131.221  162.876
  503.914    6.248    0.467    0.171  125.284  162.126
  504.164    6.020    0.449    0.178  124.775  161.370
  504.414    5.906    0.430    0.176  123.344  160.825
  504.664    5.954    0.421    0.155  121.924  160.177
  504.914    5.955    0.419    0.174  130.430  159.207
  505.164    5.866    0.428    0.202  128.719  158.667
  505.414    5.808    0.471    0.192  126.398  158.651
