~V
VERS. 2.00: Ver 2.00
WRAP. NO:
VEND. PRIZM:GeoGraphix
~W
STRT.M 97.5000:START DEPTH
STOP.M 344.5000:STOP DEPTH
STEP.M 0.2500:STEP
NULL. -999.2500:NULL VALUE
WELL. 00/10-19-083-05W4/0 :WELL
COMP. :COMPANY
UWI. 00_10-19-083-05W4_0:UNIQUE WELL ID
FLD. :FIELD
CNTY. :COUNTY
STAT. :STATE
CTRY. :COUNTRY
PDAT. :PERMANENT DATUM
LMF. :LOG MEASURED FROM
DMF. :DRILLING MEASURED FROM
LOC1. :LOCATION LINE 1
LOC2. :LOCATION LINE 2
LOC3. :LOCATION LINE 3
SEC. :SECTION
TWP. :TOWNSHIP
RAN. :RANGE
SRVC. :Logging Company
BASE. :Logging Unit Location
ENG. :Logging Engineer
WITN. :Witnessed By
RUN. :Run No.
MUD_TYPE. :Type Fluid in Hole
MUDS. :Source of Mud Sample
RMFS. :Source of Mud Filtrate
RMCS. :Source of Mud Cake
LOC. :LOCATION
DATE. :LOG DATE
~C
DEPT.M :DEPTH
NPHI. :NPHI
GR.API :GR
DPHI. :Created by graphical digitiser entry.
ILD.Ohmm :ILD
~P
EKB. -999.2500:ELEVATION OF KELLY BUSHING
EDF. -999.2500:ELEVATION OF DRILLING FLOOR
EGL. -999.2500:ELEVATION OF GROUND LEVEL
EPD. -999.2500:ELEVATION OF PERMANENT DATUM
APD. -999.2500:LMF DISTANCE ABOVE PERMANENT DATUM
LAT. -999.2500:LATITUDE OF WELL LOCATION
LONG. -999.2500:LONGITUDE OF WELL LOCATION
TDD. -999.2500:Total Depth Driller
TDL. -999.2500:Total Depth Logger
LCSG1. -999.2500:Depth of Casing from Logger
CSIZE. -999.2500:Casing Size
CWT. -999.2500:Casing Weight
BS. -999.2500:Bit Size
TLI. 97.5000:Top Logged Interval
BLI. 344.4000:Bottom Logged Interval
MRT. 0.0000:Maximum Recorded Temperature
WMUD. -999.2500:Drilling Mud Density
DFV. -999.2500:Drilling Mud Viscosity
PH. -999.2500:Drilling Mud pH
DFL. -999.2500:Drilling Mud Fluid Loss
RM. -999.2500:Resistivity of Drilling Fluid
RMT. -999.2500:Measured Temp. of Drilling Fluid
RMF. -999.2500:Resistivity of Drilling Fluid Filtrate
RMFT. -999.2500:Measured Temp. of Drilling Fluid Filtrate
RMC. -999.2500:Resistivity of Mud Cake
RMCT. -999.2500:Measured Temp. of Mud Cake
PHImax.V/V 0.3900:Maximum allowable Porosity
RwBnd.OHMM 0.1500:Bound Water Resistivity
RhoHy.KG/MT 1000.0000:Hydrocarbon Bulk density
SwCutoff.V/V 0.7000:Water Saturation Cutoff
PHINsh.V/V 0.4800:New Description
Rw.OHMM 1.0000:Formation Water Resistivity
Rshl.OHMM 5.0000:Resistivity shale
Trw.DEGC 25.0000:Rw measured at Lab conditions
ShaleCutoff.V/V 0.4000:New Description
GRcln.API 45.0000:Gamma Ray clean
RhoM.KG/MT 2650.0000:Bulk Density Matrix
GRshl.API 90.0000:Gamma Ray shale
m. 2.0000:Archie "m"
n. 2.0000:Archie "n"
GasTol.V/V 0.0500:Gas Tollerance
BHTemp.DEGC 25.0000:Bottom Hole Temperature
BHTDepth.M 1000.0000:Bottom Hole Depth
PHIDsh.US/MT 0.1800:New Description
a. 1.0000:Archie "a"
Gas Tol.V/V 0.0500:Gas Tollerance
RhoF.KG/MT 1000.0000:Bulk Density Fluid
RhoShl.KG/MT 2300.0000:Bulk Density Shale
TarCutoff.V/V 0.0300:New Description
SurfTemp.DEGC 10.0000:New Description
HIshl.V/V 0.4000:Neutron Hydrogen Index shale
NULL. -999.2500:
~A
# ...
  240.5000     0.4871    83.6046     0.2972     6.7381 
  240.7500     0.5206    78.4568     0.3181     7.7780 
  241.0000     0.5540    74.0403     0.3235     8.4347 
  241.2500     0.5861    73.5119     0.3123     8.6136 
  241.5000     0.6234    75.8134     0.2936     7.9337 
  241.7500     0.6161    78.7697     0.2729     5.4564 
  242.0000     0.6143    81.1282     0.2790     4.1028 
  242.2500     0.6158    83.0078     0.2880     3.5303 
  242.5000     0.6153    83.7142     0.2853     3.5609 
  242.7500     0.6108    82.4436     0.2747     4.2234 
  243.0000     0.6094    78.9843     0.2879     5.7943 
  243.2500     0.5976    76.9624     0.3019     7.6701 
  243.5000     0.5934    74.7972     0.3182     9.4940 
  243.7500     0.5910    70.4908     0.3295    11.4275 
  244.0000     0.5822    66.4422     0.3353    13.3184 
  244.2500     0.5676    65.1284     0.3386    14.5927 
  244.5000     0.5682    64.7852     0.3439    14.1478 
  244.7500     0.5794    66.9081     0.3224    13.5205 
  245.0000     0.5855    69.6024     0.3166    12.4921 
  245.2500     0.5881    68.4152     0.3159    11.4356 
  245.5000     0.5875    65.7550     0.3115    10.7325 
  245.7500     0.5805    65.0179     0.3004    10.4879 
  246.0000     0.5563    64.7145     0.2877    10.2431 
  246.2500     0.5605    64.7922     0.2926    10.0878 
  246.5000     0.5690    62.0930     0.2800    10.0222 
  246.7500     0.5777    59.8717     0.2435     9.9790 
  247.0000     0.5804    59.8235     0.2085     9.8277 
  247.2500     0.5705    62.0246     0.2127     9.5297 
  247.5000     0.5416    64.8715     0.2849     9.2932 
  247.7500     0.5242    64.5023     0.2627     9.2145 
  248.0000     0.5146    64.0469     0.2472     9.3672 
  248.2500     0.5078    63.1426     0.2179     9.6684 
  248.5000     0.5023    62.5706     0.1633     9.8569 
  248.7500     0.4984    64.0861     0.1110     9.7769 
  249.0000     0.4955    70.2483     0.1572     9.6630 
  249.2500     0.4891    75.6164     0.2303     8.9653 
  249.5000     0.4867    80.0775     0.2424     8.2086 
  249.7500     0.4875    82.7951     0.2492     7.3745 
  250.0000     0.4898    83.6650     0.2610     6.6528 
  250.2500     0.4914    83.2964     0.2720     6.2899 
  250.5000     0.4881    82.9914     0.2905     6.4380 
  250.7500     0.4817    84.9622     0.2888     7.0745 
  251.0000     0.4755    87.0858     0.2716     7.7249 
  251.2500     0.4700    88.9090     0.2505     8.1640 
  251.5000     0.4644    90.0031     0.2365     8.4283 
  251.7500     0.4587    89.5901     0.2377     8.6023 
  252.0000     0.4569    86.1698     0.2562     8.6046 
  252.2500     0.4638    84.8170     0.2483     8.1903 
  252.5000     0.4681    83.0831     0.2440     7.3760 
  252.7500     0.4710    80.4321     0.2562     6.1150 
  253.0000     0.4756    77.2646     0.2759     4.7374 
  253.2500     0.4822    74.2103     0.2905     3.6325 
  253.5000     0.4816    71.4208     0.3027     2.9303 
  253.7500     0.4778    69.9559     0.3035     2.6543 
  254.0000     0.4767    71.9912     0.2952     2.6626 
  254.2500     0.4772    73.4406     0.2922     2.8528 
  254.5000     0.4769    73.1343     0.2926     3.1707 
  254.7500     0.4735    72.1084     0.2873     3.5762 
  255.0000     0.4653    72.8954     0.2680     4.0103 
  255.2500     0.4617    74.2392     0.2485     4.4730 
  255.5000     0.4609    75.0020     0.2377     4.9346 
  255.7500     0.4631    76.8136     0.2357     5.3944 
  256.0000     0.4683    79.5340     0.2389     5.8532 
  256.2500     0.4746    81.9648     0.2437     6.2715 
  256.5000     0.4749    82.5592     0.2498     6.5275 
  256.7500     0.4740    82.8448     0.2534     6.5630 
  257.0000     0.4759    85.7124     0.2568     6.3748 
  257.2500     0.4795    88.1769     0.2585     5.9070 
  257.5000     0.4827    89.4633     0.2613     5.2392 
  257.7500     0.4839    89.8421     0.2641     4.5314 
  258.0000     0.4847    89.4644     0.2550     3.9696 
  258.2500     0.4837    88.3746     0.2566     3.6677 
  258.5000     0.4804    84.6073     0.2637     3.5153 
  258.7500     0.4770    82.2184     0.2723     3.4370 
  259.0000     0.4759    81.8852     0.2771     3.3945 
  259.2500     0.4783    82.2166     0.2759     3.3711 
  259.5000     0.4826    81.0620     0.2744     3.3564 
  259.7500     0.4890    82.0494     0.2692     3.4739 
  260.0000     0.4942    84.5255     0.2733     3.5914 
  260.2500     0.4923    86.6924     0.2721     3.6683 
  260.5000     0.4850    88.1766     0.2684     3.6931 
  260.7500     0.4782    88.9121     0.2676     3.6774 
  261.0000     0.4788    88.0244     0.2654     3.6517 
  261.2500     0.4840    87.5210     0.2587     3.6035 
  261.5000     0.4868    87.8712     0.2633     3.5552 
  261.7500     0.4893    87.0333     0.2652     3.5850 
  262.0000     0.4932    86.0565     0.2664     3.6693 
  262.2500     0.4981    85.9618     0.2702     3.7843 
  262.5000     0.4995    84.6229     0.2656     4.0065 
  262.7500     0.4967    83.2984     0.2624     4.4038 
  263.0000     0.4931    82.2528     0.2498     4.7050 
  263.2500     0.4915    81.6835     0.2392     4.9369 
  263.5000     0.4918    81.5932     0.2329     5.0664 
  263.7500     0.4936    81.0310     0.2273     5.0730 
  264.0000     0.4979    77.3344     0.2171     5.0226 
  264.2500     0.5027    74.2357     0.1964     5.4829 
  264.5000     0.4984    70.5755     0.1832     5.9936 
  264.7500     0.4909    68.0416     0.2090     6.5042 
  265.0000     0.4850    66.9354     0.2537     6.9685 
  265.2500     0.4823    67.0219     0.2814     7.2928 
  265.5000     0.4790    68.3802     0.2770     7.2836 
  265.7500     0.4900    69.8322     0.2677     6.5446 
  266.0000     0.4981    71.4955     0.2654     5.9977 
  266.2500     0.4990    71.9144     0.2696     5.6087 
  266.5000     0.4924    69.9686     0.2779     5.3513 
  266.7500     0.4838    65.8760     0.2867     5.1917 
  267.0000     0.4871    62.1961     0.2921     5.0713 
  267.2500     0.4924    58.4727     0.2937     5.4080 
  267.5000     0.4940    56.1959     0.3043     6.0179 
  267.7500     0.4962    52.1609     0.3181     6.8012 
  268.0000     0.4960    48.1658     0.3322     7.8882 
  268.2500     0.4910    47.4647     0.3394     9.4853 
  268.5000     0.4869    51.2210     0.3217    11.7210 
  268.7500     0.4854    54.2084     0.3370    13.6398 
  269.0000     0.4872    57.7221     0.3388    13.9257 
  269.2500     0.4914    62.4293     0.3293    13.2311 
  269.5000     0.4950    69.6200     0.3088    12.0498 
  269.7500     0.4956    79.9791     0.2743    10.6988 
  270.0000     0.4948    92.3593     0.2169     9.2993 
  270.2500     0.4985    95.9584     0.2112     8.0581 
  270.5000     0.5007    95.1389     0.2017     7.1542 
  270.7500     0.4923    89.8038     0.1991     6.6270 
  271.0000     0.4810    83.1821     0.2039     6.3668 
  271.2500     0.4764    79.5604     0.2120     6.2392 
  271.5000     0.4737    82.0154     0.2219     6.2087 
  271.7500     0.4656    81.8475     0.2272     6.1783 
  272.0000     0.4626    83.2471     0.2032     6.1479 
  272.2500     0.4617    83.7673     0.1972     6.1585 
  272.5000     0.4615    82.8732     0.2049     6.2047 
  272.7500     0.4633    81.0265     0.2076     6.2633 
  273.0000     0.4724    78.7697     0.2085     6.3220 
  273.2500     0.4759    78.3762     0.2027     6.4074 
  273.5000     0.4780    76.1580     0.2103     6.5857 
  273.7500     0.4782    76.1344     0.2100     6.6721 
  274.0000     0.4784    80.2695     0.2104     6.5183 
  274.2500     0.4796    86.0158     0.2206     6.1717 
  274.5000     0.4778    83.8574     0.2200     6.0351 
  274.7500     0.4791    81.0505     0.2155     6.0203 
  275.0000     0.4873    78.3520     0.2240     6.1387 
  275.2500     0.4943    74.5723     0.2225     6.2987 
  275.5000     0.4945    70.7841     0.2203     6.4889 
  275.7500     0.4883    67.2837     0.2364     6.7160 
  276.0000     0.4861    60.5531     0.2771     6.9431 
