~VERSION INFORMATION
 VERS.                 2.0:   CWLS LOG ASCII STANDARD -VERSION 2.0
 WRAP.                  NO:   ONE LINE PER DEPTH STEP
~WELL INFORMATION BLOCK
#MNEM.UNIT           DATA                    DESCRIPTION OF MNEMONIC
#---------    -------------------            -------------------------------
# Generated from Intellog Unique Number	CS_73_76/WELL/3240
WELL.         10-25-075-15W4                 : Well_name    - WELL
LOC .         00/10-25-075-15W4/0            : Location     - LOCATION
UWI .         00/10-25-075-15W4/0            : Uwi          - UNIQUE WELL ID
ENTR.         SP                             : Entered      - ENTERED BY
SRVC.         SCHLUMBERGER                   : Scn          - SERVICE COMPANY
STRT.M        365                            : top_depth    - START DEPTH
STOP.M        570                            : bot_depth    - STOP DEPTH
STEP.M        0.25                           : increment    - STEP LENGTH
 NULL. -999.2500:NULL Value
~CURVE INFORMATION BLOCK
#MNEM UNIT       ERCB CURVE CODE    CURVE DESCRIPTION
#-----------   ------------------   ----------------------------------
DEPT.M        00 001 00 00         : DEPTH        - DEPTH
GR  .API      00 310 00 00         : GR           - GAMMA RAY
NPHI.V/V      00 330 00 00         : PHIN         - NEUTRON POROSITY (LIMESTONE)
DPHI.V/V      00 890 00 00         : PHID         - DENSITY POROSITY (LIMESTONE)
ILD .OHMM     00 120 00 00         : RESD         - DEEP RESISTIVITY (DIL)
~PARAMETER INFORMATION
#MNEM.UNIT           DATA             DESCRIPTION OF MNEMONIC
#---------         -----------     ------------------------------
GL  .M        741.17               : gl           - GROUND LEVEL ELEVATION
EREF.M        745.67               : kb           - ELEVATION OF DEPTH REFERENCE
DATM.M        741.17               : datum        - DATUM ELEVATION
TDD .M        574.4                : tdd          - TOTAL DEPTH DRILLER
RUN .         ONE                  : Run          - RUN NUMBER
ENG .         BILL                 : Engineer     - RECORDING ENGINEER
WIT .         JIM                  : Witness      - WITNESSED BY
MUD .         GEL                  : Mud_type     - MUD TYPE
MATR.         LIMESTONE            : Logunit      - NEUTRON MATRIX
TMAX.C        22                   : BHT          - MAXIMUM RECORDED TEMPERATURE
BHTD.M        574.4                : BHTDEP       - MAXIMUM RECORDED TEMPERATURE
MATR.         1                    : LOGUNIT      - NEUTRON MATRIX
RMT .C        25                   : MDTP         - TEMPERATURE OF MUD
NEUT.         1                    : NEUTRON      - NEUTRON TYPE
RESI.         0                    : RESIST       - RESISTIVITY TYPE
RMC .OHMM     0.25                 : RMC          - RESISTIVITY OF MUD CAKE
RMF .OHMM     0.25                 : RMF          - RESISTIVITY OF MUD FILTRATE
SUFT.C        15                   : SUFT         - SURFACE TEMPERATURE
~A  DEPTH       GR     PHIN     PHID     RESD
  365.000   86.586    0.497    0.193    2.468
  365.250   87.205    0.496    0.197    2.515
  365.500   89.046    0.467    0.224    2.469
  365.750   93.937    0.445    0.234    2.469
  366.000   96.384    0.418    0.225    2.516
  366.250   97.007    0.410    0.215    2.516
  366.500   89.702    0.406    0.213    2.564
  366.750   87.882    0.418    0.209    2.564
  367.000   91.558    0.421    0.212    2.663
  367.250   94.612    0.417    0.215    2.713
  367.500   98.890    0.423    0.208    2.818
  367.750   97.075    0.418    0.201    2.871
  368.000   93.428    0.402    0.199    3.038
  368.250   91.609    0.401    0.204    3.096
  368.500   95.276    0.392    0.208    3.215
  368.750  103.214    0.371    0.207    3.339
  369.000   91.032    0.373    0.194    3.467
  369.250   86.775    0.396    0.178    3.534
  369.500   84.956    0.414    0.168    3.468
  369.750   88.625    0.429    0.172    3.340
  370.000   91.075    0.446    0.172    3.098
  370.250   90.477    0.471    0.166    2.873
  370.500   92.929    0.485    0.174    2.768
  370.750   93.549    0.491    0.197    2.768
  371.000   91.122    0.472    0.214    2.716
  371.250   91.742    0.450    0.225    2.821
  371.500   94.800    0.426    0.232    2.929
  371.750   96.640    0.414    0.235    2.985
  372.000   91.775    0.410    0.241    3.042
  372.250   92.396    0.419    0.246    3.100
  372.500   94.237    0.431    0.236    3.042
  372.750   93.639    0.425    0.223    2.986
  373.000   93.040    0.430    0.217    2.930
  373.250   92.439    0.435    0.211    2.930
  373.500   90.013    0.430    0.205    2.931
  373.750   89.414    0.402    0.190    2.931
  374.000   82.717    0.388    0.202    2.987
  374.250   77.243    0.398    0.217    3.044
  374.500   79.694    0.404    0.213    3.102
  374.750   82.141    0.368    0.169    3.282
  375.000   79.105    0.339    0.153    3.408
  375.250   68.749    0.355    0.196    3.745
  375.500   63.273    0.367    0.228    4.437
  375.750   63.285    0.376    0.264    5.256
  376.000   57.196    0.353    0.275    6.465
  376.250   51.111    0.338    0.264    7.239
  376.500   46.854    0.325    0.222    7.805
  376.750   50.530    0.318    0.143    8.105
  377.000   51.755    0.324    0.239    7.955
  377.250   54.814    0.353    0.267    7.661
  377.500   57.874    0.374    0.294    7.519
  377.750   59.714    0.368    0.278    7.379
  378.000   58.507    0.351    0.255    7.242
  378.250   67.667    0.352    0.224    7.243
  378.500   74.994    0.364    0.191    6.718
  378.750   82.928    0.367    0.188    6.470
  379.000   90.258    0.356    0.203    6.115
  379.250   90.877    0.368    0.243    6.116
  379.500   73.819    0.380    0.282    6.472
  379.750   65.291    0.379    0.300    6.978
  380.000   56.766    0.376    0.314    7.524
  380.250   61.049    0.381    0.323    8.113
  380.500   62.885    0.367    0.309    8.268
  380.750   68.387    0.349    0.293    8.585
  381.000   72.057    0.353    0.270    8.586
  381.250   75.115    0.376    0.255    8.750
  381.500   78.174    0.391    0.258    8.750
  381.750   81.844    0.380    0.265    8.751
  382.000   83.683    0.359    0.268    8.752
  382.250   83.086    0.372    0.284    8.753
  382.500   83.098    0.387    0.282    8.753
  382.750   83.107    0.390    0.287    8.753
  383.000   85.560    0.391    0.295    8.754
  383.250   86.787    0.375    0.300    8.921
  383.500   86.798    0.364    0.280    8.922
  383.750   81.323    0.337    0.254    9.092
  384.000   70.970    0.337    0.248    9.092
  384.250   63.053    0.342    0.278    9.266
  384.500   51.478    0.348    0.314    9.267
  384.750   44.173    0.354    0.344    9.444
  385.000   41.135    0.345    0.347    9.444
  385.250   44.196    0.333    0.334    9.444
  385.500   50.304    0.323    0.310    9.269
  385.750   60.077    0.328    0.294    9.097
  386.000   62.521    0.337    0.288    9.097
  386.250   66.190    0.340    0.279    8.762
  386.500   68.643    0.334    0.268    8.599
  386.750   70.484    0.334    0.258    8.282
  387.000   71.101    0.335    0.270    8.128
  387.250   65.021    0.344    0.280    8.283
  387.500   61.372    0.360    0.289    8.441
  387.750   59.552    0.365    0.270    8.602
  388.000   58.343    0.357    0.264    8.603
  388.250   63.234    0.352    0.245    8.604
  388.500   67.510    0.345    0.237    8.443
  388.750   73.010    0.324    0.239    8.132
  389.000   75.460    0.318    0.253    7.981
  389.250   78.522    0.339    0.264    7.543
  389.500   87.070    0.366    0.232    6.489
  389.750   93.175    0.390    0.208    5.689
  390.000  102.334    0.394    0.203    4.894
  390.250  107.224    0.379    0.185    4.625
  390.500  101.137    0.372    0.105    4.455
  390.750   94.441    0.396    0.092    4.455
  391.000   93.233    0.408    0.122    4.455
  391.250  100.559    0.394    0.153    4.133
  391.500  107.278    0.381    0.193    3.692
  391.750  107.899    0.416    0.188    3.424
  392.000  107.909    0.450    0.180    3.176
  392.250  115.850    0.443    0.202    2.946
  392.500  120.127    0.414    0.222    2.891
  392.750  121.966    0.398    0.239    3.237
  393.000  111.002    0.391    0.240    3.982
  393.250   97.602    0.386    0.247    4.629
  393.500   93.345    0.377    0.255    5.803
  393.750   92.746    0.365    0.249    7.005
  394.000   89.099    0.353    0.258    7.992
  394.250   86.060    0.352    0.263    8.457
  394.500   95.216    0.372    0.261    8.618
  394.750  107.422    0.379    0.255    8.783
  395.000  109.873    0.390    0.257    8.619
  395.250  100.738    0.383    0.262    8.301
  395.500   87.944    0.370    0.267    7.700
  395.750   72.712    0.363    0.259    7.142
  396.000   86.136    0.354    0.242    7.009
  396.250  100.172    0.348    0.224    6.625
  396.500  106.280    0.364    0.225    6.625
  396.750  100.199    0.375    0.229    6.626
  397.000   98.376    0.365    0.236    7.011
  397.250   96.558    0.361    0.248    7.704
  397.500   95.350    0.365    0.263    8.000
  397.750   94.751    0.377    0.267    8.465
  398.000   90.494    0.387    0.256    8.790
  398.250   93.556    0.387    0.242    8.791
  398.500   95.395    0.379    0.221    8.154
  398.750   95.405    0.377    0.205    7.853
  399.000   92.370    0.377    0.227    7.284
  399.250   97.258    0.381    0.246    7.015
  399.500  102.756    0.382    0.246    6.507
  399.750  105.817    0.371    0.250    6.386
  400.000  108.266    0.357    0.250    6.268
  400.250  105.231    0.345    0.241    6.268
  400.500  102.193    0.342    0.229    6.509
  400.750   93.666    0.355    0.248    6.759
  401.000   82.701    0.368    0.270    7.019
  401.250   66.859    0.374    0.280    7.712
  401.500   62.605    0.377    0.263    8.161
  401.750   62.004    0.379    0.282    8.635
  402.000   59.576    0.384    0.314    9.488
  402.250   53.489    0.388    0.335    9.853
  402.500   49.842    0.379    0.322   10.232
  402.750   48.637    0.372    0.314   10.625
  403.000   48.649    0.356    0.299   10.827
  403.250   47.437    0.352    0.291   11.244
  403.500   45.620    0.356    0.288   11.245
  403.750   45.630    0.358    0.301   11.459
  404.000   48.698    0.347    0.309   11.246
  404.250   51.148    0.342    0.315   10.831
  404.500   52.989    0.346    0.318   10.237
  404.750   53.604    0.342    0.303    9.860
  405.000   54.831    0.344    0.292    9.319
  405.250   53.016    0.359    0.276    8.017
  405.500   57.904    0.366    0.265    6.897
  405.750   69.499    0.374    0.256    6.277
  406.000   81.706    0.386    0.251    5.608
  406.250   85.374    0.420    0.254    5.300
  406.500   85.998    0.477    0.244    5.105
  406.750   86.618    0.383    0.246    4.825
  407.000   87.237    0.359    0.263    4.735
  407.250   88.469    0.352    0.260    4.735
  407.500   87.871    0.360    0.253    4.647
  407.750   89.100    0.371    0.251    4.736
  408.000   92.769    0.385    0.253    4.918
  408.250   95.220    0.393    0.267    5.204
