~VERSION INFORMATION
 VERS.                 2.0:   CWLS LOG ASCII STANDARD -VERSION 2.0
 WRAP.                  NO:   ONE LINE PER DEPTH STEP
~WELL INFORMATION BLOCK
#MNEM.UNIT           DATA                    DESCRIPTION OF MNEMONIC
#---------    -------------------            -------------------------------
# Generated from Intellog Unique Number	CS_73_76/WELL/2184
WELL.         BOW VALLEY EXPLORATION         : Well_name    - WELL
LOC .         00/10-06-074-15W4/0            : Location     - LOCATION
UWI .         00/10-06-074-15W4/0            : Uwi          - UNIQUE WELL ID
ENTR.         SP                             : Entered      - ENTERED BY
SRVC.         SCHLUMBERGER                   : Scn          - SERVICE COMPANY
STRT.M        286.512                        : top_depth    - START DEPTH
STOP.M        493.512                        : bot_depth    - STOP DEPTH
STEP.M        0.25                           : increment    - STEP LENGTH
 NULL. -999.2500:NULL Value
~CURVE INFORMATION BLOCK
#MNEM UNIT       ERCB CURVE CODE    CURVE DESCRIPTION
#-----------   ------------------   ----------------------------------
DEPT.M        00 001 00 00         : DEPTH        - DEPTH
GR  .API      00 310 00 00         : GR           - GAMMA RAY
DPHI.V/V      00 890 00 00         : PHID         - DENSITY POROSITY (SANDSTONE)
NPHI.V/V      00 330 00 00         : PHIN         - NEUTRON POROSITY (SANDSTONE)
ILD .OHMM     00 120 00 00         : RESD         - DEEP RESISTIVITY (DIL)
~PARAMETER INFORMATION
#MNEM.UNIT           DATA             DESCRIPTION OF MNEMONIC
#---------         -----------     ------------------------------
GL  .M        10                   : gl           - GROUND LEVEL ELEVATION
EREF.M        637.337              : kb           - ELEVATION OF DEPTH REFERENCE
DATM.M        10                   : datum        - DATUM ELEVATION
TDD .M        484.327              : tdd          - TOTAL DEPTH DRILLER
RUN .         ONE                  : Run          - RUN NUMBER
ENG .         BILL                 : Engineer     - RECORDING ENGINEER
WIT .         JIM                  : Witness      - WITNESSED BY
MUD .         GEL                  : Mud_type     - MUD TYPE
MATR.         SANDSTONE            : Logunit      - NEUTRON MATRIX
TMAX.C        22.2222              : BHT          - MAXIMUM RECORDED TEMPERATURE
BHTD.M        469.087              : BHTDEP       - MAXIMUM RECORDED TEMPERATURE
MATR.         1                    : LOGUNIT      - NEUTRON MATRIX
RMT .C        25                   : MDTP         - TEMPERATURE OF MUD
NEUT.         1                    : NEUTRON      - NEUTRON TYPE
RESI.         0                    : RESIST       - RESISTIVITY TYPE
RMC .OHMM     0.25                 : RMC          - RESISTIVITY OF MUD CAKE
RMF .OHMM     0.25                 : RMF          - RESISTIVITY OF MUD FILTRATE
SUFT.C        15                   : SUFT         - SURFACE TEMPERATURE
~A  DEPTH       GR     PHID     PHIN     RESD
# ...
  460.512   99.043    0.185    0.447    5.221
  460.762  101.761    0.153    0.448    5.219
  461.012  103.054    0.118    0.470    5.222
  461.262  101.920    0.138    0.480    5.117
  461.512  100.168    0.156    0.473    5.122
  461.762   98.229    0.158    0.470    5.128
  462.012  100.213    0.152    0.474    5.021
  462.262  101.334    0.151    0.475    5.028
  462.512   99.225    0.162    0.473    5.027
  462.762   97.948    0.157    0.468    5.018
  463.012   95.237    0.173    0.458    5.123
  463.262   93.762    0.157    0.455    5.181
  463.512   93.045    0.150    0.452    5.321
  463.762   95.448    0.139    0.461    5.825
  464.012   96.702    0.153    0.471    6.057
  464.262   92.600    0.172    0.477    6.415
  464.512   88.999    0.152    0.459    6.725
  464.762   91.375    0.122    0.434    6.863
  465.012   99.704    0.090    0.439    6.824
  465.262  100.096    0.115    0.450    6.413
  465.512   90.914    0.158    0.463    6.232
  465.762   82.453    0.168    0.457    6.684
  466.012   78.030    0.184    0.390    8.284
  466.262   76.095    0.219    0.401   10.631
  466.512   75.835    0.231    0.413   13.373
  466.762   75.805    0.223    0.421   16.711
  467.012   76.794    0.214    0.411   19.442
  467.262   75.878    0.207    0.400   21.010
  467.512   76.177    0.201    0.392   21.914
  467.762   77.895    0.197    0.382   22.816
  468.012   78.850    0.195    0.374   23.865
  468.262   80.866    0.185    0.379   24.662
  468.512   86.546    0.189    0.403   24.228
  468.762   89.332    0.224    0.409   23.540
  469.012   93.435    0.240    0.401   21.904
  469.262   98.398    0.216    0.395   19.363
  469.512  103.833    0.196    0.390   16.864
  469.762  115.360    0.183    0.393   14.965
  470.012  123.949    0.151    0.426   10.957
  470.262  126.886    0.145    0.440    8.365
  470.512  120.972    0.155    0.452    8.011
  470.762  112.208    0.162    0.452    8.973
  471.012  101.524    0.156    0.435   10.622
  471.262   89.052    0.158    0.404   13.962
  471.512   76.285    0.164    0.355   17.823
  471.762   70.766    0.139    0.322   20.580
  472.012   79.200    0.134    0.333   23.082
  472.262   93.135    0.206    0.361   22.722
  472.512  110.994    0.177    0.395   20.107
  472.762  123.774    0.172    0.413   15.751
  473.012  133.220    0.187    0.412   14.072
  473.262  137.575    0.204    0.398   13.982
  473.512  125.262    0.193    0.382   14.242
  473.762  103.567    0.178    0.371   14.573
  474.012   98.571    0.163    0.359   13.887
  474.262   98.204    0.161    0.353   13.288
  474.512  101.757    0.177    0.361   12.274
  474.762  104.436    0.157    0.369   11.361
  475.012  104.218    0.159    0.376   10.685
  475.262  106.016    0.172    0.392   10.637
  475.512  109.410    0.163    0.391   10.655
  475.762  113.362    0.142    0.391   11.496
  476.012  114.711    0.153    0.409   12.804
  476.262  105.873    0.162    0.426   14.270
  476.512   96.303    0.162    0.431   15.691
  476.762   88.941    0.191    0.426   17.024
  477.012   87.656    0.212    0.381   17.718
  477.262   89.408    0.203    0.351   17.563
  477.512   88.752    0.215    0.363   16.551
  477.762   86.911    0.231    0.359   15.372
  478.012   90.012    0.208    0.361   14.151
  478.262   90.762    0.163    0.367   13.669
  478.512   93.954    0.169    0.374   14.095
  478.762   96.641    0.193    0.371   15.076
  479.012   71.563    0.178    0.362   16.527
  479.262   63.900    0.169    0.354   19.328
  479.512   58.619    0.197    0.353   21.524
  479.762   54.315    0.192    0.367   26.049
  480.012   52.596    0.196    0.381   31.936
  480.262   57.059    0.306    0.397   36.282
  480.512   61.415    0.290    0.427   41.026
  480.762   63.755    0.288    0.420   43.767
  481.012   66.063    0.284    0.410   44.495
  481.262   69.418    0.277    0.414   42.813
  481.512   74.992    0.257    0.401   31.392
  481.762   80.485    0.242    0.391   24.713
  482.012   83.806    0.229    0.381   21.227
  482.262   86.008    0.213    0.380   19.705
  482.512   79.276    0.213    0.392   18.323
  482.762   76.689    0.194    0.412   18.340
  483.012   78.248    0.218    0.408   18.331
  483.262   81.319    0.224    0.373   18.327
  483.512   85.548    0.203    0.349   18.118
  483.762   92.473    0.185    0.330   15.208
  484.012   99.668    0.170    0.322   13.772
  484.262  104.419    0.147    0.354   12.689
  484.512  105.972    0.133    0.364   11.723
  484.762  105.466    0.135    0.375   11.226
  485.012  105.776    0.151    0.377   10.848
  485.262  108.512    0.179    0.382   10.748
  485.512  110.067    0.172    0.390   10.742
  485.762  109.976    0.169    0.396   10.725
  486.012  105.364    0.168    0.393   10.942
  486.262  101.781    0.176    0.379   11.195
  486.512  103.538    0.169    0.371   11.608
  486.762  106.567    0.159    0.377   11.986
  487.012  107.710    0.167    0.395   12.252
  487.262  106.272    0.161    0.415   12.457
  487.512  103.806    0.172    0.428   12.861
  487.762  104.402    0.190    0.396   13.129
  488.012  108.146    0.212    0.369   13.390
  488.262  109.241    0.211    0.364   13.549
  488.512  106.116    0.178    0.367   13.878
  488.762  101.855    0.164    0.368   14.150
  489.012  100.288    0.188    0.348   14.358
  489.262  100.145    0.189    0.334   15.127
  489.512   93.737    0.168    0.349   16.050
  489.762   86.387    0.155    0.360   17.043
  490.012   81.452    0.139    0.365   18.106
  490.262   75.199    0.140    0.385   19.211
  490.512   72.959    0.139    0.395   21.041
  490.762   71.728    0.209    0.391   22.502
  491.012   72.850    0.243    0.376   23.525
  491.262   61.728    0.239    0.394   25.193
  491.512   49.804    0.226    0.426   29.053
  491.762   26.641    0.250    0.413   31.235
  492.012   19.331    0.259    0.392   33.498
  492.262   19.071    0.252    0.392   36.016
  492.512   18.754    0.240    0.425   37.149
  492.762   17.820    0.243    0.441   37.218
  493.012   58.674    0.259    0.403   34.820
  493.262   76.964    0.242    0.378   29.910
  493.512   88.238    0.223    0.362   26.343
