~VERSION INFORMATION
 VERS.                 2.0:   CWLS LOG ASCII STANDARD -VERSION 2.0
 WRAP.                  NO:   ONE LINE PER DEPTH STEP
~WELL INFORMATION BLOCK
#MNEM.UNIT           DATA                    DESCRIPTION OF MNEMONIC
#---------    -------------------            -------------------------------
# Generated from Intellog Unique Number	CS_73_76/WELL/850
WELL.         ESSO CLYDE LAKE                : Well_name    - WELL
LOC .         00/11-23-073-09W4/0            : Location     - LOCATION
UWI .         00/11-23-073-09W4/0            : Uwi          - UNIQUE WELL ID
ENTR.         SP                             : Entered      - ENTERED BY
SRVC.         SCHLUMBERGER                   : Scn          - SERVICE COMPANY
STRT.M        285                            : top_depth    - START DEPTH
STOP.M        495                            : bot_depth    - STOP DEPTH
STEP.M        0.25                           : increment    - STEP LENGTH
 NULL. -999.2500:NULL Value
~CURVE INFORMATION BLOCK
#MNEM UNIT       ERCB CURVE CODE    CURVE DESCRIPTION
#-----------   ------------------   ----------------------------------
DEPT.M        00 001 00 00         : DEPTH        - DEPTH
ILD .OHMM     00 120 00 00         : RESD         - DEEP RESISTIVITY (DIL)
DPHI.V/V      00 890 00 00         : PHID         - DENSITY POROSITY (LIMESTONE)
NPHI.V/V      00 330 00 00         : PHIN         - NEUTRON POROSITY (LIMESTONE)
GR  .API      00 310 00 00         : GR           - GAMMA RAY
~PARAMETER INFORMATION
#MNEM.UNIT           DATA             DESCRIPTION OF MNEMONIC
#---------         -----------     ------------------------------
GL  .M        650.3                : gl           - GROUND LEVEL ELEVATION
EREF.M        654.5                : kb           - ELEVATION OF DEPTH REFERENCE
DATM.M        650.3                : datum        - DATUM ELEVATION
TDD .M        503.5                : tdd          - TOTAL DEPTH DRILLER
RUN .         ONE                  : Run          - RUN NUMBER
ENG .         BILL                 : Engineer     - RECORDING ENGINEER
WIT .         JIM                  : Witness      - WITNESSED BY
MUD .         GEL                  : Mud_type     - MUD TYPE
MATR.         LIMESTONE            : Logunit      - NEUTRON MATRIX
TMAX.C        23                   : BHT          - MAXIMUM RECORDED TEMPERATURE
BHTD.M        503.5                : BHTDEP       - MAXIMUM RECORDED TEMPERATURE
MATR.         1                    : LOGUNIT      - NEUTRON MATRIX
RMT .C        25                   : MDTP         - TEMPERATURE OF MUD
NEUT.         1                    : NEUTRON      - NEUTRON TYPE
RESI.         0                    : RESIST       - RESISTIVITY TYPE
RMC .OHMM     0.25                 : RMC          - RESISTIVITY OF MUD CAKE
RMF .OHMM     0.25                 : RMF          - RESISTIVITY OF MUD FILTRATE
SUFT.C        15                   : SUFT         - SURFACE TEMPERATURE
~A  DEPTH     RESD     PHID     PHIN       GR
# ...
  459.000    8.211    0.179    0.284   86.094
  459.250    8.076    0.199    0.279   87.937
  459.500    7.943    0.207    0.298   79.983
  459.750    7.944    0.166    0.270   74.478
  460.000    7.814    0.142    0.244   79.383
  460.250    7.686    0.121    0.249   89.186
  460.500    7.559    0.129    0.240   90.416
  460.750    7.310    0.146    0.256   89.196
  461.000    7.189    0.147    0.283   97.163
  461.250    6.723    0.142    0.296  100.844
  461.500    6.394    0.123    0.315  100.846
  461.750    6.395    0.138    0.332   95.956
  462.000    6.397    0.159    0.323   89.838
  462.250    6.398    0.164    0.312   90.455
  462.500    6.730    0.178    0.304   91.686
  462.750    7.446    0.191    0.301   89.242
  463.000    7.965    0.221    0.310   80.064
  463.250    9.114    0.250    0.329   62.315
  463.500   10.427    0.240    0.339   54.361
  463.750   11.344    0.237    0.345   49.469
  464.000   12.341    0.249    0.328   51.312
  464.250   12.552    0.235    0.312   62.339
  464.500   12.554    0.177    0.305   69.691
  464.750   11.939    0.212    0.305   74.595
  465.000   11.548    0.252    0.301   73.989
  465.250   11.550    0.261    0.297   62.361
  465.500   11.552    0.232    0.316   59.918
  465.750   11.363    0.225    0.327   69.109
  466.000   11.365    0.189    0.307   75.237
  466.250   11.366    0.178    0.290   77.690
  466.500   11.179    0.229    0.320   78.922
  466.750   11.182    0.266    0.336   69.743
  467.000   11.373    0.228    0.330   56.279
  467.250   11.764    0.239    0.309   61.183
  467.500   12.375    0.198    0.295   68.538
  467.750   12.171    0.169    0.282   77.114
  468.000   11.006    0.164    0.280   80.180
  468.250   10.293    0.207    0.328   78.351
  468.500   10.122    0.237    0.371   74.683
  468.750   10.471    0.261    0.390   64.892
  469.000   11.014    0.243    0.354   60.611
  469.250   11.393    0.210    0.319   59.394
  469.500   11.785    0.215    0.318   67.359
  469.750   11.787    0.222    0.328   74.711
  470.000   10.841    0.201    0.312   80.227
  470.250   10.483    0.187    0.303   82.070
  470.500    9.479    0.150    0.295   83.302
  470.750    8.572    0.121    0.279   83.919
  471.000    8.431    0.144    0.275   83.311
  471.250    8.721    0.176    0.279   80.871
  471.500    9.329    0.178    0.285   79.037
  471.750   10.855    0.233    0.328   69.860
  472.000   13.062    0.258    0.348   58.844
  472.250   14.695    0.259    0.342   53.339
  472.500   15.721    0.250    0.324   52.733
  472.750   16.537    0.250    0.340   58.251
  473.000   17.106    0.266    0.357   60.092
  473.250   16.824    0.284    0.354   54.588
  473.500   16.271    0.275    0.336   49.695
  473.750   16.003    0.249    0.319   55.825
  474.000   16.279    0.253    0.327   58.279
  474.250   16.558    0.279    0.338   53.386
  474.500   16.560    0.272    0.347   49.106
  474.750   16.287    0.281    0.369   52.174
  475.000   14.729    0.291    0.368   54.630
  475.250   13.096    0.275    0.364   50.962
  475.500   11.644    0.268    0.357   44.232
  475.750    9.361    0.295    0.348   40.564
  476.000    7.914    0.306    0.346   38.733
  476.250    6.362    0.292    0.347   44.864
  476.500    5.657    0.256    0.352   49.765
  476.750    5.380    0.244    0.354   63.243
  477.000    5.292    0.216    0.349   69.983
  477.250    5.383    0.197    0.333   74.886
  477.500    5.384    0.178    0.315   77.953
  477.750    5.384    0.195    0.310   80.407
  478.000    5.385    0.205    0.318   79.801
  478.250    5.209    0.220    0.332   77.359
  478.500    5.038    0.234    0.347   74.915
  478.750    4.872    0.216    0.350   71.859
  479.000    4.633    0.237    0.347   74.927
  479.250    4.333    0.258    0.376   70.036
  479.500    4.333    0.224    0.362   66.978
  479.750    4.262    0.194    0.342   74.332
  480.000    4.192    0.202    0.325   79.235
  480.250    4.123    0.236    0.342   76.794
  480.500    4.055    0.222    0.353   72.512
  480.750    3.988    0.195    0.339   65.783
  481.000    3.857    0.236    0.331   68.239
  481.250    3.730    0.260    0.344   69.468
  481.500    3.548    0.279    0.320   56.004
  481.750    3.548    0.266    0.287   46.214
  482.000    3.549    0.215    0.275   49.282
  482.250    3.550    0.230    0.309   53.574
  482.500    3.550    0.249    0.348   55.415
  482.750    3.434    0.262    0.382   55.422
  483.000    3.377    0.281    0.356   51.141
  483.250    3.322    0.287    0.373   41.964
  483.500    3.379    0.277    0.377   39.520
  483.750    3.436    0.264    0.350   46.262
  484.000    3.555    0.238    0.342   53.614
  484.250    3.803    0.166    0.322   65.254
  484.500    3.934    0.153    0.304   73.832
  484.750    4.001    0.185    0.321   80.572
  485.000    4.070    0.213    0.351   87.924
  485.250    4.003    0.234    0.379   63.439
  485.500    3.871    0.264    0.393   53.649
  485.750    3.681    0.253    0.393   50.594
  486.000    3.443    0.286    0.373   48.152
  486.250    3.274    0.292    0.361   47.543
  486.500    3.220    0.278    0.339   48.774
  486.750    3.167    0.286    0.356   52.453
  487.000    3.168    0.271    0.348   54.908
  487.250    3.222    0.267    0.335   50.629
  487.500    3.223    0.271    0.334   51.245
  487.750    3.278    0.275    0.352   50.639
  488.000    3.334    0.242    0.356   54.933
  488.250    3.449    0.204    0.318   62.286
  488.500    3.690    0.201    0.286   66.576
  488.750    3.753    0.208    0.287   70.255
  489.000    3.817    0.220    0.311   72.710
  489.250    3.883    0.225    0.335   72.105
  489.500    3.949    0.208    0.316   73.951
  489.750    4.017    0.213    0.334   73.956
  490.000    3.951    0.221    0.344   72.735
  490.250    3.886    0.220    0.326   66.616
  490.500    3.758    0.227    0.346   67.236
  490.750    3.635    0.242    0.360   65.403
  491.000    3.575    0.252    0.327   54.389
  491.250    3.457    0.248    0.311   56.234
  491.500    3.400    0.256    0.328   56.849
  491.750    3.344    0.265    0.380   50.733
  492.000    3.345    0.292    0.401   45.228
  492.250    3.519    0.221    0.373   52.582
  492.500    3.764    0.190    0.311   64.220
  492.750    3.893    0.176    0.275   70.960
  493.000    4.455    0.141    0.247   71.579
  493.250    5.012    0.050    0.214   68.524
  493.500    5.735    0.022    0.190   66.080
  493.750    6.238    0.018    0.176   66.088
  494.000    7.138    0.016    0.163   66.093
  494.250    8.167    0.009    0.154   66.097
  494.500    9.188    0.011    0.146   66.716
  494.750    9.995    0.010    0.141   65.497
  495.000   11.058    0.007    0.134   61.217
