~VERSION INFORMATION
 VERS.                 2.0:   CWLS LOG ASCII STANDARD -VERSION 2.0
 WRAP.                  NO:   ONE LINE PER DEPTH STEP
~WELL INFORMATION BLOCK
#MNEM.UNIT           DATA                    DESCRIPTION OF MNEMONIC
#---------    -------------------            -------------------------------
# Generated from Intellog Unique Number	CS_77_79/WELL/1001
WELL.         PCI PCEJ CHARD                 : Well_name    - WELL
LOC .         00/11-28-079-06W4/0            : Location     - LOCATION
UWI .         00/11-28-079-06W4/0            : Uwi          - UNIQUE WELL ID
ENTR.         JHS                            : Entered      - ENTERED BY
SRVC.         SCHLUMBERGER                   : Scn          - SERVICE COMPANY
STRT.M        70                             : top_depth    - START DEPTH
STOP.M        335                            : bot_depth    - STOP DEPTH
STEP.M        0.25                           : increment    - STEP LENGTH
 NULL. -999.2500:NULL Value
~CURVE INFORMATION BLOCK
#MNEM UNIT       ERCB CURVE CODE    CURVE DESCRIPTION
#-----------   ------------------   ----------------------------------
DEPT.M        00 001 00 00         : DEPTH        - DEPTH
DPHI.V/V      00 890 00 00         : PHID         - DENSITY POROSITY (LIMESTONE)
NPHI.V/V      00 330 00 00         : PHIN         - NEUTRON POROSITY (LIMESTONE)
GR  .API      00 310 00 00         : GR           - GAMMA RAY
ILD .OHMM     00 120 00 00         : RESD         - DEEP RESISTIVITY (DIL)
RHOB.KG/M3    00 350 00 00         : DENS         - BULK DENSITY
~PARAMETER INFORMATION
#MNEM.UNIT           DATA             DESCRIPTION OF MNEMONIC
#---------         -----------     ------------------------------
GL  .M        513.8                : gl           - GROUND LEVEL ELEVATION
EREF.M        516.9                : kb           - ELEVATION OF DEPTH REFERENCE
DATM.M        516.9                : datum        - DATUM ELEVATION
TDD .M        341                  : tdd          - TOTAL DEPTH DRILLER
RUN .         ONE                  : Run          - RUN NUMBER
ENG .         BILL                 : Engineer     - RECORDING ENGINEER
WIT .         JIM                  : Witness      - WITNESSED BY
MUD .         GEL                  : Mud_type     - MUD TYPE
MATR.         LIMESTONE            : Logunit      - NEUTRON MATRIX
TMAX.C        18                   : BHT          - MAXIMUM RECORDED TEMPERATURE
BHTD.M        341                  : BHTDEP       - MAXIMUM RECORDED TEMPERATURE
MATR.         1                    : LOGUNIT      - NEUTRON MATRIX
RMT .C        25                   : MDTP         - TEMPERATURE OF MUD
NEUT.         1                    : NEUTRON      - NEUTRON TYPE
RESI.         0                    : RESIST       - RESISTIVITY TYPE
RMC .OHMM     0.25                 : RMC          - RESISTIVITY OF MUD CAKE
RMF .OHMM     0.25                 : RMF          - RESISTIVITY OF MUD FILTRATE
SUFT.C        15                   : SUFT         - SURFACE TEMPERATURE
~A  DEPTH     PHID     PHIN       GR     RESD     DENS
# ...
  179.500    0.245    0.535  101.524    4.342    0.000
  179.750    0.256    0.519   99.093    4.107    0.000
  180.000    0.266    0.508   96.054    3.883    0.000
  180.250    0.272    0.531   93.014    3.812    0.000
  180.500    0.290    0.579   93.011    3.674    0.000
  180.750    0.293    0.583   93.010    3.608    0.000
  181.000    0.280    0.569   95.436    3.611    0.000
  181.250    0.266    0.514   96.040    3.546    0.000
  181.500    0.255    0.500   99.075    3.547    0.000
  181.750    0.254    0.503  103.323    3.550    0.000
  182.000    0.265    0.514  104.536    3.689    0.000
  182.250    0.268    0.525   98.460    3.907    0.000
  182.500    0.265    0.529   92.993    4.059    0.000
  182.750    0.260    0.543   88.739    4.298    0.000
  183.000    0.268    0.560   86.307    4.727    0.000
  183.250    0.287    0.536   86.912    4.912    0.000
  183.500    0.283    0.518   89.945    4.646    0.000
  183.750    0.268    0.530   91.765    4.310    0.000
  184.000    0.269    0.518   94.798    3.926    0.000
  184.250    0.272    0.544   97.833    3.783    0.000
  184.500    0.261    0.544  101.474    3.714    0.000
  184.750    0.257    0.538  102.079    3.579    0.000
  185.000    0.263    0.562  100.254    3.515    0.000
  185.250    0.276    0.580   99.037    3.452    0.000
  185.500    0.278    0.609   97.820    3.454    0.000
  185.750    0.281    0.588   94.174    3.455    0.000
  186.000    0.279    0.548   98.422    3.330    0.000
  186.250    0.263    0.524  103.885    3.270    0.000
  186.500    0.266    0.538  103.275    3.272    0.000
  186.750    0.278    0.546   95.986    3.337    0.000
  187.000    0.292    0.574   88.696    3.670    0.000
  187.250    0.321    0.602   84.442    4.112    0.000
  187.500    0.329    0.480   82.010    4.696    0.000
  187.750    0.317    0.446   77.150    5.570    0.000
  188.000    0.285    0.442   75.325    6.010    0.000
  188.250    0.268    0.432   77.144    6.245    0.000
  188.500    0.266    0.452   81.393    6.491    0.000
  188.750    0.268    0.496   82.605    6.495    0.000
  189.000    0.267    0.487   81.388    6.749    0.000
  189.250    0.256    0.492   81.993    6.754    0.000
  189.500    0.249    0.492   82.598    6.888    0.000
  189.750    0.246    0.471   80.166    6.893    0.000
  190.000    0.251    0.481   80.163    6.897    0.000
  190.250    0.262    0.484   79.553    6.901    0.000
  190.500    0.260    0.462   79.550    6.907    0.000
  190.750    0.253    0.438   79.549    6.781    0.000
  191.000    0.250    0.438   80.761    6.414    0.000
  191.250    0.242    0.459   86.224    6.297    0.000
  191.500    0.244    0.508   89.865    6.422    0.000
  191.750    0.254    0.492   86.826    6.673    0.000
  192.000    0.266    0.498   79.536    7.201    0.000
  192.250    0.276    0.474   74.675    7.772    0.000
  192.500    0.283    0.446   77.101    8.229    0.000
  192.750    0.295    0.453   77.707    8.882    0.000
  193.000    0.300    0.464   75.883    9.407    0.000
  193.250    0.295    0.490   71.021    9.590    0.000
  193.500    0.310    0.475   72.233    9.779    0.000
  193.750    0.320    0.463   72.231    9.973    0.000
  194.000    0.314    0.466   71.621    9.980    0.000
  194.250    0.299    0.480   71.619    9.802    0.000
  194.500    0.300    0.508   72.224    9.993    0.000
  194.750    0.299    0.513   71.006    9.814    0.000
  195.000    0.288    0.485   70.396    9.820    0.000
  195.250    0.276    0.470   71.001    9.827    0.000
  195.500    0.275    0.465   73.428    9.471    0.000
  195.750    0.281    0.449   75.247    9.299    0.000
  196.000    0.266    0.436   74.030    8.959    0.000
  196.250    0.250    0.438   76.457    8.965    0.000
  196.500    0.260    0.465   78.883    8.478    0.000
  196.750    0.278    0.454   77.667    8.324    0.000
  197.000    0.294    0.467   75.842    8.330    0.000
  197.250    0.288    0.469   79.483    8.181    0.000
  197.500    0.265    0.465   83.124    7.883    0.000
  197.750    0.258    0.456   85.551    7.314    0.000
  198.000    0.258    0.454   87.370    6.661    0.000
  198.250    0.254    0.495   86.153    5.842    0.000
  198.500    0.244    0.558   84.329    5.318    0.000
  198.750    0.266    0.519   86.755    4.935    0.000
  199.000    0.293    0.497   91.611    4.579    0.000
  199.250    0.283    0.519   95.252    4.248    0.000
  199.500    0.267    0.583   97.071    3.725    0.000
  199.750    0.283    0.605   98.891    3.329    0.000
  200.000    0.280    0.613   99.495    3.089    0.000
  200.250    0.265    0.611   97.671    3.150    0.000
  200.500    0.253    0.551   94.632    3.465    0.000
  200.750    0.246    0.538   91.593    3.738    0.000
  201.000    0.272    0.545   89.769    4.518    0.000
  201.250    0.309    0.560   84.909    5.257    0.000
  201.500    0.336    0.459   78.226    6.354    0.000
  201.750    0.313    0.443   75.187    7.394    0.000
  202.000    0.127    0.490   69.719    8.770    0.000
  202.250    0.090    0.453   63.036    9.643    0.000
  202.500    0.071    0.298   66.677    9.653    0.000
  202.750    0.126    0.324   83.678    9.126    0.000
  203.000    0.193    0.393   87.320    8.154    0.000
  203.250    0.264    0.451   79.423    7.426    0.000
  203.500    0.281    0.459   80.635    6.890    0.000
  203.750    0.276    0.446   89.134    6.515    0.000
  204.000    0.241    0.481   89.131    6.398    0.000
  204.250    0.231    0.506   88.521    6.282    0.000
  204.500    0.252    0.546   90.948    6.406    0.000
  204.750    0.261    0.538   93.982    6.410    0.000
  205.000    0.265    0.492   97.623    6.295    0.000
  205.250    0.271    0.470   93.977    5.953    0.000
  205.500    0.264    0.516   93.974    5.523    0.000
  205.750    0.259    0.539   93.365    4.936    0.000
  206.000    0.257    0.522   89.719    4.328    0.000
  206.250    0.298    0.505   97.003    3.794    0.000
  206.500    0.304    0.497   99.430    3.144    0.000
  206.750    0.296    0.527   99.428    2.757    0.000
  207.000    0.282    0.584  100.639    2.558    0.000
  207.250    0.293    0.598   98.815    2.465    0.000
  207.500    0.296    0.590   93.954    2.421    0.000
  207.750    0.290    0.577   90.915    2.422    0.000
  208.000    0.293    0.577   92.735    2.517    0.000
  208.250    0.296    0.573   95.161    2.665    0.000
  208.500    0.282    0.594   93.337    2.988    0.000
  208.750    0.282    0.609   87.869    3.224    0.000
  209.000    0.293    0.611   80.579    3.478    0.000
  209.250    0.299    0.570   79.362    3.973    0.000
  209.500    0.284    0.513   82.395    4.537    0.000
  209.750    0.263    0.480   81.179    4.989    0.000
  210.000    0.269    0.488   78.139    5.591    0.000
  210.250    0.289    0.501   76.315    6.033    0.000
  210.500    0.264    0.486   75.099    7.023    0.000
  210.750    0.213    0.474   64.165    8.021    0.000
  211.000    0.177    0.455   58.697    8.819    0.000
  211.250    0.298    0.355   64.160   10.072    0.000
  211.500    0.355    0.337   70.230   11.503    0.000
  211.750    0.388    0.325   73.264   12.180    0.000
  212.000    0.405    0.315   76.905   12.188    0.000
  212.250    0.403    0.313   78.117   11.100    0.000
  212.500    0.375    0.322   73.863   10.105    0.000
  212.750    0.330    0.411   78.112    8.216    0.000
  213.000    0.301    0.488   81.146    7.771    0.000
  213.250    0.295    0.516   75.071    7.631    0.000
  213.500    0.308    0.504   70.817    7.781    0.000
  213.750    0.335    0.454   70.814    8.397    0.000
  214.000    0.345    0.389   72.026    8.726    0.000
  214.250    0.307    0.360   74.453    8.732    0.000
  214.500    0.303    0.378   76.880    8.413    0.000
  214.750    0.317    0.434   75.663    8.108    0.000
  215.000    0.308    0.476   80.518    7.524    0.000
  215.250    0.298    0.483   81.123    7.528    0.000
  215.500    0.298    0.466   76.262    7.676    0.000
  215.750    0.298    0.444   75.653    7.978    0.000
