~VERSION INFORMATION
 VERS.                 2.0:   CWLS LOG ASCII STANDARD -VERSION 2.0
 WRAP.                  NO:   ONE LINE PER DEPTH STEP
~WELL INFORMATION BLOCK
#MNEM.UNIT           DATA                    DESCRIPTION OF MNEMONIC
#---------    -------------------            -------------------------------
# Generated from Intellog Unique Number	CW_70_72/WELL/1064
NULL.         -999.25                        : NULL_VALUE
WELL.         LANDBANK ET AL MITSUE 11-36    : Well_name    - WELL              
LOC .         11-36-072-03W5                 : Location     - LOCATION          
UWI .         00/11-36-072-03W5/0            : Uwi          - UNIQUE WELL ID    
ENTR.         JAYE                           : Entered      - ENTERED BY        
SRVC.         SCHLUMBERGER                   : Scn          - SERVICE COMPANY   
DATE.         29 FEB 79                      : Date         - LOG DATE          
STRT.M        395                            : top_depth    - START DEPTH       
STOP.M        635                            : bot_depth    - STOP DEPTH        
STEP.M        0.25                           : increment    - STEP LENGTH       
~CURVE INFORMATION BLOCK
#MNEM UNIT       ERCB CURVE CODE    CURVE DESCRIPTION
#-----------   ------------------   ----------------------------------
DEPT.M        00 001 00 00         : DEPTH        - DEPTH                       
DPHI.V/V      00 890 00 00         : PHID         - DENSITY POROSITY (SANDSTONE)
NPHI.V/V      00 330 00 00         : PHIN         - NEUTRON POROSITY (SANDSTONE)
GR  .API      00 310 00 00         : GR           - GAMMA RAY                   
CALI.MM       00 280 01 00         : CAL          - CALIPER                     
ILD .OHMM     00 120 00 00         : RESD         - DEEP RESISTIVITY (DIL)      
~PARAMETER INFORMATION       
#MNEM.UNIT           DATA             DESCRIPTION OF MNEMONIC
#---------         -----------     ------------------------------
GL  .M        589                  : gl           - GROUND LEVEL ELEVATION      
EREF.M        591.7                : kb           - ELEVATION OF DEPTH REFERENCE
DATM.M        589                  : datum        - DATUM ELEVATION             
TDD .M        637                  : tdd          - TOTAL DEPTH DRILLER         
RUN .         ONE                  : Run          - RUN NUMBER                  
ENG .         MARSCHNER            : Engineer     - RECORDING ENGINEER          
WIT .         LOWTHER              : Witness      - WITNESSED BY                
BASE.         EDM                  : Branch       - HOME BASE OF LOGGING UNIT   
MUD .         GEL XHEM             : Mud_type     - MUD TYPE                    
MATR.         SANDSTONE            : Logunit      - NEUTRON MATRIX              
TMAX.C        25.5                 : BHT          - MAXIMUM RECORDED TEMPERATURE
BHTD.M        638                  : BHTDEP       - MAXIMUM RECORDED TEMPERATURE
RMT .C        7.8                  : MDTP         - TEMPERATURE OF MUD          
MUDD.KG/M     1190                 : MWT          - MUD DENSITY                 
NEUT.         1                    : NEUTRON      - NEUTRON TYPE                
RESI.         0                    : RESIST       - RESISTIVITY TYPE            
RM  .OHMM     4.55                 : RM           - RESISTIVITY OF MUD          
RMC .OHMM     0                    : RMC          - RESISTIVITY OF MUD CAKE     
RMF .OHMM     4.7                  : RMF          - RESISTIVITY OF MUD FILTRATE 
SUFT.C        32                   : SUFT         - SURFACE TEMPERATURE         
~A  DEPTH     PHID     PHIN       GR      CAL     RESD
# ...
  577.500    0.180    0.435  122.040  177.309    4.414
  577.750    0.177    0.430  122.617  178.164    4.471
  578.000    0.176    0.439  121.512  179.751    4.529
  578.250    0.174    0.453  119.601  180.086    4.586
  578.500    0.170    0.458  108.851  178.659    4.654
  578.750    0.182    0.438  100.965  174.955    4.731
  579.000    0.193    0.402   96.563  171.563    4.756
  579.250    0.198    0.410   93.221  170.028    4.853
  579.500    0.202    0.427   90.125  168.606    5.189
  579.750    0.194    0.404   86.408  167.804    5.665
  580.000    0.169    0.394   81.633  167.313    6.057
  580.250    0.144    0.389   76.173  166.820    6.537
  580.500    0.105    0.347   69.656  166.329    7.137
  580.750    0.125    0.315   70.854  166.046    7.489
  581.000    0.142    0.329   81.075  165.966    7.445
  581.250    0.135    0.350   82.957  165.894    6.766
  581.500    0.162    0.361   82.788  166.017    6.240
  581.750    0.184    0.373   86.225  166.148    5.597
  582.000    0.203    0.386   88.419  166.076    5.300
  582.250    0.211    0.397   89.182  166.204    5.135
  582.500    0.188    0.384   87.766  166.652    5.113
  582.750    0.175    0.369   84.671  166.672    5.121
  583.000    0.189    0.360   85.434  166.597    5.244
  583.250    0.204    0.373   90.428  166.835    5.534
  583.500    0.203    0.371   89.511  167.061    6.030
  583.750    0.171    0.346   87.723  167.399    6.544
  584.000    0.138    0.318   84.319  167.327    7.157
  584.250    0.102    0.299   80.972  167.975    7.826
  584.500    0.093    0.294   80.678  169.040    8.818
  584.750    0.094    0.301   86.356  169.995    8.782
  585.000    0.111    0.311   89.731  171.372    8.027
  585.250    0.146    0.330   93.171  172.539    7.460
  585.500    0.167    0.361   97.976  173.191    6.894
  585.750    0.167    0.349  103.094  173.525    6.289
  586.000    0.165    0.342  111.822  174.281    5.844
  586.250    0.162    0.337  118.308  175.030    5.482
  586.500    0.162    0.361  122.498  175.472    5.240
  586.750    0.169    0.384  119.835  176.542    5.123
  587.000    0.166    0.401  115.246  176.873    5.074
  587.250    0.158    0.400  111.902  176.074    5.119
  587.500    0.151    0.382  107.813  173.404    5.214
  587.750    0.127    0.388  102.850  169.799    5.371
  588.000    0.100    0.402   96.520  168.165    5.500
  588.250    0.093    0.371  102.136  167.986    5.708
  588.500    0.116    0.350  107.875  169.158    6.163
  588.750    0.110    0.352  102.167  170.530    6.577
  589.000    0.102    0.362   95.093  172.114    6.991
  589.250    0.091    0.377   90.564  173.592    7.577
  589.500    0.088    0.305   84.608  174.447    7.758
  589.750    0.125    0.301   95.202  174.886    6.754
  590.000    0.137    0.325  102.499  175.017    5.880
  590.250    0.154    0.352  106.744  175.150    5.474
  590.500    0.160    0.370  110.494  175.382    5.262
  590.750    0.166    0.385  114.740  176.345    5.230
  591.000    0.164    0.398  112.828  177.925    5.458
  591.250    0.146    0.422  107.182  180.440    5.803
  591.500    0.149    0.411  101.474  182.231    6.277
  591.750    0.156    0.414   96.451  179.250    5.375
  592.000    0.112    0.370   89.809  175.858    6.875
  592.250    0.087    0.272   82.048  174.951    8.101
  592.500    0.070    0.264   87.974  174.563    9.231
  592.750    0.113    0.288   97.820  175.623    9.544
  593.000    0.137    0.314  101.010  177.412    4.198
  593.250    0.155    0.340  103.328  179.515    3.448
  593.500    0.173    0.371  105.398  180.576    1.913
  593.750    0.173    0.392  109.708  179.882    1.131
  594.000    0.179    0.405  116.505  179.081    0.937
  594.250    0.149    0.396  112.541  177.860    0.769
  594.500    0.134    0.380  109.879  176.743    0.656
  594.750    0.141    0.367  111.454  175.632    0.578
  595.000    0.153    0.362  111.343  175.035    0.489
  595.250    0.167    0.372  108.995  174.337    0.449
  595.500    0.172    0.374  106.895  173.223    0.420
  595.750    0.156    0.372  107.533  171.590    0.399
  596.000    0.169    0.376  108.670  170.477    0.389
  596.250    0.139    0.382  109.121  169.776    0.395
  596.500    0.132    0.371  106.463  169.493    0.418
  596.750    0.116    0.348  101.562  169.416    0.454
  597.000    0.086    0.319   91.809  169.857    0.488
  597.250    0.059    0.307  102.031  171.646    0.529
  597.500    0.081    0.317  107.896  173.854    0.566
  597.750    0.116    0.327  112.704  175.332    0.633
  598.000    0.141    0.344  115.703  176.809    0.745
  598.250    0.157    0.347  119.703  178.080    0.792
  598.500    0.177    0.352  124.136  179.351    0.858
  598.750    0.200    0.368  126.145  180.520    0.995
  599.000    0.231    0.458  126.286  180.546    1.112
  599.250    0.260    0.493  126.176  176.838    1.237
  599.500    0.274    0.529  124.948  171.164    1.376
  599.750    0.248    0.543  124.590  169.009    1.521
  600.000    0.224    0.556  124.667  168.206    1.661
  600.250    0.204    0.539  122.319  168.441    1.782
  600.500    0.182    0.501  117.421  168.783    1.860
  600.750    0.137    0.482  111.028  168.496    1.945
  601.000    0.141    0.450  119.258  168.109    1.992
  601.250    0.144    0.449  126.304  167.409    2.052
  601.500    0.144    0.491  129.430  167.126    2.158
  601.750    0.148    0.507  126.212  168.089    2.351
  602.000    0.143    0.495  122.557  169.771    2.571
  602.250    0.123    0.457  117.034  172.704    2.806
  602.500    0.127    0.409  112.384  176.152    3.080
  602.750    0.159    0.401  116.010  179.805    3.275
  603.000    0.133    0.395  119.696  175.581    3.463
  603.250    0.120    0.392  123.322  173.431    3.547
  603.500    0.095    0.410  120.352  173.771    3.634
  603.750    0.132    0.411  116.322  175.354    3.694
  604.000    0.143    0.401  122.748  175.896    3.755
  604.250    0.110    0.387  125.998  176.236    3.853
  604.500    0.122    0.399  123.402  177.193    3.947
  604.750    0.139    0.412  119.624  178.671    4.035
  605.000    0.157    0.398  119.389  179.633    4.111
  605.250    0.153    0.400  120.090  180.283    4.170
  605.500    0.145    0.406  118.612  179.374    4.184
  605.750    0.120    0.395  123.357  175.979    4.083
  606.000    0.132    0.383  126.237  174.764    3.802
  606.250    0.157    0.418  123.454  174.585    3.533
  606.500    0.180    0.440  119.987  175.850    3.585
  606.750    0.158    0.437  115.210  182.618    3.694
  607.000    0.141    0.413  117.653  183.061    3.776
  607.250    0.160    0.401  126.129  179.563    3.824
  607.500    0.165    0.459  124.465  176.997    3.874
  607.750    0.137    0.457  116.766  174.430    3.894
  608.000    0.111    0.427  110.000  171.451    3.900
  608.250    0.150    0.412  109.457  168.159    3.905
  608.500    0.165    0.407  108.539  166.320    3.919
  608.750    0.128    0.399  108.492  165.621    3.955
  609.000    0.126    0.390  111.246  165.440    3.999
  609.250    0.135    0.400  109.707  165.884    4.050
  609.500    0.128    0.397  108.727  167.050    4.109
  609.750    0.142    0.380  110.797  167.904    4.146
  610.000    0.140    0.389  117.534  168.554    4.199
  610.250    0.143    0.404  117.239  169.823    4.261
  610.500    0.118    0.406  109.103  172.859    4.348
  610.750    0.153    0.407  100.223  175.891    4.412
  611.000    0.164    0.399   91.278  168.142    4.436
  611.250    0.194    0.336   71.321  162.983    4.344
  611.500    0.216    0.328   58.148  160.313    4.207
  611.750    0.248    0.345   53.434  159.312    4.058
  612.000    0.264    0.362   51.521  158.615    3.500
  612.250    0.249    0.365   61.494  158.735    2.990
  612.500    0.230    0.356   69.040  158.659    2.779
  612.750    0.215    0.353   75.090  158.683    2.783
  613.000    0.215    0.358   80.332  158.607    2.948
  613.250    0.212    0.371   83.583  158.433    3.224
  613.500    0.206    0.378   80.301  158.349    3.567
  613.750    0.223    0.380   74.470  158.274    3.878
