~VERSION INFORMATION
 VERS.                 2.0:   CWLS LOG ASCII STANDARD -VERSION 2.0
 WRAP.                  NO:   ONE LINE PER DEPTH STEP
~WELL INFORMATION BLOCK
#MNEM.UNIT           DATA                    DESCRIPTION OF MNEMONIC
#---------    -------------------            -------------------------------
# Generated from Intellog Unique Number	CS_73_76/WELL/3236
WELL.         PACIFIC KIRBY                  : Well_name    - WELL
LOC .         00/10-16-075-06W4/0            : Location     - LOCATION
UWI .         00/10-16-075-06W4/0            : Uwi          - UNIQUE WELL ID
ENTR.         SP                             : Entered      - ENTERED BY
SRVC.         SCHLUMBERGER                   : Scn          - SERVICE COMPANY
STRT.M        230                            : top_depth    - START DEPTH
STOP.M        493                            : bot_depth    - STOP DEPTH
STEP.M        0.25                           : increment    - STEP LENGTH
 NULL. -999.2500:NULL Value
~CURVE INFORMATION BLOCK
#MNEM UNIT       ERCB CURVE CODE    CURVE DESCRIPTION
#-----------   ------------------   ----------------------------------
DEPT.M        00 001 00 00         : DEPTH        - DEPTH
GR  .API      00 310 00 00         : GR           - GAMMA RAY
NPHI.V/V      00 330 00 00         : PHIN         - NEUTRON POROSITY (LIMESTONE)
DPHI.V/V      00 890 00 00         : PHID         - DENSITY POROSITY (LIMESTONE)
ILD .OHMM     00 120 00 00         : RESD         - DEEP RESISTIVITY (DIL)
~PARAMETER INFORMATION
#MNEM.UNIT           DATA             DESCRIPTION OF MNEMONIC
#---------         -----------     ------------------------------
GL  .M        621.4                : gl           - GROUND LEVEL ELEVATION
EREF.M        625.6                : kb           - ELEVATION OF DEPTH REFERENCE
DATM.M        621.4                : datum        - DATUM ELEVATION
TDD .M        490                  : tdd          - TOTAL DEPTH DRILLER
RUN .         ONE                  : Run          - RUN NUMBER
ENG .         BILL                 : Engineer     - RECORDING ENGINEER
WIT .         JIM                  : Witness      - WITNESSED BY
MUD .         GEL                  : Mud_type     - MUD TYPE
MATR.         LIMESTONE            : Logunit      - NEUTRON MATRIX
TMAX.C        22                   : BHT          - MAXIMUM RECORDED TEMPERATURE
BHTD.M        490                  : BHTDEP       - MAXIMUM RECORDED TEMPERATURE
MATR.         1                    : LOGUNIT      - NEUTRON MATRIX
RMT .C        25                   : MDTP         - TEMPERATURE OF MUD
NEUT.         1                    : NEUTRON      - NEUTRON TYPE
RESI.         0                    : RESIST       - RESISTIVITY TYPE
RMC .OHMM     0.25                 : RMC          - RESISTIVITY OF MUD CAKE
RMF .OHMM     0.25                 : RMF          - RESISTIVITY OF MUD FILTRATE
SUFT.C        15                   : SUFT         - SURFACE TEMPERATURE
~A  DEPTH       GR     PHIN     PHID     RESD
# ...
  273.500  121.270    0.420    0.184    8.409
  273.750  124.300    0.441    0.182    8.254
  274.000  123.076    0.455    0.190    7.953
  274.250  120.031    0.473    0.197    7.384
  274.500  118.203    0.485    0.200    6.984
  274.750  113.335    0.495    0.199    6.983
  275.000  110.900    0.503    0.196    7.113
  275.250  109.069    0.498    0.200    7.381
  275.500  110.884    0.489    0.217    7.518
  275.750  111.483    0.481    0.234    8.095
  276.000  112.690    0.475    0.233    8.557
  276.250  114.503    0.465    0.232    9.386
  276.500  114.496    0.458    0.232   10.106
  276.750  110.231    0.443    0.251   10.487
  277.000  107.795    0.427    0.255   11.292
  277.250  106.576    0.425    0.246   11.717
  277.500  107.175    0.426    0.235   11.935
  277.750  110.807    0.443    0.228   11.933
  278.000  112.624    0.459    0.239   11.712
  278.250  113.832    0.450    0.234   11.496
  278.500  113.823    0.450    0.232   11.077
  278.750  113.813    0.466    0.223   11.076
  279.000  113.809    0.474    0.209   10.871
  279.250  111.977    0.490    0.203   10.671
  279.500  108.931    0.502    0.199   10.094
  279.750  107.711    0.485    0.189    9.372
  280.000  104.057    0.476    0.170    8.864
  280.250  101.621    0.471    0.210    8.541
  280.500   97.359    0.466    0.225    8.700
  280.750   94.926    0.458    0.233    9.027
  281.000   90.667    0.441    0.244    9.720
  281.250   90.053    0.444    0.242   10.662
  281.500   87.007    0.453    0.255   11.914
  281.750   83.964    0.471    0.266   13.068
  282.000   78.489    0.471    0.278   14.335
  282.250   74.838    0.453    0.289   16.316
  282.500   72.401    0.444    0.297   17.247
  282.750   72.998    0.436    0.295   18.571
  283.000   74.207    0.429    0.294   19.270
  283.250   77.232    0.447    0.276   19.267
  283.500   79.049    0.454    0.259   18.912
  283.750   82.079    0.438    0.244   16.611
  284.000   90.569    0.441    0.249   14.863
  284.250   94.207    0.442    0.233   12.815
  284.500   96.022    0.439    0.232   11.255
  284.750   93.582    0.436    0.233   10.845
  285.000   90.537    0.435    0.233   12.118
  285.250   86.278    0.449    0.249   12.809
  285.500   83.236    0.462    0.261   14.050
  285.750   78.978    0.442    0.255   15.129
  286.000   77.148    0.431    0.249   15.991
  286.250   79.567    0.439    0.249   16.288
  286.500   81.383    0.436    0.264   16.287
  286.750   85.625    0.430    0.270   15.693
  287.000   89.261    0.422    0.269   15.120
  287.250   91.075    0.421    0.266   15.118
  287.500   91.066    0.422    0.265   14.840
  287.750   89.844    0.428    0.270   14.838
  288.000   88.621    0.428    0.269   14.564
  288.250   88.614    0.434    0.265   14.296
  288.500   92.248    0.424    0.253   13.521
  288.750   94.062    0.421    0.245   13.028
  289.000   91.016    0.415    0.235   13.026
  289.250   87.365    0.426    0.234   12.786
  289.500   83.714    0.433    0.241   12.784
  289.750   82.493    0.443    0.260   12.783
  290.000   80.054    0.439    0.274   12.547
  290.250   78.834    0.437    0.269   12.546
  290.500   76.396    0.433    0.267   12.545
  290.750   77.603    0.429    0.259   12.314
  291.000   80.022    0.432    0.250   12.312
  291.250   79.409    0.438    0.270   12.311
  291.500   78.187    0.450    0.270   12.084
  291.750   76.355    0.467    0.262   12.083
  292.000   75.134    0.471    0.253   12.081
  292.250   75.124    0.457    0.253   12.080
  292.500   75.725    0.452    0.253   12.078
  292.750   76.324    0.456    0.261   12.077
  293.000   76.924    0.456    0.267   12.075
  293.250   77.523    0.453    0.269   11.853
  293.500   76.299    0.445    0.277   11.852
  293.750   78.113    0.442    0.280   11.851
  294.000   78.713    0.445    0.270   11.848
  294.250   77.486    0.450    0.264   11.847
  294.500   76.873    0.441    0.264   11.846
  294.750   76.260    0.437    0.278   11.845
  295.000   75.644    0.437    0.279   11.843
  295.250   75.028    0.437    0.278   11.842
  295.500   75.629    0.445    0.284   12.063
  295.750   75.621    0.456    0.295   12.062
  296.000   73.791    0.447    0.296   12.060
  296.250   73.176    0.435    0.291   12.059
  296.500   73.167    0.430    0.289   12.282
  296.750   72.550    0.441    0.289   12.281
  297.000   71.329    0.443    0.295   12.280
  297.250   70.105    0.440    0.300   12.279
  297.500   69.487    0.440    0.305   12.278
  297.750   70.090    0.441    0.306   12.276
  298.000   71.904    0.454    0.308   12.050
  298.250   73.111    0.465    0.310   11.610
  298.500   71.887    0.451    0.310   11.187
  298.750   70.665    0.434    0.310   10.779
  299.000   70.658    0.431    0.308   10.386
  299.250   71.255    0.438    0.304   10.007
  299.500   71.854    0.452    0.298    9.466
  299.750   73.062    0.458    0.307    8.953
  300.000   72.448    0.457    0.309    8.626
  300.250   71.833    0.458    0.298    8.312
  300.500   72.428    0.454    0.286    8.009
  300.750   73.029    0.446    0.283    7.575
  301.000   74.235    0.448    0.287    7.435
  301.250   74.836    0.457    0.282    7.298
  301.500   76.650    0.451    0.282    7.163
  301.750   77.251    0.431    0.276    7.031
  302.000   77.242    0.428    0.269    6.902
  302.250   73.588    0.429    0.282    6.774
  302.500   71.759    0.427    0.298    6.649
  302.750   70.537    0.425    0.309    6.526
  303.000   69.920    0.434    0.318    6.288
  303.250   69.308    0.440    0.308    6.288
  303.500   72.943    0.440    0.312    6.058
  303.750   72.327    0.446    0.300    5.947
  304.000   76.569    0.453    0.286    5.837
  304.250   79.599    0.465    0.274    5.624
  304.500   80.805    0.495    0.285    5.623
  304.750   80.190    0.486    0.299    5.623
  305.000   78.359    0.481    0.314    5.622
  305.250   76.530    0.478    0.331    5.622
  305.500   72.877    0.489    0.340    5.726
  305.750   69.833    0.506    0.342    5.725
  306.000   69.220    0.506    0.344    5.725
  306.250   72.854    0.487    0.328    5.724
  306.500   73.454    0.480    0.327    5.724
  306.750   72.227    0.477    0.325    5.723
  307.000   72.223    0.469    0.304    5.617
  307.250   70.995    0.467    0.305    5.513
  307.500   70.989    0.463    0.310    5.513
  307.750   70.375    0.460    0.316    5.512
  308.000   70.369    0.459    0.325    5.411
  308.250   70.361    0.460    0.319    5.410
  308.500   70.960    0.465    0.313    5.310
  308.750   70.344    0.473    0.308    5.310
  309.000   67.300    0.460    0.313    5.212
  309.250   64.863    0.444    0.315    5.211
  309.500   64.856    0.428    0.312    5.115
  309.750   67.884    0.443    0.309    5.114
  310.000   70.301    0.460    0.306    5.020
  310.250   70.297    0.460    0.301    4.927
  310.500   70.290    0.454    0.298    4.836
  310.750   69.672    0.456    0.302    4.836
  311.000   69.057    0.453    0.303    4.835
  311.250   69.051    0.445    0.297    4.925
  311.500   70.256    0.447    0.292    4.925
  311.750   68.426    0.436    0.286    5.016
  312.000   65.383    0.423    0.284    5.015
  312.250   63.553    0.426    0.296    5.015
  312.500   70.829    0.446    0.302    4.923
  312.750   73.254    0.469    0.305    4.656
  313.000   73.851    0.472    0.307    4.570
  313.250   73.236    0.478    0.317    4.570
  313.500   72.621    0.484    0.324    4.485
  313.750   73.222    0.490    0.331    4.485
  314.000   75.640    0.503    0.313    4.484
  314.250   76.243    0.518    0.312    4.653
  314.500   70.767    0.536    0.325    4.828
  314.750   65.902    0.452    0.325    5.199
  315.000   63.464    0.417    0.312    6.028
  315.250   61.025    0.401    0.287    6.990
  315.500   59.802    0.378    0.229    8.729
  315.750   59.190    0.348    0.258    9.575
  316.000   64.647    0.372    0.288    9.398
  316.250   70.104    0.400    0.323    8.889
  316.500   70.097    0.447    0.336    7.807
  316.750   68.870    0.465    0.328    6.986
