~VERSION INFORMATION
 VERS.                 2.0:   CWLS LOG ASCII STANDARD -VERSION 2.0
 WRAP.                  NO:   ONE LINE PER DEPTH STEP
~WELL INFORMATION BLOCK
#MNEM.UNIT           DATA                    DESCRIPTION OF MNEMONIC
#---------    -------------------            -------------------------------
# Generated from Intellog Unique Number	CW_76_78/WELL/2811
WELL.         AAMOCO ET ROCK 10-34           : Well_name    - WELL
LOC .         00/10-34-077-24W4/0            : Location     - LOCATION
UWI .         00/10-34-077-24W4/0            : Uwi          - UNIQUE WELL ID
ENTR.         JJ                             : Entered      - ENTERED BY
SRVC.         WESTERN ATLAS                  : Scn          - SERVICE COMPANY
DATE.         14 JAN 73                      : Date         - LOG DATE
STRT.M        396.24                         : top_depth    - START DEPTH
STOP.M        533.49                         : bot_depth    - STOP DEPTH
STEP.M        0.25                           : increment    - STEP LENGTH
 NULL. -999.2500:NULL Value
~CURVE INFORMATION BLOCK
#MNEM UNIT       ERCB CURVE CODE    CURVE DESCRIPTION
#-----------   ------------------   ----------------------------------
DEPT.M        00 001 00 00         : DEPTH        - DEPTH
DELT.US/F     00 520 00 00         : DELT         - SONIC TRAVEL TIME
NPHI.V/V      00 330 00 00         : PHIN         - NEUTRON POROSITY (SANDSTONE)
GR  .API      00 310 00 00         : GR           - GAMMA RAY
CALI.MM       00 280 01 00         : CAL          - CALIPER
ILD .OHMM     00 120 00 00         : RESD         - DEEP RESISTIVITY (DIL)
~PARAMETER INFORMATION
#MNEM.UNIT           DATA             DESCRIPTION OF MNEMONIC
#---------         -----------     ------------------------------
GL  .M        613.105              : gl           - GROUND LEVEL ELEVATION
EREF.M        617.281              : kb           - ELEVATION OF DEPTH REFERENCE
DATM.M        613.105              : datum        - DATUM ELEVATION
TDD .M        534.924              : tdd          - TOTAL DEPTH DRILLER
RUN .         ONE                  : Run          - RUN NUMBER
ENG .         MACLEAN-HETHERINGTON : Engineer     - RECORDING ENGINEER
WIT .         MACALDER-DAVIS       : Witness      - WITNESSED BY
BASE.         V.V                  : Branch       - HOME BASE OF LOGGING UNIT
MUD .         GEL                  : Mud_type     - MUD TYPE
MATR.         SANDSTONE            : Logunit      - NEUTRON MATRIX
TMAX.C        28.3333              : BHT          - MAXIMUM RECORDED TEMPERATURE
BHTD.M        535.534              : BHTDEP       - MAXIMUM RECORDED TEMPERATURE
RMT .C        18.3333              : MDTP         - TEMPERATURE OF MUD
MUDD.KG/M     1140                 : MWT          - MUD DENSITY
NEUT.         1                    : NEUTRON      - NEUTRON TYPE
RESI.         0                    : RESIST       - RESISTIVITY TYPE
RM  .OHMM     4.1                  : RM           - RESISTIVITY OF MUD
RMC .OHMM     4.5                  : RMC          - RESISTIVITY OF MUD CAKE
RMF .OHMM     3.5                  : RMF          - RESISTIVITY OF MUD FILTRATE
SUFT.C        5                    : SUFT         - SURFACE TEMPERATURE
~A  DEPTH     DELT     PHIN       GR      CAL     RESD
# ...
  469.240  377.332    0.264   71.623  225.880    4.080
  469.490  378.708    0.262   72.025  226.039    3.913
  469.740  374.015    0.258   72.671  222.482    3.801
  469.990  362.211    0.255   76.379  223.895    3.699
  470.240  354.647    0.251   81.668  226.846    3.626
  470.490  360.722    0.246   81.347  227.217    3.581
  470.740  357.987    0.251   78.141  224.074    3.582
  470.990  357.536    0.267   73.169  221.563    3.636
  471.240  355.844    0.267   69.658  221.724    3.773
  471.490  361.202    0.259   67.555  222.726    3.958
  471.740  365.709    0.253   68.692  223.394    4.332
  471.990  361.474    0.248   69.893  225.016    4.611
  472.240  358.869    0.242   71.153  224.461    5.028
  472.490  358.679    0.253   73.266  223.065    5.178
  472.740  358.946    0.265   76.300  219.106    5.266
  472.990  363.193    0.284   77.563  214.912    5.220
  473.240  370.963    0.303   77.416  211.765    5.173
  473.490  369.404    0.299   76.472  216.602    5.091
  473.740  366.277    0.285   74.186  218.928    5.055
  473.990  365.500    0.280   71.898  219.309    5.075
  474.240  371.117    0.279   72.302  216.889    5.133
  474.490  369.687    0.281   73.135  216.964    5.182
  474.740  365.844    0.281   70.669  219.499    5.193
  474.990  359.911    0.273   71.988  221.835    5.185
  475.240  349.411    0.270   71.599  223.659    5.235
  475.490  355.093    0.268   71.999  223.511    5.284
  475.740  367.041    0.266   74.239  223.175    5.296
  475.990  372.592    0.268   72.811  223.126    5.278
  476.240  372.598    0.268   71.686  223.305    5.260
  476.490  363.927    0.265   73.319  223.666    5.252
  476.740  358.515    0.256   71.333  224.148    5.254
  476.990  345.731    0.252   70.513  224.931    5.208
  477.240  352.066    0.250   71.713  226.024    5.171
  477.490  362.121    0.258   73.650  227.235    5.098
  477.740  376.612    0.263   71.485  227.716    5.016
  477.990  372.573    0.263   72.073  227.458    4.999
  478.240  370.686    0.264   72.043  225.457    5.057
  478.490  378.130    0.263   66.886  223.758    5.113
  478.740  342.248    0.254   63.194  221.742    5.296
  478.990  338.012    0.249   62.809  219.444    5.435
  479.240  342.978    0.248   62.785  218.350    5.808
  479.490  343.244    0.248   61.787  216.877    6.093
  479.740  347.034    0.245   60.231  216.209    6.403
  479.990  338.035    0.239   57.826  216.179    6.892
  480.240  312.984    0.229   55.903  216.537    7.500
  480.490  287.934    0.218   54.170  217.632    8.162
  480.740  268.037    0.201   54.634  221.335    8.997
  480.990  256.819    0.186   57.606  223.352    8.395
  481.240  287.232    0.201   61.251  223.929    7.510
  481.490  340.026    0.222   64.035  224.619    6.755
  481.740  350.995    0.238   65.782  223.747    6.054
  481.990  352.371    0.250   67.290  222.667    5.416
  482.240  349.244    0.255   68.487  221.804    5.090
  482.490  358.515    0.263   69.623  225.587    4.837
  482.740  355.521    0.277   71.552  228.147    4.742
  482.990  354.352    0.255   74.096  228.195    4.761
  483.240  355.402    0.248   75.602  228.677    4.922
  483.490  356.385    0.243   77.104  229.169    5.211
  483.740  351.041    0.238   77.450  229.429    5.776
  483.990  352.482    0.227   76.936  228.865    6.617
  484.240  360.122    0.215   70.801  227.478    7.442
  484.490  334.745    0.191   61.489  224.238    8.714
  484.740  289.661    0.172   54.985  220.991   10.780
  484.990  241.250    0.159   55.389  219.499   12.532
  485.240  233.230    0.149   58.239  218.844   13.688
  485.490  283.088    0.131   58.210  219.215   13.443
  485.740  268.608    0.152   60.146  219.684   11.873
  485.990  261.828    0.164   65.073  219.755   10.601
  486.240  304.834    0.177   70.488  220.754    9.623
  486.490  325.720    0.193   73.459  221.846    8.897
  486.740  313.525    0.206   74.599  222.621    8.181
  486.990  308.310    0.203   75.730  222.914    7.094
  487.240  309.294    0.201   78.210  222.970    6.607
  487.490  322.481    0.208   80.387  223.137    6.075
  487.740  334.950    0.217   80.060  223.615    5.794
  487.990  346.896    0.222   81.074  223.981    5.775
  488.240  358.713    0.227   83.493  224.140    5.949
  488.490  364.656    0.238   81.024  223.993    6.207
  488.740  347.761    0.230   73.489  221.373    6.475
  488.990  320.687    0.221   69.922  215.852    7.190
  489.240  321.020    0.211   69.163  205.563    8.073
  489.490  326.639    0.205   69.993  204.377    8.345
  489.740  324.098    0.206   73.762  219.039    7.989
  489.990  335.588    0.213   75.629  223.148    7.690
  490.240  344.077    0.229   75.485  223.710    7.282
  490.490  342.973    0.232   73.445  224.190    7.087
  490.740  338.672    0.232   73.171  225.083    6.934
  490.990  348.987    0.233   73.941  225.245    6.773
  491.240  347.688    0.238   74.776  225.004    6.762
  491.490  342.082    0.238   74.263  224.754    6.940
  491.740  358.923    0.233   71.060  224.618    7.123
  491.990  363.170    0.231   68.164  224.162    7.284
  492.240  345.362    0.231   68.812  223.509    7.128
  492.490  312.350    0.226   72.090  224.086    6.848
  492.740  304.199    0.217   76.469  224.974    6.425
  492.990  343.226    0.235   77.301  226.271    6.083
  493.240  361.045    0.251   74.221  228.507    5.802
  493.490  371.817    0.257   69.671  228.053    6.021
  493.740  356.946    0.249   63.415  225.840    6.564
  493.990  333.265    0.242   56.183  223.732    7.091
  494.240  343.059    0.235   51.084  221.930    7.990
  494.490  355.919    0.228   46.536  221.370    8.888
  494.740  371.650    0.219   43.274  220.608    9.924
  494.990  365.457    0.224   41.177  220.252   10.840
  495.240  371.531    0.230   39.497  218.998   11.796
  495.490  382.043    0.237   36.296  218.204   12.908
  495.740  369.911    0.247   31.023  218.482   14.021
  495.990  359.215    0.257   27.454  222.686   15.828
  496.240  366.986    0.264   24.308  225.846   17.287
  496.490  363.077    0.260   21.716  223.221   18.953
  496.740  356.819    0.252   21.330  216.874   19.309
  496.990  351.996    0.253   21.488  215.790   19.209
  497.240  352.458    0.261   21.826  214.828   18.900
  497.490  358.532    0.259   22.964  215.087   18.460
  497.740  352.144    0.257   23.802  216.310   17.868
  497.990  350.387    0.255   24.207  216.767   17.678
  498.240  380.800    0.249   24.606  217.366   17.395
  498.490  400.448    0.251   24.216  217.412   17.085
  498.740  406.520    0.263   22.483  217.576   16.903
  498.990  377.098    0.259   22.884  221.160   16.601
  499.240  361.378    0.249   23.898  221.328   16.395
  499.490  356.294    0.244   24.546  218.084   16.369
  499.740  346.381    0.241   24.402  216.694   16.404
  499.990  353.499    0.236   23.523  216.243   16.320
  500.240  362.184    0.232   24.230  215.812   15.999
  500.490  361.602    0.235   24.329  215.976   15.149
  500.740  354.887    0.243   24.550  216.036   14.344
  500.990  361.287    0.251   25.323  216.187   13.605
  501.240  358.030    0.252   25.234  216.669   12.834
  501.490  348.575    0.251   25.641  216.727   11.931
  501.740  348.059    0.248   27.328  216.785   11.092
  501.990  342.258    0.251   29.199  216.534   10.143
  502.240  335.868    0.250   31.373  216.102    9.639
  502.490  329.413    0.246   33.486  216.043    9.076
  502.740  327.918    0.242   36.525  216.004    8.515
  502.990  331.839    0.240   37.539  215.662    7.787
  503.240  336.413    0.239   38.367  215.095    6.865
  503.490  333.417    0.236   38.712  214.533    6.475
  503.740  267.583    0.228   38.932  215.022    5.867
  503.990  275.550    0.220   40.924  217.364    5.385
  504.240  356.924    0.210   41.086  221.557    4.862
  504.490  370.111    0.211   37.760  221.305    4.520
  504.740  365.027    0.266   37.497  219.302    4.431
  504.990  346.045    0.259   39.062  218.752    4.522
  505.240  350.226    0.252   42.699  218.712    4.692
  505.490  354.474    0.237   48.540  218.982    4.959
