~VERSION INFORMATION
 VERS.                 2.0:   CWLS LOG ASCII STANDARD -VERSION 2.0
 WRAP.                  NO:   ONE LINE PER DEPTH STEP
~WELL INFORMATION BLOCK
#MNEM.UNIT           DATA                    DESCRIPTION OF MNEMONIC
#---------    -------------------            -------------------------------
# Generated from Intellog Unique Number	CW_73_75/WELL/2737
WELL.         ICG ET AL AMADO4 10-04         : Well_name    - WELL
LOC .         00/10-04-073-20W4/0            : Location     - LOCATION
UWI .         00/10-04-073-20W4/0            : Uwi          - UNIQUE WELL ID
ENTR.         JAYE                           : Entered      - ENTERED BY
SRVC.         SCHLUMBERGER                   : Scn          - SERVICE COMPANY
DATE.         11 JAN 79                      : Date         - LOG DATE
STRT.M        365                            : top_depth    - START DEPTH
STOP.M        575                            : bot_depth    - STOP DEPTH
STEP.M        0.25                           : increment    - STEP LENGTH
 NULL. -999.2500:NULL Value
~CURVE INFORMATION BLOCK
#MNEM UNIT       ERCB CURVE CODE    CURVE DESCRIPTION
#-----------   ------------------   ----------------------------------
DEPT.M        00 001 00 00         : DEPTH        - DEPTH
ILD .OHMM     00 120 00 00         : RESD         - DEEP RESISTIVITY (DIL)
NPHI.V/V      00 330 00 00         : PHIN         - NEUTRON POROSITY (SANDSTONE)
DPHI.V/V      00 890 00 00         : PHID         - DENSITY POROSITY (SANDSTONE)
GR  .API      00 310 00 00         : GR           - GAMMA RAY
CALI.MM       00 280 01 00         : CAL          - CALIPER
~PARAMETER INFORMATION
#MNEM.UNIT           DATA             DESCRIPTION OF MNEMONIC
#---------         -----------     ------------------------------
GL  .M        680.5                : gl           - GROUND LEVEL ELEVATION
EREF.M        683.2                : kb           - ELEVATION OF DEPTH REFERENCE
DATM.M        680.5                : datum        - DATUM ELEVATION
TDD .M        576.5                : tdd          - TOTAL DEPTH DRILLER
RUN .         ONE                  : Run          - RUN NUMBER
ENG .         JORDAN               : Engineer     - RECORDING ENGINEER
WIT .         WALTERS              : Witness      - WITNESSED BY
BASE.         EDM                  : Branch       - HOME BASE OF LOGGING UNIT
MUD .         GEL CHEM             : Mud_type     - MUD TYPE
MATR.         SANDSTONE            : Logunit      - NEUTRON MATRIX
TMAX.C        28.9                 : BHT          - MAXIMUM RECORDED TEMPERATURE
BHTD.M        577                  : BHTDEP       - MAXIMUM RECORDED TEMPERATURE
RMT .C        14                   : MDTP         - TEMPERATURE OF MUD
MUDD.KG/M     9.5                  : MWT          - MUD DENSITY
NEUT.         1                    : NEUTRON      - NEUTRON TYPE
RESI.         0                    : RESIST       - RESISTIVITY TYPE
RM  .OHMM     5.18                 : RM           - RESISTIVITY OF MUD
RMC .OHMM     0                    : RMC          - RESISTIVITY OF MUD CAKE
RMF .OHMM     5.66                 : RMF          - RESISTIVITY OF MUD FILTRATE
SUFT.C        0                    : SUFT         - SURFACE TEMPERATURE
~A  DEPTH     RESD     PHIN     PHID       GR      CAL
# ...
  547.500    4.667    0.400    0.105   97.705  161.444
  547.750    3.781    0.411    0.074   96.233  161.459
  548.000    3.070    0.427    0.200   95.934  162.915
  548.250    2.636    0.510    0.203   96.251  164.782
  548.500    2.386    0.553    0.223   98.359  167.574
  548.750    2.192    0.566    0.252  102.749  178.285
  549.000    2.139    0.564    0.246  105.042  193.213
  549.250    2.221    0.549    0.253  105.669  193.537
  549.500    2.604    0.536    0.231  104.875  175.657
  549.750    3.329    0.533    0.221  103.526  161.788
  550.000    4.225    0.551    0.172   99.401  160.261
  550.250    5.030    0.540    0.152   89.352  159.762
  550.500    5.596    0.442    0.119   91.028  160.601
  550.750    5.259    0.354    0.106   96.653  162.776
  551.000    4.970    0.400    0.191   99.007  165.774
  551.250    4.914    0.411    0.175  100.744  171.034
  551.500    4.959    0.402    0.161  103.037  177.323
  551.750    5.355    0.439    0.172  105.328  180.631
  552.000    6.508    0.473    0.188   99.969  181.981
  552.250    7.518    0.490    0.147   92.141  180.869
  552.500    8.087    0.359    0.149   85.363  176.459
  552.750    7.936    0.329    0.065   80.436  164.237
  553.000    7.374    0.314    0.063   84.086  161.474
  553.250    6.550    0.330    0.064   90.389  162.313
  553.500    5.884    0.360    0.109   95.890  163.664
  553.750    5.140    0.436    0.137   95.962  163.990
  554.000    4.931    0.449    0.130   94.181  162.978
  554.250    4.930    0.420    0.144   93.265  162.374
  554.500    4.938    0.410    0.113   93.088  162.082
  554.750    5.087    0.432    0.132   95.443  163.434
  555.000    5.193    0.443    0.140   99.217  164.478
  555.250    5.192    0.435    0.131  101.940  165.522
  555.500    5.152    0.431    0.142  100.345  166.361
  555.750    5.093    0.455    0.140  102.452  166.786
  556.000    5.007    0.442    0.154  102.338  166.803
  556.250    4.941    0.457    0.166  104.385  166.200
  556.500    4.884    0.461    0.154  107.417  165.392
  556.750    4.783    0.445    0.112  111.623  163.147
  557.000    4.694    0.429    0.090  118.605  162.029
  557.250    4.580    0.448    0.107  121.020  162.559
  557.500    4.485    0.465    0.150  121.400  164.322
  557.750    4.409    0.446    0.157  120.854  166.497
  558.000    4.416    0.440    0.116  119.815  166.204
  558.250    4.542    0.463    0.134  117.787  171.979
  558.500    4.849    0.451    0.146  115.513  169.321
  558.750    5.139    0.451    0.162  112.869  170.981
  559.000    5.206    0.442    0.168  106.152  166.163
  559.250    5.234    0.441    0.100   99.126  172.144
  559.500    5.233    0.454    0.092  109.564  169.590
  559.750    5.106    0.400    0.116  124.815  163.330
  560.000    4.954    0.420    0.150  125.997  166.019
  560.250    4.708    0.447    0.153  127.179  173.029
  560.500    4.576    0.480    0.153  131.693  176.646
  560.750    4.619    0.450    0.162  139.848  177.379
  561.000    4.830    0.458    0.163  149.976  178.835
  561.250    5.109    0.483    0.163  168.251  179.569
  561.500    5.334    0.498    0.163  158.572  177.424
  561.750    5.495    0.405    0.179  141.180  168.904
  562.000    5.683    0.331    0.179  109.718  162.028
  562.250    6.011    0.324    0.180   97.572  163.075
  562.500    6.275    0.342    0.185   99.494  163.396
  562.750    6.600    0.345    0.187   91.666  162.795
  563.000    6.876    0.325    0.188   81.740  163.221
  563.250    7.071    0.291    0.162   95.387  163.240
  563.500    7.272    0.242    0.173  121.621  163.355
  563.750    7.325    0.287    0.196  140.205  164.399
  564.000    7.297    0.348    0.170  155.270  165.855
  564.250    7.309    0.387    0.205  167.313  167.311
  564.500    7.404    0.391    0.228  153.931  167.428
  564.750    7.543    0.374    0.246  126.666  166.827
  565.000    7.670    0.353    0.245  102.301  164.887
  565.250    7.813    0.364    0.203   90.956  162.229
  565.500    7.960    0.394    0.247   80.290  160.908
  565.750    8.140    0.396    0.218   70.981  159.380
  566.000    8.855    0.375    0.180   75.806  157.853
  566.250    9.384    0.347    0.178   79.454  157.045
  566.500    9.851    0.373    0.227   85.140  156.447
  566.750   10.093    0.394    0.252   76.819  156.668
  567.000   10.205    0.401    0.271   69.485  157.197
  567.250   10.184    0.385    0.266   68.445  157.827
  567.500    9.770    0.375    0.273   70.368  158.666
  567.750    9.426    0.373    0.254   72.475  159.092
  568.000    9.407    0.382    0.242   75.508  159.726
  568.250    9.547    0.377    0.251   73.974  160.253
  568.500    9.744    0.377    0.226   68.491  160.785
  568.750   10.191    0.384    0.222   71.525  160.904
  569.000   10.480    0.389    0.252   74.434  160.917
  569.250   10.737    0.393    0.246   78.145  161.862
  569.500   10.877    0.400    0.235   79.388  162.697
  569.750   10.773    0.396    0.235   65.699  163.638
  570.000   10.432    0.408    0.260   67.745  163.961
  570.250   10.217    0.366    0.224   66.088  164.389
  570.500   10.101    0.393    0.190   58.445  164.198
  570.750   10.175    0.423    0.213   53.024  162.362
  571.000   10.327    0.386    0.229   51.182  159.807
  571.250   10.882    0.398    0.263   52.056  158.176
  571.500   11.861    0.403    0.276   53.855  156.548
  571.750   11.971    0.385    0.298   57.381  156.768
  572.000   11.207    0.353    0.272   62.821  157.296
  572.250   10.163    0.375    0.239   68.198  158.342
  572.500    9.408    0.381    0.259   74.378  159.076
  572.750    8.311    0.358    0.256   77.843  159.811
  573.000    7.780    0.365    0.224   79.394  160.342
  573.250    7.663    0.274    0.259   72.184  160.666
  573.500    7.821    0.281    0.234   70.590  160.786
  573.750    7.968    0.320    0.265   70.722  160.903
  574.000    8.396    0.314    0.273   72.336  161.022
  574.250    8.765    0.265    0.226   75.553  161.240
  574.500    9.394    0.256    0.074   78.649  160.948
  574.750    9.936    0.247    0.032   80.386  160.757
  575.000   10.160    0.244    0.009   81.938  160.567
