~VERSION INFORMATION
 VERS.                 2.0:   CWLS LOG ASCII STANDARD -VERSION 2.0
 WRAP.                  NO:   ONE LINE PER DEPTH STEP
~WELL INFORMATION BLOCK
#MNEM.UNIT           DATA                    DESCRIPTION OF MNEMONIC
#---------    -------------------            -------------------------------
# Generated from Intellog Unique Number	CS_73_76/WELL/3268
WELL.         HOUSTON OIL LIMITED            : Well_name    - WELL
LOC .         00/11-27-076-17W4/0            : Location     - LOCATION
UWI .         00/11-27-076-17W4/0            : Uwi          - UNIQUE WELL ID
ENTR.         SP                             : Entered      - ENTERED BY
SRVC.         SCHLUMBERGER                   : Scn          - SERVICE COMPANY
STRT.M        350.52                         : top_depth    - START DEPTH
STOP.M        571.52                         : bot_depth    - STOP DEPTH
STEP.M        0.25                           : increment    - STEP LENGTH
 NULL. -999.2500:NULL Value
~CURVE INFORMATION BLOCK
#MNEM UNIT       ERCB CURVE CODE    CURVE DESCRIPTION
#-----------   ------------------   ----------------------------------
DEPT.M        00 001 00 00         : DEPTH        - DEPTH
GR  .API      00 310 00 00         : GR           - GAMMA RAY
DPHI.V/V      00 890 00 00         : PHID         - DENSITY POROSITY (SANDSTONE)
NPHI.V/V      00 330 00 00         : PHIN         - NEUTRON POROSITY (SANDSTONE)
ILD .OHMM     00 120 00 00         : RESD         - DEEP RESISTIVITY (DIL)
~PARAMETER INFORMATION
#MNEM.UNIT           DATA             DESCRIPTION OF MNEMONIC
#---------         -----------     ------------------------------
GL  .M        714.146              : gl           - GROUND LEVEL ELEVATION
EREF.M        717.194              : kb           - ELEVATION OF DEPTH REFERENCE
DATM.M        714.146              : datum        - DATUM ELEVATION
TDD .M        572.414              : tdd          - TOTAL DEPTH DRILLER
RUN .         ONE                  : Run          - RUN NUMBER
ENG .         BILL                 : Engineer     - RECORDING ENGINEER
WIT .         JIM                  : Witness      - WITNESSED BY
MUD .         GEL                  : Mud_type     - MUD TYPE
MATR.         SANDSTONE            : Logunit      - NEUTRON MATRIX
TMAX.C        25.5556              : BHT          - MAXIMUM RECORDED TEMPERATURE
BHTD.M        572.414              : BHTDEP       - MAXIMUM RECORDED TEMPERATURE
MATR.         1                    : LOGUNIT      - NEUTRON MATRIX
RMT .C        25                   : MDTP         - TEMPERATURE OF MUD
NEUT.         1                    : NEUTRON      - NEUTRON TYPE
RESI.         0                    : RESIST       - RESISTIVITY TYPE
RMC .OHMM     0.25                 : RMC          - RESISTIVITY OF MUD CAKE
RMF .OHMM     0.25                 : RMF          - RESISTIVITY OF MUD FILTRATE
SUFT.C        15                   : SUFT         - SURFACE TEMPERATURE
~A  DEPTH       GR     PHID     PHIN     RESD
# ...
  481.020   93.601    0.241    0.507    5.522
  481.270   93.044    0.246    0.515    5.527
  481.520   92.386    0.253    0.500    5.373
  481.770   91.000    0.262    0.490    5.100
  482.020   87.259    0.267    0.480    4.955
  482.270   83.833    0.270    0.484    4.799
  482.520   79.460    0.279    0.488    4.759
  482.770   73.974    0.294    0.492    4.804
  483.020   66.811    0.307    0.484    5.201
  483.270   63.404    0.328    0.476    5.628
  483.520   60.199    0.349    0.472    6.720
  483.770   62.104    0.358    0.468    7.503
  484.020   63.469    0.348    0.457    8.716
  484.270   64.526    0.346    0.447   10.179
  484.520   64.805    0.343    0.449   11.240
  484.770   65.314    0.335    0.459   11.957
  485.020   65.311    0.344    0.462   11.883
  485.270   65.342    0.340    0.468   11.511
  485.520   66.835    0.339    0.478   10.492
  485.770   68.664    0.349    0.482    9.542
  486.020   68.906    0.354    0.470    8.700
  486.270   68.875    0.348    0.458    7.809
  486.520   69.923    0.352    0.467    7.007
  486.770   71.918    0.347    0.478    6.622
  487.020   74.398    0.336    0.478    6.110
  487.270   77.675    0.328    0.473    5.776
  487.520   78.515    0.321    0.484    5.606
  487.770   78.827    0.321    0.489    5.545
  488.020   79.892    0.311    0.482    5.501
  488.270   80.315    0.307    0.476    5.491
  488.520   80.954    0.297    0.473    5.654
  488.770   81.587    0.292    0.472    5.833
  489.020   81.614    0.290    0.471    6.116
  489.270   79.555    0.293    0.469    6.264
  489.520   77.918    0.311    0.488    6.253
  489.770   79.069    0.325    0.492    6.177
  490.020   82.029    0.312    0.483    5.963
  490.270   83.323    0.301    0.479    5.597
  490.520   82.613    0.307    0.485    5.375
  490.770   80.200    0.316    0.496    5.046
  491.020   79.151    0.312    0.495    4.829
  491.270   80.136    0.312    0.505    4.730
  491.520   80.368    0.313    0.508    4.624
  491.770   79.367    0.314    0.493    4.555
  492.020   78.343    0.315    0.497    4.556
  492.270   76.651    0.310    0.505    4.555
  492.520   75.194    0.308    0.514    4.555
  492.770   73.664    0.331    0.507    4.554
  493.020   72.511    0.339    0.499    4.553
  493.270   73.510    0.343    0.514    4.553
  493.520   74.599    0.346    0.526    4.552
  493.770   76.664    0.340    0.537    4.551
  494.020   76.006    0.331    0.548    4.548
  494.270   75.635    0.337    0.555    4.535
  494.520   76.192    0.339    0.558    4.463
  494.770   74.149    0.345    0.542    4.464
  495.020   74.399    0.342    0.531    4.464
  495.270   72.947    0.331    0.517    4.463
  495.520   69.602    0.327    0.502    4.469
  495.770   67.622    0.324    0.507    4.377
  496.020   64.878    0.327    0.528    4.380
  496.270   64.681    0.324    0.533    4.378
  496.520   64.666    0.328    0.518    4.377
  496.770   65.057    0.339    0.512    4.376
  497.020   65.349    0.337    0.495    4.376
  497.270   66.436    0.336    0.466    4.375
  497.520   66.496    0.334    0.441    4.366
  497.770   65.693    0.330    0.438    4.462
  498.020   63.212    0.324    0.423    4.449
  498.270   60.501    0.302    0.409    4.586
  498.520   57.874    0.277    0.379    4.626
  498.770   56.276    0.259    0.318    4.763
  499.020   58.651    0.166    0.357    5.011
  499.270   61.070    0.196    0.392    5.261
  499.520   61.437    0.220    0.409    5.493
  499.770   58.985    0.251    0.339    5.720
  500.020   59.704    0.168    0.295    5.974
  500.270   64.856    0.132    0.348    6.273
  500.520   66.742    0.236    0.434    6.604
  500.770   69.375    0.285    0.459    6.685
  501.020   68.951    0.319    0.465    6.703
  501.270   66.920    0.350    0.465    6.404
  501.520   66.544    0.327    0.464    5.929
  501.770   65.013    0.306    0.429    5.739
  502.020   62.730    0.219    0.376    5.334
  502.270   61.092    0.141    0.296    5.111
  502.520   61.809    0.129    0.264    5.127
  502.770   64.011    0.149    0.264    5.750
  503.020   67.271    0.168    0.377    6.374
  503.270   69.065    0.251    0.446    7.026
  503.520   70.035    0.304    0.464    7.577
  503.770   70.165    0.339    0.456    7.410
  504.020   68.693    0.335    0.468    6.615
  504.270   67.728    0.327    0.476    6.035
  504.520   67.681    0.322    0.469    5.607
  504.770   67.694    0.327    0.471    5.212
  505.020   68.655    0.328    0.466    4.868
  505.270   70.363    0.329    0.453    4.831
  505.520   71.284    0.326    0.449    4.774
  505.770   71.891    0.321    0.448    4.762
  506.020   71.770    0.316    0.449    4.870
  506.270   70.115    0.311    0.455    4.860
  506.520   71.515    0.312    0.455    4.859
  506.770   74.385    0.314    0.454    4.858
  507.020   78.395    0.310    0.462    4.857
  507.270   80.267    0.306    0.471    4.854
  507.520   82.943    0.305    0.475    4.845
  507.770   84.442    0.303    0.465    4.762
  508.020   84.497    0.296    0.458    4.773
  508.270   84.503    0.288    0.464    4.675
  508.520   84.924    0.289    0.465    4.611
  508.770   86.102    0.277    0.473    4.563
  509.020   87.521    0.268    0.480    4.505
  509.270   86.459    0.254    0.468    4.361
  509.520   86.275    0.243    0.461    4.342
  509.770   90.258    0.235    0.460    4.274
  510.020   93.640    0.237    0.460    4.447
  510.270   96.951    0.245    0.462    4.133
  510.520  101.104    0.243    0.467    4.196
  510.770  102.542    0.241    0.474    4.016
  511.020  103.117    0.237    0.482    3.940
  511.270  102.120    0.234    0.474    3.883
  511.520  101.170    0.238    0.458    3.798
  511.770   99.513    0.231    0.447    3.806
  512.020   97.275    0.232    0.438    3.842
  512.270   92.614    0.240    0.436    4.058
  512.520   86.480    0.247    0.442    4.164
  512.770   81.687    0.237    0.448    4.547
  513.020   76.548    0.185    0.376    4.895
  513.270   76.375    0.134    0.354    5.180
  513.520   82.494    0.151    0.358    5.620
  513.770   88.623    0.182    0.428    5.953
  514.020   93.285    0.217    0.449    6.128
  514.270   92.813    0.216    0.474    6.322
  514.520   92.923    0.214    0.483    6.375
  514.770   92.959    0.212    0.485    6.173
  515.020   91.888    0.206    0.476    5.930
  515.270   90.516    0.201    0.466    5.499
  515.520   89.539    0.226    0.456    5.205
  515.770   88.695    0.240    0.455    4.987
  516.020   88.140    0.247    0.457    4.914
  516.270   88.132    0.227    0.457    5.060
  516.520   88.185    0.226    0.457    5.196
  516.770   89.218    0.233    0.464    5.368
  517.020   90.317    0.219    0.460    5.386
  517.270   93.700    0.221    0.454    5.388
  517.520   97.096    0.220    0.451    5.474
  517.770   99.659    0.221    0.456    5.530
  518.020  101.373    0.230    0.458    5.595
  518.270  102.081    0.219    0.449    5.692
  518.520  100.200    0.220    0.435    5.815
  518.770   97.171    0.221    0.429    5.798
  519.020   96.032    0.213    0.424    5.917
  519.270   98.638    0.214    0.423    5.907
  519.520  102.948    0.211    0.436    5.904
  519.770  106.202    0.204    0.448    5.851
  520.020  104.771    0.202    0.460    5.653
  520.270  104.778    0.193    0.464    5.489
  520.520  106.763    0.193    0.467    5.231
  520.770  108.026    0.214    0.476    4.981
  521.020  108.635    0.230    0.478    4.838
  521.270  107.550    0.220    0.471    4.691
  521.520  105.538    0.210    0.457    4.550
  521.770  102.867    0.210    0.463    4.406
  522.020  101.728    0.208    0.451    4.384
  522.270   98.452    0.206    0.443    4.385
  522.520   95.982    0.215    0.440    4.520
  522.770   96.262    0.214    0.447    4.724
  523.020   99.332    0.206    0.452    4.640
  523.270  100.201    0.225    0.453    4.606
  523.520   99.434    0.228    0.457    4.366
  523.770   98.514    0.232    0.460    4.129
  524.020   96.790    0.240    0.474    3.660
  524.270   95.849    0.256    0.497    3.239
