~VERSION INFORMATION
 VERS.                 2.0:   CWLS LOG ASCII STANDARD -VERSION 2.0
 WRAP.                  NO:   ONE LINE PER DEPTH STEP
~WELL INFORMATION BLOCK
#MNEM.UNIT           DATA                    DESCRIPTION OF MNEMONIC
#---------    -------------------            -------------------------------
# Generated from Intellog Unique Number	CC_84_87/WELL/1182
NULL.         -999.25                        : NULL_VALUE
WELL.         CANADIAN SUPERIOR ALGAR        : Well_name    - WELL              
LOC .         10-01-084-16W4                 : Location     - LOCATION          
UWI .         00/10-01-084-16W400            : Uwi          - UNIQUE WELL ID    
ENTR.         JHS                            : Entered      - ENTERED BY        
SRVC.         SCHLUMBERGER                   : Scn          - SERVICE COMPANY   
DATE.         25 MAR 76                      : Date         - LOG DATE
STRT.M        85.344                         : top_depth    - START DEPTH       
STOP.M        271.645                        : bot_depth    - STOP DEPTH        
STEP.M        0.3                            : increment    - STEP LENGTH       
~CURVE INFORMATION BLOCK
#MNEM UNIT       ERCB CURVE CODE    CURVE DESCRIPTION
#-----------   ------------------   ----------------------------------
DEPT.M        00 001 00 00         : DEPTH        - DEPTH                       
ILD .OHMM     00 120 00 00         : RESD         - DEEP RESISTIVITY (DIL)      
GR  .API      00 310 00 00         : GR           - GAMMA RAY                   
NPHI.V/V      00 330 00 00         : PHIN         - NEUTRON POROSITY (LIMESTONE)
DPHI.V/V      00 890 00 00         : PHID         - DENSITY POROSITY (LIMESTONE)
~PARAMETER INFORMATION       
#MNEM.UNIT           DATA             DESCRIPTION OF MNEMONIC
#---------         -----------     ------------------------------
GL  .M        527.609              : gl           - GROUND LEVEL ELEVATION      
EREF.M        531.754              : kb           - ELEVATION OF DEPTH REFERENCE
DATM.M        531.754              : datum        - DATUM ELEVATION             
TDD .M        271.272              : tdd          - TOTAL DEPTH DRILLER         
RUN .         ONE                  : Run          - RUN NUMBER                  
ENG .         BILL                 : Engineer     - RECORDING ENGINEER          
WIT .         JIM                  : Witness      - WITNESSED BY                
MUD .         GEL                  : Mud_type     - MUD TYPE                    
MATR.         LIMESTONE            : Logunit      - NEUTRON MATRIX              
TMAX.C        60                   : BHT          - MAXIMUM RECORDED TEMPERATURE
BHTD.M        271.272              : BHTDEP       - MAXIMUM RECORDED TEMPERATURE
MATR.         1                    : LOGUNIT      - NEUTRON MATRIX              
RMT .C        25                   : MDTP         - TEMPERATURE OF MUD          
NEUT.         1                    : NEUTRON      - NEUTRON TYPE                
RESI.         0                    : RESIST       - RESISTIVITY TYPE            
RMC .OHMM     0.25                 : RMC          - RESISTIVITY OF MUD CAKE     
RMF .OHMM     0.25                 : RMF          - RESISTIVITY OF MUD FILTRATE 
SUFT.C        15                   : SUFT         - SURFACE TEMPERATURE         
~A  DEPTH     RESD       GR     PHIN     PHID
# ...
  241.946   13.881   65.094    0.383    0.228
  242.246   14.942   50.217    0.387    0.243
  242.546   16.683   46.649    0.410    0.241
  242.846   19.318   43.081    0.428    0.281
  243.146   23.632   39.514    0.418    0.294
  243.446   31.107   37.136    0.400    0.294
  243.746   34.726   37.140    0.400    0.301
  244.046   36.709   40.120    0.406    0.298
  244.346   34.774   40.125    0.428    0.308
  244.646   33.535   40.724    0.406    0.306
  244.946   30.076   43.109    0.391    0.294
  245.246   27.462   46.089    0.383    0.294
  245.546   22.475   49.663    0.387    0.290
  245.846   18.057   54.429    0.404    0.287
  246.146   13.487   60.980    0.441    0.281
  246.446   11.659   61.580    0.447    0.303
  246.746   10.648   63.965    0.457    0.286
  247.046   10.460   71.111    0.450    0.275
  247.346   10.089   78.258    0.433    0.288
  247.646    9.047   84.214    0.422    0.288
  247.946    7.679   89.575    0.425    0.270
  248.246    6.638   85.412    0.438    0.264
  248.546    5.634   88.987    0.445    0.271
  248.846    4.961   91.967    0.464    0.257
  249.146    4.448   90.781    0.480    0.268
  249.446    4.137   91.976    0.501    0.261
  249.746    3.991   94.360    0.478    0.262
  250.046    3.849   95.554    0.484    0.240
  250.346    3.782   94.368    0.501    0.212
  250.646    3.854   86.038    0.508    0.211
  250.946    3.927   86.637    0.485    0.212
  251.246    4.076   90.212    0.467    0.205
  251.546    3.932   95.573    0.488    0.187
  251.846    3.724  100.934    0.507    0.215
  252.146    3.726   99.153    0.504    0.208
  252.446    3.938   95.585    0.502    0.245
  252.746    4.478   91.422    0.471    0.228
  253.046    5.478   84.878    0.422    0.206
  253.346    7.079   77.739    0.403    0.179
  253.646    8.503   66.434    0.432    0.149
  253.946   10.403   57.508    0.442    0.249
  254.246   10.409   54.536    0.427    0.275
  254.546    9.858   59.302    0.396    0.289
  254.846    9.169   61.687    0.428    0.278
  255.146    8.684   48.595    0.445    0.271
  255.446    9.696   54.551    0.404    0.266
  255.746   12.997   57.532    0.428    0.270
  256.046   16.795   51.583    0.427    0.270
  256.346   14.258   55.158    0.411    0.312
  256.646   10.454   72.424    0.446    0.307
  256.946    5.619   78.976    0.478    0.291
  257.246    4.947   79.575    0.504    0.263
  257.546    5.424   77.793    0.472    0.268
  257.846    7.270   71.844    0.446    0.258
  258.146   10.107   60.538    0.424    0.238
  258.446   21.395   45.661    0.407    0.263
  258.746   30.852   47.451    0.304    0.287
  259.046   34.449   82.574    0.319    0.271
  259.346   31.456  105.197    0.339    0.250
  259.646   26.217  125.439    0.358    0.237
  259.946   21.454  119.490    0.391    0.244
  260.246   20.695  104.017    0.372    0.221
  260.546   21.876  107.593    0.360    0.209
  260.846   25.333  102.239    0.386    0.202
  261.146   27.770   98.672    0.377    0.283
  261.445   27.286  106.414    0.367    0.282
  261.745   24.024   95.703    0.373    0.238
  262.045   23.176   86.183    0.371    0.214
  262.345   24.491   78.449    0.361    0.220
  262.645   27.853   64.763    0.366    0.206
  262.945   29.437   61.791    0.383    0.252
  263.245   29.456   58.818    0.391    0.282
  263.545   26.895   47.512    0.393    0.263
  263.845   26.914   45.135    0.389    0.234
  264.145   26.929   88.591    0.349    0.239
  264.445   24.591   92.762    0.330    0.237
  264.745   22.454   92.766    0.370    0.207
  265.045   18.714   92.174    0.387    0.176
  265.345   15.596   92.179    0.402    0.212
  265.645   13.240   91.587    0.392    0.234
  265.945   13.246   90.400    0.227    0.228
  266.245   14.000   90.999    0.237    0.210
  266.545   16.817   90.408    0.256    0.227
  266.845   19.834   90.411    0.288    0.247
  267.145   23.825   76.129    0.402    0.272
  267.445   26.599   83.871    0.400    0.279
  267.745   27.605   83.280    0.398    0.241
  268.045   26.148   77.331    0.397    0.231
  268.345   22.605   80.908    0.396    0.270
  268.645   18.497   82.696    0.396    0.245
  268.945   15.991   81.510    0.396    0.209
  269.245   16.001   79.728    0.396    0.174
  269.545   16.303   77.350    0.397    0.228
  269.845   17.233   75.568    0.398    0.248
  270.145   17.884   73.192    0.399    0.258
  270.445   18.225   72.600    0.405    0.235
  270.745   18.233   73.199    0.404    0.227
  271.045   18.243   72.608    0.368    0.219
  271.345   17.924   60.707    0.198    0.194
  271.645   18.265   19.044    0.177    0.178
