~VERSION INFORMATION
 VERS.                 2.0:   CWLS LOG ASCII STANDARD -VERSION 2.0
 WRAP.                  NO:   ONE LINE PER DEPTH STEP
~WELL INFORMATION BLOCK
#MNEM.UNIT           DATA                    DESCRIPTION OF MNEMONIC
#---------    -------------------            -------------------------------
# Generated from Intellog Unique Number	CW_70_72/WELL/2907
NULL.         -999.25                        : NULL_VALUE
WELL.         CHEVRON CALLING WEST           : Well_name    - WELL              
LOC .         11-27-070-21W4                 : Location     - LOCATION          
UWI .         00/11-27-070-21W4/0            : Uwi          - UNIQUE WELL ID    
ENTR.         MAX                            : Entered      - ENTERED BY        
SRVC.         SCHLUMBERGER                   : Scn          - SERVICE COMPANY   
DATE.         30 JAN 74                      : Date         - LOG DATE
STRT.M        405.384                        : top_depth    - START DEPTH       
STOP.M        573.134                        : bot_depth    - STOP DEPTH        
STEP.M        0.25                           : increment    - STEP LENGTH       
~CURVE INFORMATION BLOCK
#MNEM UNIT       ERCB CURVE CODE    CURVE DESCRIPTION
#-----------   ------------------   ----------------------------------
DEPT.M        00 001 00 00         : DEPTH        - DEPTH                       
ILD .OHMM     00 120 00 00         : RESD         - DEEP RESISTIVITY (DIL)      
NPHI.V/V      00 330 00 00         : PHIN         - NEUTRON POROSITY (SANDSTONE)
DPHI.V/V      00 890 00 00         : PHID         - DENSITY POROSITY (SANDSTONE)
CALI.MM       00 280 01 00         : CAL          - CALIPER                     
GR  .API      00 310 00 00         : GR           - GAMMA RAY                   
~PARAMETER INFORMATION       
#MNEM.UNIT           DATA             DESCRIPTION OF MNEMONIC
#---------         -----------     ------------------------------
GL  .M        649.529              : gl           - GROUND LEVEL ELEVATION      
EREF.M        652.882              : kb           - ELEVATION OF DEPTH REFERENCE
DATM.M        649.529              : datum        - DATUM ELEVATION             
TDD .M        573.634              : tdd          - TOTAL DEPTH DRILLER         
RUN .         ONE                  : Run          - RUN NUMBER                  
ENG .         BILL                 : Engineer     - RECORDING ENGINEER          
WIT .         JIM                  : Witness      - WITNESSED BY                
MUD .         GEL                  : Mud_type     - MUD TYPE                    
MATR.         SANDSTONE            : Logunit      - NEUTRON MATRIX              
TMAX.C        72                   : BHT          - MAXIMUM RECORDED TEMPERATURE
BHTD.M        573.634              : BHTDEP       - MAXIMUM RECORDED TEMPERATURE
RMT .C        12.7778              : MDTP         - TEMPERATURE OF MUD          
MUDD.KG/M     9900                 : MWT          - MUD DENSITY                 
NEUT.         1                    : NEUTRON      - NEUTRON TYPE                
RESI.         0                    : RESIST       - RESISTIVITY TYPE            
RM  .OHMM     2.9                  : RM           - RESISTIVITY OF MUD          
RMC .OHMM     0.25                 : RMC          - RESISTIVITY OF MUD CAKE     
RMF .OHMM     3.87                 : RMF          - RESISTIVITY OF MUD FILTRATE 
SUFT.C        -20.5556             : SUFT         - SURFACE TEMPERATURE         
~A  DEPTH     RESD     PHIN     PHID      CAL       GR
# ...
  551.384    6.368    0.433    0.132  201.551   90.166
  551.634    6.079    0.405    0.116  201.031   89.860
  551.884    6.018    0.398    0.123  201.009   91.598
  552.134    6.013    0.417    0.145  200.987   93.627
  552.384    5.898    0.406    0.158  200.964   93.614
  552.634    5.893    0.391    0.147  201.436   91.847
  552.884    6.052    0.376    0.134  201.408   89.207
  553.134    6.445    0.372    0.156  201.389   87.150
  553.384    6.864    0.384    0.144  201.364   87.427
  553.634    7.310    0.383    0.137  201.336   88.287
  553.884    7.644    0.357    0.133  201.316   87.983
  554.134    7.568    0.338    0.098  201.294   88.844
  554.384    7.092    0.333    0.060  201.766   90.873
  554.634    6.649    0.357    0.115  201.744   93.490
  554.884    6.288    0.390    0.167  202.702   97.565
  555.134    6.227    0.387    0.152  203.180  100.764
  555.384    6.393    0.394    0.159  204.638  104.839
  555.634    6.686    0.403    0.160  205.602  107.746
  555.884    7.119    0.386    0.165  206.077  105.979
  556.134    7.513    0.373    0.161  206.054  103.046
  556.384    7.575    0.360    0.147  204.546   99.526
  556.634    7.568    0.348    0.137  202.543   96.007
  556.884    7.562    0.351    0.131  202.029   94.242
  557.134    7.417    0.374    0.135  201.509   94.813
  557.384    7.278    0.381    0.137  201.487   95.384
  557.634    6.821    0.381    0.149  201.462   91.281
  557.884    6.337    0.371    0.146  201.434   90.392
  558.134    5.275    0.387    0.141  201.417   92.129
  558.384    3.972    0.409    0.137  200.897   95.618
  558.634    3.525    0.446    0.150  200.872   99.109
  558.884    3.273    0.483    0.152  200.847  104.354
  559.134    3.332    0.512    0.158  199.833  107.553
  559.384    3.548    0.570    0.163  199.816  115.422
  559.634    3.955    0.587    0.172  199.296  117.161
  559.884    4.918    0.567    0.170  199.763  114.518
  560.134    5.737    0.518    0.162  200.238  108.665
  560.384    6.632    0.453    0.140  200.710  109.820
  560.634    6.748    0.440    0.112  199.699  118.275
  560.884    6.500    0.395    0.082  199.182  135.782
  561.134    6.093    0.369    0.074  200.643  152.998
  561.384    5.609    0.380    0.145  202.590  155.317
  561.634    5.256    0.387    0.159  203.065  152.094
  561.884    5.252    0.393    0.171  203.043  138.938
  562.134    5.542    0.403    0.157  203.515  126.367
  562.384    5.903    0.423    0.156  204.479  124.018
  562.634    6.402    0.445    0.143  206.429  121.376
  562.884    7.071    0.448    0.129  206.906  109.973
  563.134    7.952    0.436    0.098  207.376  103.827
  563.384    8.471    0.410    0.060  206.359   97.972
  563.634    8.540    0.327    0.029  202.881   95.037
  563.884    8.004    0.320   -0.000  200.878   95.902
  564.134    7.572    0.353    0.001  200.853  104.939
  564.384    6.970    0.417    0.114  200.333  109.306
  564.634    6.018    0.429    0.151  199.322  109.585
  564.884    5.590    0.432    0.152  199.797  103.437
  565.134    5.534    0.433    0.136  200.760   97.875
  565.384    5.579    0.428    0.118  201.230   93.190
  565.634    5.573    0.426    0.108  202.199   85.292
  565.884    5.518    0.404    0.122  203.166   77.101
  566.134    5.463    0.423    0.133  203.140   68.620
  566.384    5.311    0.461    0.145  202.621   58.092
  566.634    5.163    0.473    0.159  202.601   65.962
  566.884    5.158    0.506    0.143  203.557  108.877
  567.134    5.201    0.523    0.131  204.532  113.827
  567.384    5.292    0.505    0.119  206.979  106.512
  567.634    5.385    0.450    0.098  208.434   96.278
  567.884    5.529    0.457    0.112  207.923   88.381
  568.134    5.626    0.472    0.135  204.931   86.028
  568.384    5.830    0.457    0.121  202.925   85.721
  568.634    5.986    0.443    0.107  203.403   87.171
  568.884    5.986    0.425    0.099  204.861   88.617
  569.134    6.030    0.425    0.090  205.334   87.434
  569.384    6.362    0.441    0.122  204.319   88.004
  569.634    6.357    0.436    0.153  203.803   88.867
  569.884    6.294    0.430    0.184  204.275   90.022
  570.134    6.119    0.432    0.177  205.736   93.513
  570.384    5.894    0.436    0.145  206.202   99.921
  570.634    5.836    0.446    0.134  204.699   97.864
  570.884    5.831    0.443    0.111  204.674   94.640
  571.134    5.987    0.440    0.142  205.141   86.447
  571.384    6.204    0.437    0.136  205.121   85.267
  571.634    6.790    0.436    0.131  204.604   82.331
  571.884    6.973    0.440    0.117  203.593   80.859
  572.134    7.030    0.447    0.127  202.085   81.428
  572.384    7.088    0.444    0.089  199.587   78.785
  572.634    7.345    0.444    0.054  199.073   72.348
  572.884    7.610    0.450    0.038  195.089   67.955
  573.134    7.815    0.473    0.035  192.097   64.144
