~VERSION INFORMATION
 VERS.                 2.0:   CWLS LOG ASCII STANDARD -VERSION 2.0
 WRAP.                  NO:   ONE LINE PER DEPTH STEP
~WELL INFORMATION BLOCK
#MNEM.UNIT           DATA                    DESCRIPTION OF MNEMONIC
#---------    -------------------            -------------------------------
# Generated from Intellog Unique Number	CC_88_90/WELL/2317
WELL.         11-31-090-17W4                 : Well_name    - WELL
LOC .         00/11-31-090-17W4/0            : Location     - LOCATION
UWI .         00/11-31-090-17W400            : Uwi          - UNIQUE WELL ID
ENTR.         DW                             : Entered      - ENTERED BY
SRVC.         SCHLUMBERGER                   : Scn          - SERVICE COMPANY
STRT.M        110                            : top_depth    - START DEPTH
STOP.M        233.75                         : bot_depth    - STOP DEPTH
STEP.M        0.25                           : increment    - STEP LENGTH
 NULL. -999.2500:NULL Value
~CURVE INFORMATION BLOCK
#MNEM UNIT       ERCB CURVE CODE    CURVE DESCRIPTION
#-----------   ------------------   ----------------------------------
DEPT.M        00 001 00 00         : DEPTH        - DEPTH
GR  .API      00 310 00 00         : GR           - GAMMA RAY
DPHI.V/V      00 890 00 00         : PHID         - DENSITY POROSITY (SANDSTONE)
NPHI.V/V      00 330 00 00         : PHIN         - NEUTRON POROSITY (SANDSTONE)
ILD .OHMM     00 120 00 00         : RESD         - DEEP RESISTIVITY (DIL)
~PARAMETER INFORMATION
#MNEM.UNIT           DATA             DESCRIPTION OF MNEMONIC
#---------         -----------     ------------------------------
GL  .M        500.7                : gl           - GROUND LEVEL ELEVATION
EREF.M        503.15               : kb           - ELEVATION OF DEPTH REFERENCE
DATM.M        503.15               : datum        - DATUM ELEVATION
TDD .M        244                  : tdd          - TOTAL DEPTH DRILLER
RUN .         ONE                  : Run          - RUN NUMBER
ENG .         BILL                 : Engineer     - RECORDING ENGINEER
WIT .         JIM                  : Witness      - WITNESSED BY
MUD .         GEL                  : Mud_type     - MUD TYPE
MATR.         SANDSTONE            : Logunit      - NEUTRON MATRIX
TMAX.C        22                   : BHT          - MAXIMUM RECORDED TEMPERATURE
BHTD.M        244                  : BHTDEP       - MAXIMUM RECORDED TEMPERATURE
MATR.         1                    : LOGUNIT      - NEUTRON MATRIX
RMT .C        25                   : MDTP         - TEMPERATURE OF MUD
NEUT.         1                    : NEUTRON      - NEUTRON TYPE
RESI.         0                    : RESIST       - RESISTIVITY TYPE
RMC .OHMM     0.25                 : RMC          - RESISTIVITY OF MUD CAKE
RMF .OHMM     0.25                 : RMF          - RESISTIVITY OF MUD FILTRATE
SUFT.C        15                   : SUFT         - SURFACE TEMPERATURE
~A  DEPTH       GR     PHID     PHIN     RESD
  110.000   57.561    0.269    0.360   32.155
  110.250   60.643    0.284    0.359   30.110
  110.500   63.652    0.309    0.378   28.630
  110.750   66.846    0.327    0.433   27.337
  111.000   64.841    0.337    0.466   25.972
  111.250   60.371    0.339    0.443   24.897
  111.500   63.650    0.335    0.426   24.562
  111.750   66.156    0.313    0.437   24.478
  112.000   63.833    0.216    0.465   25.159
  112.250   58.112    0.137    0.411   25.850
  112.500   53.615    0.128    0.325   27.241
  112.750   53.282    0.174    0.299   29.502
  113.000   57.360    0.251    0.309   30.803
  113.250   66.881    0.284    0.360   30.290
  113.500   77.715    0.307    0.401   24.957
  113.750   85.817    0.312    0.446   18.766
  114.000   88.686    0.300    0.489   13.093
  114.250   88.144    0.266    0.511    7.943
  114.500   88.830    0.215    0.521    5.737
  114.750   91.219    0.239    0.501    4.971
  115.000   95.345    0.270    0.494    4.955
  115.250  100.874    0.285    0.487    5.043
  115.500  104.590    0.289    0.470    4.977
  115.750  105.694    0.284    0.476    4.908
  116.000  106.061    0.283    0.507    4.913
  116.250  101.858    0.286    0.518    4.978
  116.500   93.847    0.289    0.518    5.241
  116.750   86.463    0.285    0.511    6.135
  117.000   82.678    0.277    0.487    7.444
  117.250   81.735    0.274    0.455    9.077
  117.500   81.817    0.280    0.439   10.916
  117.750   83.650    0.289    0.440   11.247
  118.000   87.265    0.291    0.472   10.230
  118.250   89.781    0.287    0.488    9.120
  118.500   90.720    0.281    0.475    8.452
  118.750   88.957    0.257    0.467    8.954
  119.000   81.712    0.220    0.462   12.446
  119.250   71.273    0.248    0.413   19.114
  119.500   57.560    0.282    0.390   24.415
  119.750   49.968    0.272    0.409   26.900
  120.000   48.120    0.206    0.402   30.982
  120.250   47.937    0.155    0.343   36.036
  120.500   52.516    0.192    0.306   35.437
  120.750   61.733    0.244    0.341   30.546
  121.000   81.084    0.277    0.376   19.008
  121.250   91.691    0.292    0.429   11.341
  121.500   87.646    0.298    0.485    9.827
  121.750   77.134    0.300    0.493    8.985
  122.000   64.795    0.307    0.458    9.483
  122.250   59.894    0.321    0.419   14.130
  122.500   61.107    0.338    0.435   21.966
  122.750   61.180    0.348    0.454   26.608
  123.000   58.815    0.283    0.435   26.842
  123.250   58.051    0.196    0.407   24.155
  123.500   63.456    0.237    0.395   18.089
  123.750   77.831    0.290    0.405   12.217
  124.000   89.333    0.269    0.446    9.963
  124.250   91.318    0.244    0.452    8.958
  124.500   91.221    0.261    0.435    8.368
  124.750   95.182    0.286    0.432    8.595
  125.000   96.779    0.286    0.438    8.414
  125.250   90.114    0.273    0.492    8.393
  125.500   81.187    0.266    0.492    8.551
  125.750   88.088    0.273    0.465    9.185
  126.000   99.784    0.282    0.444    9.717
  126.250   96.997    0.270    0.443    9.518
  126.500   86.770    0.249    0.465    9.233
  126.750   81.049    0.252    0.435    9.984
  127.000   79.713    0.223    0.433   13.003
  127.250   77.970    0.199    0.430   20.545
  127.500   75.126    0.236    0.403   27.218
  127.750   75.555    0.293    0.399   28.387
  128.000   81.097    0.300    0.421   26.797
  128.250   86.552    0.301    0.391   22.068
  128.500   94.337    0.289    0.378   16.180
  128.750   99.469    0.271    0.421   11.239
  129.000   98.842    0.256    0.479    8.254
  129.250  101.043    0.236    0.502    6.806
  129.500  110.704    0.219    0.492    6.157
  129.750  111.561    0.252    0.472    6.646
  130.000  111.005    0.273    0.466    7.016
  130.250  106.599    0.255    0.475    6.958
  130.500  104.090    0.228    0.493    6.557
  130.750  108.376    0.226    0.501    6.074
  131.000  110.606    0.246    0.496    5.911
  131.250  109.368    0.259    0.513    5.810
  131.500  105.004    0.247    0.529    5.783
  131.750   98.080    0.212    0.530    5.872
  132.000   88.339    0.206    0.506    6.793
  132.250   78.602    0.258    0.459    9.255
  132.500   73.364    0.319    0.419   13.136
  132.750   71.325    0.331    0.400   17.288
  133.000   75.029    0.295    0.390   18.462
  133.250   86.794    0.269    0.391   18.908
  133.500   92.602    0.277    0.403   20.008
  133.750   84.128    0.304    0.414   20.857
  134.000   75.121    0.332    0.410   21.107
  134.250   73.698    0.333    0.397   21.386
  134.500   74.276    0.295    0.401   26.164
  134.750   74.606    0.166    0.421   31.587
  135.000   70.725    0.041    0.449   37.148
  135.250   62.259    0.034    0.387   43.880
  135.500   57.065    0.084    0.200   47.801
  135.750   56.873    0.109    0.180   47.327
  136.000   54.716    0.181    0.257   43.681
  136.250   78.028    0.236    0.329   32.130
  136.500   99.837    0.250    0.384   20.557
  136.750   94.170    0.258    0.424   16.923
  137.000   94.105    0.255    0.428   15.477
  137.250   99.363    0.247    0.429   14.726
  137.500   95.987    0.239    0.445   14.284
  137.750   88.931    0.191    0.474   14.851
  138.000   89.355    0.178    0.438   17.264
  138.250   94.710    0.204    0.362   20.276
  138.500   92.764    0.159    0.368   21.766
  138.750   84.552    0.157    0.398   22.301
  139.000   84.125    0.220    0.413   20.725
  139.250   93.897    0.261    0.433   18.501
  139.500  102.306    0.261    0.440   17.316
  139.750  100.115    0.263    0.426   17.902
  140.000   92.043    0.272    0.420   20.114
  140.250   86.942    0.262    0.407   22.200
  140.500   80.146    0.244    0.392   23.729
  140.750   76.303    0.257    0.382   25.304
  141.000   78.552    0.276    0.391   26.707
  141.250   80.779    0.265    0.397   27.278
  141.500   79.559    0.252    0.370   26.709
  141.750   83.433    0.281    0.374   24.983
  142.000   88.409    0.282    0.398   24.407
  142.250   94.352    0.266    0.398   23.623
  142.500   92.136    0.269    0.382   22.613
  142.750   86.480    0.279    0.384   22.453
  143.000   94.311    0.272    0.405   22.441
  143.250   97.223    0.267    0.412   22.386
  143.500   92.573    0.268    0.400   22.808
  143.750   86.712    0.271    0.394   22.488
  144.000   86.499    0.272    0.391   21.804
  144.250   91.538    0.268    0.386   22.130
  144.500   92.350    0.247    0.390   23.255
  144.750   83.374    0.214    0.381   24.108
  145.000   80.059    0.226    0.366   23.855
  145.250   83.971    0.262    0.376   23.583
  145.500   87.874    0.266    0.400   22.589
  145.750   90.517    0.243    0.406   20.849
  146.000   95.348    0.240    0.404   19.918
  146.250   99.301    0.243    0.416   18.085
  146.500   99.478    0.247    0.413   16.978
  146.750   98.524    0.252    0.427   16.468
  147.000   96.791    0.246    0.451   16.708
  147.250   94.252    0.229    0.453   19.159
  147.500   89.675    0.188    0.442   24.506
  147.750   76.431    0.072    0.441   30.575
  148.000   69.747    0.106    0.426   32.209
  148.250   66.865    0.179    0.347   28.788
  148.500   76.633    0.222    0.287   20.620
  148.750   96.103    0.277    0.333   11.242
  149.000  101.951    0.299    0.422    6.557
  149.250  105.647    0.297    0.482    5.077
  149.500  107.345    0.291    0.516    4.340
  149.750  104.703    0.212    0.514    4.107
  150.000   98.515    0.122    0.499    5.035
  150.250   89.113    0.121    0.481    9.431
  150.500   82.043    0.172    0.426   16.651
  150.750   91.865    0.214    0.375   17.692
  151.000  101.537    0.237    0.386   15.142
  151.250  105.803    0.242    0.413   13.829
  151.500  108.360    0.254    0.429   14.208
  151.750  108.922    0.234    0.435   15.046
  152.000  106.081    0.144    0.424   16.610
  152.250  102.704    0.119    0.434   19.019
  152.500   91.181    0.156    0.424   22.994
  152.750   84.690    0.218    0.365   25.129
  153.000   91.341    0.262    0.339   25.306
  153.250   99.256    0.272    0.377   25.854
