~VERSION INFORMATION
 VERS.                 2.0:   CWLS LOG ASCII STANDARD -VERSION 2.0
 WRAP.                  NO:   ONE LINE PER DEPTH STEP
~WELL INFORMATION BLOCK
#MNEM.UNIT           DATA                    DESCRIPTION OF MNEMONIC
#---------    -------------------            -------------------------------
# Generated from Intellog Unique Number	CW_70_72/WELL/3025
NULL.         -999.25                        : NULL_VALUE
WELL.         BRASCAN AMOCO MEYER 11-02      : Well_name    - WELL              
LOC .         12-02-070-25W4                 : Location     - LOCATION          
UWI .         00/12-02-070-25W4/0            : Uwi          - UNIQUE WELL ID    
ENTR.         J                              : Entered      - ENTERED BY        
SRVC.         SCHLUMBERGER                   : Scn          - SERVICE COMPANY   
DATE.         30 JULY 73                     : Date         - LOG DATE          
STRT.M        466.344                        : top_depth    - START DEPTH       
STOP.M        682.844                        : bot_depth    - STOP DEPTH        
STEP.M        0.25                           : increment    - STEP LENGTH       
~CURVE INFORMATION BLOCK
#MNEM UNIT       ERCB CURVE CODE    CURVE DESCRIPTION
#-----------   ------------------   ----------------------------------
DEPT.M        00 001 00 00         : DEPTH        - DEPTH                       
ILD .OHMM     00 120 00 00         : RESD         - DEEP RESISTIVITY (DIL)      
CALI.MM       00 280 01 00         : CAL          - CALIPER                     
GR  .API      00 310 00 00         : GR           - GAMMA RAY                   
NPHI.V/V      00 330 00 00         : PHIN         - NEUTRON POROSITY (SANDSTONE)
DPHI.V/V      00 890 00 00         : PHID         - DENSITY POROSITY (SANDSTONE)
~PARAMETER INFORMATION       
#MNEM.UNIT           DATA             DESCRIPTION OF MNEMONIC
#---------         -----------     ------------------------------
GL  .M        656.844              : gl           - GROUND LEVEL ELEVATION      
EREF.M        659.587              : kb           - ELEVATION OF DEPTH REFERENCE
DATM.M        656.844              : datum        - DATUM ELEVATION             
TDD .M        684.581              : tdd          - TOTAL DEPTH DRILLER         
RUN .         ONE                  : Run          - RUN NUMBER                  
BASE.         EDM                  : Branch       - HOME BASE OF LOGGING UNIT   
MUD .         GEL CHEM             : Mud_type     - MUD TYPE                    
MATR.         SANDSTONE            : Logunit      - NEUTRON MATRIX              
TMAX.C        36.1111              : BHT          - MAXIMUM RECORDED TEMPERATURE
BHTD.M        684.581              : BHTDEP       - MAXIMUM RECORDED TEMPERATURE
RMT .C        24.4444              : MDTP         - TEMPERATURE OF MUD          
MUDD.KG/M     1140                 : MWT          - MUD DENSITY                 
NEUT.         1                    : NEUTRON      - NEUTRON TYPE                
RESI.         0                    : RESIST       - RESISTIVITY TYPE            
RM  .OHMM     2.46                 : RM           - RESISTIVITY OF MUD          
RMC .OHMM     0.25                 : RMC          - RESISTIVITY OF MUD CAKE     
RMF .OHMM     3.29                 : RMF          - RESISTIVITY OF MUD FILTRATE 
SUFT.C        10                   : SUFT         - SURFACE TEMPERATURE         
~A  DEPTH     RESD      CAL       GR     PHIN     PHID
# ...
  502.844    4.542  158.325   72.382    0.322    0.278
  503.094    4.028  154.650   69.484    0.333    0.181
  503.344    3.598  153.649   66.892    0.333    0.139
  503.594    3.364  156.854   66.417    0.328    0.127
  503.844    3.156  160.466   66.916    0.335    0.173
  504.094    2.903  163.566   69.778    0.355    0.229
  504.344    2.660  162.470   72.944    0.383    0.247
  504.594    2.460  161.155   74.652    0.430    0.270
  504.844    2.394  159.128   75.759    0.461    0.276
  505.094    2.421  157.910   75.285    0.491    0.286
  505.344    2.549  154.238   75.785    0.504    0.278
  505.594    2.758  151.080   78.586    0.507    0.257
  505.844    3.023  153.874   82.661    0.480    0.220
  506.094    3.188  157.387   83.520    0.498    0.214
  506.344    2.965  157.411   81.292    0.502    0.222
  506.594    2.880  156.508   71.791    0.468    0.242
  506.844    2.713  156.126   67.502    0.453    0.268
  507.094    2.612  156.249   63.695    0.444    0.286
  507.344    2.556  156.578   62.557    0.426    0.279
  507.594    2.483  157.110   65.784    0.413    0.284
  507.844    2.395  157.343   66.159    0.443    0.287
  508.094    2.314  156.958   66.293    0.441    0.292
  508.344    2.289  156.670   66.853    0.416    0.291
  508.594    2.290  155.769   67.957    0.447    0.289
  508.844    2.303  155.175   74.762    0.446    0.296
  509.094    2.338  154.680   78.408    0.436    0.257
  509.344    2.493  155.322   84.787    0.448    0.240
  509.594    2.678  161.295   91.284    0.493    0.206
  509.844    3.016  168.193   89.298    0.466    0.215
  510.094    4.379  159.699   81.735    0.348    0.229
  510.344    4.379  158.391   74.295    0.321    0.198
  510.594    7.032  158.818   66.126    0.300    0.143
  510.844    7.046  162.230   65.350    0.278    0.089
  511.094    6.623  164.611   76.999    0.289    0.078
  511.344    5.809  162.786   87.560    0.337    0.106
  511.594    4.868  160.961   90.663    0.427    0.145
  511.844    4.087  159.549   93.889    0.459    0.178
  512.094    3.717  164.093   91.722    0.466    0.174
  512.344    3.476  166.369   86.402    0.478    0.160
  512.594    3.408  167.518   80.960    0.503    0.176
  512.844    3.384  164.771   77.458    0.453    0.232
  513.094    3.366  158.842   76.441    0.398    0.268
  513.344    3.386  156.714   75.606    0.387    0.264
  513.594    3.387  156.537   75.315    0.394    0.264
  513.844    3.370  156.446   75.090    0.391    0.274
  514.094    3.383  156.263   74.978    0.394    0.260
  514.344    3.341  156.490   74.628    0.413    0.257
  514.594    3.234  156.828   71.611    0.418    0.262
  514.844    3.148  157.153   70.353    0.425    0.249
  515.094    2.992  157.379   72.489    0.423    0.236
  515.344    2.901  157.921   74.926    0.431    0.266
  515.594    2.855  157.739   74.514    0.441    0.272
  515.844    2.830  157.549   72.647    0.423    0.261
  516.094    2.836  157.572   70.904    0.429    0.262
  516.344    2.847  157.392   71.041    0.406    0.262
  516.594    3.025  157.310   72.566    0.411    0.252
  516.844    3.150  157.437   74.883    0.437    0.234
  517.094    3.133  158.080   76.109    0.451    0.214
  517.344    3.022  158.508   74.487    0.432    0.210
  517.594    2.909  158.531   71.168    0.427    0.202
  517.844    2.801  158.046   69.726    0.428    0.197
  518.094    2.746  157.553   70.652    0.434    0.295
  518.344    2.737  157.167   72.302    0.425    0.295
  518.594    2.808  156.673   74.130    0.426    0.270
  518.844    3.011  156.492   76.081    0.439    0.242
  519.094    3.217  156.923   77.671    0.411    0.211
  519.344    3.597  160.127   79.808    0.399    0.214
  519.594    4.074  164.357   82.608    0.408    0.230
  519.844    4.673  167.250   81.347    0.452    0.252
  520.094    5.360  160.100   74.088    0.470    0.272
  520.344    5.961  157.752   63.675    0.326    0.318
  520.594    6.690  152.646   57.386    0.298    0.354
  520.844    6.928  149.708   56.675    0.308    0.362
  521.094    6.408  149.717   57.172    0.328    0.359
  521.344    6.012  151.584   57.671    0.335    0.362
  521.594    5.341  154.279   58.595    0.327    0.361
  521.844    4.797  155.123   59.516    0.331    0.352
  522.094    4.316  154.938   60.318    0.337    0.349
  522.344    4.013  154.754   59.904    0.349    0.339
  522.594    3.631  154.372   59.375    0.367    0.337
  522.844    3.309  154.290   58.901    0.395    0.323
  523.094    3.043  154.102   58.248    0.432    0.307
  523.344    2.893  153.923   57.476    0.476    0.293
  523.594    2.836  153.923   56.819    0.449    0.303
  523.844    2.821  153.666   55.381    0.472    0.326
  524.094    2.787  152.756   54.849    0.462    0.313
  524.344    2.742  151.450   54.738    0.449    0.301
  524.594    2.664  151.450   56.328    0.435    0.293
  524.844    2.537  149.755   58.342    0.428    0.298
  525.094    2.464  149.464   59.325    0.438    0.302
  525.344    2.447  149.687   59.398    0.457    0.283
  525.594    2.448  149.687   59.108    0.467    0.283
  525.844    2.498  153.340   58.396    0.457    0.276
  526.094    2.679  154.373   56.286    0.448    0.267
  526.344    2.810  156.250   51.877    0.462    0.287
  526.594    2.942  156.471   50.801    0.459    0.316
  526.844    3.265  156.395   51.419    0.438    0.315
  527.094    3.514  156.310   52.463    0.417    0.310
  527.344    3.209  155.823   53.145    0.430    0.305
  527.594    3.106  154.819   53.826    0.444    0.297
  527.844    2.846  153.711   54.142    0.410    0.269
  528.094    2.524  152.201   54.458    0.410    0.252
  528.344    2.470  151.706   54.709    0.431    0.274
  528.594    2.382  151.829   55.754    0.453    0.273
  528.844    2.276  151.829   58.069    0.448    0.294
  529.094    2.240  155.271   58.451    0.440    0.286
  529.344    2.253  156.312   59.551    0.454    0.278
  529.594    2.262  157.467   65.867    0.425    0.267
  529.844    2.254  158.202   73.880    0.401    0.285
  530.094    2.182  158.431   59.593    0.442    0.294
  530.344    2.124  158.247   56.514    0.426    0.282
  530.594    2.090  157.967   56.587    0.441    0.274
  530.844    2.083  157.967   58.784    0.433    0.281
  531.094    2.103  157.193   61.584    0.462    0.276
  531.344    2.138  156.492   62.873    0.469    0.279
  531.594    2.138  154.667   63.494    0.461    0.276
  531.844    2.357  154.667   64.290    0.453    0.275
  532.094    2.419  153.078   67.274    0.440    0.269
  532.344    2.518  153.712   70.317    0.429    0.253
  532.594    2.518  154.453   76.150    0.432    0.224
  532.844    3.059  157.654   82.042    0.419    0.202
  533.094    3.167  163.525   88.661    0.412    0.185
  533.344    3.340  167.347   87.888    0.438    0.168
  533.594    3.378  166.341   83.779    0.472    0.156
  533.844    3.342  162.980   78.279    0.479    0.199
  534.094    3.008  161.055   73.322    0.464    0.220
  534.344    2.751  157.898   68.122    0.458    0.249
  534.594    2.356  156.065   63.106    0.435    0.260
  534.844    2.175  153.113   59.786    0.404    0.268
  535.094    2.030  151.391   58.404    0.407    0.280
  535.344    1.954  150.596   60.361    0.424    0.294
  535.594    1.933  150.312   60.068    0.440    0.295
  535.844    1.909  149.520   58.263    0.432    0.293
  536.094    1.909  149.535   58.336    0.452    0.298
  536.344    1.816  149.254   59.076    0.442    0.285
  536.594    1.822  148.758   59.760    0.437    0.299
  536.844    1.771  148.783   59.952    0.427    0.288
  537.094    1.771  148.804   60.694    0.415    0.302
  537.344    1.756  149.338   59.740    0.419    0.303
  537.594    1.759  150.283   58.843    0.431    0.303
  537.844    1.760  145.686   58.431    0.449    0.301
  538.094    1.757  139.552   58.384    0.439    0.287
  538.344    1.739  150.762   59.004    0.427    0.314
  538.594    1.714  155.709   58.959    0.440    0.318
  538.844    1.696  156.864   59.215    0.451    0.307
  539.094    1.681  156.478   59.469    0.448    0.296
