~VERSION INFORMATION
 VERS.                 2.0:   CWLS LOG ASCII STANDARD -VERSION 2.0
 WRAP.                  NO:   ONE LINE PER DEPTH STEP
~WELL INFORMATION BLOCK
#MNEM.UNIT           DATA                    DESCRIPTION OF MNEMONIC
#---------    -------------------            -------------------------------
# Generated from Intellog Unique Number	CW_79_81/WELL/927
WELL.         14-14-079-22W4                 : Well_name    - WELL
LOC .         00/14-14-079-22W4/0            : Location     - LOCATION
UWI .         00/14-14-079-22W4/0            : Uwi          - UNIQUE WELL ID
ENTR.         MAX                            : Entered      - ENTERED BY
SRVC.         SCHLUMBERGER                   : Scn          - SERVICE COMPANY
STRT.M        220                            : top_depth    - START DEPTH
STOP.M        432                            : bot_depth    - STOP DEPTH
STEP.M        0.25                           : increment    - STEP LENGTH
 NULL. -999.2500:NULL Value
~CURVE INFORMATION BLOCK
#MNEM UNIT       ERCB CURVE CODE    CURVE DESCRIPTION
#-----------   ------------------   ----------------------------------
DEPT.M        00 001 00 00         : DEPTH        - DEPTH
ILD .OHMM     00 120 00 00         : RESD         - DEEP RESISTIVITY (DIL)
NPHI.V/V      00 330 00 00         : PHIN         - NEUTRON POROSITY (SANDSTONE)
DPHI.V/V      00 890 00 00         : PHID         - DENSITY POROSITY (SANDSTONE)
CALI.MM       00 280 01 00         : CAL          - CALIPER
GR  .API      00 310 00 00         : GR           - GAMMA RAY
~PARAMETER INFORMATION
#MNEM.UNIT           DATA             DESCRIPTION OF MNEMONIC
#---------         -----------     ------------------------------
GL  .M        570.7                : gl           - GROUND LEVEL ELEVATION
EREF.M        574.1                : kb           - ELEVATION OF DEPTH REFERENCE
DATM.M        570.7                : datum        - DATUM ELEVATION
TDD .M        441                  : tdd          - TOTAL DEPTH DRILLER
RUN .         ONE                  : Run          - RUN NUMBER
ENG .         BILL                 : Engineer     - RECORDING ENGINEER
WIT .         JIM                  : Witness      - WITNESSED BY
MUD .         GEL                  : Mud_type     - MUD TYPE
MATR.         SANDSTONE            : Logunit      - NEUTRON MATRIX
TMAX.C        32                   : BHT          - MAXIMUM RECORDED TEMPERATURE
BHTD.M        441                  : BHTDEP       - MAXIMUM RECORDED TEMPERATURE
RMT .C        17                   : MDTP         - TEMPERATURE OF MUD
MUDD.KG/M     1140                 : MWT          - MUD DENSITY
NEUT.         1                    : NEUTRON      - NEUTRON TYPE
RESI.         0                    : RESIST       - RESISTIVITY TYPE
RM  .OHMM     8.8                  : RM           - RESISTIVITY OF MUD
RMC .OHMM     0                    : RMC          - RESISTIVITY OF MUD CAKE
RMF .OHMM     10.7                 : RMF          - RESISTIVITY OF MUD FILTRATE
SUFT.C        -5                   : SUFT         - SURFACE TEMPERATURE
~A  DEPTH     RESD     PHIN     PHID      CAL       GR
# ...
  366.000   18.331    0.418    0.198  232.806   81.393
  366.250   22.027    0.416    0.197  232.303   78.021
  366.500   24.589    0.417    0.188  232.296   74.660
  366.750   24.584    0.423    0.248  232.296   71.585
  367.000   24.353    0.428    0.262  232.280   72.375
  367.250   23.467    0.433    0.234  233.269   75.579
  367.500   21.999    0.436    0.232  234.752   80.235
  367.750   19.516    0.426    0.217  235.242   81.345
  368.000   16.841    0.424    0.203  235.242   83.634
  368.250   15.786    0.426    0.188  235.228   85.305
  368.500   16.075    0.419    0.172  235.222   84.048
  368.750   16.072    0.419    0.165  235.213   82.471
  369.000   15.345    0.424    0.215  234.711   82.084
  369.250   14.254    0.435    0.218  233.711   83.469
  369.500   13.735    0.431    0.212  232.214   85.472
  369.750   13.605    0.434    0.230  230.718   87.154
  370.000   13.726    0.440    0.237  230.711   86.470
  370.250   13.980    0.440    0.238  230.704   85.190
  370.500   14.905    0.428    0.244  232.682   80.331
  370.750   15.893    0.427    0.217  233.669   74.580
  371.000   17.260    0.414    0.190  234.159   67.342
  371.250   17.738    0.410    0.197  234.152   63.077
  371.500   17.411    0.402    0.215  234.152   60.002
  371.750   17.729    0.396    0.206  234.140   59.626
  372.000   18.730    0.386    0.181  234.629   59.536
  372.250   20.530    0.317    0.131  235.119   60.029
  372.500   23.561    0.278    0.096  235.110   61.437
  372.750   26.302    0.273    0.074  235.104   61.335
  373.000   25.817    0.339    0.100  234.602   60.937
  373.250   24.425    0.387    0.137  233.602   60.560
  373.500   22.480    0.407    0.222  233.098   60.173
  373.750   19.941    0.386    0.186  232.596   60.380
  374.000   19.040    0.325    0.148  232.091   60.873
  374.250   18.518    0.351    0.163  231.587   60.772
  374.500   19.563    0.378    0.147  231.587   59.504
  374.750   24.389    0.329    0.104  231.076   57.915
  375.000   29.578    0.241    0.062  230.078   56.327
  375.250   33.021    0.275    0.057  229.575   55.059
  375.500   35.208    0.356    0.083  229.567   53.482
  375.750   32.401    0.372    0.146  229.560   52.797
  376.000   25.271    0.369    0.168  230.547   54.480
  376.250   23.257    0.372    0.173  231.037   58.850
  376.500   21.803    0.380    0.195  231.030   61.744
  376.750   20.066    0.408    0.210  231.024   64.925
  377.000   18.466    0.414    0.218  230.520   69.009
  377.250   17.632    0.426    0.218  229.520   72.773
  377.500   17.307    0.433    0.208  229.520   73.873
  377.750   17.463    0.421    0.198  229.008   72.902
  378.000   17.782    0.417    0.199  227.512   71.611
  378.250   17.136    0.423    0.203  227.009   71.520
  378.500   16.513    0.439    0.202  226.507   72.311
  378.750   15.767    0.447    0.204  226.501   74.611
  379.000   15.194    0.460    0.208  227.487   77.208
  379.250   14.641    0.439    0.204  228.967   79.794
  379.500   14.641    0.427    0.207  230.451   82.964
  379.750   14.233    0.426    0.204  232.431   84.669
  380.000   14.102    0.426    0.208  234.409   84.270
  380.250   14.102    0.429    0.198  235.395   83.299
  380.500   13.838    0.433    0.196  235.886   82.306
  380.750   13.458    0.440    0.190  235.879   81.918
  381.000   13.210    0.461    0.182  236.369   83.006
  381.250   12.847    0.464    0.172  237.356   84.998
  381.500   12.266    0.460    0.166  238.341   88.189
  381.750   12.040    0.442    0.187  238.335   90.775
  382.000   11.817    0.441    0.186  237.831   90.388
  382.250   11.817    0.442    0.173  237.329   90.892
  382.500   11.488    0.439    0.172  235.831   92.278
  382.750   11.278    0.436    0.176  234.831   91.296
  383.000   11.070    0.430    0.149  234.328   88.540
  383.250   11.067    0.423    0.125  234.322   86.358
  383.500   11.374    0.427    0.090  234.314   86.267
  383.750   11.797    0.429    0.153  234.805   89.151
  384.000   11.901    0.425    0.164  234.798   92.629
  384.250   12.233    0.404    0.166  234.792   93.431
  384.500   13.285    0.397    0.168  234.287   92.151
  384.750   14.296    0.394    0.182  233.783   89.980
  385.000   14.161    0.400    0.194  234.274   87.796
  385.250   13.522    0.401    0.190  236.750   85.911
  385.500   11.351    0.400    0.185  240.715   85.523
  385.750   10.838    0.422    0.187  239.715   89.905
  386.000   10.838    0.431    0.180  237.723   94.858
  386.250   10.734    0.422    0.163  234.240   96.255
  386.500   11.550    0.397    0.147  233.736   93.797
  386.750   14.136    0.375    0.086  235.715   87.154
  387.000   15.782    0.374    0.136  236.701   84.079
  387.250   16.220    0.400    0.153  236.198   89.947
  387.500   15.630    0.402    0.184  233.709   96.993
  387.750   14.652    0.403    0.184  231.717   94.525
  388.000   14.514    0.408    0.189  230.717   90.271
  388.250   15.476    0.416    0.195  231.205   89.267
  388.500   18.596    0.422    0.183  232.191   89.771
  388.750   19.466    0.410    0.134  233.178   87.005
  389.000   21.533    0.364    0.151  233.668   82.740
  389.250   23.384    0.404    0.187  234.158   80.569
  389.500   22.953    0.401    0.179  235.144   83.761
  389.750   21.916    0.383    0.155  235.137   86.335
  390.000   21.315    0.379    0.145  235.137   82.677
  390.250   21.114    0.386    0.185  235.123   79.019
  390.500   21.109    0.399    0.209  235.116   82.199
  390.750   21.109    0.401    0.205  235.607   85.071
  391.000   21.096    0.406    0.200  236.592   86.171
  391.250   20.900    0.417    0.198  237.081   85.794
  391.500   20.704    0.421    0.182  237.076   84.515
  391.750   20.889    0.388    0.147  236.077   82.927
  392.000   20.693    0.371    0.105  233.087   81.944
  392.250   20.311    0.392    0.128  232.089   80.962
  392.500   19.216    0.413    0.166  231.587   81.444
  392.750   17.685    0.419    0.177  232.573   83.149
  393.000   15.545    0.417    0.177  234.056   86.033
  393.250   14.306    0.398    0.160  236.531   89.522
  393.500   13.786    0.416    0.160  237.022   91.502
  393.750   13.909    0.422    0.175  236.020   87.844
  394.000   15.106    0.387    0.199  235.021   82.401
  394.250   18.152    0.375    0.214  234.022   75.758
  394.500   21.813    0.367    0.232  232.525   64.643
  394.750   32.089    0.372    0.241  231.525   56.810
  395.000   40.003    0.389    0.251  231.022   52.843
  395.250   53.678    0.400    0.262  230.517   49.768
  395.500   65.098    0.393    0.278  230.511   47.299
  395.750   81.905    0.384    0.277  230.505   44.235
  396.000   89.772    0.381    0.272  230.002   39.673
  396.250  104.938    0.381    0.262  229.497   37.193
  396.500  113.966    0.375    0.281  228.498   36.497
  396.750  123.762    0.373    0.290  227.994   37.002
  397.000  127.193    0.377    0.287  227.989   38.684
  397.250  127.166    0.380    0.274  227.981   39.497
  397.500  127.135    0.380    0.260  227.974   39.419
  397.750  122.513    0.377    0.270  227.966   37.544
  398.000  112.757    0.382    0.266  227.960   36.242
  398.250   98.197    0.376    0.266  227.953   38.542
  398.500   80.193    0.371    0.273  228.443   40.544
  398.750   73.127    0.372    0.284  227.941   42.833
  399.000   70.471    0.378    0.286  226.444   43.932
  399.250   70.471    0.381    0.280  226.437   44.437
  399.500   69.144    0.388    0.271  226.430   45.228
  399.750   68.499    0.397    0.269  226.423   46.613
  400.000   68.482    0.408    0.266  226.913   48.329
  400.250   67.838    0.408    0.261  227.403   48.537
  400.500   64.774    0.395    0.263  227.396   48.721
  400.750   60.722    0.389    0.274  226.892   48.940
  401.000   52.883    0.388    0.274  226.389   49.444
  401.250   43.585    0.392    0.268  226.382   49.949
  401.500   40.113    0.394    0.262  226.374   51.643
  401.750   31.573    0.397    0.259  226.367   54.526
  402.000   27.498    0.399    0.215  226.361   58.015
  402.250   24.847    0.396    0.173  226.850   65.359
