~VERSION INFORMATION
 VERS.                 2.0:   CWLS LOG ASCII STANDARD -VERSION 2.0
 WRAP.                  NO:   ONE LINE PER DEPTH STEP
~WELL INFORMATION BLOCK
#MNEM.UNIT           DATA                    DESCRIPTION OF MNEMONIC
#---------    -------------------            -------------------------------
# Generated from Intellog Unique Number	CS_73_76/WELL/3250
WELL.         CANADIAN SUPERIOR OIL          : Well_name    - WELL
LOC .         00/10-30-076-14W4/0            : Location     - LOCATION
UWI .         00/10-30-076-14W4/0            : Uwi          - UNIQUE WELL ID
ENTR.         SP                             : Entered      - ENTERED BY
SRVC.         SCHLUMBERGER                   : Scn          - SERVICE COMPANY
STRT.M        298.704                        : top_depth    - START DEPTH
STOP.M        526.954                        : bot_depth    - STOP DEPTH
STEP.M        0.25                           : increment    - STEP LENGTH
 NULL. -999.2500:NULL Value
~CURVE INFORMATION BLOCK
#MNEM UNIT       ERCB CURVE CODE    CURVE DESCRIPTION
#-----------   ------------------   ----------------------------------
DEPT.M        00 001 00 00         : DEPTH        - DEPTH
GR  .API      00 310 00 00         : GR           - GAMMA RAY
DPHI.V/V      00 890 00 00         : PHID         - DENSITY POROSITY (SANDSTONE)
NPHI.V/V      00 330 00 00         : PHIN         - NEUTRON POROSITY (SANDSTONE)
ILD .OHMM     00 120 00 00         : RESD         - DEEP RESISTIVITY (DIL)
~PARAMETER INFORMATION
#MNEM.UNIT           DATA             DESCRIPTION OF MNEMONIC
#---------         -----------     ------------------------------
GL  .M        681.076              : gl           - GROUND LEVEL ELEVATION
EREF.M        682.752              : kb           - ELEVATION OF DEPTH REFERENCE
DATM.M        681.076              : datum        - DATUM ELEVATION
TDD .M        549.25               : tdd          - TOTAL DEPTH DRILLER
RUN .         ONE                  : Run          - RUN NUMBER
ENG .         BILL                 : Engineer     - RECORDING ENGINEER
WIT .         JIM                  : Witness      - WITNESSED BY
MUD .         GEL                  : Mud_type     - MUD TYPE
MATR.         SANDSTONE            : Logunit      - NEUTRON MATRIX
TMAX.C        24.4444              : BHT          - MAXIMUM RECORDED TEMPERATURE
BHTD.M        549.25               : BHTDEP       - MAXIMUM RECORDED TEMPERATURE
MATR.         1                    : LOGUNIT      - NEUTRON MATRIX
RMT .C        25                   : MDTP         - TEMPERATURE OF MUD
NEUT.         1                    : NEUTRON      - NEUTRON TYPE
RESI.         0                    : RESIST       - RESISTIVITY TYPE
RMC .OHMM     0.25                 : RMC          - RESISTIVITY OF MUD CAKE
RMF .OHMM     0.25                 : RMF          - RESISTIVITY OF MUD FILTRATE
SUFT.C        15                   : SUFT         - SURFACE TEMPERATURE
~A  DEPTH       GR     PHID     PHIN     RESD
# ...
  342.204   73.813    0.277    0.468   11.245
  342.454   66.317    0.299    0.516   11.947
  342.704   54.360    0.318    0.515   12.555
  342.954   46.837    0.344    0.506   12.942
  343.204   43.568    0.376    0.514   13.075
  343.454   44.628    0.366    0.532   13.366
  343.704   44.791    0.313    0.544   13.050
  343.954   46.411    0.311    0.436   13.088
  344.204   45.632    0.309    0.435   12.808
  344.454   42.633    0.297    0.428   12.798
  344.704   41.187    0.316    0.422   12.588
  344.954   41.634    0.315    0.418   12.492
  345.204   42.992    0.322    0.413   12.373
  345.454   44.160    0.313    0.412   12.368
  345.704   43.155    0.314    0.420   12.373
  345.954   43.484    0.312    0.425   12.373
  346.204   45.079    0.313    0.425   12.613
  346.454   46.160    0.339    0.424   12.598
  346.704   47.555    0.353    0.432   12.596
  346.954   48.329    0.349    0.444   12.596
  347.204   46.777    0.337    0.451   12.598
  347.454   45.823    0.329    0.440   12.579
  347.704   45.777    0.340    0.429   12.851
  347.954   45.749    0.342    0.423   12.829
  348.204   45.745    0.358    0.422   12.827
  348.454   45.748    0.355    0.417   12.826
  348.704   45.756    0.356    0.422   12.825
  348.954   46.341    0.336    0.434   12.825
  349.204   46.259    0.343    0.443   12.825
  349.454   46.883    0.356    0.453   12.824
  349.704   46.812    0.353    0.459   12.816
  349.954   47.639    0.355    0.449   12.766
  350.204   48.591    0.351    0.435   12.584
  350.454   49.613    0.349    0.421   12.579
  350.704   49.824    0.336    0.428   12.547
  350.954   49.322    0.349    0.435   12.367
  351.204   48.291    0.354    0.430   12.123
  351.454   48.052    0.350    0.430   11.879
  351.704   49.042    0.366    0.434   11.530
  351.954   49.993    0.373    0.449   11.184
  352.204   50.957    0.366    0.455   10.850
  352.454   51.044    0.371    0.450   10.648
  352.704   49.470    0.377    0.445   10.644
  352.954   48.562    0.369    0.455   10.854
  353.204   47.512    0.383    0.464   10.954
  353.454   47.211    0.373    0.485   11.267
  353.704   46.745    0.367    0.504   11.457
  353.954   45.987    0.350    0.506   11.580
  354.204   46.706    0.344    0.492   11.689
  354.454   47.700    0.335    0.442   11.502
  354.704   48.090    0.336    0.428   11.387
  354.954   48.433    0.328    0.424   11.264
  355.204   47.284    0.336    0.433   11.265
  355.454   48.932    0.348    0.421   11.331
  355.704   50.222    0.346    0.417   11.469
  355.954   49.195    0.355    0.416   11.476
  356.204   49.301    0.350    0.428   11.522
  356.454   50.737    0.360    0.439   11.683
  356.704   52.697    0.354    0.446   11.659
  356.954   53.797    0.364    0.447   11.918
  357.204   53.245    0.372    0.441   11.879
  357.454   52.383    0.371    0.443   12.139
  357.704   53.817    0.366    0.444   12.116
  357.954   55.250    0.353    0.447   12.132
  358.204   55.086    0.342    0.459   11.800
  358.454   53.066    0.318    0.455   11.454
  358.704   53.484    0.301    0.436   11.110
  358.954   54.490    0.309    0.447   10.770
  359.204   54.852    0.344    0.456   10.647
  359.454   54.842    0.374    0.473   10.647
  359.704   54.825    0.384    0.476   10.650
  359.954   54.849    0.372    0.472   10.635
  360.204   53.894    0.375    0.467   10.863
  360.454   52.935    0.387    0.463   10.846
  360.704   51.428    0.380    0.458   10.826
  360.954   50.383    0.384    0.452   11.071
  361.204   49.403    0.390    0.459   11.059
  361.454   48.958    0.366    0.451   11.244
  361.704   48.820    0.366    0.444   11.555
  361.954   48.794    0.376    0.453   11.668
  362.204   48.847    0.348    0.455   11.791
  362.454   48.130    0.358    0.447   12.109
  362.704   47.662    0.362    0.449   12.320
  362.954   45.044    0.361    0.459   12.325
  363.204   43.190    0.367    0.462   12.330
  363.454   42.784    0.363    0.476   12.324
  363.704   43.022    0.359    0.482   12.196
  363.954   44.042    0.364    0.467   12.353
  364.204   44.651    0.367    0.460   12.141
  364.454   42.792    0.350    0.463   12.109
  364.704   41.535    0.340    0.467   12.104
  364.954   41.503    0.333    0.461   11.940
  365.204   42.402    0.341    0.460   11.885
  365.454   42.133    0.348    0.461   11.879
  365.704   40.022    0.357    0.456   11.903
  365.954   40.492    0.350    0.451   11.652
  366.204   41.457    0.357    0.450   11.461
  366.454   41.580    0.365    0.452   11.334
  366.704   40.116    0.362    0.456   11.218
  366.954   39.195    0.353    0.460   10.868
  367.204   38.208    0.358    0.471   10.636
  367.454   37.230    0.361    0.478   10.431
  367.704   35.741    0.354    0.463   10.294
  367.954   35.795    0.345    0.453   10.269
  368.204   38.459    0.351    0.456   10.057
  368.454   39.803    0.357    0.464    9.935
  368.704   40.869    0.343    0.466    9.880
  368.954   40.221    0.344    0.463    9.874
  369.204   40.187    0.351    0.463    9.868
  369.454   40.087    0.364    0.446    9.839
  369.704   39.061    0.358    0.442    9.688
  369.954   38.195    0.352    0.453    9.696
  370.204   35.834    0.355    0.461    9.712
  370.454   34.392    0.360    0.471    9.875
  370.704   34.169    0.353    0.475    9.789
  370.954   34.807    0.363    0.460    9.675
  371.204   35.814    0.363    0.460    9.334
  371.454   35.923    0.352    0.470    9.144
  371.704   35.925    0.358    0.474    9.170
  371.954   35.899    0.365    0.470    8.987
  372.204   35.766    0.373    0.459    8.999
  372.454   35.283    0.381    0.452    9.000
  372.704   35.018    0.382    0.457    9.017
  372.954   34.048    0.381    0.462    8.821
  373.204   34.146    0.374    0.470    8.836
  373.454   33.705    0.380    0.467    8.834
  373.704   34.092    0.381    0.470    8.833
  373.954   35.106    0.382    0.465    8.833
  374.204   36.069    0.382    0.468    8.833
  374.454   37.033    0.381    0.449    8.832
  374.704   37.632    0.384    0.463    8.832
  374.954   37.592    0.387    0.469    8.832
  375.204   37.578    0.375    0.467    8.830
  375.454   37.533    0.383    0.468    8.732
  375.704   38.400    0.369    0.458    8.673
  375.954   40.397    0.356    0.463    8.668
  376.204   41.091    0.365    0.480    8.667
  376.454   41.764    0.364    0.493    8.663
  376.704   41.180    0.389    0.495    8.802
  376.954   41.042    0.367    0.490    8.828
  377.204   41.684    0.365    0.488    8.837
  377.454   42.105    0.387    0.492    9.001
  377.704   42.355    0.387    0.490    8.991
  377.954   44.021    0.389    0.480    8.991
  378.204   45.621    0.394    0.474    9.123
  378.454   46.571    0.397    0.469    9.009
  378.704   47.000    0.394    0.480    9.162
  378.954   45.985    0.386    0.486    9.230
  379.204   45.848    0.380    0.491    9.476
  379.454   46.846    0.370    0.472    9.466
  379.704   47.826    0.334    0.455    9.410
  379.954   48.818    0.305    0.457    9.328
  380.204   50.841    0.320    0.470    9.309
  380.454   51.893    0.369    0.479    9.552
  380.704   52.871    0.389    0.487   10.253
  380.954   53.684    0.389    0.490   11.413
  381.204   55.862    0.400    0.494   12.763
  381.454   57.520    0.403    0.485   13.955
  381.704   58.786    0.385    0.486   13.967
  381.954   60.678    0.372    0.488   13.079
  382.204   62.646    0.128    0.476   11.745
  382.454   68.412    0.069    0.380   10.249
  382.704   74.170    0.164    0.330    9.606
  382.954   80.951    0.199    0.359    9.193
  383.204   80.377    0.284    0.399    8.773
  383.454   79.479    0.347    0.437    8.995
  383.704   78.401    0.362    0.455    9.387
  383.954   79.198    0.362    0.494    9.966
  384.204   79.499    0.362    0.507   10.801
  384.454   76.885    0.355    0.499   11.412
  384.704   75.074    0.349    0.497   12.627
  384.954   73.026    0.359    0.494   13.185
  385.204   70.332    0.369    0.489   14.207
  385.454   69.114    0.366    0.485   14.523
