~VERSION INFORMATION
 VERS.                 2.0:   CWLS LOG ASCII STANDARD -VERSION 2.0
 WRAP.                  NO:   ONE LINE PER DEPTH STEP
~WELL INFORMATION BLOCK
#MNEM.UNIT           DATA                    DESCRIPTION OF MNEMONIC
#---------    -------------------            -------------------------------
# Generated from Intellog Unique Number	CS_71_72/WELL/915
WELL.         AMOCO AEC IPIATIK INDIA        : Well_name    - WELL
LOC .         00/12-04-072-06W4/0            : Location     - LOCATION
UWI .         00/12-04-072-06W4/0            : Uwi          - UNIQUE WELL ID
ENTR.         SP                             : Entered      - ENTERED BY
SRVC.         SCHLUMBERGER                   : Scn          - SERVICE COMPANY
STRT.M        320                            : top_depth    - START DEPTH
STOP.M        545                            : bot_depth    - STOP DEPTH
STEP.M        0.25                           : increment    - STEP LENGTH
 NULL. -999.2500:NULL Value
~CURVE INFORMATION BLOCK
#MNEM UNIT       ERCB CURVE CODE    CURVE DESCRIPTION
#-----------   ------------------   ----------------------------------
DEPT.M        00 001 00 00         : DEPTH        - DEPTH
ILD .OHMM     00 120 00 00         : RESD         - DEEP RESISTIVITY (DIL)
DPHI.V/V      00 890 00 00         : PHID         - DENSITY POROSITY (LIMESTONE)
NPHI.V/V      00 330 00 00         : PHIN         - NEUTRON POROSITY (LIMESTONE)
GR  .API      00 310 00 00         : GR           - GAMMA RAY
~PARAMETER INFORMATION
#MNEM.UNIT           DATA             DESCRIPTION OF MNEMONIC
#---------         -----------     ------------------------------
GL  .M        690.3                : gl           - GROUND LEVEL ELEVATION
EREF.M        694.56               : kb           - ELEVATION OF DEPTH REFERENCE
DATM.M        690.3                : datum        - DATUM ELEVATION
TDD .M        561                  : tdd          - TOTAL DEPTH DRILLER
RUN .         ONE                  : Run          - RUN NUMBER
ENG .         BILL                 : Engineer     - RECORDING ENGINEER
WIT .         JIM                  : Witness      - WITNESSED BY
MUD .         GEL                  : Mud_type     - MUD TYPE
MATR.         LIMESTONE            : Logunit      - NEUTRON MATRIX
TMAX.C        23                   : BHT          - MAXIMUM RECORDED TEMPERATURE
BHTD.M        561                  : BHTDEP       - MAXIMUM RECORDED TEMPERATURE
MATR.         1                    : LOGUNIT      - NEUTRON MATRIX
RMT .C        25                   : MDTP         - TEMPERATURE OF MUD
NEUT.         1                    : NEUTRON      - NEUTRON TYPE
RESI.         0                    : RESIST       - RESISTIVITY TYPE
RMC .OHMM     0.25                 : RMC          - RESISTIVITY OF MUD CAKE
RMF .OHMM     0.25                 : RMF          - RESISTIVITY OF MUD FILTRATE
SUFT.C        15                   : SUFT         - SURFACE TEMPERATURE
~A  DEPTH     RESD     PHID     PHIN       GR
  320.000    2.898    0.240    0.536   94.739
  320.250    2.830    0.227    0.525   95.360
  320.500    2.884    0.231    0.533   95.373
  320.750    2.939    0.239    0.525   95.998
  321.000    3.052    0.229    0.521   96.620
  321.250    3.053    0.231    0.523   98.461
  321.500    2.998    0.237    0.515   99.684
  321.750    2.944    0.235    0.514  101.523
  322.000    3.000    0.222    0.515  102.138
  322.250    3.058    0.215    0.520  103.985
  322.500    3.295    0.222    0.533  103.996
  322.750    3.485    0.224    0.540  104.010
  323.000    3.686    0.228    0.546  103.410
  323.250    3.756    0.228    0.530  100.395
  323.500    3.758    0.190    0.487   99.188
  323.750    3.759    0.182    0.477   97.381
  324.000    3.761    0.137    0.495   98.008
  324.250    3.832    0.114    0.522   98.016
  324.500    3.905    0.207    0.530   98.643
  324.750    3.980    0.208    0.506   98.044
  325.000    3.982    0.201    0.512   97.453
  325.250    3.838    0.203    0.491   95.040
  325.500    3.632    0.200    0.482   93.230
  325.750    3.632    0.168    0.472   94.456
  326.000    3.634    0.166    0.491   96.901
  326.250    3.773    0.189    0.501   99.345
  326.500    3.845    0.208    0.520  100.576
  326.750    3.775    0.209    0.524  101.194
  327.000    3.707    0.203    0.508  100.603
  327.250    3.779    0.215    0.503  101.224
  327.500    3.996    0.212    0.514  102.453
  327.750    4.149    0.207    0.531  103.074
  328.000    4.229    0.212    0.529  102.478
  328.250    4.152    0.199    0.482  101.280
  328.500    3.786    0.186    0.461  100.082
  328.750    3.582    0.203    0.468   98.882
  329.000    3.452    0.199    0.473   97.679
  329.250    3.584    0.188    0.469   97.087
  329.500    4.008    0.181    0.475   96.491
  329.750    4.739    0.182    0.487   95.904
  330.000    5.202    0.214    0.500   95.912
  330.250    5.710    0.215    0.513   94.104
  330.500    6.153    0.197    0.514   89.262
  330.750    6.508    0.170    0.494   86.238
  331.000    7.144    0.090    0.440   85.036
  331.250    7.842    0.058    0.434   94.163
  331.500    8.934    0.059    0.463   97.819
  331.750   10.178    0.038    0.477   94.191
  332.000   14.223    0.014    0.493   89.959
  332.250   21.407    0.003    0.506   87.537
  332.500   34.068    0.067    0.422   83.299
  332.750   44.198    0.143    0.360   76.635
  333.000   51.297    0.217    0.288   69.361
  333.250   56.308    0.252    0.229   59.052
  333.500   51.339    0.317    0.201   50.566
  333.750   43.450    0.349    0.189   46.329
  334.000   31.700    0.348    0.173   43.307
  334.250   24.451    0.358    0.159   42.105
  334.500   18.513    0.376    0.149   42.728
  334.750   14.820    0.388    0.143   47.601
  335.000   13.019    0.400    0.168   53.689
  335.250   11.870    0.409    0.197   60.383
  335.500   11.231    0.400    0.222   66.467
  335.750   10.826    0.354    0.248   74.376
  336.000   10.242    0.252    0.287   79.248
  336.250   10.057    0.271    0.335   78.046
  336.500    9.695    0.280    0.381   81.098
  336.750    9.879    0.273    0.396   84.755
  337.000   10.257    0.254    0.388   90.851
  337.250   10.849    0.230    0.399   92.073
  337.500   11.474    0.221    0.416   95.128
  337.750   11.913    0.211    0.423   95.744
  338.000   12.368    0.203    0.436   96.367
  338.250   12.605    0.263    0.429   91.525
  338.500   12.610    0.276    0.416   86.682
  338.750   12.382    0.286    0.421   83.657
  339.000   12.856    0.292    0.431   81.846
  339.250   13.102    0.288    0.439   82.472
  339.500   13.353    0.280    0.428   82.482
  339.750   13.112    0.263    0.417   81.288
  340.000   12.405    0.270    0.422   80.692
  340.250   11.523    0.293    0.430   78.278
  340.500   10.701    0.305    0.418   75.860
  340.750    9.939    0.318    0.409   73.443
  341.000    9.758    0.294    0.398   80.750
  341.250   10.713    0.271    0.397   85.624
  341.500   11.330    0.257    0.406   86.846
  341.750   12.209    0.237    0.414   89.290
  342.000   12.913    0.242    0.421   89.309
  342.250   13.407    0.261    0.427   88.715
  342.500   13.921    0.254    0.433   87.511
  342.750   14.186    0.273    0.435   86.919
  343.000   14.457    0.289    0.443   83.290
  343.250   14.197    0.297    0.424   77.229
  343.500   13.939    0.296    0.413   71.778
  343.750   12.946    0.282    0.422   65.112
  344.000   12.025    0.269    0.413   58.446
  344.250   11.167    0.255    0.407   61.498
  344.500    9.993    0.245    0.403   69.409
  344.750    8.617    0.241    0.406   76.712
  345.000    7.711    0.221    0.406   84.014
  345.250    7.030    0.208    0.414   90.099
  345.500    6.176    0.194    0.426   96.792
  345.750    5.631    0.182    0.433  103.486
  346.000    5.327    0.127    0.443  106.534
  346.250    4.948    0.099    0.448  108.372
  346.500    4.511    0.132    0.450  112.030
  346.750    4.113    0.168    0.460  116.296
  347.000    3.891    0.185    0.474  119.349
  347.250    3.681    0.191    0.471  121.182
  347.500    3.419    0.194    0.483  121.802
  347.750    3.295    0.197    0.502  121.208
  348.000    3.118    0.201    0.509  121.226
  348.250    3.360    0.203    0.520  120.629
  348.500    3.900    0.206    0.518  120.653
  348.750    4.443    0.213    0.517  120.661
  349.000    4.786    0.218    0.502  119.456
  349.250    5.766    0.225    0.493  114.618
  349.500    6.447    0.229    0.478  110.381
  349.750    6.947    0.233    0.468  104.928
  350.000    7.213    0.227    0.467   98.260
  350.250    7.350    0.229    0.480   92.203
  350.500    7.491    0.237    0.479   89.182
  350.750    7.778    0.236    0.467   89.193
  351.000    8.075    0.242    0.458   90.423
  351.250    8.541    0.253    0.447   87.402
  351.500    8.867    0.259    0.436   84.379
  351.750    9.379    0.267    0.430   80.749
  352.000    9.737    0.270    0.421   77.729
  352.250    9.740    0.261    0.420   76.529
  352.500    9.389    0.255    0.426   77.147
  352.750    9.051    0.250    0.434   78.987
  353.000    8.564    0.253    0.434   80.213
  353.250    8.408    0.265    0.442   81.439
  353.500    8.257    0.263    0.453   82.062
  353.750    7.959    0.260    0.458   81.468
  354.000    7.815    0.256    0.447   79.053
  354.250    7.674    0.255    0.444   77.853
  354.500    7.535    0.250    0.442   77.261
  354.750    7.400    0.244    0.450   77.279
  355.000    7.402    0.249    0.453   77.894
  355.250    7.270    0.255    0.458   79.123
  355.500    7.273    0.262    0.467   80.352
  355.750    7.274    0.240    0.478   80.367
  356.000    7.277    0.229    0.494   77.347
  356.250    7.416    0.222    0.489   77.969
  356.500    7.700    0.245    0.468   79.195
  356.750    8.144    0.251    0.453   80.427
  357.000    8.613    0.236    0.459   80.437
  357.250    8.943    0.224    0.469   78.026
  357.500    9.114    0.228    0.462   75.001
  357.750    9.118    0.248    0.454   71.979
  358.000    8.953    0.268    0.449   70.170
  358.250    8.630    0.296    0.435   72.615
  358.500    8.319    0.251    0.422   76.887
  358.750    8.019    0.225    0.410   79.327
  359.000    7.729    0.202    0.406   81.159
  359.250    7.589    0.202    0.405   85.429
  359.500    7.452    0.204    0.401   86.650
  359.750    7.455    0.208    0.399   89.096
  360.000    7.459    0.210    0.400   90.932
  360.250    7.461    0.213    0.400   92.161
  360.500    7.463    0.215    0.401   90.960
  360.750    7.749    0.219    0.407   87.333
  361.000    8.046    0.220    0.419   85.521
  361.250    8.199    0.215    0.424   88.575
  361.500    8.673    0.221    0.434   92.237
  361.750    9.004    0.231    0.440   94.068
  362.000    9.175    0.230    0.448   97.119
  362.250    9.526    0.224    0.458   97.739
  362.500    9.529    0.243    0.449   95.933
  362.750    9.186    0.254    0.432   92.910
  363.000    8.532    0.272    0.420   93.528
  363.250    8.223    0.287    0.414   97.190
