~VERSION INFORMATION
 VERS.                 2.0:   CWLS LOG ASCII STANDARD -VERSION 2.0
 WRAP.                  NO:   ONE LINE PER DEPTH STEP
~WELL INFORMATION BLOCK
#MNEM.UNIT           DATA                    DESCRIPTION OF MNEMONIC
#---------    -------------------            -------------------------------
# Generated from Intellog Unique Number	CW_82_90/WELL/901
WELL.         HB ET AL MUSKWA 10-23          : Well_name    - WELL
LOC .         00/10-23-083-03W5/0            : Location     - LOCATION
UWI .         00/10-23-083-03W5/0            : Uwi          - UNIQUE WELL ID
ENTR.         JAYE                           : Entered      - ENTERED BY
SRVC.         WESTERN ATLAS                  : Scn          - SERVICE COMPANY
DATE.         14 MAR 77                      : Date         - LOG DATE
STRT.M        274.32                         : top_depth    - START DEPTH
STOP.M        472.32                         : bot_depth    - STOP DEPTH
STEP.M        0.25                           : increment    - STEP LENGTH
 NULL. -999.2500:NULL Value
~CURVE INFORMATION BLOCK
#MNEM UNIT       ERCB CURVE CODE    CURVE DESCRIPTION
#-----------   ------------------   ----------------------------------
DEPT.M        00 001 00 00         : DEPTH        - DEPTH
CALI.MM       00 280 01 00         : CAL          - CALIPER
GR  .API      00 310 00 00         : GR           - GAMMA RAY
NPHI.V/V      00 330 00 00         : PHIN         - NEUTRON POROSITY (SANDSTONE)
DPHI.V/V      00 890 00 00         : PHID         - DENSITY POROSITY (SANDSTONE)
ILD .OHMM     00 120 00 00         : RESD         - DEEP RESISTIVITY (DLL)
~PARAMETER INFORMATION
#MNEM.UNIT           DATA             DESCRIPTION OF MNEMONIC
#---------         -----------     ------------------------------
GL  .M        624.352              : gl           - GROUND LEVEL ELEVATION
EREF.M        627.522              : kb           - ELEVATION OF DEPTH REFERENCE
DATM.M        624.352              : datum        - DATUM ELEVATION
TDD .M        475.488              : tdd          - TOTAL DEPTH DRILLER
RUN .         ONE                  : Run          - RUN NUMBER
ENG .         GORDON               : Engineer     - RECORDING ENGINEER
WIT .         ROKOSH               : Witness      - WITNESSED BY
BASE.         EDMONTON             : Branch       - HOME BASE OF LOGGING UNIT
MUD .         GEL CHEM             : Mud_type     - MUD TYPE
MATR.         SANDSTONE            : Logunit      - NEUTRON MATRIX
TMAX.C        21.1111              : BHT          - MAXIMUM RECORDED TEMPERATURE
BHTD.M        475.488              : BHTDEP       - MAXIMUM RECORDED TEMPERATURE
RMT .C        18.3333              : MDTP         - TEMPERATURE OF MUD
MUDD.KG/M     9200                 : MWT          - MUD DENSITY
NEUT.         0                    : NEUTRON      - NEUTRON TYPE
RESI.         1                    : RESIST       - RESISTIVITY TYPE
RM  .OHMM     3.2                  : RM           - RESISTIVITY OF MUD
RMC .OHMM     2                    : RMC          - RESISTIVITY OF MUD CAKE
RMF .OHMM     2.2                  : RMF          - RESISTIVITY OF MUD FILTRATE
SUFT.C        -17.7778             : SUFT         - SURFACE TEMPERATURE
~A  DEPTH      CAL       GR     PHIN     PHID     RESD
  274.320  205.865   92.192    0.373    0.268    3.221
  274.570  206.662   89.552    0.363    0.274    3.440
  274.820  206.213   85.928    0.370    0.281    3.723
  275.070  206.187   83.409    0.380    0.285    4.012
  275.320  204.904   79.474    0.386    0.284    4.138
  275.570  203.414   74.186    0.394    0.275    4.127
  275.820  203.071   71.976    0.380    0.262    4.019
  276.070  200.859   72.662    0.375    0.247    3.891
  276.320  199.993   76.615    0.387    0.237    3.645
  276.570  207.449   84.206    0.395    0.234    3.333
  276.820  213.039   91.241    0.407    0.233    3.150
  277.070  216.950   96.797    0.416    0.234    2.929
  277.320  218.488   99.579    0.424    0.234    2.768
  277.570  216.792  101.377    0.429    0.235    2.651
  277.820  218.834  102.618    0.423    0.236    2.515
  278.070  220.258  100.903    0.421    0.236    2.431
  278.320  221.171   99.311    0.419    0.238    2.429
  278.570  221.553   98.704    0.414    0.239    2.533
  278.820  220.585   98.281    0.408    0.241    2.736
  279.070  218.058   96.442    0.395    0.243    3.072
  279.320  214.385   93.371    0.388    0.245    3.393
  279.570  212.587   88.266    0.385    0.246    3.531
  279.820  211.619   83.345    0.383    0.245    3.602
  280.070  212.212   79.411    0.385    0.242    3.526
  280.320  215.093   78.126    0.388    0.240    3.434
  280.570  219.220   83.805    0.390    0.238    3.463
  280.820  219.913   97.681    0.391    0.237    3.597
  281.070  218.012  100.834    0.391    0.237    3.568
  281.320  213.199  101.275    0.394    0.239    3.449
  281.570  208.274  100.854    0.406    0.235    3.272
  281.820  209.288  104.745    0.428    0.229    3.009
  282.070  218.719  109.191    0.442    0.230    2.656
  282.320  222.119  116.043    0.456    0.232    2.255
  282.570  224.898  119.933    0.452    0.237    1.994
  282.820  227.151  123.764    0.444    0.242    1.787
  283.070  228.893  124.636    0.436    0.245    1.636
  283.320  227.294  123.784    0.436    0.250    1.516
  283.570  225.710  123.795    0.444    0.253    1.449
  283.820  225.565  124.050    0.452    0.255    1.411
  284.070  225.954  124.119    0.458    0.258    1.366
  284.320  226.548  123.390    0.458    0.260    1.350
  284.570  228.080  122.046    0.446    0.260    1.344
  284.820  228.250  120.761    0.441    0.260    1.333
  285.070  228.744  119.475    0.443    0.259    1.322
  285.320  226.421  117.699    0.447    0.259    1.334
  285.570  223.061  115.983    0.453    0.256    1.358
  285.820  220.845  114.020    0.462    0.248    1.387
  286.070  219.769  111.566    0.464    0.243    1.412
  286.320  219.013  109.848    0.457    0.243    1.437
  286.570  218.466  108.379    0.463    0.242    1.507
  286.820  217.706  108.327    0.469    0.241    1.569
  287.070  217.250  109.877    0.468    0.240    1.624
  287.320  217.330  109.209    0.466    0.238    1.671
  287.570  217.085  108.541    0.469    0.237    1.730
  287.820  216.220  109.354    0.473    0.236    1.788
  288.070  216.092  110.782    0.471    0.235    1.826
  288.320  216.054  112.391    0.466    0.233    1.869
  288.570  215.712  114.372    0.464    0.232    1.949
  288.820  215.890  114.753    0.453    0.230    1.988
  289.070  217.733  114.885    0.449    0.228    2.017
  289.320  220.506  115.019    0.449    0.226    2.029
  289.570  222.351  114.412    0.450    0.224    2.040
  289.820  224.085  112.389    0.450    0.225    2.042
  290.070  225.513  110.240    0.446    0.225    2.060
  290.320  226.622  106.614    0.440    0.227    2.077
  290.570  226.907  104.468    0.432    0.228    2.138
  290.820  225.831  104.415    0.433    0.231    2.192
  291.070  223.716  104.301    0.432    0.235    2.328
  291.320  221.400  103.756    0.432    0.238    2.630
  291.570  217.103  102.841    0.423    0.242    2.798
  291.820  215.306   98.721    0.412    0.246    2.950
  292.070  210.073   91.706    0.388    0.248    3.042
  292.320  207.027   87.094    0.389    0.248    3.057
  292.570  209.593   88.522    0.404    0.246    3.044
  292.820  214.868   93.523    0.418    0.239    3.047
  293.070  223.260   98.217    0.430    0.235    3.261
  293.320  224.687   89.598    0.417    0.232    3.567
  293.570  217.687   80.178    0.416    0.231    3.867
  293.820  208.605   69.219    0.410    0.234    4.303
  294.070  208.262   65.469    0.392    0.242    4.570
  294.320  207.501   69.610    0.388    0.258    4.671
  294.570  205.177   72.822    0.392    0.285    4.632
  294.820  204.732   75.851    0.401    0.291    4.554
  295.070  204.492   76.046    0.397    0.289    4.516
  295.320  203.205   76.118    0.399    0.286    4.571
  295.570  202.442   75.510    0.402    0.284    4.767
  295.820  202.633   74.103    0.396    0.281    5.054
  296.070  203.112   69.922    0.385    0.276    5.338
  296.320  202.356   68.514    0.377    0.267    5.609
  296.570  201.808   69.696    0.372    0.259    5.773
  296.820  197.824   71.618    0.372    0.250    5.833
  297.070  194.984   73.227    0.372    0.246    5.872
  297.320  193.081   75.332    0.369    0.257    5.697
  297.570  193.258   76.943    0.366    0.269    5.619
  297.820  198.114   79.233    0.363    0.273    5.533
  298.070  203.596   81.462    0.366    0.267    5.497
  298.320  205.958   82.889    0.377    0.264    5.383
  298.570  206.446   83.577    0.400    0.259    5.174
  298.820  208.806   83.709    0.403    0.253    4.837
  299.070  210.852   83.287    0.399    0.249    4.439
  299.320  212.904   84.409    0.395    0.245    4.181
  299.570  216.823   85.710    0.399    0.238    3.959
  299.820  216.791   90.773    0.411    0.229    3.681
  300.070  213.641   92.693    0.430    0.211    3.347
  300.320  216.418   92.889    0.451    0.194    3.043
  300.570  217.107   93.760    0.454    0.182    2.757
  300.820  216.357   98.023    0.453    0.179    2.601
  301.070  216.739  101.358    0.455    0.193    2.405
  301.320  218.881  104.943    0.457    0.218    2.269
  301.570  219.695  106.125    0.459    0.234    2.098
  301.820  217.892  104.903    0.461    0.248    2.028
  302.070  216.508  104.170    0.463    0.248    1.982
  302.320  212.730  104.427    0.471    0.246    1.958
  302.570  209.061  106.044    0.489    0.244    2.012
  302.820  210.488  106.111    0.477    0.245    2.007
  303.070  211.908  106.059    0.456    0.244    1.980
  303.320  213.747  104.897    0.454    0.239    1.993
  303.570  217.258  102.379    0.465    0.234    2.063
  303.820  221.905  101.651    0.464    0.228    2.199
  304.070  224.268  101.721    0.454    0.223    2.371
  304.320  222.675  100.499    0.442    0.220    2.551
  304.570  220.248   98.844    0.432    0.219    2.751
  304.820  221.052   95.958    0.423    0.218    2.927
  305.070  220.289   95.721    0.408    0.219    3.121
  305.320  218.073   97.764    0.409    0.222    3.321
  305.570  217.519   97.896    0.421    0.227    3.567
  305.820  216.454   96.922    0.414    0.232    3.961
  306.070  214.858   95.883    0.404    0.235    4.415
  306.320  212.851   93.737    0.393    0.233    4.995
  306.570  208.142   92.143    0.401    0.227    5.394
  306.820  204.045   90.488    0.405    0.220    5.460
  307.070  202.565   88.897    0.411    0.217    4.856
  307.320  202.325   88.353    0.408    0.219    4.255
  307.570  202.286   88.977    0.398    0.232    3.462
  307.820  202.259   93.115    0.400    0.245    2.907
  308.070  202.852   95.714    0.405    0.253    2.524
  308.320  205.106   96.709    0.424    0.257    2.316
  308.570  207.785   98.138    0.433    0.256    2.110
  308.820  210.975  100.242    0.430    0.254    2.006
  309.070  212.089  102.531    0.423    0.251    1.971
  309.320  211.640  105.808    0.423    0.252    1.952
  309.570  211.402  108.035    0.426    0.256    1.976
  309.820  212.412  107.367    0.433    0.257    2.037
  310.070  214.150  106.760    0.425    0.255    2.237
  310.320  216.610  105.784    0.412    0.252    2.597
  310.570  214.286  103.021    0.398    0.246    2.960
