~VERSION INFORMATION
 VERS.                 2.0:   CWLS LOG ASCII STANDARD -VERSION 2.0
 WRAP.                  NO:   ONE LINE PER DEPTH STEP
~WELL INFORMATION BLOCK
#MNEM.UNIT           DATA                    DESCRIPTION OF MNEMONIC
#---------    -------------------            -------------------------------
# Generated from Intellog Unique Number	CN_91_93/WELL/1167
WELL.         COSEKA RESOURCES LTD.          : Well_name    - WELL
LOC .         00/11-12-091-21W4/0            : Location     - LOCATION
UWI .         00/11-12-091-21W4/0            : Uwi          - UNIQUE WELL ID
ENTR.         JOETTE                         : Entered      - ENTERED BY
SRVC.         COMPUTALOG                     : Scn          - SERVICE COMPANY
DATE.         02/04/92                       : Date         - LOG DATE
STRT.F        557.743                        : top_depth    - START DEPTH
STOP.F        738.189                        : bot_depth    - STOP DEPTH
STEP.F        0.82                           : increment    - STEP LENGTH
 NULL. -999.2500:NULL Value
~CURVE INFORMATION BLOCK
#MNEM UNIT       ERCB CURVE CODE    CURVE DESCRIPTION
#-----------   ------------------   ----------------------------------
DEPT.F        00 001 00 00         : DEPTH        - DEPTH
ILD .OHMM     00 120 00 00         : RESD         - DEEP RESISTIVITY (DIL)
DPHI.V/V      00 890 00 00         : PHID         - DENSITY POROSITY (SANDSTONE)
NPHI.V/V      00 330 00 00         : PHIN         - NEUTRON POROSITY (SANDSTONE)
CALI.IN       00 280 01 00         : CAL          - CALIPER
GR  .API      00 310 00 00         : GR           - GAMMA RAY
~PARAMETER INFORMATION
#MNEM.UNIT           DATA             DESCRIPTION OF MNEMONIC
#---------         -----------     ------------------------------
GL  .F        1649.93              : gl           - GROUND LEVEL ELEVATION
EREF.F        1660.43              : kb           - ELEVATION OF DEPTH REFERENCE
DATM.F        1660.43              : datum        - DATUM ELEVATION
TDD .F        800.525              : tdd          - TOTAL DEPTH DRILLER
RUN .         ONE                  : Run          - RUN NUMBER
ENG .         BILL                 : Engineer     - RECORDING ENGINEER
WIT .         JIM                  : Witness      - WITNESSED BY
MUD .         GEL                  : Mud_type     - MUD TYPE
MATR.         SANDSTONE            : Logunit      - NEUTRON MATRIX
TMAX.F        69.8                 : BHT          - MAXIMUM RECORDED TEMPERATURE
BHTD.F        800.525              : BHTDEP       - MAXIMUM RECORDED TEMPERATURE
RMT .F        47                   : MDTP         - TEMPERATURE OF MUD
MUDD.LB/G     10                   : MWT          - MUD DENSITY
NEUT.         1                    : NEUTRON      - NEUTRON TYPE
RESI.         0                    : RESIST       - RESISTIVITY TYPE
RM  .OHMM     2.8                  : RM           - RESISTIVITY OF MUD
RMC .OHMM     7.42                 : RMC          - RESISTIVITY OF MUD CAKE
RMF .OHMM     2.28                 : RMF          - RESISTIVITY OF MUD FILTRATE
SUFT.F        39.2                 : SUFT         - SURFACE TEMPERATURE
~A  DEPTH     RESD     PHID     PHIN      CAL       GR
# ...
  677.493   12.946    0.027    0.277    6.447   85.876
  678.314   11.598    0.056    0.359    6.331   99.923
  679.134   10.391    0.171    0.380    6.276  106.680
  679.954    9.572    0.163    0.383    6.420  131.065
  680.774    9.068    0.154    0.383    6.604  137.222
  681.594    8.914    0.168    0.398    6.648  136.065
  682.415    8.762    0.182    0.415    6.513  134.004
  683.235    8.226    0.193    0.432    6.497  136.188
  684.055    7.936    0.197    0.456    6.522  136.861
  684.875    7.800    0.181    0.468    6.525  137.846
  685.696    8.335    0.135    0.412    6.490  130.014
  686.516    8.831    0.028    0.346    6.416  123.380
  687.336    8.838    0.024    0.370    6.399  114.932
  688.156    8.689    0.155    0.406    6.524  113.479
  688.976    8.544    0.196    0.408    6.627  126.927
  689.797    8.400    0.201    0.403    6.711  132.461
  690.617    8.102    0.183    0.399    6.755  138.602
  691.437    7.535    0.176    0.406    6.760  140.802
  692.257    7.337    0.129    0.409    6.764  139.045
  693.077    7.416    0.073    0.409    6.769  135.458
  693.898    7.781    0.089    0.409    6.772  133.101
  694.718    7.864    0.142    0.410    6.618  135.285
  695.538    7.588    0.154    0.413    6.383  138.085
  696.358    7.460    0.148    0.410    6.347  136.345
  697.178    7.541    0.152    0.411    6.411  136.714
  697.999    7.623    0.161    0.394    6.475  138.282
  698.819    7.562    0.168    0.384    6.520  139.259
  699.639    7.573    0.163    0.398    6.523  138.110
  700.459    8.167    0.139    0.359    6.508  138.176
  701.280    9.486    0.114    0.335    6.493  125.474
  702.100   11.978    0.045    0.315    6.438  105.778
  702.920   18.896    0.100    0.307    6.381   97.026
  703.740   23.643    0.214    0.284    6.306   87.363
  704.560   29.034    0.244    0.274    6.290   85.007
  705.381   42.138    0.313    0.265    6.254   83.849
  706.201   58.385    0.340    0.265    6.199   77.831
  707.021   61.824    0.351    0.269    6.163   63.611
  707.841   61.342    0.357    0.286    6.188   55.163
  708.661   59.205    0.352    0.312    6.215   52.503
  709.482   55.554    0.329    0.372    6.236   51.354
  710.302   52.605    0.303    0.387    6.280   53.849
  711.122   50.303    0.295    0.394    6.304   60.598
  711.942   49.450    0.297    0.398    6.308   65.533
  712.762   50.458    0.292    0.395    6.273   67.109
  713.583   51.937    0.293    0.389    6.278   68.390
  714.403   53.488    0.292    0.398    6.242   67.240
  715.223   53.555    0.288    0.390    6.246   63.669
  716.043   54.646    0.298    0.374    6.250   64.030
  716.864   57.845    0.305    0.366    6.294   65.919
  717.684   61.252    0.304    0.387    6.339   64.162
  718.504   61.979    0.302    0.412    6.339   72.438
  719.324   63.750    0.300    0.412    6.369   73.719
  720.144   63.252    0.285    0.405    6.371   74.696
  720.965   61.037    0.278    0.420    6.356   74.154
  721.785   59.992    0.296    0.436    6.341   79.080
  722.605   54.758    0.295    0.437    6.345   87.347
  723.425   46.409    0.288    0.433    6.345   89.244
  724.245   46.047    0.291    0.420    6.354   89.310
  725.066   57.605    0.309    0.386    6.359   89.679
  725.886   59.878    0.307    0.364    6.363   90.960
  726.706   52.169    0.299    0.355    6.367   92.241
  727.526   26.061    0.316    0.399    6.390   93.530
  728.346   19.216    0.398    0.560    6.395   92.693
  729.167   16.901    0.582    0.612    6.359   92.742
  729.987   16.309    0.631    0.639    6.303   93.120
  730.807   17.593    0.672    0.650    6.208   91.970
  731.627   18.972    0.609    0.648    6.232   90.205
  732.448   20.276    0.472    0.642    6.117   88.440
  733.268   18.851    0.367    0.650    6.021   84.253
  734.088   15.973    0.227    0.661    5.986   73.678
  734.908   14.991    0.225    0.659    6.030   46.076
  735.728   21.757    0.229    0.650    6.095   50.403
  736.549   24.812    0.180    0.639    6.179   62.627
  737.369   25.313    0.159    0.625    6.124   67.857
  738.189   25.345    0.150    0.615    6.127   68.531
