~VERSION INFORMATION
 VERS.                 2.0:   CWLS LOG ASCII STANDARD -VERSION 2.0
 WRAP.                  NO:   ONE LINE PER DEPTH STEP
~WELL INFORMATION BLOCK
#MNEM.UNIT           DATA                    DESCRIPTION OF MNEMONIC
#---------    -------------------            -------------------------------
# Generated from Intellog Unique Number	CW_73_75/WELL/1037
WELL.         THOM-JEN CHERPETA 11-11        : Well_name    - WELL
LOC .         00/11-11-074-20W4/0            : Location     - LOCATION
UWI .         00/11-11-074-20W4/0            : Uwi          - UNIQUE WELL ID
ENTR.         JAYE                           : Entered      - ENTERED BY
SRVC.         COMPUTALOG                     : Scn          - SERVICE COMPANY
DATE.         5 MAR 85                       : Date         - LOG DATE
STRT.M        450                            : top_depth    - START DEPTH
STOP.M        675                            : bot_depth    - STOP DEPTH
STEP.M        0.25                           : increment    - STEP LENGTH
 NULL. -999.2500:NULL Value
~CURVE INFORMATION BLOCK
#MNEM UNIT       ERCB CURVE CODE    CURVE DESCRIPTION
#-----------   ------------------   ----------------------------------
DEPT.M        00 001 00 00         : DEPTH        - DEPTH
GR  .API      00 310 00 00         : GR           - GAMMA RAY
CALI.MM       00 280 01 00         : CAL          - CALIPER
NPHI.V/V      00 330 00 00         : PHIN         - NEUTRON POROSITY (SANDSTONE)
DPHI.V/V      00 890 00 00         : PHID         - DENSITY POROSITY (SANDSTONE)
ILD .OHMM     00 120 00 00         : RESD         - DEEP RESISTIVITY (DIL)
~PARAMETER INFORMATION
#MNEM.UNIT           DATA             DESCRIPTION OF MNEMONIC
#---------         -----------     ------------------------------
GL  .M        763.9                : gl           - GROUND LEVEL ELEVATION
EREF.M        767.6                : kb           - ELEVATION OF DEPTH REFERENCE
DATM.M        763.9                : datum        - DATUM ELEVATION
TDD .M        700                  : tdd          - TOTAL DEPTH DRILLER
RUN .         ONE                  : Run          - RUN NUMBER
ENG .         TEETZEL              : Engineer     - RECORDING ENGINEER
WIT .         GORMAN               : Witness      - WITNESSED BY
BASE.         EDMONTON             : Branch       - HOME BASE OF LOGGING UNIT
MUD .         GEL CHEM             : Mud_type     - MUD TYPE
MATR.         SANDSTONE            : Logunit      - NEUTRON MATRIX
TMAX.C        38                   : BHT          - MAXIMUM RECORDED TEMPERATURE
BHTD.M        698.7                : BHTDEP       - MAXIMUM RECORDED TEMPERATURE
RMT .C        38                   : MDTP         - TEMPERATURE OF MUD
MUDD.KG/M     1110                 : MWT          - MUD DENSITY
NEUT.         1                    : NEUTRON      - NEUTRON TYPE
RESI.         0                    : RESIST       - RESISTIVITY TYPE
RM  .OHMM     4.7                  : RM           - RESISTIVITY OF MUD
RMC .OHMM     0                    : RMC          - RESISTIVITY OF MUD CAKE
RMF .OHMM     3.7                  : RMF          - RESISTIVITY OF MUD FILTRATE
SUFT.C        0                    : SUFT         - SURFACE TEMPERATURE
~A  DEPTH       GR      CAL     PHIN     PHID     RESD
# ...
  596.000   60.179  153.927    0.388    0.278    4.152
  596.250   62.274  153.736    0.413    0.273    4.172
  596.500   58.576  153.032    0.406    0.265    4.216
  596.750   58.719  152.745    0.394    0.258    4.433
  597.000   62.511  152.669    0.392    0.267    4.591
  597.250   64.099  152.802    0.389    0.284    4.700
  597.500   63.177  153.562    0.382    0.291    4.724
  597.750   63.822  154.846    0.386    0.283    4.631
  598.000   67.365  155.930    0.415    0.260    4.438
  598.250   82.308  157.533    0.419    0.223    4.253
  598.500   88.875  159.870    0.409    0.215    4.130
  598.750   89.710  162.311    0.401    0.214    4.080
  599.000   89.033  164.333    0.397    0.210    4.076
  599.250   85.964  165.615    0.385    0.210    4.042
  599.500   83.894  166.068    0.389    0.220    3.978
  599.750   82.091  166.616    0.400    0.206    3.893
  600.000   81.478  166.963    0.413    0.183    3.293
  600.250   88.651  167.067    0.434    0.209    3.107
  600.500   90.019  166.402    0.441    0.231    3.044
  600.750   90.122  166.577    0.433    0.244    3.169
  601.000   89.724  165.699    0.456    0.252    3.336
  601.250   89.892  164.399    0.446    0.242    3.566
  601.500   92.838  164.260    0.417    0.222    3.869
  601.750   94.650  170.225    0.397    0.218    4.222
  602.000   93.871  172.609    0.409    0.219    4.403
  602.250   86.018  172.153    0.402    0.217    4.523
  602.500   82.144  170.642    0.394    0.204    4.577
  602.750   82.563  169.452    0.386    0.204    4.544
  603.000   83.175  168.890    0.395    0.213    4.521
  603.250   82.649  167.163    0.413    0.209    4.609
  603.500   82.752  165.026    0.424    0.194    4.898
  603.750   84.690  163.836    0.416    0.180    5.118
  604.000   86.500  163.061    0.407    0.201    5.358
  604.250   85.342  162.396    0.427    0.223    5.442
  604.500   82.921  161.932    0.445    0.226    5.485
  604.750   82.331  161.904    0.445    0.222    5.446
  605.000   85.151  161.973    0.399    0.210    5.368
  605.250   87.151  162.466    0.384    0.209    5.379
  605.500   88.393  162.640    0.421    0.206    5.464
  605.750   89.888  162.499    0.410    0.198    5.560
  606.000   85.573  162.570    0.378    0.183    5.615
  606.250   84.538  164.112    0.387    0.170    5.618
  606.500   87.993  165.338    0.408    0.180    5.412
  606.750   92.520  165.405    0.417    0.204    5.040
  607.000   91.866  165.479    0.423    0.203    4.976
  607.250   88.182  165.335    0.435    0.196    4.978
  607.500   90.245  164.879    0.453    0.178    5.037
  607.750   93.129  164.739    0.430    0.174    5.184
  608.000   90.898  164.392    0.411    0.183    5.335
  608.250   88.097  164.355    0.398    0.199    5.491
  608.500   87.003  163.477    0.388    0.208    5.662
  608.750   85.591  160.284    0.374    0.214    5.750
  609.000   86.958  153.719    0.355    0.203    5.688
  609.250   95.085  159.793    0.358    0.193    5.408
  609.500   98.032  166.070    0.401    0.193    5.219
  609.750   98.515  167.933    0.434    0.197    5.242
  610.000   97.612  169.055    0.421    0.186    5.354
  610.250   88.811  163.967    0.352    0.149    5.820
  610.500   78.812  148.877    0.316    0.101    6.522
  610.750   71.524  147.891    0.296    0.129    6.853
  611.000   75.354  150.913    0.304    0.168    7.027
  611.250   81.967  156.033    0.326    0.205    7.057
  611.500   81.694  157.365    0.349    0.215    6.811
  611.750   78.894  157.859    0.362    0.206    6.153
  612.000   76.220  157.925    0.343    0.161    5.633
  612.250   72.030  158.521    0.323    0.154    5.520
  612.500   73.397  159.223    0.376    0.168    5.713
  612.750   72.936  159.297    0.414    0.164    6.003
  613.000   66.851  159.469    0.329    0.100    6.453
  613.250   69.669  159.538    0.254    0.087    6.910
  613.500   74.763  159.820    0.281    0.112    7.640
  613.750   80.051  160.206    0.345    0.138    7.849
  614.000   85.903  159.954    0.421    0.152    7.720
  614.250   91.250  159.399    0.433    0.166    7.465
  614.500   92.805  158.733    0.419    0.167    6.519
  614.750   92.092  157.645    0.398    0.169    5.991
  615.000   85.501  156.557    0.397    0.176    5.892
  615.250   82.386  156.522    0.395    0.189    5.939
  615.500   84.702  156.589    0.383    0.189    5.987
  615.750   85.752  156.661    0.365    0.166    6.013
  616.000   84.532  157.674    0.374    0.158    6.027
  616.250   87.227  157.639    0.394    0.166    6.018
  616.500   92.763  156.344    0.388    0.173    5.998
  616.750   94.509  154.934    0.383    0.177    6.012
  617.000   92.910  154.586    0.408    0.174    6.037
  617.250   89.037  154.869    0.425    0.165    6.086
  617.500   87.811  155.674    0.415    0.154    6.170
  617.750   88.868  156.271    0.386    0.152    6.267
  618.000   94.214  156.236    0.355    0.165    6.340
  618.250   95.329  157.147    0.352    0.166    6.391
  618.500   92.720  159.220    0.350    0.156    6.419
  618.750   87.140  160.868    0.343    0.152    6.421
  619.000   89.899  160.618    0.341    0.158    6.364
  619.250   92.149  159.218    0.343    0.167    6.247
  619.500   91.875  157.497    0.346    0.182    6.030
  619.750   89.645  155.672    0.353    0.191    5.809
  620.000   87.224  155.636    0.368    0.179    5.779
  620.250   84.359  158.547    0.350    0.162    5.836
  620.500   82.572  162.089    0.326    0.112    5.917
  620.750   83.307  163.213    0.333    0.125    5.964
  621.000   87.896  163.601    0.361    0.164    6.046
  621.250   90.970  163.352    0.377    0.176    6.118
  621.500   91.264  163.319    0.337    0.163    6.121
  621.750   90.168  163.597    0.311    0.153    6.077
  622.000   90.589  163.452    0.338    0.176    5.532
  622.250   92.022  163.209    0.363    0.197    4.354
  622.500   95.980  162.439    0.382    0.233    3.846
  622.750   95.643  161.563    0.395    0.252    3.333
  623.000   91.199  159.632    0.395    0.258    2.889
  623.250   93.388  156.651    0.408    0.249    2.321
  623.500   97.347  155.245    0.427    0.236    2.016
  623.750  100.356  155.106    0.439    0.227    1.898
  624.000  102.167  156.543    0.448    0.220    1.928
  624.250  101.073  157.667    0.455    0.208    2.018
  624.500   95.116  158.260    0.464    0.196    2.182
  624.750   86.441  158.328    0.402    0.166    2.506
  625.000   88.376  157.874    0.368    0.130    2.771
  625.250   94.419  158.044    0.390    0.151    3.164
  625.500   96.735  158.327    0.396    0.168    3.565
  625.750   97.282  158.927    0.389    0.174    3.979
  626.000   98.398  159.419    0.407    0.169    4.442
  626.250   94.523  158.015    0.420    0.142    4.820
  626.500   86.798  155.766    0.341    0.110    5.103
  626.750   81.408  156.366    0.316    0.108    5.423
  627.000   84.987  158.749    0.357    0.145    5.667
  627.250   89.576  160.295    0.381    0.161    5.712
  627.500   93.470  161.313    0.399    0.150    5.597
  627.750   93.513  161.065    0.419    0.127    5.341
  628.000   81.302  160.388    0.376    0.091    5.117
  628.250   69.786  160.259    0.343    0.082    5.071
  628.500   75.259  160.533    0.361    0.133    5.308
  628.750   81.806  160.711    0.372    0.153    5.546
  629.000   86.648  158.994    0.382    0.165    5.752
  629.250   85.930  156.115    0.395    0.174    5.776
  629.500   86.732  155.343    0.407    0.167    5.713
  629.750   90.185  155.305    0.403    0.153    5.620
  630.000   88.585  156.217    0.391    0.141    5.623
  630.250   86.225  158.600    0.379    0.123    5.668
  630.500   88.287  160.886    0.400    0.115    5.778
  630.750   89.846  162.318    0.410    0.144    5.902
  631.000   91.087  162.814    0.411    0.164    6.006
  631.250   91.825  161.516    0.411    0.164    6.065
  631.500   92.243  159.900    0.419    0.150    6.069
  631.750   93.109  159.971    0.420    0.117    6.083
  632.000   88.413  161.200    0.404    0.092    6.074
  632.250   83.591  163.160    0.395    0.123    6.042
