~VERSION INFORMATION
 VERS.                 2.0:   CWLS LOG ASCII STANDARD -VERSION 2.0
 WRAP.                  NO:   ONE LINE PER DEPTH STEP
~WELL INFORMATION BLOCK
#MNEM.UNIT           DATA                    DESCRIPTION OF MNEMONIC
#---------    -------------------            -------------------------------
# Generated from Intellog Unique Number	CW_79_81/WELL/2475
WELL.         GULF AMOCO HOOLE               : Well_name    - WELL
LOC .         00/10-26-081-25W4/0            : Location     - LOCATION
UWI .         00/10-26-081-25W4/0            : Uwi          - UNIQUE WELL ID
ENTR.         MAX                            : Entered      - ENTERED BY
SRVC.         SCHLUMBERGER                   : Scn          - SERVICE COMPANY
STRT.M        195.072                        : top_depth    - START DEPTH
STOP.M        457.072                        : bot_depth    - STOP DEPTH
STEP.M        0.25                           : increment    - STEP LENGTH
 NULL. -999.2500:NULL Value
~CURVE INFORMATION BLOCK
#MNEM UNIT       ERCB CURVE CODE    CURVE DESCRIPTION
#-----------   ------------------   ----------------------------------
DEPT.M        00 001 00 00         : DEPTH        - DEPTH
ILD .OHMM     00 120 00 00         : RESD         - DEEP RESISTIVITY (DIL)
NPHI.V/V      00 330 00 00         : PHIN         - NEUTRON POROSITY (SANDSTONE)
DPHI.V/V      00 890 00 00         : PHID         - DENSITY POROSITY (SANDSTONE)
GR  .API      00 310 00 00         : GR           - GAMMA RAY
CALI.MM       00 280 01 00         : CAL          - CALIPER
~PARAMETER INFORMATION
#MNEM.UNIT           DATA             DESCRIPTION OF MNEMONIC
#---------         -----------     ------------------------------
GL  .M        579.76               : gl           - GROUND LEVEL ELEVATION
EREF.M        583.021              : kb           - ELEVATION OF DEPTH REFERENCE
DATM.M        579.76               : datum        - DATUM ELEVATION
TDD .M        466.344              : tdd          - TOTAL DEPTH DRILLER
RUN .         ONE                  : Run          - RUN NUMBER
ENG .         BILL                 : Engineer     - RECORDING ENGINEER
WIT .         JIM                  : Witness      - WITNESSED BY
MUD .         GEL                  : Mud_type     - MUD TYPE
MATR.         SANDSTONE            : Logunit      - NEUTRON MATRIX
TMAX.C        27.2222              : BHT          - MAXIMUM RECORDED TEMPERATURE
BHTD.M        466.344              : BHTDEP       - MAXIMUM RECORDED TEMPERATURE
MATR.         1                    : LOGUNIT      - NEUTRON MATRIX
RMT .C        11.1111              : MDTP         - TEMPERATURE OF MUD
NEUT.         1                    : NEUTRON      - NEUTRON TYPE
RESI.         0                    : RESIST       - RESISTIVITY TYPE
RMC .OHMM     5.73                 : RMC          - RESISTIVITY OF MUD CAKE
RMF .OHMM     5.46                 : RMF          - RESISTIVITY OF MUD FILTRATE
SUFT.C        -20.5556             : SUFT         - SURFACE TEMPERATURE
~A  DEPTH     RESD     PHIN     PHID       GR      CAL
  195.072    5.157    0.515    0.253  114.737  167.058
  195.322    4.843    0.526    0.245  115.440  166.981
  195.572    4.521    0.547    0.247  114.817  166.897
  195.822    4.341    0.557    0.249  113.684  167.205
  196.072    4.357    0.550    0.250  112.194  167.716
  196.322    4.559    0.537    0.257  109.314  167.696
  196.572    4.653    0.526    0.265  106.025  168.013
  196.822    4.678    0.543    0.272   93.747  168.741
  197.072    4.933    0.544    0.284   79.133  169.151
  197.322    5.593    0.512    0.299   63.739  168.855
  197.572    6.848    0.451    0.304   48.462  167.652
  197.822    9.323    0.378    0.277   32.441  165.591
  198.072   15.106    0.356    0.255   26.894  165.937
  198.322   17.977    0.373    0.212   33.073  166.250
  198.572   17.738    0.386    0.182   39.249  166.570
  198.822   14.450    0.403    0.176   47.102  167.491
  199.072   10.912    0.429    0.200   56.217  169.828
  199.322    7.979    0.476    0.264   65.866  175.525
  199.572    6.168    0.548    0.273   74.798  180.086
  199.822    5.005    0.566    0.283   76.888  180.399
  200.072    4.669    0.547    0.292   76.121  177.981
  200.322    4.693    0.515    0.303   73.795  173.219
  200.572    4.933    0.485    0.307   70.385  168.450
  200.822    5.362    0.468    0.276   65.872  168.111
  201.072    5.517    0.490    0.233   67.562  168.860
  201.322    5.748    0.511    0.234   67.992  168.776
  201.572    5.989    0.503    0.207   66.258  167.462
  201.822    6.349    0.479    0.202   62.610  166.143
  202.072    6.826    0.462    0.237   57.588  165.440
  202.322    7.252    0.481    0.294   52.311  165.600
  202.572    7.400    0.484    0.294   53.745  166.772
  202.822    7.387    0.487    0.299   55.858  167.481
  203.072    7.292    0.479    0.299   59.579  167.603
  203.322    7.145    0.467    0.303   62.761  167.524
  203.572    7.004    0.456    0.308   64.326  167.642
  203.822    6.885    0.451    0.297   65.004  168.593
  204.072    6.617    0.457    0.285   68.696  169.754
  204.322    6.510    0.466    0.288   70.558  169.256
  204.572    6.438    0.470    0.285   70.983  169.076
  204.822    6.472    0.470    0.280   70.691  169.196
  205.072    6.660    0.467    0.278   69.143  169.608
  205.322    7.042    0.462    0.280   64.537  170.317
  205.572    7.152    0.446    0.283   57.282  171.204
  205.822    7.354    0.440    0.284   53.725  170.695
  206.072    7.707    0.437    0.283   55.130  169.929
  206.322    8.064    0.433    0.276   56.392  168.214
  206.572    8.331    0.428    0.265   55.857  166.082
  206.822    8.560    0.431    0.258   54.599  165.187
  207.072    8.382    0.429    0.252   56.648  164.564
  207.322    7.996    0.425    0.238   61.831  165.736
  207.572    7.445    0.445    0.241   66.245  167.131
  207.822    6.916    0.459    0.253   70.148  168.874
  208.072    6.482    0.460    0.269   72.371  171.218
  208.322    6.109    0.459    0.280   71.347  174.785
  208.572    5.985    0.474    0.261   73.981  184.810
  208.822    6.063    0.472    0.276   75.432  179.221
  209.072    6.005    0.451    0.288   69.748  177.425
  209.322    5.864    0.443    0.288   67.772  178.342
  209.572    5.666    0.455    0.281   71.130  180.375
  209.822    5.416    0.463    0.290   72.523  180.291
  210.072    5.026    0.475    0.289   76.647  175.116
  210.322    4.543    0.497    0.276   79.840  173.330
  210.572    4.307    0.513    0.277   83.492  172.889
  210.822    4.148    0.516    0.281   86.794  172.797
  211.072    4.045    0.506    0.279   88.717  172.820
  211.322    4.008    0.500    0.263   88.651  173.133
  211.572    4.035    0.517    0.256   85.303  173.524
  211.822    4.149    0.527    0.260   81.996  174.283
  212.072    4.256    0.529    0.271   82.201  175.582
  212.322    4.402    0.518    0.281   81.786  177.107
  212.572    4.596    0.502    0.286   79.510  178.328
  212.822    4.903    0.509    0.286   74.094  179.479
  213.072    5.317    0.526    0.282   62.802  183.617
  213.322    5.903    0.496    0.298   53.638  182.317
  213.572    6.559    0.448    0.284   51.662  173.701
  213.822    7.196    0.420    0.270   52.566  167.114
  214.072    7.710    0.420    0.264   53.773  165.092
  214.322    8.023    0.424    0.248   54.474  163.179
  214.572    7.946    0.427    0.233   54.661  162.238
  214.822    7.648    0.430    0.255   55.576  162.569
  215.072    7.363    0.435    0.272   57.740  164.104
  215.322    7.142    0.441    0.285   60.326  166.441
  215.572    6.975    0.446    0.295   63.093  170.096
  215.822    6.703    0.456    0.305   67.076  176.317
  216.072    6.210    0.467    0.314   70.524  175.385
  216.322    5.512    0.487    0.304   79.818  175.292
  216.572    4.897    0.515    0.302   83.897  176.721
  216.822    4.235    0.544    0.310   86.361  178.256
  217.072    3.556    0.564    0.316   89.304  179.184
  217.322    2.860    0.563    0.293   93.462  178.973
  217.572    2.533    0.540    0.288   94.159  176.351
  217.822    2.475    0.551    0.288   94.339  173.815
  218.072    2.431    0.567    0.296   94.347  173.112
  218.322    2.417    0.582    0.305   93.696  174.439
  218.572    2.434    0.592    0.309   92.323  176.481
  218.822    2.467    0.597    0.305   91.031  175.794
  219.072    2.481    0.597    0.298   93.225  172.730
  219.322    2.476    0.592    0.289   94.129  174.270
  219.572    2.498    0.592    0.289   94.486  175.193
  219.822    2.529    0.591    0.288   95.030  174.280
  220.072    2.565    0.587    0.282   96.000  171.945
  220.322    2.619    0.580    0.270   97.078  170.224
  220.572    2.634    0.580    0.280   96.777  170.147
  220.822    2.647    0.588    0.281   96.249  172.479
  221.072    2.689    0.594    0.280   95.896  174.825
  221.322    2.752    0.596    0.275   96.437  176.364
  221.572    2.823    0.593    0.266   97.937  175.059
  221.822    2.895    0.579    0.248   99.395  167.381
  222.072    2.977    0.570    0.251   97.347  166.007
  222.322    3.036    0.561    0.257   97.287  165.933
  222.572    3.130    0.545    0.257   98.313  165.534
  222.822    3.227    0.535    0.253   98.384  165.036
  223.072    3.309    0.532    0.247   97.672  165.658
  223.322    3.368    0.531    0.245   98.654  169.851
  223.572    3.336    0.545    0.234   99.102  171.042
  223.822    3.306    0.578    0.221   98.813  170.949
  224.072    3.276    0.596    0.221   98.704  171.755
  224.322    3.245    0.601    0.227   99.730  171.054
  224.572    3.221    0.600    0.234  101.592  168.030
  224.822    3.223    0.603    0.241  102.623  163.443
  225.072    3.265    0.601    0.244  102.061  163.376
  225.322    3.451    0.596    0.249   96.747  164.085
  225.572    3.783    0.571    0.244   86.925  164.186
  225.822    4.440    0.530    0.238   77.881  164.089
  226.072    5.757    0.477    0.245   70.639  164.105
  226.322    8.558    0.417    0.285   61.960  164.446
  226.572   14.144    0.441    0.338   46.907  164.837
  226.822   18.878    0.449    0.344   47.099  164.731
  227.072   23.781    0.452    0.336   47.991  165.256
  227.322   27.482    0.452    0.326   49.739  165.768
  227.572   28.441    0.444    0.317   52.152  165.968
  227.822   28.791    0.430    0.312   54.733  165.884
  228.072   29.241    0.421    0.295   58.264  165.780
  228.322   30.073    0.452    0.275   60.453  166.116
  228.572   31.015    0.445    0.283   57.616  167.034
  228.822   32.198    0.428    0.286   56.361  167.955
  229.072   33.500    0.418    0.279   58.760  168.466
  229.322   34.672    0.424    0.280   62.789  168.383
  229.572   37.854    0.390    0.261   66.620  168.763
  229.822   40.689    0.362    0.243   63.313  168.254
  230.072   43.049    0.335    0.238   55.783  167.785
  230.322   45.983    0.315    0.233   46.623  167.895
  230.572   49.609    0.306    0.225   38.658  169.723
  230.822   53.263    0.305    0.216   34.285  174.904
  231.072   58.664    0.299    0.211   32.121  179.340
  231.322   63.551    0.285    0.202   30.805  181.789
