~VERSION INFORMATION
 VERS.                 2.0:   CWLS LOG ASCII STANDARD -VERSION 2.0
 WRAP.                  NO:   ONE LINE PER DEPTH STEP
~WELL INFORMATION BLOCK
#MNEM.UNIT           DATA                    DESCRIPTION OF MNEMONIC
#---------    -------------------            -------------------------------
# Generated from Intellog Unique Number	CS_71_72/WELL/3325
WELL.         SASKATCHEWAN OIL AND GAS CO.   : Well_name    - WELL
LOC .         00/10-29-072-18W4/0            : Location     - LOCATION
UWI .         00/10-29-072-18W4/0            : Uwi          - UNIQUE WELL ID
ENTR.         JOETTE                         : Entered      - ENTERED BY
SRVC.         SCHLUMBERGER                   : Scn          - SERVICE COMPANY
DATE.         05/13/92                       : Date         - LOG DATE
STRT.M        285                            : top_depth    - START DEPTH
STOP.M        465                            : bot_depth    - STOP DEPTH
STEP.M        0.25                           : increment    - STEP LENGTH
 NULL. -999.2500:NULL Value
~CURVE INFORMATION BLOCK
#MNEM UNIT       ERCB CURVE CODE    CURVE DESCRIPTION
#-----------   ------------------   ----------------------------------
DEPT.M        00 001 00 00         : DEPTH        - DEPTH
CALI.MM       00 280 01 00         : CAL          - CALIPER
GR  .API      00 310 00 00         : GR           - GAMMA RAY
NPHI.V/V      00 330 00 00         : PHIN         - NEUTRON POROSITY (SANDSTONE)
DPHI.V/V      00 890 00 00         : PHID         - DENSITY POROSITY (SANDSTONE)
ILD .OHMM     00 120 00 00         : RESD         - DEEP RESISTIVITY (DIL)
~PARAMETER INFORMATION
#MNEM.UNIT           DATA             DESCRIPTION OF MNEMONIC
#---------         -----------     ------------------------------
GL  .M        587.9                : gl           - GROUND LEVEL ELEVATION
EREF.M        601.4                : kb           - ELEVATION OF DEPTH REFERENCE
DATM.M        601.4                : datum        - DATUM ELEVATION
TDD .M        504                  : tdd          - TOTAL DEPTH DRILLER
RUN .         ONE                  : Run          - RUN NUMBER
ENG .         BILL                 : Engineer     - RECORDING ENGINEER
WIT .         JIM                  : Witness      - WITNESSED BY
MUD .         GEL                  : Mud_type     - MUD TYPE
MATR.         SANDSTONE            : Logunit      - NEUTRON MATRIX
TMAX.C        21                   : BHT          - MAXIMUM RECORDED TEMPERATURE
BHTD.M        504                  : BHTDEP       - MAXIMUM RECORDED TEMPERATURE
MATR.         1                    : LOGUNIT      - NEUTRON MATRIX
RMT .C        24                   : MDTP         - TEMPERATURE OF MUD
NEUT.         1                    : NEUTRON      - NEUTRON TYPE
RESI.         0                    : RESIST       - RESISTIVITY TYPE
RMC .OHMM     4.1                  : RMC          - RESISTIVITY OF MUD CAKE
RMF .OHMM     4.1                  : RMF          - RESISTIVITY OF MUD FILTRATE
SUFT.C        15                   : SUFT         - SURFACE TEMPERATURE
~A  DEPTH      CAL       GR     PHIN     PHID     RESD
# ...
  431.000  188.458   97.495    0.415    0.235    3.862
  431.250  184.442   95.089    0.420    0.234    4.078
  431.500  181.433   91.479    0.425    0.229    4.385
  431.750  180.419   87.873    0.431    0.217    4.465
  432.000  178.407   83.663    0.432    0.211    4.628
  432.250  167.395   81.257    0.422    0.212    4.798
  432.500  163.382   83.051    0.410    0.199    4.796
  432.750  173.375   88.446    0.404    0.191    4.793
  433.000  179.366   93.842    0.411    0.200    4.789
  433.250  185.354   95.636    0.413    0.221    4.788
  433.500  186.343   94.429    0.401    0.218    4.873
  433.750  176.329   91.419    0.392    0.203    4.960
  434.000  173.316   95.016    0.406    0.193    5.050
  434.250  185.310  100.411    0.426    0.192    5.139
  434.500  179.294   84.197    0.425    0.206    5.231
  434.750  161.279   72.786    0.407    0.198    5.228
  435.000  156.266   66.777    0.392    0.197    5.130
  435.250  153.254   63.768    0.394    0.211    5.318
  435.500  151.239   64.360    0.395    0.227    5.513
  435.750  151.231   66.154    0.392    0.239    5.612
  436.000  151.217   67.351    0.387    0.251    5.609
  436.250  152.206   69.745    0.391    0.257    5.403
  436.500  152.195   70.939    0.393    0.259    5.302
  436.750  153.182   69.131    0.383    0.245    5.396
  437.000  153.176   61.922    0.343    0.214    5.804
  437.250  153.162   61.314    0.343    0.180    6.128
  437.500  153.148   63.109    0.373    0.178    6.353
  437.750  153.140   67.302    0.386    0.214    6.351
  438.000  154.127   70.299    0.399    0.242    6.231
  438.250  154.116   75.692    0.394    0.258    5.894
  438.500  155.102   75.684    0.397    0.257    5.472
  438.750  156.094   78.680    0.409    0.258    5.272
  439.000  160.084   85.276    0.415    0.263    5.269
  439.250  163.074   88.270    0.408    0.249    5.266
  439.500  163.061   86.461    0.406    0.203    5.361
  439.750  162.052   86.455    0.406    0.188    5.659
  440.000  162.041   87.648    0.398    0.177    5.762
  440.250  161.032   88.844    0.390    0.182    6.084
  440.500  159.015   91.238    0.398    0.188    6.307
  440.750  159.009   93.032    0.405    0.194    6.419
  441.000  159.993   92.425    0.403    0.190    6.299
  441.250  159.988   92.419    0.398    0.183    6.068
  441.500  161.974   94.813    0.391    0.179    5.955
  441.750  163.961   97.207    0.391    0.182    5.736
  442.000  164.953   97.199    0.391    0.184    5.733
  442.250  165.940   95.990    0.389    0.179    5.728
  442.500  166.932   95.987    0.381    0.170    5.726
  442.750  167.921   95.380    0.369    0.158    5.722
  443.000  169.911   95.970    0.355    0.163    5.824
  443.250  172.898   97.164    0.367    0.216    5.820
  443.500  172.890   98.358    0.389    0.230    5.816
  443.750  174.877   98.950    0.389    0.227    5.814
  444.000  175.866   98.945    0.383    0.219    5.704
  444.250  176.858  100.737    0.373    0.196    5.596
  444.500  177.847  101.334    0.362    0.196    5.492
  444.750  179.834  103.128    0.365    0.197    5.487
  445.000  179.826  103.120    0.376    0.201    5.485
  445.250  179.809  100.714    0.372    0.223    5.584
  445.500  178.803   95.905    0.350    0.201    5.682
  445.750  176.789   87.496    0.365    0.150    5.680
  446.000  175.777   82.686    0.384    0.205    5.572
  446.250  175.766   85.078    0.384    0.269    5.468
  446.500  177.753   82.672    0.385    0.310    5.267
  446.750  179.743   83.868    0.372    0.313    4.891
  447.000  181.735   91.062    0.370    0.293    4.627
  447.250  182.724   90.453    0.402    0.273    3.710
  447.500  183.711   93.450    0.439    0.275    2.867
  447.750  183.703   98.843    0.491    0.292    2.614
  448.000  181.688  101.839    0.501    0.281    2.518
  448.250  179.676  103.033    0.510    0.269    2.381
  448.500  179.665  105.426    0.500    0.266    2.337
  448.750  180.654  104.819    0.489    0.263    2.423
  449.000  178.643  101.813    0.470    0.256    2.703
  449.250  175.630   95.202    0.439    0.248    3.016
  449.500  170.620   92.194    0.390    0.230    3.556
  449.750  162.606   90.389    0.355    0.162    4.595
  450.000  155.584   86.781    0.396    0.121    5.418
  450.250  154.578   81.372    0.397    0.208    5.826
  450.500  156.568   85.567    0.396    0.230    5.823
  450.750  158.555   90.362    0.390    0.231    5.609
  451.000  160.545   94.557    0.385    0.228    5.306
  451.250  164.535   98.752    0.432    0.235    4.837
  451.500  166.525  105.346    0.407    0.234    4.575
  451.750  163.510   99.337    0.342    0.194    4.657
  452.000  160.500   80.724    0.313    0.152    5.196
  452.250  157.491   71.113    0.266    0.060    5.798
  452.500  154.479   77.709    0.411    0.211    6.122
  452.750  155.468   94.509    0.454    0.228    6.007
  453.000  157.455   98.102    0.474    0.225    5.089
  453.250  160.442   99.897    0.414    0.216    3.934
  453.500  161.437   93.288    0.398    0.212    3.721
  453.750  166.428   91.479    0.406    0.198    3.929
  454.000  172.416   88.473    0.377    0.182    4.465
  454.250  166.400   83.065    0.363    0.157    4.982
  454.500  168.390   86.658    0.393    0.121    5.765
  454.750  174.381   83.050    0.406    0.203    6.086
  455.000  176.370   80.044    0.413    0.170    6.084
  455.250  176.359   80.035    0.400    0.166    5.861
  455.500  175.348   86.631    0.413    0.181    5.544
  455.750  170.338   98.027    0.440    0.203    5.055
  456.000  165.325  101.623    0.440    0.212    4.608
  456.250  163.310  104.016    0.397    0.221    4.440
  456.500  162.302  101.008    0.389    0.221    4.356
  456.750  162.288   94.999    0.382    0.193    4.197
  457.000  163.277   93.192    0.411    0.183    4.117
  457.250  163.269   95.586    0.424    0.202    4.114
  457.500  162.252   97.980    0.432    0.221    4.112
  457.750  162.243   99.172    0.419    0.224    4.262
  458.000  161.235  100.970    0.406    0.223    4.501
  458.250  160.221  104.563    0.407    0.227    4.583
  458.500  161.210  102.157    0.419    0.232    4.839
  458.750  164.194   98.547    0.424    0.227    4.926
  459.000  167.190   97.340    0.398    0.203    4.833
  459.250  173.175   99.734    0.393    0.205    4.406
  459.500  175.171  102.729    0.418    0.238    4.092
  459.750  176.157  103.323    0.451    0.262    4.015
  460.000  177.146   93.712    0.460    0.283    4.318
  460.250  180.136   72.698    0.436    0.286    5.684
  460.500  185.130   65.489    0.406    0.250    6.702
  460.750  177.116   62.479    0.375    0.229    8.348
  461.000  157.095   64.872    0.348    0.228   11.824
  461.250  154.083   65.469    0.335    0.233   13.193
  461.500  155.072   66.061    0.345    0.208   14.454
  461.750  160.065   61.854    0.315    0.194   16.125
  462.000  168.055   55.845    0.287    0.160   18.325
  462.250  167.043   50.437    0.194    0.105   20.446
  462.500  159.029   43.227    0.178    0.061   22.813
  462.750  154.013   37.219    0.178    0.008   25.454
  463.000  153.002   36.010    0.180   -0.005   28.397
  463.250  151.990   38.404    0.185    0.009   29.991
  463.500  151.982   37.797    0.189    0.026   32.257
  463.750  151.971   32.989    0.185    0.025   34.688
  464.000  151.957   29.381    0.157    0.014   35.963
  464.250  151.946   29.374    0.141    0.006   35.282
  464.500  150.932   32.369    0.140    0.001   33.382
  464.750  150.921   36.562    0.184    0.006   29.338
  465.000  150.915   38.958    0.248    0.014   23.956
