~VERSION INFORMATION
 VERS.                 2.0:   CWLS LOG ASCII STANDARD -VERSION 2.0
 WRAP.                  NO:   ONE LINE PER DEPTH STEP
~WELL INFORMATION BLOCK
#MNEM.UNIT           DATA                    DESCRIPTION OF MNEMONIC
#---------    -------------------            -------------------------------
# Generated from Intellog Unique Number	CC_80_83/WELL/2389
NULL.         -999.25                        : NULL_VALUE
WELL.         GULF RESDELN                   : Well_name    - WELL
LOC .         10-33-082-06W4                 : Location     - LOCATION          
UWI .         00/10-33-082-06W4/0            : Uwi          - UNIQUE WELL ID    
ENTR.         DW                             : Entered      - ENTERED BY        
SRVC.         SCHLUMBERGER                   : Scn          - SERVICE COMPANY   
DATE.         22 FEB 79                      : Date         - LOG DATE
STRT.M        130                            : top_depth    - START DEPTH       
STOP.M        304.899                        : bot_depth    - STOP DEPTH        
STEP.M        0.3                            : increment    - STEP LENGTH       
~CURVE INFORMATION BLOCK
#MNEM UNIT       ERCB CURVE CODE    CURVE DESCRIPTION
#-----------   ------------------   ----------------------------------
DEPT.M        00 001 00 00         : DEPTH        - DEPTH                       
DPHI.V/V      00 890 00 00         : PHID         - DENSITY POROSITY (LIMESTONE)
NPHI.V/V      00 330 00 00         : PHIN         - NEUTRON POROSITY (LIMESTONE)
GR  .API      00 310 00 00         : GR           - GAMMA RAY                   
ILD .OHMM     00 120 00 00         : RESD         - DEEP RESISTIVITY (DIL)      
~PARAMETER INFORMATION       
#MNEM.UNIT           DATA             DESCRIPTION OF MNEMONIC
#---------         -----------     ------------------------------
GL  .M        511.06               : gl           - GROUND LEVEL ELEVATION      
EREF.M        514.7                : kb           - ELEVATION OF DEPTH REFERENCE
DATM.M        514.7                : datum        - DATUM ELEVATION             
TDD .M        307                  : tdd          - TOTAL DEPTH DRILLER         
RUN .         ONE                  : Run          - RUN NUMBER                  
ENG .         BILL                 : Engineer     - RECORDING ENGINEER          
WIT .         JIM                  : Witness      - WITNESSED BY                
MUD .         GEL                  : Mud_type     - MUD TYPE                    
MATR.         LIMESTONE            : Logunit      - NEUTRON MATRIX              
TMAX.C        19.8                 : BHT          - MAXIMUM RECORDED TEMPERATURE
BHTD.M        307                  : BHTDEP       - MAXIMUM RECORDED TEMPERATURE
MATR.         1                    : LOGUNIT      - NEUTRON MATRIX              
RMT .C        25                   : MDTP         - TEMPERATURE OF MUD          
NEUT.         1                    : NEUTRON      - NEUTRON TYPE                
RESI.         0                    : RESIST       - RESISTIVITY TYPE            
RMC .OHMM     0.25                 : RMC          - RESISTIVITY OF MUD CAKE     
RMF .OHMM     0.25                 : RMF          - RESISTIVITY OF MUD FILTRATE 
SUFT.C        15                   : SUFT         - SURFACE TEMPERATURE         
~A  DEPTH     PHID     PHIN       GR     RESD
# ...
  182.201    0.351    0.471   67.362   10.900
  182.501    0.342    0.499   65.544   11.744
  182.801    0.359    0.514   66.176   11.744
  183.101    0.364    0.509   69.862   11.315
  183.401    0.346    0.492   72.935   10.701
  183.701    0.339    0.476   74.184   10.310
  184.001    0.328    0.465   71.138   10.120
  184.301    0.335    0.470   68.713   10.120
  184.601    0.329    0.475   73.014   10.505
  184.901    0.326    0.495   74.862   10.904
  185.201    0.325    0.507   74.270   11.109
  185.501    0.324    0.499   73.062   10.506
  185.801    0.323    0.506   73.083    9.572
  186.101    0.307    0.499   77.991    8.722
  186.401    0.298    0.497   83.514    7.240
  186.701    0.280    0.531   86.589    4.462
  187.001    0.274    0.563   90.278    3.569
  187.301    0.286    0.556   90.298    3.133
  187.601    0.288    0.559   90.315    3.313
  187.901    0.286    0.568   94.003    3.704
  188.201    0.317    0.506   98.909    4.380
  188.501    0.297    0.501  103.211    5.277
  188.801    0.275    0.525   98.337    5.376
  189.101    0.263    0.536   95.295    5.277
  189.401    0.252    0.544   99.598    4.720
  189.701    0.247    0.577   99.004    3.504
  190.001    0.288    0.615   99.022    3.253
  190.301    0.281    0.635  103.317    2.553
  190.601    0.267    0.624  103.949    2.160
  190.901    0.293    0.611  101.522    2.005
  191.201    0.310    0.612   98.484    1.968
  191.501    0.290    0.614   96.055    2.042
  191.801    0.277    0.616   93.014    2.200
  192.101    0.283    0.611   91.194    2.415
  192.401    0.265    0.586   90.606    2.909
  192.701    0.254    0.579   89.403    3.315
  193.001    0.274    0.611   88.806    4.383
  193.301    0.302    0.573   91.270    5.280
  193.601    0.294    0.523   92.508    6.360
  193.901    0.291    0.526   96.808    6.852
  194.201    0.288    0.530   98.660    6.853
  194.501    0.275    0.512   95.013    6.853
  194.801    0.266    0.501   92.582    6.727
  195.101    0.262    0.523   91.377    6.727
  195.401    0.275    0.524   94.453    7.247
  195.701    0.296    0.505   93.251    7.955
  196.001    0.320    0.467   92.044    8.570
  196.301    0.329    0.435   92.066    8.412
  196.601    0.308    0.431   93.302    8.105
  196.901    0.295    0.451   96.989    7.956
  197.201    0.262    0.475  103.735    8.105
  197.501    0.240    0.478  104.367    9.234
  197.801    0.233    0.483  103.772   10.520
  198.101    0.217    0.461   87.893   11.124
  198.401    0.196    0.416   88.517   10.919
  198.701    0.177    0.418   99.543    9.409
  199.001    0.255    0.447  102.007    8.259
  199.301    0.263    0.478   97.746    7.250
  199.601    0.241    0.482   99.600    6.132
  199.901    0.251    0.484  100.839    5.692
  200.201    0.253    0.488   99.636    5.587
  200.501    0.236    0.492   96.600    5.799
  200.801    0.219    0.488   94.781    6.365
  201.101    0.247    0.466   92.353    7.118
  201.401    0.271    0.445   92.372    8.417
  201.701    0.281    0.438   93.614    9.238
  202.001    0.289    0.455   94.852    8.417
  202.301    0.292    0.454   97.927    7.528
  202.601    0.290    0.455   97.947    5.589
  202.901    0.273    0.497   96.740    4.727
  203.201    0.271    0.534   97.373    4.073
  203.501    0.282    0.526  102.279    3.780
  203.801    0.273    0.529  105.968    3.781
  204.101    0.256    0.573   99.258    3.852
  204.401    0.261    0.557  100.503    4.150
  204.701    0.243    0.544   99.908    4.471
  205.001    0.240    0.532   89.529    5.286
  205.301    0.280    0.510   84.654    6.610
  205.601    0.340    0.487   81.616    8.579
  205.901    0.324    0.451   81.633    8.113
  206.201    0.319    0.476   84.098    6.252
  206.501    0.317    0.534   87.784    4.389
  206.801    0.303    0.567   92.085    3.081
  207.101    0.325    0.583   94.552    2.914
  207.401    0.296    0.588   94.565    3.140
  207.701    0.281    0.560   89.690    3.712
  208.001    0.286    0.503   81.760    4.909
  208.301    0.310    0.449   84.227    6.992
  208.601    0.313    0.447   83.630    9.074
  208.901    0.300    0.449   70.194   11.777
  209.201    0.200    0.385   64.102   13.669
  209.501    0.190    0.346   65.344   15.572
  209.801    0.135    0.315   67.804   16.164
  210.101    0.240    0.309   73.328   15.573
  210.401    0.304    0.388   76.404   13.171
  210.701    0.338    0.456   74.592   10.934
  211.001    0.320    0.471   73.991    9.598
  211.301    0.311    0.479   74.015    8.745
  211.601    0.294    0.481   76.475    8.910
  211.901    0.273    0.487   75.275    9.248
  212.201    0.294    0.495   74.064    9.422
  212.501    0.306    0.492   74.082    9.600
  212.801    0.295    0.488   77.156    9.079
  213.101    0.260    0.492   85.738    7.678
  213.401    0.259    0.490   90.036    6.740
  213.701    0.256    0.495   91.282    5.917
  214.001    0.232    0.510   93.135    5.492
  214.301    0.211    0.534   94.983    5.391
  214.601    0.249    0.530   96.222    5.596
  214.901    0.252    0.511   99.298    5.917
  215.201    0.258    0.493  101.154    6.868
  215.501    0.250    0.470  101.170    7.399
  215.801    0.236    0.440   99.965    7.972
  216.101    0.227    0.462   97.538    7.825
  216.401    0.229    0.465   93.888    7.130
  216.701    0.233    0.466   89.624    4.313
  217.001    0.240    0.534   87.197    3.028
  217.301    0.282    0.573   86.603    2.609
  217.601    0.280    0.613   84.785    2.206
  217.901    0.292    0.602   76.246    1.937
  218.201    0.294    0.583   75.655    1.973
  218.501    0.300    0.616   76.897    2.333
  218.801    0.254    0.595   78.746    3.085
  219.101    0.281    0.550   79.991    4.080
  219.401    0.262    0.509   81.838    5.101
  219.701    0.257    0.498   85.524    5.920
  220.001    0.251    0.487   88.600    6.621
  220.301    0.243    0.482   89.844    6.745
  220.601    0.225    0.475   87.416    6.499
  220.901    0.227    0.460   85.597    5.921
  221.201    0.216    0.474   88.060    4.563
  221.501    0.203    0.498   92.972    4.005
  221.801    0.147    0.525   90.542    3.388
  222.101    0.254    0.542   88.728    3.264
  222.401    0.242    0.533   88.749    3.145
  222.701    0.241    0.539   89.373    3.087
  223.001    0.261    0.543   97.952    3.087
  223.301    0.266    0.575   96.749    3.204
  223.601    0.253    0.575   94.322    3.388
  223.901    0.240    0.555   93.726    3.517
  224.201    0.243    0.517   96.190    3.452
  224.501    0.252    0.493  102.327    3.388
  224.801    0.257    0.509  102.955    3.265
  225.101    0.275    0.536   99.920    3.326
  225.401    0.284    0.547   97.486    3.389
  225.701    0.255    0.534   92.002    3.453
  226.001    0.245    0.519   88.356    3.790
  226.301    0.238    0.503   87.760    4.238
  226.601    0.232    0.495   87.778    4.828
  226.901    0.225    0.490   86.570    5.398
  227.201    0.207    0.503   82.918    5.816
  227.501    0.160    0.473   85.389    5.816
  227.801    0.145    0.473   84.180    5.926
  228.101    0.219    0.471   73.188    6.266
  228.401    0.264    0.432   66.480    7.691
  228.701    0.311    0.384   66.498    8.286
  229.001    0.303    0.391   68.970    8.762
  229.301    0.287    0.399   71.428    7.836
  229.601    0.287    0.407   77.560    6.752
  229.901    0.278    0.424   84.308    5.927
  230.201    0.251    0.469   83.713    5.502
  230.501    0.276    0.505   77.618    5.605
  230.801    0.297    0.474   76.409    5.401
  231.101    0.280    0.452   81.323    4.830
  231.401    0.267    0.542   80.123    4.162
  231.701    0.290    0.572   80.134    2.815
  232.001    0.301    0.562   86.269    2.662
  232.301    0.289    0.578   88.730    3.455
  232.601    0.304    0.545   83.245    4.831
  232.901    0.310    0.481   74.094    6.387
  233.201    0.281    0.386   71.052    8.931
  233.501    0.261    0.375   68.012   10.961
  233.801    0.254    0.392   66.809   11.591
  234.101    0.257    0.382   64.992   10.561
