~VERSION INFORMATION
 VERS.                 2.0:   CWLS LOG ASCII STANDARD -VERSION 2.0
 WRAP.                  NO:   ONE LINE PER DEPTH STEP
~WELL INFORMATION BLOCK
#MNEM.UNIT           DATA                    DESCRIPTION OF MNEMONIC
#---------    -------------------            -------------------------------
# Generated from Intellog Unique Number	CS_73_76/WELL/3269
WELL.         BAILEY SELBURN OIL & GAS       : Well_name    - WELL
LOC .         00/11-35-075-18W4/0            : Location     - LOCATION
UWI .         00/11-35-075-18W4/0            : Uwi          - UNIQUE WELL ID
ENTR.         SP                             : Entered      - ENTERED BY
SRVC.         SCHLUMBERGER                   : Scn          - SERVICE COMPANY
STRT.M        243.84                         : top_depth    - START DEPTH
STOP.M        450.84                         : bot_depth    - STOP DEPTH
STEP.M        0.25                           : increment    - STEP LENGTH
 NULL. -999.2500:NULL Value
~CURVE INFORMATION BLOCK
#MNEM UNIT       ERCB CURVE CODE    CURVE DESCRIPTION
#-----------   ------------------   ----------------------------------
DEPT.M        00 001 00 00         : DEPTH        - DEPTH
GR  .API      00 310 00 00         : GR           - GAMMA RAY
DPHI.V/V      00 890 00 00         : PHID         - DENSITY POROSITY (SANDSTONE)
NPHI.V/V      00 330 00 00         : PHIN         - NEUTRON POROSITY (SANDSTONE)
ILD .OHMM     00 120 00 00         : RESD         - DEEP RESISTIVITY (DIL)
~PARAMETER INFORMATION
#MNEM.UNIT           DATA             DESCRIPTION OF MNEMONIC
#---------         -----------     ------------------------------
GL  .M        598.932              : gl           - GROUND LEVEL ELEVATION
EREF.M        598.932              : kb           - ELEVATION OF DEPTH REFERENCE
DATM.M        598.932              : datum        - DATUM ELEVATION
TDD .M        459.029              : tdd          - TOTAL DEPTH DRILLER
RUN .         ONE                  : Run          - RUN NUMBER
ENG .         BILL                 : Engineer     - RECORDING ENGINEER
WIT .         JIM                  : Witness      - WITNESSED BY
MUD .         GEL                  : Mud_type     - MUD TYPE
MATR.         SANDSTONE            : Logunit      - NEUTRON MATRIX
TMAX.C        26.6667              : BHT          - MAXIMUM RECORDED TEMPERATURE
BHTD.M        559.308              : BHTDEP       - MAXIMUM RECORDED TEMPERATURE
MATR.         1                    : LOGUNIT      - NEUTRON MATRIX
RMT .C        25                   : MDTP         - TEMPERATURE OF MUD
NEUT.         1                    : NEUTRON      - NEUTRON TYPE
RESI.         0                    : RESIST       - RESISTIVITY TYPE
RMC .OHMM     0.25                 : RMC          - RESISTIVITY OF MUD CAKE
RMF .OHMM     0.25                 : RMF          - RESISTIVITY OF MUD FILTRATE
SUFT.C        15                   : SUFT         - SURFACE TEMPERATURE
~A  DEPTH       GR     PHID     PHIN     RESD
  243.840  103.467    0.236    0.492    4.055
  244.090  104.856    0.238    0.512    4.017
  244.340  106.960    0.243    0.536    3.793
  244.590  107.257    0.235    0.551    3.632
  244.840  103.631    0.225    0.543    3.639
  245.090  100.403    0.225    0.534    3.565
  245.340  102.041    0.239    0.519    3.687
  245.590  104.858    0.245    0.503    3.830
  245.840  105.289    0.242    0.495    3.979
  246.090  104.306    0.234    0.514    4.028
  246.340  102.186    0.221    0.514    4.130
  246.590   99.832    0.234    0.505    4.124
  246.840  100.265    0.253    0.493    3.996
  247.090  101.297    0.261    0.506    3.858
  247.340  102.303    0.246    0.512    3.695
  247.590  102.962    0.243    0.507    3.622
  247.840  102.781    0.245    0.502    3.639
  248.090  100.070    0.233    0.492    3.690
  248.340   97.765    0.216    0.475    3.794
  248.590   95.650    0.202    0.477    3.895
  248.840   96.184    0.205    0.494    3.831
  249.090   96.134    0.255    0.506    3.752
  249.340   90.454    0.273    0.495    3.762
  249.590   83.002    0.281    0.462    3.848
  249.840   76.796    0.306    0.429    4.499
  250.090   71.764    0.318    0.421    5.143
  250.340   70.449    0.306    0.423    6.701
  250.590   71.223    0.298    0.410    7.678
  250.840   71.704    0.288    0.401   10.078
  251.090   74.680    0.279    0.389   11.408
  251.340   78.581    0.275    0.392   12.661
  251.590   82.249    0.257    0.415   12.245
  251.840   79.132    0.246    0.420   11.529
  252.090   76.773    0.253    0.411   11.109
  252.340   78.959    0.248    0.402   11.454
  252.590   78.316    0.239    0.403   11.927
  252.840   75.540    0.248    0.399   12.431
  253.090   77.012    0.276    0.394   13.015
  253.340   74.482    0.259    0.390   13.172
  253.590   71.894    0.251    0.387   13.614
  253.840   70.505    0.239    0.390   13.605
  254.090   75.114    0.225    0.399   13.557
  254.340   79.476    0.242    0.405   13.371
  254.590   83.814    0.237    0.407   13.013
  254.840   89.051    0.222    0.408   12.376
  255.090   90.844    0.200    0.412   11.470
  255.340   92.479    0.176    0.421   10.699
  255.590   93.405    0.196    0.434    9.334
  255.840   91.352    0.251    0.446    8.280
  256.090   84.892    0.269    0.453    7.623
  256.340   77.975    0.280    0.449    7.410
  256.590   75.787    0.279    0.429    8.311
  256.840   75.970    0.271    0.398    8.958
  257.090   76.826    0.263    0.402   10.108
  257.340   76.797    0.260    0.408   10.513
  257.590   71.480    0.264    0.415   11.161
  257.840   66.916    0.266    0.417   11.479
  258.090   63.880    0.258    0.395   12.294
  258.340   64.179    0.234    0.371   13.192
  258.590   66.573    0.208    0.338   14.253
  258.840   71.464    0.150    0.359   15.053
  259.090   80.317    0.126    0.390   15.162
  259.340   86.855    0.255    0.409   14.558
  259.590   98.404    0.237    0.416   12.915
  259.840  103.808    0.224    0.418   11.308
  260.090  107.553    0.220    0.419    9.781
  260.340  108.668    0.226    0.427    7.958
  260.590  107.586    0.237    0.433    7.309
  260.840  106.292    0.247    0.441    7.336
  261.090  104.195    0.254    0.434    7.912
  261.340  101.106    0.266    0.421    9.250
  261.590   99.202    0.268    0.409   10.402
  261.840   99.739    0.264    0.402   11.133
  262.090  101.211    0.256    0.397   12.216
  262.340  102.233    0.237    0.393   12.940
  262.590   98.296    0.229    0.389   13.320
  262.840   88.605    0.234    0.389   13.282
  263.090   76.406    0.251    0.396   13.568
  263.340   62.188    0.257    0.406   13.803
  263.590   47.487    0.272    0.404   13.957
  263.840   31.132    0.287    0.385   14.045
  264.090   25.070    0.294    0.370   14.299
  264.340   25.834    0.294    0.365   14.316
  264.590   28.209    0.300    0.365   14.322
  264.840   30.260    0.291    0.363   14.314
  265.090   32.553    0.290    0.370   14.210
  265.340   34.961    0.288    0.377   14.062
  265.590   39.551    0.280    0.390   13.854
  265.840   43.764    0.290    0.384   13.716
  266.090   49.469    0.301    0.387   13.543
  266.340   57.571    0.306    0.395   13.136
  266.590   63.743    0.296    0.403   12.760
  266.840   70.562    0.267    0.405   12.155
  267.090   77.038    0.240    0.398   11.783
  267.340   81.634    0.233    0.393   11.417
  267.590   81.373    0.251    0.388   11.266
  267.840   82.796    0.253    0.384   11.007
  268.090   83.633    0.254    0.381   11.264
  268.340   91.266    0.266    0.406   11.276
  268.590  101.989    0.244    0.450   10.606
  268.840  110.968    0.220    0.479    9.673
  269.090  117.269    0.204    0.495    8.467
  269.340  119.977    0.181    0.507    7.376
  269.590  118.787    0.160    0.512    6.149
  269.840  117.628    0.135    0.496    5.343
  270.090  119.043    0.137    0.484    4.766
  270.340  122.215    0.148    0.495    4.426
  270.590  124.610    0.165    0.514    4.066
  270.840  126.914    0.182    0.531    3.917
  271.090  129.505    0.176    0.543    3.675
  271.340  131.894    0.193    0.543    3.553
  271.590  133.566    0.192    0.538    3.519
  271.840  136.024    0.198    0.543    3.404
  272.090  138.668    0.214    0.549    3.395
  272.340  136.589    0.229    0.539    3.392
  272.590  130.887    0.234    0.514    3.529
  272.840  122.844    0.226    0.487    3.854
  273.090  117.178    0.207    0.466    4.518
  273.340  113.271    0.247    0.435    5.090
  273.590  113.502    0.253    0.452    6.044
  273.840  114.600    0.238    0.467    6.890
  274.090  112.875    0.235    0.476    7.647
  274.340  109.543    0.253    0.467    8.101
  274.590  110.219    0.258    0.462    8.366
  274.840  110.206    0.231    0.457    8.306
  275.090  107.803    0.213    0.444    8.042
  275.340  105.909    0.211    0.437    7.654
  275.590  101.866    0.214    0.431    7.447
  275.840   95.776    0.221    0.423    7.753
  276.090   90.131    0.234    0.412    8.228
  276.340   84.287    0.245    0.405    9.293
  276.590   78.913    0.253    0.431   10.162
  276.840   75.886    0.249    0.448   11.138
  277.090   81.493    0.239    0.464   11.892
  277.340   85.394    0.222    0.474   12.256
  277.590   89.038    0.235    0.468   12.194
  277.840   90.224    0.249    0.457   11.806
  278.090   89.907    0.267    0.444   11.290
  278.340   93.975    0.271    0.435   10.513
  278.590   98.819    0.264    0.425    9.841
  278.840  103.689    0.250    0.438    9.559
  279.090  106.075    0.248    0.443    9.267
  279.340  107.852    0.259    0.447    8.988
  279.590  111.677    0.264    0.439    8.720
  279.840  118.326    0.267    0.430    8.462
  280.090  121.674    0.251    0.434    8.192
  280.340  126.834    0.230    0.436    8.038
  280.590  122.291    0.235    0.432    7.882
  280.840  109.281    0.231    0.420    7.615
  281.090   99.409    0.219    0.455    7.538
  281.340   90.661    0.235    0.472    7.608
  281.590   82.904    0.268    0.482    8.427
  281.840   76.919    0.293    0.470    9.832
  282.090   73.176    0.309    0.465   11.999
  282.340   74.363    0.319    0.456   15.180
  282.590   76.204    0.327    0.461   16.723
  282.840   80.870    0.319    0.465   15.794
  283.090   86.030    0.302    0.469   12.266
  283.340   89.727    0.280    0.484   10.059
  283.590   86.737    0.272    0.475    8.042
  283.840   80.138    0.280    0.449    8.364
  284.090   78.762    0.289    0.436    8.652
  284.340   80.814    0.293    0.442    9.490
  284.590   83.758    0.282    0.447    9.891
  284.840   86.090    0.276    0.458   10.003
  285.090   85.835    0.273    0.469   10.329
  285.340   79.385    0.286    0.463   10.761
  285.590   73.942    0.307    0.451   12.187
  285.840   74.028    0.318    0.460   14.218
  286.090   72.463    0.315    0.468   15.748
  286.340   70.924    0.304    0.473   16.973
  286.590   70.885    0.292    0.470   18.017
  286.840   70.108    0.281    0.468   19.116
  287.090   71.657    0.277    0.467   19.446
