~VERSION INFORMATION
 VERS.                 2.0:   CWLS LOG ASCII STANDARD -VERSION 2.0
 WRAP.                  NO:   ONE LINE PER DEPTH STEP
~WELL INFORMATION BLOCK
#MNEM.UNIT           DATA                    DESCRIPTION OF MNEMONIC
#---------    -------------------            -------------------------------
# Generated from Intellog Unique Number	CS_77_79/WELL/1005
WELL.         HUDSONS BAY OIL AND GAS        : Well_name    - WELL
LOC .         00/11-32-077-11W4/0            : Location     - LOCATION
UWI .         00/11-32-077-11W4/0            : Uwi          - UNIQUE WELL ID
ENTR.         SP                             : Entered      - ENTERED BY
SRVC.         SCHLUMBERGER                   : Scn          - SERVICE COMPANY
STRT.M        274.32                         : top_depth    - START DEPTH
STOP.M        505.82                         : bot_depth    - STOP DEPTH
STEP.M        0.25                           : increment    - STEP LENGTH
 NULL. -999.2500:NULL Value
~CURVE INFORMATION BLOCK
#MNEM UNIT       ERCB CURVE CODE    CURVE DESCRIPTION
#-----------   ------------------   ----------------------------------
DEPT.M        00 001 00 00         : DEPTH        - DEPTH
GR  .API      00 310 00 00         : GR           - GAMMA RAY
DPHI.V/V      00 890 00 00         : PHID         - DENSITY POROSITY (SANDSTONE)
NPHI.V/V      00 330 00 00         : PHIN         - NEUTRON POROSITY (SANDSTONE)
ILD .OHMM     00 120 00 00         : RESD         - DEEP RESISTIVITY (DIL)
~PARAMETER INFORMATION
#MNEM.UNIT           DATA             DESCRIPTION OF MNEMONIC
#---------         -----------     ------------------------------
GL  .M        689.549              : gl           - GROUND LEVEL ELEVATION
EREF.M        10                   : kb           - ELEVATION OF DEPTH REFERENCE
DATM.M        689.549              : datum        - DATUM ELEVATION
TDD .M        504.139              : tdd          - TOTAL DEPTH DRILLER
RUN .         ONE                  : Run          - RUN NUMBER
ENG .         BILL                 : Engineer     - RECORDING ENGINEER
WIT .         JIM                  : Witness      - WITNESSED BY
MUD .         GEL                  : Mud_type     - MUD TYPE
MATR.         SANDSTONE            : Logunit      - NEUTRON MATRIX
TMAX.C        21.1111              : BHT          - MAXIMUM RECORDED TEMPERATURE
BHTD.M        504.139              : BHTDEP       - MAXIMUM RECORDED TEMPERATURE
MATR.         1                    : LOGUNIT      - NEUTRON MATRIX
RMT .C        25                   : MDTP         - TEMPERATURE OF MUD
NEUT.         1                    : NEUTRON      - NEUTRON TYPE
RESI.         0                    : RESIST       - RESISTIVITY TYPE
RMC .OHMM     0.25                 : RMC          - RESISTIVITY OF MUD CAKE
RMF .OHMM     0.25                 : RMF          - RESISTIVITY OF MUD FILTRATE
SUFT.C        15                   : SUFT         - SURFACE TEMPERATURE
~A  DEPTH       GR     PHID     PHIN     RESD
# ...
  317.820   79.758    0.234    0.392   15.414
  318.070   77.371    0.267    0.395   16.231
  318.320   77.918    0.283    0.395   17.217
  318.570   78.726    0.270    0.391   18.604
  318.820   79.730    0.264    0.402   19.129
  319.070   75.979    0.280    0.409   18.573
  319.320   78.386    0.283    0.417   18.069
  319.570   77.957    0.269    0.427   16.940
  319.820   78.208    0.254    0.435   15.955
  320.070   79.223    0.187    0.401   15.057
  320.320   80.166    0.189    0.397   14.422
  320.570   82.114    0.248    0.444   13.670
  320.820   83.343    0.294    0.461   13.273
  321.070   84.800    0.297    0.447   12.683
  321.320   85.702    0.297    0.450   12.057
  321.570   86.326    0.296    0.456   11.729
  321.820   89.408    0.285    0.449   11.514
  322.070   89.392    0.272    0.461   11.476
  322.320   86.940    0.265    0.468   11.334
  322.570   85.858    0.254    0.460   11.471
  322.820   87.826    0.255    0.470   11.590
  323.070   90.886    0.254    0.478   11.780
  323.320   91.736    0.251    0.477   11.825
  323.570   90.991    0.255    0.459   11.340
  323.820   91.589    0.255    0.454   11.038
  324.070   90.606    0.247    0.459   10.535
  324.320   88.684    0.237    0.463    9.798
  324.570   91.398    0.237    0.455    8.922
  324.820   93.695    0.235    0.443    8.603
  325.070   95.831    0.256    0.467    8.502
  325.320   97.962    0.255    0.475    9.024
  325.570  100.437    0.241    0.469    9.862
  325.820  103.479    0.238    0.460   10.969
  326.070  104.627    0.240    0.467   11.545
  326.320   98.867    0.253    0.464   12.056
  326.570   95.657    0.255    0.451   12.261
  326.820   92.039    0.269    0.441   12.321
  327.070   86.932    0.288    0.433   11.799
  327.320   82.381    0.291    0.421   11.141
  327.570   87.014    0.283    0.414   10.213
  327.820   91.043    0.293    0.412    9.343
  328.070   90.113    0.298    0.415    8.542
  328.320   92.496    0.296    0.415    7.798
  328.570   93.363    0.279    0.412    7.396
  328.820   93.159    0.273    0.409    7.490
  329.070   91.758    0.261    0.423    7.591
  329.320   95.011    0.260    0.444    8.523
  329.570   97.374    0.240    0.467    9.428
  329.820   98.049    0.229    0.485   10.376
  330.070   96.919    0.232    0.474   12.781
  330.320   88.979    0.254    0.468   14.400
  330.570   80.814    0.261    0.484   17.355
  330.820   74.493    0.301    0.470   19.443
  331.070   65.536    0.285    0.453   20.172
  331.320   56.705    0.327    0.475   21.061
  331.570   52.113    0.357    0.487   21.325
  331.820   48.099    0.368    0.465   21.455
  332.070   49.967    0.393    0.430   21.477
  332.320   54.021    0.418    0.493   21.489
  332.570   55.530    0.433    0.545   21.497
  332.820   55.489    0.394    0.551   21.509
  333.070   56.662    0.294    0.459   21.518
  333.320   58.664    0.304    0.418   21.528
  333.570   60.233    0.308    0.432   21.538
  333.820   60.299    0.329    0.442   21.555
  334.070   60.310    0.339    0.443   21.568
  334.320   61.342    0.347    0.428   21.990
  334.570   61.213    0.343    0.416   21.977
  334.820   58.545    0.337    0.424   21.988
  335.070   55.772    0.332    0.430   22.226
  335.320   56.366    0.337    0.434   22.209
  335.570   57.912    0.340    0.437   21.964
  335.820   56.484    0.338    0.430   22.011
  336.070   57.322    0.326    0.430   22.033
  336.320   56.783    0.330    0.432   22.056
  336.570   55.702    0.327    0.428   22.236
  336.820   56.126    0.333    0.425   22.466
  337.070   56.980    0.348    0.428   22.502
  337.320   59.606    0.347    0.438   22.685
  337.570   60.849    0.346    0.447   20.148
  337.820   62.262    0.344    0.424   20.222
  338.070   63.598    0.350    0.413   20.189
  338.320   64.413    0.354    0.407   20.197
  338.570   64.466    0.348    0.415   20.205
  338.820   62.259    0.346    0.425   20.212
  339.070   60.196    0.343    0.438   20.223
  339.320   62.604    0.348    0.434   20.231
  339.570   65.024    0.359    0.426   20.238
  339.820   65.688    0.347    0.423   20.286
  340.070   60.978    0.346    0.432   19.887
  340.320   57.180    0.342    0.442   19.531
  340.570   58.393    0.336    0.449   19.547
  340.820   56.796    0.342    0.458   19.451
  341.070   57.761    0.347    0.461   19.211
  341.320   59.635    0.343    0.465   18.988
  341.570   62.176    0.340    0.447   18.813
  341.820   64.214    0.349    0.444   18.561
  342.070   64.703    0.356    0.428   18.225
  342.320   63.650    0.367    0.416   17.882
  342.570   63.152    0.367    0.421   17.661
  342.820   63.217    0.377    0.434   17.284
  343.070   62.532    0.380    0.448   16.952
  343.320   62.499    0.374    0.456   16.982
  343.570   63.130    0.363    0.444   16.986
  343.820   64.369    0.376    0.445   16.992
  344.070   65.314    0.373    0.443   17.000
  344.320   66.185    0.384    0.439   17.009
  344.570   66.139    0.374    0.427   17.017
  344.820   66.427    0.364    0.418   17.026
  345.070   67.356    0.363    0.425   17.047
  345.320   67.392    0.365    0.433   16.765
  345.570   65.679    0.355    0.438   16.748
  345.820   65.453    0.347    0.449   16.746
  346.070   64.917    0.354    0.449   16.756
  346.320   63.827    0.358    0.449   16.791
  346.570   61.825    0.352    0.444   16.456
  346.820   60.148    0.354    0.435   16.478
  347.070   60.916    0.347    0.433   16.477
  347.320   62.470    0.348    0.444   16.492
  347.570   64.056    0.350    0.455   16.174
  347.820   63.983    0.355    0.464   16.197
  348.070   65.393    0.356    0.467   16.230
  348.320   66.259    0.360    0.464   15.930
  348.570   63.294    0.360    0.468   15.616
  348.820   61.361    0.357    0.466   15.678
  349.070   59.108    0.353    0.454   15.355
  349.320   58.278    0.363    0.444   15.408
  349.570   58.683    0.355    0.434   15.663
  349.820   59.737    0.357    0.440   16.772
  350.070   60.060    0.362    0.444   18.200
  350.320   61.106    0.351    0.440   21.940
  350.570   61.154    0.349    0.452   25.156
  350.820   58.941    0.352    0.459   29.643
  351.070   58.852    0.346    0.449   34.809
  351.320   57.347    0.350    0.416   39.166
  351.570   55.974    0.348    0.401   44.221
  351.820   53.090    0.328    0.363   48.493
  352.070   50.269    0.252    0.177   51.835
  352.320   48.264    0.018    0.147   53.462
  352.570   46.446    0.010    0.132   53.517
  352.820   46.180    0.017    0.124   47.673
  353.070   45.618    0.034    0.122   39.184
  353.320   44.771    0.038    0.126   34.073
  353.570   43.801    0.028    0.132   28.336
  353.820   43.034    0.030    0.134   21.510
  354.070   44.534    0.035    0.142   18.220
  354.320   47.187    0.070    0.152   16.786
  354.570   50.502    0.094    0.178   14.852
  354.820   54.671    0.168    0.355   14.038
  355.070   59.096    0.205    0.408   13.002
  355.320   62.679    0.352    0.435   12.504
  355.570   61.676    0.360    0.428   12.024
  355.820   62.216    0.352    0.431   11.822
  356.070   63.203    0.352    0.454   11.768
  356.320   64.184    0.360    0.462   11.408
  356.570   65.104    0.345    0.465   10.847
  356.820   66.851    0.346    0.459   10.780
  357.070   67.135    0.349    0.451   10.445
  357.320   67.788    0.351    0.452   10.029
  357.570   67.679    0.347    0.458    9.665
  357.820   66.038    0.339    0.463    9.548
  358.070   66.286    0.337    0.465    9.373
  358.320   66.571    0.325    0.470    9.199
  358.570   67.398    0.324    0.457    9.070
  358.820   63.569    0.330    0.455    8.999
  359.070   63.571    0.329    0.463    8.725
  359.320   65.655    0.322    0.462    8.615
  359.570   66.801    0.331    0.446    8.595
  359.820   66.502    0.345    0.449    8.425
  360.070   66.854    0.344    0.451    8.434
  360.320   67.739    0.338    0.459    8.432
  360.570   67.709    0.327    0.476    8.443
  360.820   66.521    0.334    0.469    8.271
  361.070   63.870    0.343    0.453    8.263
