~VERSION INFORMATION
 VERS.                 2.0:   CWLS LOG ASCII STANDARD -VERSION 2.0
 WRAP.                  NO:   ONE LINE PER DEPTH STEP
~WELL INFORMATION BLOCK
#MNEM.UNIT           DATA                    DESCRIPTION OF MNEMONIC
#---------    -------------------            -------------------------------
# Generated from Intellog Unique Number	CS_67_68/WELL/862
WELL.         AEC FISH CREEK                 : Well_name    - WELL
LOC .         00/16-21-068-08W4/0            : Location     - LOCATION
UWI .         00/16-21-068-08W4/0            : Uwi          - UNIQUE WELL ID
ENTR.         SP                             : Entered      - ENTERED BY
SRVC.         SCHLUMBERGER                   : Scn          - SERVICE COMPANY
STRT.M        320                            : top_depth    - START DEPTH
STOP.M        555                            : bot_depth    - STOP DEPTH
STEP.M        0.25                           : increment    - STEP LENGTH
 NULL. -999.2500:NULL Value
~CURVE INFORMATION BLOCK
#MNEM UNIT       ERCB CURVE CODE    CURVE DESCRIPTION
#-----------   ------------------   ----------------------------------
DEPT.M        00 001 00 00         : DEPTH        - DEPTH
ILD .OHMM     00 120 00 00         : RESD         - DEEP RESISTIVITY (DIL)
DPHI.V/V      00 890 00 00         : PHID         - DENSITY POROSITY (LIMESTONE)
NPHI.V/V      00 330 00 00         : PHIN         - NEUTRON POROSITY (LIMESTONE)
GR  .API      00 310 00 00         : GR           - GAMMA RAY
~PARAMETER INFORMATION
#MNEM.UNIT           DATA             DESCRIPTION OF MNEMONIC
#---------         -----------     ------------------------------
GL  .M        646.55               : gl           - GROUND LEVEL ELEVATION
EREF.M        649.8                : kb           - ELEVATION OF DEPTH REFERENCE
DATM.M        646.55               : datum        - DATUM ELEVATION
TDD .M        561                  : tdd          - TOTAL DEPTH DRILLER
RUN .         ONE                  : Run          - RUN NUMBER
ENG .         BILL                 : Engineer     - RECORDING ENGINEER
WIT .         JIM                  : Witness      - WITNESSED BY
MUD .         GEL                  : Mud_type     - MUD TYPE
MATR.         LIMESTONE            : Logunit      - NEUTRON MATRIX
TMAX.C        25                   : BHT          - MAXIMUM RECORDED TEMPERATURE
BHTD.M        561                  : BHTDEP       - MAXIMUM RECORDED TEMPERATURE
MATR.         1                    : LOGUNIT      - NEUTRON MATRIX
RMT .C        25                   : MDTP         - TEMPERATURE OF MUD
NEUT.         1                    : NEUTRON      - NEUTRON TYPE
RESI.         0                    : RESIST       - RESISTIVITY TYPE
RMC .OHMM     0.25                 : RMC          - RESISTIVITY OF MUD CAKE
RMF .OHMM     0.25                 : RMF          - RESISTIVITY OF MUD FILTRATE
SUFT.C        15                   : SUFT         - SURFACE TEMPERATURE
~A  DEPTH     RESD     PHID     PHIN       GR
# ...
  494.000    4.113    0.322    0.342   44.229
  494.250    3.932    0.312    0.332   34.303
  494.500    3.795    0.305    0.326   37.371
  494.750    3.662    0.303    0.329   40.314
  495.000    3.541    0.310    0.326   40.100
  495.250    3.442    0.310    0.323   37.971
  495.500    3.347    0.310    0.322   35.225
  495.750    3.273    0.313    0.330   34.825
  496.000    3.194    0.321    0.329   34.367
  496.250    3.171    0.323    0.327   32.485
  496.500    3.100    0.323    0.325   34.502
  496.750    3.066    0.322    0.327   35.404
  497.000    3.015    0.322    0.331   35.564
  497.250    3.010    0.319    0.339   34.857
  497.500    2.999    0.315    0.339   34.211
  497.750    3.005    0.317    0.335   34.742
  498.000    3.017    0.320    0.330   35.089
  498.250    3.023    0.321    0.326   34.380
  498.500    3.018    0.323    0.326   32.004
  498.750    3.018    0.323    0.325   29.441
  499.000    3.018    0.322    0.324   28.302
  499.250    3.019    0.324    0.329   27.163
  499.500    3.014    0.329    0.337   32.334
  499.750    3.020    0.326    0.329   34.100
  500.000    3.037    0.322    0.314   31.972
  500.250    3.038    0.318    0.300   33.491
  500.500    3.027    0.314    0.310   35.939
  500.750    3.027    0.311    0.319   37.400
  501.000    3.016    0.313    0.323   38.551
  501.250    3.017    0.319    0.322   38.093
  501.500    3.017    0.320    0.326   34.723
  501.750    3.012    0.321    0.332   33.274
  502.000    3.001    0.322    0.325   34.919
  502.250    2.985    0.322    0.317   36.811
  502.500    2.968    0.323    0.310   37.900
  502.750    2.941    0.323    0.316   38.925
  503.000    2.930    0.325    0.331   40.256
  503.250    2.920    0.328    0.345   40.978
  503.500    2.909    0.331    0.343   39.096
  503.750    2.904    0.335    0.341   30.652
  504.000    2.910    0.339    0.341   30.132
  504.250    2.916    0.342    0.344   30.971
  504.500    2.905    0.346    0.353   30.576
  504.750    2.900    0.348    0.369   33.148
  505.000    2.885    0.326    0.371   36.092
  505.250    2.869    0.305    0.351   41.327
  505.500    2.864    0.278    0.328   50.643
  505.750    2.864    0.229    0.305   61.631
  506.000    2.875    0.170    0.290   66.681
  506.250    3.142    0.087    0.314   64.860
  506.500    3.585    0.192    0.328   70.590
  506.750    4.114    0.245    0.342   81.575
  507.000    4.555    0.244    0.345   93.124
  507.250    5.052    0.229    0.348  105.782
  507.500    5.408    0.221    0.351  113.429
  507.750    5.584    0.223    0.347  112.596
  508.000    5.606    0.224    0.353  108.674
  508.250    5.768    0.231    0.358  102.519
  508.500    5.945    0.220    0.349   97.791
  508.750    6.186    0.210    0.341   97.768
  509.000    6.340    0.204    0.338  110.118
  509.250    6.461    0.207    0.344  122.468
  509.500    6.573    0.216    0.350  117.553
  509.750    6.624    0.238    0.339  113.566
  510.000    6.575    0.258    0.316   99.182
  510.250    6.490    0.273    0.300   86.968
  510.500    6.370    0.247    0.289   65.162
  510.750    6.275    0.196    0.288   77.388
  511.000    6.241    0.169    0.305   96.665
  511.250    6.277    0.156    0.320  107.038
  511.500    6.278    0.164    0.336  104.412
  511.750    6.315    0.167    0.345   89.842
  512.000    6.316    0.193    0.348   88.643
  512.250    6.293    0.214    0.337   97.404
  512.500    6.282    0.224    0.330  102.081
  512.750    6.259    0.207    0.325   97.291
  513.000    6.225    0.192    0.314  101.285
  513.250    6.202    0.188    0.304   98.969
  513.500    6.157    0.204    0.305  103.214
  513.750    6.112    0.197    0.322  114.822
  514.000    6.078    0.179    0.312  123.335
  514.250    6.033    0.160    0.275  127.146
  514.500    6.023    0.178    0.277  112.267
  514.750    6.069    0.225    0.297  100.421
  515.000    6.139    0.270    0.318   92.848
  515.250    6.400    0.296    0.337   82.736
  515.500    6.824    0.323    0.349   77.823
  515.750    7.208    0.322    0.344   83.481
  516.000    7.585    0.307    0.341   85.504
  516.250    7.745    0.293    0.340   87.892
  516.500    7.760    0.292    0.336   87.678
  516.750    7.617    0.247    0.323   86.355
  517.000    7.309    0.176    0.308   92.702
  517.250    6.729    0.160    0.300  108.084
  517.500    6.408    0.155    0.312  120.373
  517.750    6.385    0.172    0.319  123.812
  518.000    6.532    0.182    0.319  111.593
  518.250    6.720    0.195    0.311  104.330
  518.500    6.875    0.206    0.306   99.292
  518.750    6.980    0.215    0.317   96.972
  519.000    6.994    0.223    0.312   95.216
  519.250    6.930    0.235    0.310   91.603
  519.500    6.840    0.250    0.313   85.513
  519.750    6.663    0.273    0.325   79.231
  520.000    6.406    0.294    0.329   74.996
  520.250    6.182    0.290    0.322   72.191
  520.500    5.932    0.284    0.315   70.311
  520.750    5.607    0.269    0.318   75.172
  521.000    5.181    0.251    0.316   80.219
  521.250    5.019    0.237    0.333   84.339
  521.500    4.954    0.252    0.348   79.858
  521.750    4.936    0.264    0.359   73.026
  522.000    4.927    0.285    0.348   67.490
  522.250    4.947    0.273    0.331   70.499
  522.500    4.938    0.247    0.315   86.068
  522.750    4.911    0.261    0.324   91.920
  523.000    4.949    0.261    0.337   92.076
  523.250    5.053    0.234    0.330   98.241
  523.500    5.160    0.193    0.337  108.606
  523.750    5.288    0.173    0.344  114.460
  524.000    5.492    0.166    0.354  119.263
  524.250    5.650    0.164    0.359  124.681
  524.500    5.780    0.161    0.355  125.522
  524.750    5.836    0.155    0.352  122.215
  525.000    5.903    0.150    0.355  119.840
  525.250    5.926    0.146    0.355  116.287
  525.500    5.927    0.138    0.346  113.413
  525.750    5.906    0.153    0.339  111.531
  526.000    5.918    0.183    0.333  110.579
  526.250    5.919    0.205    0.324  106.341
  526.500    5.930    0.216    0.315   97.346
  526.750    5.898    0.213    0.317   86.863
  527.000    5.877    0.212    0.326   79.535
  527.250    5.812    0.212    0.330   81.797
  527.500    5.704    0.212    0.322   90.806
  527.750    5.577    0.205    0.322   98.948
  528.000    5.505    0.194    0.323  102.141
  528.250    5.465    0.183    0.325  100.502
  528.500    5.466    0.175    0.331   99.854
  528.750    5.487    0.180    0.332   98.284
  529.000    5.488    0.187    0.324   95.786
  529.250    5.468    0.187    0.320   93.162
  529.500    5.459    0.187    0.317   90.661
  529.750    5.470    0.190    0.328   93.603
  530.000    5.481    0.193    0.345   98.707
  530.250    5.492    0.193    0.351  102.953
  530.500    5.514    0.185    0.345  106.273
  530.750    5.535    0.175    0.342  109.956
  531.000    5.557    0.169    0.346  113.770
  531.250    5.558    0.167    0.358  119.625
  531.500    5.569    0.163    0.350  126.776
  531.750    5.570    0.160    0.339  132.752
  532.000    5.560    0.181    0.333  116.882
  532.250    5.593    0.214    0.327  104.236
  532.500    5.625    0.212    0.313   86.884
  532.750    5.690    0.203    0.300   82.032
  533.000    5.777    0.199    0.290   81.323
  533.250    5.811    0.201    0.306   80.000
  533.500    5.833    0.204    0.325   82.015
  533.750    5.791    0.222    0.345   85.019
  534.000    5.715    0.214    0.333   87.842
  534.250    5.484    0.206    0.326   90.291
  534.500    5.135    0.210    0.329   90.884
  534.750    4.946    0.256    0.333   79.162
  535.000    4.800    0.231    0.317   80.375
  535.250    4.810    0.204    0.311   90.928
  535.500    4.977    0.200    0.314  101.424
  535.750    5.120    0.209    0.316  100.839
  536.000    5.238    0.215    0.316   95.184
  536.250    5.328    0.220    0.306   95.342
  536.500    5.359    0.222    0.304   98.039
  536.750    5.370    0.221    0.312   98.199
  537.000    5.290    0.223    0.321   94.585
  537.250    5.173    0.225    0.325   84.285
