~VERSION INFORMATION
 VERS.                 2.0:   CWLS LOG ASCII STANDARD -VERSION 2.0
 WRAP.                  NO:   ONE LINE PER DEPTH STEP
~WELL INFORMATION BLOCK
#MNEM.UNIT           DATA                    DESCRIPTION OF MNEMONIC
#---------    -------------------            -------------------------------
# Generated from Intellog Unique Number	CW_82_90/WELL/2593
WELL.         IOE GODIN LAKE 11-31           : Well_name    - WELL
LOC .         00/11-31-082-01W5/0            : Location     - LOCATION
UWI .         00/11-31-082-01W5/0            : Uwi          - UNIQUE WELL ID
ENTR.         JJ                             : Entered      - ENTERED BY
SRVC.         SCHLUMBERGER                   : Scn          - SERVICE COMPANY
DATE.         5 MAR 66                       : Date         - LOG DATE
STRT.M        304.8                          : top_depth    - START DEPTH
STOP.M        432.8                          : bot_depth    - STOP DEPTH
STEP.M        0.25                           : increment    - STEP LENGTH
 NULL. -999.2500:NULL Value
~CURVE INFORMATION BLOCK
#MNEM UNIT       ERCB CURVE CODE    CURVE DESCRIPTION
#-----------   ------------------   ----------------------------------
DEPT.M        00 001 00 00         : DEPTH        - DEPTH
DELT.US/F     00 520 00 00         : DELT         - SONIC TRAVEL TIME
ILD .OHMM     00 120 00 00         : RESD         - DEEP RESISTIVITY (DIL)
CALI.MM       00 280 01 00         : CAL          - CALIPER
GR  .API      00 310 00 00         : GR           - GAMMA RAY
~PARAMETER INFORMATION
#MNEM.UNIT           DATA             DESCRIPTION OF MNEMONIC
#---------         -----------     ------------------------------
GL  .M        558.698              : gl           - GROUND LEVEL ELEVATION
EREF.M        561.746              : kb           - ELEVATION OF DEPTH REFERENCE
DATM.M        561.746              : datum        - DATUM ELEVATION
TDD .M        446.532              : tdd          - TOTAL DEPTH DRILLER
RUN .         ONE                  : Run          - RUN NUMBER
ENG .         CRAIN                : Engineer     - RECORDING ENGINEER
WIT .         BYRNES               : Witness      - WITNESSED BY
BASE.         S.L.                 : Branch       - HOME BASE OF LOGGING UNIT
MUD .         GEL                  : Mud_type     - MUD TYPE
MATR.         SANDSTONE            : Logunit      - NEUTRON MATRIX
TMAX.C        26.1111              : BHT          - MAXIMUM RECORDED TEMPERATURE
BHTD.M        445.313              : BHTDEP       - MAXIMUM RECORDED TEMPERATURE
RMT .C        14.4444              : MDTP         - TEMPERATURE OF MUD
MUDD.KG/M     1116                 : MWT          - MUD DENSITY
NEUT.         1                    : NEUTRON      - NEUTRON TYPE
RESI.         0                    : RESIST       - RESISTIVITY TYPE
RM  .OHMM     3.64                 : RM           - RESISTIVITY OF MUD
RMC .OHMM     4.56                 : RMC          - RESISTIVITY OF MUD CAKE
RMF .OHMM     4.2                  : RMF          - RESISTIVITY OF MUD FILTRATE
SUFT.C        5                    : SUFT         - SURFACE TEMPERATURE
~A  DEPTH     DELT     RESD      CAL       GR
# ...
  391.800  260.859   18.051  171.059   49.587
  392.050  336.062   15.473  171.196   63.165
  392.300  358.427   14.772  171.220   65.131
  392.550  361.501   16.445  171.576   65.695
  392.800  338.424   18.077  171.917   68.663
  393.050  316.222   19.522  171.947   62.223
  393.300  308.540   21.670  171.982   55.230
  393.550  305.159   24.292  172.330   54.844
  393.800  306.082   27.595  172.687   64.868
  394.050  311.171   29.598  172.712   60.031
  394.300  289.977   30.363  172.529   61.446
  394.550  284.101   28.321  172.461   60.811
  394.800  283.083   24.505  171.961   58.672
  395.050  270.830   21.555  172.095   54.233
  395.300  283.180   19.018  172.232   59.802
  395.550  296.672   15.842  172.260   65.521
  395.800  314.063   14.584  172.290   61.833
  396.050  333.338   13.574  172.538   69.955
  396.300  323.301   13.163  172.357   61.511
  396.550  331.082   12.297  172.277   58.624
  396.800  332.003   11.453  172.519   62.941
  397.050  345.294   11.206  174.353   74.267
  397.300  359.594   11.352  176.291   69.177
  397.550  360.582   11.436  177.166   66.439
  397.800  359.893   11.437  177.201   73.059
  398.050  358.730   11.356  176.915   73.375
  398.300  365.367   11.151  176.731   79.394
  398.550  368.373   11.235  176.444   86.468
  398.800  366.942   11.896  175.307   81.828
  399.050  377.141   12.207  176.087   81.191
  399.300  378.734   12.146  176.116   86.609
  399.550  369.508   11.591  176.151   78.267
  399.800  355.973   11.179  176.180   73.828
  400.050  352.998   10.665  176.003   76.544
  400.300  358.695   10.253  175.613   85.717
  400.550  372.052    9.388  175.525   96.242
  400.800  383.325    8.584  175.770   94.408
  401.050  377.528    8.152  175.700   92.669
  401.300  371.727    7.617  175.731   85.826
  401.550  370.292    7.267  175.649   84.640
  401.800  372.359    6.898  175.259   91.511
  402.050  377.921    6.754  174.970   94.228
  402.300  383.214    6.797  175.424   95.345
  402.550  381.647    6.901  178.107   99.362
  402.800  367.110    6.758  178.564  100.579
  403.050  351.829    6.388  178.165   90.733
  403.300  339.578    6.018  176.925   81.389
  403.550  346.819    5.792  175.898   73.246
  403.800  360.645    5.794  177.096   92.079
  404.050  369.435    5.939  178.078   89.091
  404.300  372.911    5.939  178.747   88.354
  404.550  370.065    7.758  178.563   90.371
  404.800  365.813    9.616  178.702   99.543
  405.050  373.258   12.052  178.307   88.699
  405.300  378.819   25.508  175.696   79.955
  405.550  368.311   33.372  172.650   51.144
  405.800  362.780   35.148  172.049   33.592
  406.050  357.854   35.376  172.182   27.551
  406.300  353.534   34.325  172.324   30.969
  406.550  356.002   32.923  171.931   33.085
  406.800  364.652   31.727  171.642   35.854
  407.050  371.089   30.655  171.776   38.970
  407.300  374.364   29.274  171.810   34.381
  407.550  374.343   28.017  171.842   32.996
  407.800  373.179   26.986  171.555   33.410
  408.050  371.481   25.729  171.164   35.376
  408.300  367.230   24.058  171.191   33.340
  408.550  361.699   22.615  170.701   34.456
  408.800  354.285   21.317  170.724   33.970
  409.050  359.913   20.967  171.284   36.185
  409.300  366.613   21.071  171.316   30.796
  409.550  366.665   21.960  171.669   30.910
  409.800  359.448   23.364  172.011   37.230
  410.050  359.096   25.285  172.469   37.245
  410.300  363.176   26.132  172.398   36.909
  410.550  366.452   24.627  172.219   35.022
  410.800  326.169   21.925  171.826   33.385
  411.050  252.675   19.904  171.955   29.796
  411.300  249.295   18.605  171.881   30.212
  411.550  272.535   17.885  172.026   36.981
  411.800  318.092   17.989  172.049   42.053
  412.050  339.048   18.754  172.078   45.469
  412.300  354.625   19.663  172.007   45.085
  412.550  360.787   20.407  171.727   46.100
  412.800  366.081   20.078  171.535   41.513
  413.050  373.592   17.954  171.258   37.370
  413.300  376.530   15.459  171.174   28.276
  413.550  376.038   14.036  170.997   31.895
  413.800  380.457   12.345  170.818   30.008
  414.050  381.983   10.902  170.743   26.974
  414.300  380.623   10.222  171.407   27.734
  414.550  378.315    9.316  171.968   32.454
  414.800  376.886    8.553  172.318   36.321
  415.050  374.717    7.564  172.349   42.393
  415.300  368.783    6.946  171.743   48.312
  415.550  374.275    5.998  171.351   58.686
  415.800  384.944    5.133  171.276   73.363
  416.050  395.278    4.680  171.514  111.963
  416.300  408.099    4.248  171.655   39.262
  416.550  426.970    4.188  176.768   33.673
  416.800  419.354    4.313  176.489   32.485
  417.050  409.521    4.499  177.679   33.203
  417.300  409.032    4.831  182.686   41.373
  417.550  389.854    5.059  179.966   43.439
  417.800  401.196    5.639  171.099   47.757
  418.050  376.101    6.093  173.777   34.761
  418.300  353.161    6.879  179.104   24.716
  418.550  342.854    7.788  181.676   17.224
  418.800  339.476    8.883  180.865   13.184
  419.050  365.135   10.453  180.045   45.228
  419.300  378.897   12.745  180.182   53.350
  419.550  373.770   17.884  181.166   52.616
  419.800  373.482   22.013  182.151   40.167
  420.050  367.748   26.595  182.921    7.653
  420.300  368.269   25.503  183.378   79.533
  420.550  364.551   17.147  183.092   73.842
  420.800  356.399   11.452  176.025   72.808
  421.050  350.398    7.719  174.577   70.168
  421.300  365.504    6.317  175.136   76.838
  421.550  384.375    5.348  175.802  103.126
  421.800  407.209    5.412  177.315  122.859
  422.050  405.175    5.929  181.792  129.130
  422.300  389.695    6.487  187.015  117.934
  422.550  374.484    7.004  185.244   96.129
  422.800  361.556    7.047  180.827   71.472
  423.050  355.286    6.450  178.951   78.142
  423.300  370.593    6.492  178.456   81.060
  423.550  380.391    6.906  178.805   82.276
  423.800  377.748    7.960  178.942   84.191
  424.050  376.251    9.096  178.756   86.811
  424.300  373.205   10.996  177.737   71.159
  424.550  360.214   12.483  177.441   64.618
  424.800  371.692   12.897  177.053   61.980
  425.050  374.294   11.516  177.716   66.900
  425.300  370.173   10.114  178.175   61.658
  425.550  365.111    9.021  177.778   70.332
  425.800  354.810    8.342  178.657   78.053
  426.050  360.706    8.467  180.383   82.722
  426.300  383.340    8.716  180.306   87.590
  426.550  402.211    9.109  187.120   77.347
  426.800  374.026    9.729  181.006   84.968
  427.050  409.165   10.329  178.919   86.684
  427.300  552.262   11.074  178.847   77.140
  427.550  565.083   11.591  178.771   68.997
  427.800  456.769   12.335  178.907   69.963
  428.050  458.767   12.749  178.829   77.384
  428.300  481.470   13.390  177.906   86.106
  428.550  510.625   13.804  176.138   75.061
  428.800  502.001   14.135  172.250   57.461
  429.050  494.520   14.467  174.928   58.976
  429.300  489.326   14.633  178.033   55.538
  429.550  484.534   13.809  179.122   58.355
  429.800  479.540   12.489  178.305   62.523
  430.050  501.168   11.995  177.594   64.689
  430.300  547.666   11.213  177.520   46.638
  430.550  571.579    9.914  178.717   66.624
  430.800  589.172    8.016  188.809   67.386
  431.050  603.808    6.367  192.761   63.348
  431.300  462.419    6.760  182.837   58.608
  431.550  375.682    7.381  177.674   73.385
  431.800  463.590    8.806  174.742   89.214
  432.050  520.509   34.499  175.202   97.636
  432.300  496.896   38.565  175.761   59.817
  432.550  438.124   36.627  175.369   19.995
  432.800  239.798   23.566  175.819   13.854
