~VERSION INFORMATION
 VERS.                 2.0:   CWLS LOG ASCII STANDARD -VERSION 2.0
 WRAP.                  NO:   ONE LINE PER DEPTH STEP
~WELL INFORMATION BLOCK
#MNEM.UNIT           DATA                    DESCRIPTION OF MNEMONIC
#---------    -------------------            -------------------------------
# Generated from Intellog Unique Number	CW_73_75/WELL/1028
WELL.         PCP MARTEN HILLS 10-28         : Well_name    - WELL
LOC .         00/10-28-075-04W5/0            : Location     - LOCATION
UWI .         00/10-28-075-04W5/0            : Uwi          - UNIQUE WELL ID
ENTR.         JAYE                           : Entered      - ENTERED BY
SRVC.         SCHLUMBERGER                   : Scn          - SERVICE COMPANY
DATE.         27 FEB 74                      : Date         - LOG DATE
STRT.M        670.56                         : top_depth    - START DEPTH
STOP.M        890.06                         : bot_depth    - STOP DEPTH
STEP.M        0.25                           : increment    - STEP LENGTH
 NULL. -999.2500:NULL Value
~CURVE INFORMATION BLOCK
#MNEM UNIT       ERCB CURVE CODE    CURVE DESCRIPTION
#-----------   ------------------   ----------------------------------
DEPT.M        00 001 00 00         : DEPTH        - DEPTH
ILD .OHMM     00 120 00 00         : RESD         - DEEP RESISTIVITY (DIL)
NPHI.V/V      00 330 00 00         : PHIN         - NEUTRON POROSITY (SANDSTONE)
DPHI.V/V      00 890 00 00         : PHID         - DENSITY POROSITY (SANDSTONE)
GR  .API      00 310 00 00         : GR           - GAMMA RAY
CALI.MM       00 280 01 00         : CAL          - CALIPER
~PARAMETER INFORMATION
#MNEM.UNIT           DATA             DESCRIPTION OF MNEMONIC
#---------         -----------     ------------------------------
GL  .M        943.051              : gl           - GROUND LEVEL ELEVATION
EREF.M        946.404              : kb           - ELEVATION OF DEPTH REFERENCE
DATM.M        973.531              : datum        - DATUM ELEVATION
TDD .M        903.732              : tdd          - TOTAL DEPTH DRILLER
RUN .         ONE                  : Run          - RUN NUMBER
ENG .         SIMPSOM              : Engineer     - RECORDING ENGINEER
WIT .         STIEL                : Witness      - WITNESSED BY
BASE.         EDM                  : Branch       - HOME BASE OF LOGGING UNIT
MUD .         GEL                  : Mud_type     - MUD TYPE
MATR.         SANDSTONE            : Logunit      - NEUTRON MATRIX
TMAX.C        33.3333              : BHT          - MAXIMUM RECORDED TEMPERATURE
BHTD.M        903.732              : BHTDEP       - MAXIMUM RECORDED TEMPERATURE
RMT .C        19.4444              : MDTP         - TEMPERATURE OF MUD
MUDD.KG/M     1140                 : MWT          - MUD DENSITY
NEUT.         1                    : NEUTRON      - NEUTRON TYPE
RESI.         0                    : RESIST       - RESISTIVITY TYPE
RM  .OHMM     4.6                  : RM           - RESISTIVITY OF MUD
RMC .OHMM     0                    : RMC          - RESISTIVITY OF MUD CAKE
RMF .OHMM     6.22                 : RMF          - RESISTIVITY OF MUD FILTRATE
SUFT.C        -17.7778             : SUFT         - SURFACE TEMPERATURE
~A  DEPTH     RESD     PHIN     PHID       GR      CAL
# ...
  707.060    7.246    0.445    0.335   62.863  209.122
  707.310    7.267    0.456    0.319   62.224  209.069
  707.560    7.302    0.477    0.335   61.401  208.721
  707.810    7.350    0.464    0.340   61.917  208.252
  708.060    7.371    0.461    0.345   61.945  207.987
  708.310    7.312    0.455    0.353   61.365  207.619
  708.560    7.254    0.451    0.345   62.370  207.366
  708.810    7.038    0.450    0.348   63.677  207.305
  709.060    6.804    0.453    0.349   62.918  207.047
  709.310    6.577    0.464    0.332   61.971  206.380
  709.560    6.464    0.480    0.340   61.820  205.600
  709.810    6.364    0.470    0.345   61.970  204.214
  710.060    6.348    0.460    0.327   62.548  203.745
  710.310    6.309    0.474    0.334   62.392  203.174
  710.560    6.269    0.474    0.343   62.120  202.806
  710.810    6.253    0.466    0.338   63.304  202.254
  711.060    6.214    0.476    0.337   65.525  201.883
  711.310    6.243    0.463    0.352   63.001  201.719
  711.560    6.262    0.473    0.356   61.263  201.670
  711.810    6.292    0.480    0.332   60.931  201.930
  712.060    6.322    0.488    0.348   61.321  202.075
  712.310    6.305    0.489    0.368   63.359  203.158
  712.560    6.255    0.469    0.384   60.710  204.547
  712.810    6.226    0.447    0.361   59.156  206.040
  713.060    6.211    0.465    0.348   60.101  205.781
  713.310    6.264    0.489    0.357   61.898  204.600
  713.560    6.386    0.486    0.361   63.630  204.029
  713.810    6.524    0.474    0.338   65.666  203.561
  714.060    6.702    0.459    0.342   67.582  203.620
  714.310    6.947    0.450    0.352   67.005  203.664
  714.560    7.162    0.459    0.349   62.832  203.915
  714.810    7.452    0.472    0.342   59.087  204.283
  715.060    7.683    0.483    0.340   60.760  204.643
  715.310    8.098    0.470    0.346   62.129  204.796
  715.560    8.456    0.452    0.341   62.463  205.562
  715.810    8.719    0.455    0.332   64.625  206.126
  716.060    8.956    0.473    0.319   66.844  206.910
  716.310    8.966    0.476    0.297   67.239  206.946
  716.560    8.385    0.463    0.309   65.869  207.204
  716.810    7.900    0.460    0.319   65.047  207.152
  717.060    7.457    0.474    0.312   65.378  206.896
  717.310    7.013    0.491    0.316   64.741  206.833
  717.560    6.534    0.515    0.328   62.822  206.382
  717.810    6.190    0.497    0.335   61.818  206.112
  718.060    5.951    0.474    0.332   64.586  205.852
  718.310    5.817    0.455    0.315   67.110  205.494
  718.560    5.707    0.413    0.254   66.104  205.442
  718.810    5.692    0.332    0.183   62.115  205.390
  719.060    5.688    0.316    0.139   59.953  205.433
  719.310    5.684    0.430    0.179   61.567  205.380
  719.560    5.732    0.483    0.266   64.578  205.432
  719.810    5.866    0.474    0.330   66.677  205.278
  720.060    6.103    0.461    0.340   68.107  205.117
  720.310    6.258    0.485    0.335   70.634  205.073
  720.560    6.452    0.505    0.335   67.315  205.124
  720.810    6.542    0.486    0.328   68.621  205.483
  721.060    6.561    0.472    0.311   68.469  205.633
  721.310    6.545    0.470    0.309   65.458  205.780
  721.560    6.480    0.485    0.329   64.387  206.036
  721.810    6.287    0.502    0.304   65.451  206.291
  722.060    6.123    0.483    0.317   67.915  206.245
  722.310    5.941    0.473    0.311   70.381  205.769
  722.560    5.733    0.464    0.320   65.601  202.008
  722.810    5.624    0.488    0.331   64.292  200.715
  723.060    5.447    0.492    0.317   64.868  201.283
  723.310    5.198    0.491    0.326   66.299  202.881
  723.560    4.988    0.486    0.313   68.154  204.688
  723.810    4.743    0.481    0.309   70.193  206.072
  724.060    4.331    0.463    0.298   74.910  207.469
  724.310    3.992    0.449    0.276   81.087  208.229
  724.560    4.085    0.431    0.246   86.960  209.106
  724.810    4.492    0.387    0.167   79.747  209.779
  725.060    5.096    0.215    0.122   73.688  210.135
  725.310    6.372    0.169    0.070   70.188  210.503
  725.560    8.608    0.181    0.033   68.084  210.752
  725.810   11.480    0.184    0.023   67.628  210.799
  726.060   12.507    0.176    0.011   68.085  210.538
  726.310   10.947    0.185    0.019   68.842  210.075
  726.560    9.512    0.206    0.017   70.395  209.827
  726.810    8.312    0.232    0.023   74.321  209.766
  727.060    6.987    0.273    0.087   79.647  209.704
  727.310    5.972    0.315    0.155   86.797  209.552
  727.560    5.066    0.379    0.227   95.350  209.296
  727.810    4.113    0.454    0.267  100.189  209.445
  728.060    3.541    0.454    0.261   99.914  209.699
  728.310    3.251    0.459    0.252   96.715  209.237
  728.560    3.184    0.468    0.241   95.162  208.260
  728.810    3.223    0.474    0.250   95.438  207.581
  729.060    3.268    0.481    0.263   94.187  206.607
  729.310    3.320    0.477    0.273   92.330  206.238
  729.560    3.354    0.475    0.262   91.931  205.170
  729.810    3.389    0.474    0.266   93.912  204.804
  730.060    3.386    0.470    0.288   94.671  204.328
  730.310    3.365    0.466    0.307   96.222  204.274
  730.560    3.320    0.465    0.269   98.565  204.643
  730.810    3.305    0.471    0.263   99.263  205.304
  731.060    3.364    0.493    0.258   97.468  205.359
  731.310    3.442    0.489    0.257   96.157  205.922
  731.560    3.510    0.462    0.247   95.333  206.276
  731.810    3.585    0.451    0.234   94.512  206.227
  732.060    3.616    0.461    0.225   92.594  206.378
  732.310    3.634    0.479    0.217   92.074  206.321
  732.560    3.597    0.480    0.218   93.077  206.687
  732.810    3.562    0.493    0.240   94.571  206.627
  733.060    3.539    0.499    0.258   93.565  206.583
  733.310    3.511    0.489    0.245   91.522  207.041
  733.560    3.489    0.477    0.232   89.120  207.096
  733.810    3.455    0.468    0.247   88.172  207.142
  734.060    3.432    0.466    0.234   86.983  207.184
  734.310    3.424    0.485    0.234   84.886  207.047
  734.560    3.421    0.467    0.231   85.399  207.283
  734.810    3.413    0.476    0.224   88.900  207.148
  735.060    3.397    0.467    0.261   92.214  206.983
  735.310    3.389    0.457    0.248   90.235  207.129
  735.560    3.367    0.481    0.235   88.258  208.103
  735.810    3.310    0.471    0.227   89.383  209.184
  736.060    3.247    0.470    0.205   92.700  210.365
  736.310    3.215    0.490    0.224   94.127  210.210
  736.560    3.254    0.497    0.208   90.991  208.817
  736.810    3.355    0.485    0.207   87.734  207.735
  737.060    3.471    0.477    0.223   84.052  205.928
  737.310    3.619    0.465    0.246   81.401  202.268
  737.560    3.773    0.462    0.270   78.204  200.153
  737.810    3.976    0.471    0.277   73.363  198.761
  738.060    4.107    0.457    0.298   68.339  200.456
  738.310    4.304    0.439    0.310   65.203  202.882
  738.560    4.373    0.455    0.309   68.032  204.064
  738.810    4.393    0.460    0.300   70.134  204.529
  739.060    4.383    0.454    0.290   69.433  204.469
  739.310    4.379    0.448    0.299   70.803  204.426
  739.560    4.416    0.444    0.311   72.170  204.572
  739.810    4.528    0.443    0.319   69.763  204.421
  740.060    4.669    0.454    0.319   66.141  203.955
  740.310    4.929    0.445    0.312   63.797  203.282
  740.560    5.082    0.457    0.304   62.486  202.718
  740.810    5.134    0.464    0.295   61.968  202.658
  741.060    5.150    0.453    0.293   62.545  202.703
  741.310    5.155    0.451    0.286   63.973  202.136
  741.560    5.123    0.440    0.280   66.625  201.362
  741.810    5.053    0.452    0.271   67.380  200.072
  742.060    5.004    0.449    0.275   65.888  198.482
  742.310    4.936    0.440    0.288   66.283  197.698
  742.560    4.896    0.460    0.286   67.289  197.438
  742.810    4.874    0.474    0.302   67.988  197.797
  743.060    4.888    0.462    0.281   68.808  199.196
  743.310    4.957    0.448    0.281   70.358  199.962
