~VERSION INFORMATION
 VERS.                 2.0:   CWLS LOG ASCII STANDARD -VERSION 2.0
 WRAP.                  NO:   ONE LINE PER DEPTH STEP
~WELL INFORMATION BLOCK
#MNEM.UNIT           DATA                    DESCRIPTION OF MNEMONIC
#---------    -------------------            -------------------------------
# Generated from Intellog Unique Number	CS_73_76/WELL/3272
WELL.         TOTAL PETROLEUM (N.A.) LTD     : Well_name    - WELL
LOC .         00/12-14-075-08W4/0            : Location     - LOCATION
UWI .         00/12-14-075-08W4/0            : Uwi          - UNIQUE WELL ID
ENTR.         SP                             : Entered      - ENTERED BY
SRVC.         SCHLUMBERGER                   : Scn          - SERVICE COMPANY
STRT.M        250                            : top_depth    - START DEPTH
STOP.M        495                            : bot_depth    - STOP DEPTH
STEP.M        0.25                           : increment    - STEP LENGTH
 NULL. -999.2500:NULL Value
~CURVE INFORMATION BLOCK
#MNEM UNIT       ERCB CURVE CODE    CURVE DESCRIPTION
#-----------   ------------------   ----------------------------------
DEPT.M        00 001 00 00         : DEPTH        - DEPTH
ILD .OHMM     00 120 00 00         : RESD         - DEEP RESISTIVITY (DIL)
DPHI.V/V      00 890 00 00         : PHID         - DENSITY POROSITY (LIMESTONE)
NPHI.V/V      00 330 00 00         : PHIN         - NEUTRON POROSITY (LIMESTONE)
GR  .API      00 310 00 00         : GR           - GAMMA RAY
~PARAMETER INFORMATION
#MNEM.UNIT           DATA             DESCRIPTION OF MNEMONIC
#---------         -----------     ------------------------------
GL  .M        668.17               : gl           - GROUND LEVEL ELEVATION
EREF.M        671.17               : kb           - ELEVATION OF DEPTH REFERENCE
DATM.M        668.17               : datum        - DATUM ELEVATION
TDD .M        504                  : tdd          - TOTAL DEPTH DRILLER
RUN .         ONE                  : Run          - RUN NUMBER
ENG .         BILL                 : Engineer     - RECORDING ENGINEER
WIT .         JIM                  : Witness      - WITNESSED BY
MUD .         GEL                  : Mud_type     - MUD TYPE
MATR.         LIMESTONE            : Logunit      - NEUTRON MATRIX
TMAX.C        23.5                 : BHT          - MAXIMUM RECORDED TEMPERATURE
BHTD.M        504                  : BHTDEP       - MAXIMUM RECORDED TEMPERATURE
MATR.         1                    : LOGUNIT      - NEUTRON MATRIX
RMT .C        25                   : MDTP         - TEMPERATURE OF MUD
NEUT.         1                    : NEUTRON      - NEUTRON TYPE
RESI.         0                    : RESIST       - RESISTIVITY TYPE
RMC .OHMM     0.25                 : RMC          - RESISTIVITY OF MUD CAKE
RMF .OHMM     0.25                 : RMF          - RESISTIVITY OF MUD FILTRATE
SUFT.C        15                   : SUFT         - SURFACE TEMPERATURE
~A  DEPTH     RESD     PHID     PHIN       GR
# ...
  337.000   39.948    0.370    0.427   50.124
  337.250   39.954    0.367    0.416   48.901
  337.500   39.968    0.359    0.434   48.290
  337.750   39.973    0.358    0.453   48.292
  338.000   39.977    0.364    0.466   50.130
  338.250   39.242    0.353    0.464   53.805
  338.500   38.521    0.310    0.445   55.031
  338.750   38.527    0.229    0.334   52.584
  339.000   37.814    0.191    0.366   51.361
  339.250   37.120    0.230    0.407   50.750
  339.500   36.433    0.300    0.443   49.527
  339.750   36.444    0.342    0.454   48.916
  340.000   36.449    0.355    0.457   50.142
  340.250   37.154    0.357    0.462   52.593
  340.500   37.158    0.355    0.464   53.819
  340.750   37.168    0.355    0.456   54.433
  341.000   37.173    0.353    0.451   55.659
  341.250   36.489    0.339    0.439   55.660
  341.500   35.819    0.338    0.434   53.213
  341.750   35.157    0.343    0.438   51.378
  342.000   35.162    0.351    0.462   55.053
  342.250   35.173    0.357    0.488   58.115
  342.500   35.178    0.356    0.462   58.117
  342.750   35.188    0.353    0.456   56.282
  343.000   35.192    0.345    0.450   55.671
  343.250   35.202    0.348    0.455   55.061
  343.500   35.210    0.348    0.439   55.062
  343.750   34.559    0.359    0.435   53.227
  344.000   34.566    0.366    0.444   51.391
  344.250   34.575    0.366    0.455   50.168
  344.500   34.579    0.360    0.461   54.456
  344.750   33.944    0.357    0.465   56.906
  345.000   33.948    0.350    0.460   58.132
  345.250   33.323    0.346    0.456   55.685
  345.500   32.711    0.349    0.448   53.237
  345.750   31.507    0.349    0.438   51.402
  346.000   30.349    0.353    0.427   50.791
  346.250   28.690    0.357    0.443   52.018
  346.500   27.635    0.343    0.459   53.243
  346.750   27.126    0.318    0.450   55.081
  347.000   28.173    0.244    0.378   51.410
  347.250   29.816    0.240    0.370   48.350
  347.500   30.387    0.267    0.397   50.188
  347.750   30.393    0.324    0.415   55.088
  348.000   29.278    0.344    0.441   57.538
  348.250   27.161    0.343    0.443   58.764
  348.500   27.681    0.342    0.451   57.541
  348.750   31.000    0.340    0.468   54.481
  349.000   34.713    0.354    0.472   52.034
  349.250   38.870    0.365    0.466   45.301
  349.500   42.714    0.177    0.304   37.955
  349.750   43.534    0.120    0.242   33.059
  350.000   41.936    0.065    0.246   37.959
  350.250   38.177    0.140    0.375   42.858
  350.500   35.417    0.223    0.428   50.207
  350.750   34.114    0.340    0.461   52.657
  351.000   33.485    0.360    0.452   52.658
  351.250   33.493    0.350    0.445   50.211
  351.500   32.877    0.354    0.437   52.662
  351.750   32.884    0.361    0.434   53.888
  352.000   32.277    0.362    0.465   55.114
  352.250   31.091    0.355    0.473   52.666
  352.500   29.948    0.354    0.479   51.444
  352.750   28.849    0.362    0.474   52.057
  353.000   28.317    0.357    0.466   55.120
  353.250   27.795    0.348    0.463   57.570
  353.500   27.801    0.353    0.468   58.184
  353.750   27.807    0.366    0.451   56.961
  354.000   28.340    0.377    0.438   55.738
  354.250   28.885    0.375    0.443   54.515
  354.500   30.571    0.373    0.460   53.905
  354.750   31.747    0.373    0.470   54.519
  355.000   34.237    0.357    0.483   54.520
  355.250   36.234    0.344    0.471   54.522
  355.500   38.350    0.320    0.477   53.910
  355.750   39.086    0.271    0.392   47.790
  356.000   37.647    0.135    0.298   44.117
  356.250   34.924    0.249    0.297   45.344
  356.500   32.400    0.288    0.340   47.182
  356.750   30.630    0.316    0.406   46.571
  357.000   30.062    0.346    0.429   47.798
  357.250   30.641    0.357    0.443   49.636
  357.500   31.227    0.356    0.446   52.086
  357.750   31.830    0.352    0.444   52.700
  358.000   31.834    0.346    0.438   53.313
  358.250   32.450    0.341    0.443   53.315
  358.500   32.455    0.338    0.432   53.317
  358.750   32.460    0.348    0.422   52.093
  359.000   31.861    0.344    0.425   52.095
  359.250   30.694    0.346    0.425   53.321
  359.500   30.126    0.341    0.422   52.099
  359.750   29.021    0.333    0.446   51.487
  360.000   27.953    0.335    0.461   50.877
  360.250   26.925    0.344    0.447   51.491
  360.500   25.453    0.351    0.439   53.329
  360.750   24.061    0.360    0.434   55.167
  361.000   23.616    0.360    0.433   55.169
  361.250   23.623    0.352    0.444   58.232
  361.500   24.077    0.351    0.457   60.682
  361.750   24.538    0.349    0.446   58.847
  362.000   22.764    0.344    0.440   56.399
  362.250   19.958    0.344    0.439   51.503
  362.500   17.497    0.354    0.443   48.443
  362.750   13.447    0.357    0.438   50.282
  363.000   10.334    0.341    0.428   57.630
  363.250    7.366    0.312    0.460   67.427
  363.500    5.661    0.263    0.510   80.898
  363.750    4.871    0.261    0.509   88.859
  364.000    4.604    0.257    0.489   94.371
  364.250    4.352    0.235    0.485   97.433
  364.500    4.114    0.222    0.493   98.047
  364.750    4.038    0.240    0.498   99.273
  365.000    3.964    0.244    0.499   97.438
  365.250    3.891    0.246    0.492   94.991
  365.500    3.892    0.238    0.503   94.992
  365.750    3.967    0.250    0.537   93.769
  366.000    3.967    0.257    0.563   92.547
  366.250    4.120    0.250    0.587   91.936
  366.500    4.361    0.245    0.581   87.039
  366.750    4.883    0.244    0.564   84.592
  367.000    5.266    0.236    0.554   82.145
  367.250    5.897    0.242    0.543   80.921
  367.500    6.857    0.269    0.518   79.699
  367.750    7.256    0.294    0.499   79.088
  368.000    7.679    0.271    0.477   79.701
  368.250    7.827    0.250    0.463   80.927
  368.500    7.829    0.224    0.476   83.378
  368.750    7.831    0.220    0.495   85.216
  369.000    7.686    0.240    0.514   80.932
  369.250    7.834    0.247    0.458   79.709
  369.500    7.835    0.236    0.460   85.221
  369.750    7.986    0.233    0.461   88.284
  370.000    8.139    0.240    0.452   89.509
  370.250    8.296    0.249    0.451   85.838
  370.500    8.298    0.255    0.458   84.615
  370.750    8.457    0.256    0.468   87.065
  371.000    8.459    0.249    0.474   87.679
  371.250    8.622    0.240    0.480   84.619
  371.500    8.955    0.238    0.468   81.560
  371.750    8.956    0.234    0.484   82.173
  372.000    9.129    0.231    0.493   85.236
  372.250    9.130    0.230    0.507   82.789
  372.500    9.132    0.241    0.511   80.341
  372.750    8.796    0.244    0.477   82.179
  373.000    8.474    0.228    0.472   84.017
  373.250    8.317    0.218    0.489   81.570
  373.500    8.011    0.225    0.498   81.571
  373.750    7.718    0.222    0.505   83.410
  374.000    7.574    0.219    0.480   85.861
  374.250    7.160    0.206    0.463   87.699
  374.500    6.897    0.191    0.471   88.313
  374.750    6.770    0.184    0.496   88.927
  375.000    6.772    0.197    0.518   87.703
  375.250    6.773    0.219    0.537   85.256
  375.500    6.524    0.233    0.504   88.319
  375.750    5.828    0.217    0.484   91.382
  376.000    5.015    0.213    0.500   92.608
  376.250    4.002    0.230    0.522   92.609
  376.500    3.193    0.240    0.540   91.998
  376.750    2.853    0.262    0.561   91.387
  377.000    2.549    0.271    0.567   93.838
  377.250    2.455    0.272    0.554   92.615
  377.500    2.502    0.283    0.564   90.167
  377.750    2.802    0.284    0.594   89.557
  378.000    2.966    0.266    0.615   90.171
  378.250    3.581    0.263    0.553   90.172
  378.500    3.861    0.272    0.512   89.561
  378.750    4.324    0.256    0.480   87.114
  379.000    4.842    0.250    0.467   83.442
  379.250    5.321    0.247    0.483   80.994
  379.500    5.958    0.261    0.491   76.098
  379.750    6.548    0.278    0.502   68.753
  380.000    6.929    0.292    0.488   60.795
  380.250    7.334    0.302    0.434   54.674
