~VERSION INFORMATION
 VERS.                 2.0:   CWLS LOG ASCII STANDARD -VERSION 2.0
 WRAP.                  NO:   ONE LINE PER DEPTH STEP
~WELL INFORMATION BLOCK
#MNEM.UNIT           DATA                    DESCRIPTION OF MNEMONIC
#---------    -------------------            -------------------------------
# Generated from Intellog Unique Number	CS_73_76/WELL/856
WELL.         SULPETRO LIMITED               : Well_name    - WELL
LOC .         00/14-25-073-11W4/0            : Location     - LOCATION
UWI .         00/14-25-073-11W4/0            : Uwi          - UNIQUE WELL ID
ENTR.         SP                             : Entered      - ENTERED BY
SRVC.         SCHLUMBERGER                   : Scn          - SERVICE COMPANY
STRT.M        300                            : top_depth    - START DEPTH
STOP.M        525                            : bot_depth    - STOP DEPTH
STEP.M        0.25                           : increment    - STEP LENGTH
 NULL. -999.2500:NULL Value
~CURVE INFORMATION BLOCK
#MNEM UNIT       ERCB CURVE CODE    CURVE DESCRIPTION
#-----------   ------------------   ----------------------------------
DEPT.M        00 001 00 00         : DEPTH        - DEPTH
ILD .OHMM     00 120 00 00         : RESD         - DEEP RESISTIVITY (DIL)
DPHI.V/V      00 890 00 00         : PHID         - DENSITY POROSITY (LIMESTONE)
NPHI.V/V      00 330 00 00         : PHIN         - NEUTRON POROSITY (LIMESTONE)
GR  .API      00 310 00 00         : GR           - GAMMA RAY
~PARAMETER INFORMATION
#MNEM.UNIT           DATA             DESCRIPTION OF MNEMONIC
#---------         -----------     ------------------------------
GL  .M        654.38               : gl           - GROUND LEVEL ELEVATION
EREF.M        657.23               : kb           - ELEVATION OF DEPTH REFERENCE
DATM.M        654.38               : datum        - DATUM ELEVATION
TDD .M        535                  : tdd          - TOTAL DEPTH DRILLER
RUN .         ONE                  : Run          - RUN NUMBER
ENG .         BILL                 : Engineer     - RECORDING ENGINEER
WIT .         JIM                  : Witness      - WITNESSED BY
MUD .         GEL                  : Mud_type     - MUD TYPE
MATR.         LIMESTONE            : Logunit      - NEUTRON MATRIX
TMAX.C        22                   : BHT          - MAXIMUM RECORDED TEMPERATURE
BHTD.M        535                  : BHTDEP       - MAXIMUM RECORDED TEMPERATURE
MATR.         1                    : LOGUNIT      - NEUTRON MATRIX
RMT .C        25                   : MDTP         - TEMPERATURE OF MUD
NEUT.         1                    : NEUTRON      - NEUTRON TYPE
RESI.         0                    : RESIST       - RESISTIVITY TYPE
RMC .OHMM     0.25                 : RMC          - RESISTIVITY OF MUD CAKE
RMF .OHMM     0.25                 : RMF          - RESISTIVITY OF MUD FILTRATE
SUFT.C        15                   : SUFT         - SURFACE TEMPERATURE
~A  DEPTH     RESD     PHID     PHIN       GR
# ...
  430.500    5.145    0.244    0.442   81.769
  430.750    5.875    0.250    0.447   82.986
  431.000    8.097    0.247    0.432   85.421
  431.250   10.950    0.254    0.445   86.638
  431.500   14.262    0.256    0.464   81.756
  431.750   17.227    0.212    0.324   75.655
  432.000   18.945    0.133    0.283   63.457
  432.250   15.707    0.059    0.239   57.966
  432.500   12.076    0.028    0.215   50.035
  432.750    8.295    0.015    0.205   45.764
  433.000    6.260    0.097    0.245   55.517
  433.250    5.597    0.181    0.311   67.707
  433.500    5.394    0.229    0.394   71.973
  433.750    5.200    0.260    0.419   76.238
  434.000    5.105    0.257    0.434   75.015
  434.250    5.014    0.256    0.436   72.572
  434.500    5.018    0.255    0.425   70.740
  434.750    5.117    0.240    0.414   73.175
  435.000    5.219    0.224    0.429   79.270
  435.250    5.423    0.226    0.436   86.584
  435.500    5.744    0.223    0.434   91.457
  435.750    5.857    0.222    0.433   91.454
  436.000    6.087    0.227    0.461   90.232
  436.250    6.326    0.211    0.467   85.350
  436.500    6.575    0.199    0.469   81.689
  436.750    6.578    0.201    0.467   78.027
  437.000    6.463    0.190    0.448   78.632
  437.250    6.466    0.182    0.441   80.459
  437.500    6.350    0.195    0.450   82.895
  437.750    6.237    0.201    0.463   86.549
  438.000    6.243    0.206    0.445   82.888
  438.250    6.133    0.217    0.424   82.885
  438.500    5.910    0.235    0.419   87.757
  438.750    5.803    0.225    0.425   89.584
  439.000    5.807    0.215    0.434   90.802
  439.250    5.599    0.220    0.441   90.797
  439.500    5.601    0.222    0.437   89.575
  439.750    5.400    0.223    0.433   88.349
  440.000    5.302    0.233    0.429   87.737
  440.250    5.306    0.254    0.428   87.736
  440.500    5.312    0.272    0.433   84.074
  440.750    5.520    0.281    0.434   79.801
  441.000    5.737    0.278    0.429   77.969
  441.250    5.961    0.281    0.439   75.526
  441.500    6.078    0.287    0.428   74.304
  441.750    5.971    0.277    0.422   72.471
  442.000    5.865    0.253    0.407   77.956
  442.250    5.760    0.209    0.399   83.440
  442.500    5.448    0.160    0.394   86.485
  442.750    5.055    0.189    0.405   86.482
  443.000    4.271    0.209    0.441   84.648
  443.250    3.677    0.204    0.463   83.427
  443.500    3.107    0.209    0.461   85.862
  443.750    2.883    0.211    0.432   88.908
  444.000    2.626    0.203    0.411   88.294
  444.250    2.485    0.222    0.464   87.070
  444.500    2.395    0.242    0.511   87.068
  444.750    2.352    0.261    0.525   85.235
  445.000    2.310    0.243    0.517   87.061
  445.250    2.312    0.253    0.501   89.496
  445.500    2.402    0.247    0.508   91.322
  445.750    2.544    0.240    0.533   91.319
  446.000    2.905    0.240    0.540   91.315
  446.250    3.317    0.240    0.551   93.751
  446.500    3.578    0.239    0.545   94.968
  446.750    4.009    0.238    0.530   87.647
  447.000    4.409    0.221    0.497   83.985
  447.250    4.667    0.214    0.469   82.153
  447.500    4.761    0.219    0.435   84.589
  447.750    4.767    0.216    0.440   85.805
  448.000    4.860    0.217    0.447   83.971
  448.250    4.862    0.213    0.450   83.969
  448.500    5.053    0.206    0.427   85.184
  448.750    5.454    0.209    0.428   87.010
  449.000    5.774    0.200    0.451   88.836
  449.250    6.470    0.188    0.447   87.614
  449.500    6.981    0.203    0.416   83.341
  449.750    7.253    0.219    0.424   76.632
  450.000    7.537    0.226    0.438   66.872
  450.250    7.833    0.092    0.423   60.161
  450.500    8.142    0.123    0.342   54.670
  450.750    8.302    0.175    0.292   60.763
  451.000    8.002    0.219    0.340   63.809
  451.250    7.428    0.267    0.418   65.636
  451.500    7.027    0.101    0.449   62.583
  451.750    6.400    0.067    0.312   54.653
  452.000    5.941    0.088    0.239   53.430
  452.250    5.514    0.181    0.308   58.913
  452.500    5.314    0.220    0.406   61.350
  452.750    5.219    0.259    0.429   63.176
  453.000    5.224    0.271    0.444   63.781
  453.250    5.228    0.269    0.449   64.389
  453.500    5.133    0.259    0.435   64.386
  453.750    5.138    0.248    0.440   63.772
  454.000    5.144    0.237    0.428   57.671
  454.250    5.146    0.228    0.415   55.227
  454.500    5.248    0.236    0.413   55.836
  454.750    5.253    0.260    0.413   58.271
  455.000    5.159    0.276    0.413   64.364
  455.250    4.879    0.264    0.409   67.410
  455.500    4.614    0.248    0.401   71.065
  455.750    4.049    0.239    0.394   72.281
  456.000    3.829    0.238    0.395   72.888
  456.250    3.424    0.239    0.388   76.543
  456.500    3.238    0.231    0.409   83.247
  456.750    3.120    0.218    0.438   91.171
  457.000    3.123    0.213    0.467   92.996
  457.250    3.309    0.219    0.472   94.211
  457.500    3.373    0.216    0.480   95.428
  457.750    3.572    0.205    0.505   96.645
  458.000    3.782    0.204    0.524   98.470
  458.250    3.931    0.209    0.490   99.077
  458.500    4.008    0.214    0.462   97.853
  458.750    4.011    0.218    0.438   92.972
  459.000    3.866    0.214    0.421   88.701
  459.250    3.657    0.213    0.437   89.918
  459.500    3.591    0.214    0.442   94.181
  459.750    3.875    0.214    0.446   97.837
  460.000    4.681    0.215    0.472  100.883
  460.250    5.550    0.215    0.507  103.927
  460.500    6.218    0.198    0.516   99.047
  460.750    6.709    0.132    0.428   92.336
  461.000    7.241    0.102    0.361   79.528
  461.250    7.666    0.113    0.331   77.086
  461.500    8.273    0.150    0.354   83.789
  461.750    8.762    0.180    0.380   89.274
  462.000    9.278    0.167    0.408   92.319
  462.250    9.641    0.146    0.370   84.388
  462.500    9.831    0.202    0.349   80.727
  462.750   10.028    0.247    0.321   75.236
  463.000   10.033    0.266    0.360   67.916
  463.250   10.426    0.249    0.376   67.301
  463.500   11.250    0.243    0.375   69.127
  463.750   12.608    0.237    0.387   71.564
  464.000   13.348    0.234    0.406   77.048
  464.250   15.534    0.227    0.393   80.094
  464.500   17.405    0.220    0.393   76.430
  464.750   18.775    0.214    0.391   74.599
  465.000   20.646    0.230    0.381   71.546
  465.250   22.279    0.249    0.376   68.494
  465.500   24.498    0.273    0.374   63.613
  465.750   26.936    0.282    0.371   62.999
  466.000   31.342    0.284    0.371   64.825
  466.250   35.788    0.268    0.370   65.433
  466.500   37.884    0.257    0.355   64.209
  466.750   41.657    0.246    0.347   58.108
  467.000   43.287    0.262    0.363   52.617
  467.250   39.430    0.271    0.355   46.516
  467.500   35.253    0.268    0.329   42.855
  467.750   32.723    0.263    0.321   43.461
  468.000   32.742    0.257    0.333   48.944
  468.250   32.165    0.256    0.349   53.210
  468.500   31.588    0.269    0.359   58.694
  468.750   28.777    0.274    0.369   59.301
  469.000   26.706    0.287    0.365   58.688
  469.250   21.730    0.284    0.364   55.636
  469.500   17.681    0.273    0.357   57.462
  469.750   14.658    0.263    0.347   63.556
  470.000   12.384    0.247    0.355   69.650
  470.250   11.070    0.213    0.338   76.354
  470.500   10.276    0.181    0.329   82.448
  470.750   10.093    0.189    0.355   88.542
  471.000    9.917    0.194    0.382   94.636
  471.250   10.112    0.184    0.390  100.121
  471.500   10.117    0.189    0.381   95.848
  471.750   10.512    0.202    0.386   94.626
  472.000   11.562    0.206    0.376   94.622
  472.250   12.012    0.201    0.381   96.448
  472.500   13.207    0.205    0.388   98.885
  472.750   15.080    0.203    0.396  103.149
  473.000   17.551    0.212    0.385  107.414
  473.250   18.934    0.230    0.376  103.752
  473.500   19.675    0.250    0.373   92.773
  473.750   20.060    0.261    0.355   77.526
