~VERSION INFORMATION
 VERS.                 2.0:   CWLS LOG ASCII STANDARD -VERSION 2.0
 WRAP.                  NO:   ONE LINE PER DEPTH STEP
~WELL INFORMATION BLOCK
#MNEM.UNIT           DATA                    DESCRIPTION OF MNEMONIC
#---------    -------------------            -------------------------------
# Generated from Intellog Unique Number	CS_73_76/WELL/3241
WELL.         10-26-075-05W4                 : Well_name    - WELL
LOC .         00/10-26-075-05W4/0            : Location     - LOCATION
UWI .         00/10-26-075-05W4/0            : Uwi          - UNIQUE WELL ID
ENTR.         SP                             : Entered      - ENTERED BY
SRVC.         SCHLUMBERGER                   : Scn          - SERVICE COMPANY
STRT.M        230                            : top_depth    - START DEPTH
STOP.M        455                            : bot_depth    - STOP DEPTH
STEP.M        0.25                           : increment    - STEP LENGTH
 NULL. -999.2500:NULL Value
~CURVE INFORMATION BLOCK
#MNEM UNIT       ERCB CURVE CODE    CURVE DESCRIPTION
#-----------   ------------------   ----------------------------------
DEPT.M        00 001 00 00         : DEPTH        - DEPTH
ILD .OHMM     00 120 00 00         : RESD         - DEEP RESISTIVITY (DIL)
DPHI.V/V      00 890 00 00         : PHID         - DENSITY POROSITY (LIMESTONE)
NPHI.V/V      00 330 00 00         : PHIN         - NEUTRON POROSITY (LIMESTONE)
GR  .API      00 310 00 00         : GR           - GAMMA RAY
~PARAMETER INFORMATION
#MNEM.UNIT           DATA             DESCRIPTION OF MNEMONIC
#---------         -----------     ------------------------------
GL  .M        619.6                : gl           - GROUND LEVEL ELEVATION
EREF.M        624.6                : kb           - ELEVATION OF DEPTH REFERENCE
DATM.M        619.6                : datum        - DATUM ELEVATION
TDD .M        465                  : tdd          - TOTAL DEPTH DRILLER
RUN .         ONE                  : Run          - RUN NUMBER
ENG .         BILL                 : Engineer     - RECORDING ENGINEER
WIT .         JIM                  : Witness      - WITNESSED BY
MUD .         GEL                  : Mud_type     - MUD TYPE
MATR.         LIMESTONE            : Logunit      - NEUTRON MATRIX
TMAX.C        16                   : BHT          - MAXIMUM RECORDED TEMPERATURE
BHTD.M        465                  : BHTDEP       - MAXIMUM RECORDED TEMPERATURE
MATR.         1                    : LOGUNIT      - NEUTRON MATRIX
RMT .C        25                   : MDTP         - TEMPERATURE OF MUD
NEUT.         1                    : NEUTRON      - NEUTRON TYPE
RESI.         0                    : RESIST       - RESISTIVITY TYPE
RMC .OHMM     0.25                 : RMC          - RESISTIVITY OF MUD CAKE
RMF .OHMM     0.25                 : RMF          - RESISTIVITY OF MUD FILTRATE
SUFT.C        15                   : SUFT         - SURFACE TEMPERATURE
~A  DEPTH     RESD     PHID     PHIN       GR
# ...
  360.500    2.206    0.241    0.455   79.799
  360.750    2.247    0.249    0.432   78.586
  361.000    2.332    0.253    0.444   78.582
  361.250    2.376    0.252    0.459   79.183
  361.500    2.376    0.260    0.465   80.389
  361.750    2.421    0.267    0.444   81.596
  362.000    2.421    0.271    0.439   82.802
  362.250    2.421    0.266    0.435   84.612
  362.500    2.422    0.260    0.441   83.399
  362.750    2.467    0.266    0.449   80.977
  363.000    2.467    0.267    0.459   79.158
  363.250    2.468    0.261    0.438   78.550
  363.500    2.468    0.258    0.433   79.151
  363.750    2.423    0.255    0.443   80.357
  364.000    2.336    0.248    0.448   82.168
  364.250    2.210    0.242    0.451   83.977
  364.500    2.130    0.235    0.458   85.184
  364.750    2.130    0.218    0.466   86.390
  365.000    2.294    0.229    0.479   86.992
  365.250    2.470    0.242    0.460   88.198
  365.500    2.564    0.249    0.455   88.196
  365.750    2.661    0.240    0.456   87.587
  366.000    2.661    0.246    0.459   87.584
  366.250    2.661    0.252    0.464   88.184
  366.500    2.662    0.260    0.474   86.972
  366.750    2.519    0.276    0.508   82.735
  367.000    2.473    0.292    0.515   80.917
  367.250    2.297    0.316    0.512   79.098
  367.500    2.255    0.309    0.540   77.281
  367.750    2.174    0.317    0.552   76.066
  368.000    2.057    0.332    0.537   76.064
  368.250    1.982    0.327    0.514   76.061
  368.500    1.946    0.314    0.506   74.243
  368.750    2.058    0.315    0.507   69.399
  369.000    2.175    0.329    0.497   65.162
  369.250    2.386    0.327    0.488   60.924
  369.500    2.476    0.334    0.477   59.107
  369.750    2.570    0.326    0.478   57.894
  370.000    2.667    0.324    0.472   57.286
  370.250    2.767    0.316    0.467   59.096
  370.500    2.820    0.320    0.463   60.302
  370.750    2.872    0.318    0.469   60.904
  371.000    2.926    0.311    0.482   60.296
  371.250    2.927    0.316    0.487   60.291
  371.500    2.927    0.323    0.483   59.079
  371.750    3.152    0.321    0.494   57.866
  372.000    3.394    0.317    0.501   57.257
  372.250    3.655    0.268    0.472   58.462
  372.500    3.458    0.236    0.423   59.670
  372.750    3.039    0.294    0.357   63.294
  373.000    2.823    0.314    0.451   65.710
  373.250    2.671    0.323    0.480   66.312
  373.500    2.436    0.319    0.468   67.518
  373.750    2.305    0.325    0.453   68.725
  374.000    2.141    0.332    0.453   68.116
  374.250    2.064    0.343    0.459   66.903
  374.500    1.953    0.352    0.468   65.084
  374.750    1.953    0.343    0.481   64.476
  375.000    2.065    0.340    0.495   64.472
  375.250    2.223    0.342    0.500   66.889
  375.500    2.439    0.326    0.481   71.118
  375.750    2.675    0.296    0.474   74.139
  376.000    2.776    0.268    0.463   76.554
  376.250    2.935    0.257    0.454   77.761
  376.500    3.160    0.249    0.450   78.363
  376.750    3.280    0.260    0.447   81.382
  377.000    3.341    0.233    0.462   83.194
  377.250    3.404    0.208    0.468   85.005
  377.500    3.468    0.204    0.462   85.606
  377.750    3.599    0.231    0.465   84.997
  378.000    3.599    0.228    0.471   84.389
  378.250    3.600    0.242    0.483   84.991
  378.500    3.534    0.250    0.492   85.592
  378.750    3.535    0.238    0.494   87.402
  379.000    3.601    0.238    0.486   88.004
  379.250    3.602    0.238    0.489   84.977
  379.500    3.602    0.251    0.494   81.949
  379.750    3.670    0.261    0.494   80.131
  380.000    3.739    0.256    0.504   77.707
  380.250    3.739    0.262    0.489   76.494
  380.500    3.809    0.257    0.471   77.096
  380.750    3.810    0.239    0.467   81.326
  381.000    3.881    0.236    0.457   84.346
  381.250    3.954    0.227    0.447   86.157
  381.500    3.955    0.239    0.441   86.760
  381.750    4.029    0.255    0.439   85.546
  382.000    3.956    0.254    0.444   81.913
  382.250    3.884    0.251    0.447   79.490
  382.500    3.884    0.239    0.457   79.487
  382.750    3.608    0.256    0.474   80.089
  383.000    3.352    0.270    0.488   77.665
  383.250    2.839    0.277    0.509   75.847
  383.500    2.449    0.306    0.531   75.239
  383.750    2.233    0.323    0.562   75.235
  384.000    2.075    0.308    0.570   74.626
  384.250    2.075    0.284    0.574   74.624
  384.500    2.114    0.280    0.573   74.014
  384.750    2.154    0.297    0.554   74.617
  385.000    2.194    0.309    0.546   75.823
  385.250    2.235    0.310    0.544   79.447
  385.500    2.277    0.299    0.543   83.072
  385.750    2.320    0.285    0.538   84.884
  386.000    2.364    0.264    0.542   86.091
  386.250    2.499    0.264    0.549   85.482
  386.500    2.741    0.272    0.552   82.454
  386.750    3.237    0.276    0.522   80.031
  387.000    3.753    0.237    0.486   79.423
  387.250    4.193    0.249    0.466   80.628
  387.500    4.352    0.247    0.483   81.230
  387.750    4.686    0.255    0.499   80.622
  388.000    4.863    0.241    0.508   80.014
  388.250    4.954    0.252    0.495   78.196
  388.500    5.141    0.240    0.459   77.588
  388.750    5.238    0.212    0.436   77.584
  389.000    5.143    0.222    0.425   78.185
  389.250    4.957    0.214    0.420   82.415
  389.500    4.778    0.193    0.427   86.041
  389.750    4.691    0.217    0.436   88.457
  390.000    4.439    0.225    0.449   90.267
  390.250    4.048    0.242    0.466   90.868
  390.500    3.830    0.251    0.471   91.471
  390.750    3.366    0.259    0.485   96.305
  391.000    3.244    0.268    0.496   96.302
  391.250    3.185    0.281    0.519   90.249
  391.500    3.306    0.295    0.537   86.617
  391.750    3.431    0.258    0.501   89.033
  392.000    3.495    0.248    0.474   92.054
  392.250    3.561    0.247    0.482   95.074
  392.500    3.628    0.239    0.484   92.651
  392.750    3.628    0.241    0.479   92.647
  393.000    3.629    0.235    0.478   93.249
  393.250    3.562    0.233    0.494   93.246
  393.500    3.629    0.215    0.498   92.638
  393.750    3.908    0.225    0.503   89.609
  394.000    4.367    0.245    0.491   86.581
  394.250    4.970    0.259    0.479   82.948
  394.500    5.657    0.254    0.468   79.922
  394.750    6.092    0.262    0.453   78.103
  395.000    7.063    0.238    0.433   78.704
  395.250    7.605    0.218    0.427   78.702
  395.500    8.342    0.235    0.419   75.068
  395.750    9.151    0.244    0.401   74.461
  396.000    9.496    0.253    0.390   73.852
  396.250   10.611    0.248    0.400   73.243
  396.500   11.011    0.227    0.401   72.031
  396.750   11.640    0.210    0.379   71.423
  397.000   11.859    0.183    0.370   72.024
  397.250   11.861    0.182    0.356   72.624
  397.500   11.862    0.243    0.387   72.017
  397.750   12.085    0.253    0.411   66.569
  398.000   13.256    0.256    0.425   62.332
  398.250   16.548    0.268    0.446   56.885
  398.500   20.656    0.298    0.465   52.043
  398.750   25.785    0.319    0.434   55.064
  399.000   28.810    0.316    0.413   58.689
  399.250   28.287    0.317    0.401   60.500
  399.500   21.845    0.319    0.412   62.311
  399.750   17.505    0.311    0.407   65.936
  400.000   11.310    0.194    0.384   76.204
  400.250   12.401    0.234    0.389   73.778
  400.500   13.101    0.247    0.383   71.956
  400.750   13.094    0.258    0.365   68.319
  401.000   13.089    0.270    0.357   65.891
  401.250   13.083    0.275    0.342   67.697
  401.500   13.568    0.258    0.334   67.085
  401.750   13.815    0.249    0.352   64.657
  402.000   14.329    0.251    0.358   62.834
  402.250   14.591    0.258    0.358   59.196
  402.500   14.052    0.268    0.354   59.793
  402.750   12.802    0.245    0.358   62.808
  403.000   12.332    0.228    0.352   65.825
  403.250   11.660    0.218    0.340   67.631
  403.500   11.654    0.193    0.333   68.831
  403.750   11.648    0.200    0.328   70.034
