~VERSION INFORMATION
 VERS.                 2.0:   CWLS LOG ASCII STANDARD -VERSION 2.0
 WRAP.                  NO:   ONE LINE PER DEPTH STEP
~WELL INFORMATION BLOCK
#MNEM.UNIT           DATA                    DESCRIPTION OF MNEMONIC
#---------    -------------------            -------------------------------
# Generated from Intellog Unique Number	CS_71_72/WELL/919
WELL.         AMOCO AEC IPIATIK              : Well_name    - WELL
LOC .         00/12-26-072-05W4/0            : Location     - LOCATION
UWI .         00/12-26-072-05W4/0            : Uwi          - UNIQUE WELL ID
ENTR.         SP                             : Entered      - ENTERED BY
SRVC.         SCHLUMBERGER                   : Scn          - SERVICE COMPANY
STRT.M        315                            : top_depth    - START DEPTH
STOP.M        525                            : bot_depth    - STOP DEPTH
STEP.M        0.25                           : increment    - STEP LENGTH
 NULL. -999.2500:NULL Value
~CURVE INFORMATION BLOCK
#MNEM UNIT       ERCB CURVE CODE    CURVE DESCRIPTION
#-----------   ------------------   ----------------------------------
DEPT.M        00 001 00 00         : DEPTH        - DEPTH
ILD .OHMM     00 120 00 00         : RESD         - DEEP RESISTIVITY (DIL)
DPHI.V/V      00 890 00 00         : PHID         - DENSITY POROSITY (LIMESTONE)
NPHI.V/V      00 330 00 00         : PHIN         - NEUTRON POROSITY (LIMESTONE)
GR  .API      00 310 00 00         : GR           - GAMMA RAY
~PARAMETER INFORMATION
#MNEM.UNIT           DATA             DESCRIPTION OF MNEMONIC
#---------         -----------     ------------------------------
GL  .M        693.7                : gl           - GROUND LEVEL ELEVATION
EREF.M        697.8                : kb           - ELEVATION OF DEPTH REFERENCE
DATM.M        693.7                : datum        - DATUM ELEVATION
TDD .M        628                  : tdd          - TOTAL DEPTH DRILLER
RUN .         ONE                  : Run          - RUN NUMBER
ENG .         BILL                 : Engineer     - RECORDING ENGINEER
WIT .         JIM                  : Witness      - WITNESSED BY
MUD .         GEL                  : Mud_type     - MUD TYPE
MATR.         LIMESTONE            : Logunit      - NEUTRON MATRIX
TMAX.C        15                   : BHT          - MAXIMUM RECORDED TEMPERATURE
BHTD.M        628                  : BHTDEP       - MAXIMUM RECORDED TEMPERATURE
MATR.         1                    : LOGUNIT      - NEUTRON MATRIX
RMT .C        25                   : MDTP         - TEMPERATURE OF MUD
NEUT.         1                    : NEUTRON      - NEUTRON TYPE
RESI.         0                    : RESIST       - RESISTIVITY TYPE
RMC .OHMM     0.25                 : RMC          - RESISTIVITY OF MUD CAKE
RMF .OHMM     0.25                 : RMF          - RESISTIVITY OF MUD FILTRATE
SUFT.C        15                   : SUFT         - SURFACE TEMPERATURE
~A  DEPTH     RESD     PHID     PHIN       GR
# ...
  402.000    0.972    0.326    0.441   58.108
  402.250    0.972    0.326    0.436   58.715
  402.500    0.972    0.323    0.433   59.930
  402.750    0.991    0.323    0.431   60.537
  403.000    1.028    0.318    0.437   61.751
  403.250    1.048    0.314    0.438   62.358
  403.500    1.068    0.320    0.446   62.362
  403.750    1.068    0.313    0.452   61.761
  404.000    1.068    0.310    0.454   62.975
  404.250    1.068    0.310    0.464   62.979
  404.500    1.068    0.310    0.467   61.168
  404.750    1.068    0.311    0.461   58.752
  405.000    1.068    0.312    0.453   56.941
  405.250    1.089    0.318    0.444   56.338
  405.500    1.130    0.328    0.442   56.947
  405.750    1.173    0.335    0.448   58.160
  406.000    1.240    0.317    0.467   60.584
  406.250    1.361    0.310    0.477   63.007
  406.500    1.522    0.306    0.482   67.244
  406.750    1.609    0.295    0.477   74.506
  407.000    1.799    0.283    0.467   79.953
  407.250    1.902    0.264    0.473   85.400
  407.500    2.049    0.240    0.465   90.848
  407.750    2.167    0.226    0.461   94.480
  408.000    2.208    0.229    0.466   98.112
  408.250    2.335    0.242    0.473   98.721
  408.500    2.379    0.229    0.496   98.725
  408.750    2.469    0.220    0.508   95.706
  409.000    2.516    0.215    0.503   95.103
  409.250    2.470    0.220    0.495   95.711
  409.500    2.516    0.235    0.488   96.924
  409.750    2.517    0.243    0.487   98.742
  410.000    2.612    0.235    0.485   99.957
  410.250    2.662    0.221    0.507   99.959
  410.500    2.763    0.217    0.525   98.753
  410.750    2.868    0.213    0.535   96.943
  411.000    2.922    0.207    0.499   94.526
  411.250    2.977    0.208    0.496   96.950
  411.500    3.033    0.213    0.513   96.348
  411.750    2.978    0.220    0.522   97.562
  412.000    2.923    0.226    0.536  100.590
  412.250    2.870    0.236    0.543   99.989
  412.500    2.924    0.243    0.545   98.178
  412.750    3.150    0.230    0.555   93.948
  413.000    3.522    0.209    0.545   92.740
  413.250    3.724    0.215    0.524   89.721
  413.500    4.087    0.221    0.489   87.305
  413.750    4.402    0.223    0.444   85.494
  414.000    4.655    0.224    0.450   83.683
  414.250    4.656    0.219    0.473   85.501
  414.500    3.940    0.219    0.490   87.925
  414.750    3.272    0.214    0.506   89.138
  415.000    3.461    0.224    0.502   86.722
  415.250    3.941    0.230    0.486   83.096
  415.500    4.091    0.215    0.483   81.284
  415.750    3.799    0.208    0.520   83.103
  416.000    3.527    0.200    0.532   86.736
  416.250    3.041    0.211    0.519   87.344
  416.500    2.720    0.213    0.497   87.953
  416.750    3.041    0.213    0.486   87.957
  417.000    3.464    0.214    0.478   88.565
  417.250    3.663    0.214    0.500   89.174
  417.500    3.874    0.221    0.511   89.782
  417.750    3.947    0.237    0.514   90.391
  418.000    3.875    0.244    0.509   90.393
  418.250    3.804    0.258    0.509   91.606
  418.500    3.666    0.224    0.519   92.820
  418.750    3.532    0.217    0.524   94.638
  419.000    3.342    0.208    0.525   97.062
  419.250    3.280    0.213    0.524   97.670
  419.500    3.281    0.225    0.517   94.045
  419.750    3.281    0.238    0.507   91.023
  420.000    3.343    0.250    0.536   91.632
  420.250    3.344    0.256    0.556   94.055
  420.500    3.344    0.250    0.566   94.059
  420.750    3.283    0.255    0.552   91.039
  421.000    3.284    0.262    0.547   88.622
  421.250    3.284    0.256    0.552   88.021
  421.500    3.346    0.265    0.527   87.419
  421.750    3.538    0.250    0.481   85.609
  422.000    3.883    0.238    0.477   82.588
  422.250    4.183    0.225    0.474   80.172
  422.500    4.423    0.217    0.469   78.966
  422.750    4.591    0.223    0.463   78.970
  423.000    4.678    0.237    0.460   80.184
  423.250    4.592    0.244    0.455   82.607
  423.500    4.593    0.232    0.452   84.425
  423.750    4.033    0.223    0.455   85.637
  424.000    3.676    0.233    0.475   85.641
  424.250    3.609    0.238    0.495   87.459
  424.500    3.888    0.241    0.496   89.277
  424.750    4.036    0.246    0.507   88.676
  425.000    4.267    0.254    0.512   86.260
  425.250    4.348    0.259    0.501   82.634
  425.500    4.513    0.258    0.490   80.824
  425.750    4.514    0.252    0.480   81.433
  426.000    4.431    0.245    0.473   83.251
  426.250    4.350    0.242    0.478   82.045
  426.500    4.271    0.256    0.475   80.234
  426.750    4.040    0.266    0.467   77.214
  427.000    3.966    0.268    0.457   76.007
  427.250    3.894    0.266    0.472   75.406
  427.500    3.823    0.273    0.480   76.014
  427.750    4.118    0.277    0.484   75.414
  428.000    4.603    0.281    0.475   74.207
  428.250    5.544    0.256    0.459   71.791
  428.500    7.191    0.191    0.449   65.747
  428.750    9.679    0.076    0.334   63.934
  429.000   10.427    0.036    0.259   60.310
  429.250    8.041    0.062    0.393   59.710
  429.500    6.679    0.123    0.430   60.317
  429.750    5.866    0.189    0.441   66.370
  430.000    5.248    0.230    0.450   70.606
  430.250    4.784    0.254    0.452   74.845
  430.500    4.442    0.247    0.452   77.267
  430.750    4.361    0.245    0.444   79.085
  431.000    4.361    0.231    0.442   81.507
  431.250    4.444    0.227    0.444   81.511
  431.500    4.444    0.241    0.449   78.492
  431.750    4.445    0.262    0.456   77.284
  432.000    4.445    0.273    0.450   73.055
  432.250    4.446    0.272    0.439   72.453
  432.500    4.364    0.272    0.429   72.457
  432.750    4.447    0.271    0.456   74.274
  433.000    4.447    0.243    0.473   80.328
  433.250    4.286    0.233    0.459   84.565
  433.500    4.130    0.221    0.446   88.802
  433.750    3.764    0.225    0.447   90.015
  434.000    3.431    0.231    0.445   94.253
  434.250    3.127    0.232    0.459   99.700
  434.500    2.904    0.232    0.468  108.776
  434.750    2.696    0.235    0.491  116.038
  435.000    2.551    0.235    0.508  124.509
  435.250    2.368    0.232    0.522  145.682
  435.500    2.199    0.231    0.549  154.759
  435.750    2.119    0.242    0.540  155.972
  436.000    2.080    0.255    0.523  155.975
  436.250    2.081    0.265    0.525  154.769
  436.500    2.120    0.260    0.515  143.281
  436.750    2.160    0.242    0.500  129.978
  437.000    2.284    0.233    0.493  117.884
  437.250    2.327    0.225    0.514  108.816
  437.500    2.415    0.216    0.520  108.214
  437.750    2.507    0.218    0.528  104.589
  438.000    2.602    0.234    0.528  100.359
  438.250    2.856    0.243    0.514   96.733
  438.500    3.020    0.251    0.502   93.108
  438.750    3.253    0.263    0.504   90.692
  439.000    3.637    0.257    0.503   89.486
  439.250    4.300    0.255    0.482   88.281
  439.500    4.719    0.257    0.463   87.678
  439.750    4.898    0.256    0.453   84.053
  440.000    4.898    0.245    0.454   79.218
  440.250    4.720    0.242    0.450   76.802
  440.500    4.303    0.250    0.450   75.596
  440.750    4.146    0.265    0.452   78.021
  441.000    3.995    0.280    0.451   79.233
  441.250    3.850    0.277    0.446   79.841
  441.500    3.780    0.272    0.437   81.055
  441.750    3.851    0.266    0.431   82.267
  442.000    4.072    0.261    0.429   84.085
  442.250    4.227    0.251    0.437   82.275
  442.500    4.470    0.239    0.443   82.884
  442.750    4.640    0.228    0.443   85.912
  443.000    4.727    0.217    0.453   87.729
  443.250    4.817    0.209    0.464   89.547
  443.500    4.908    0.203    0.470   90.156
  443.750    4.908    0.219    0.475   89.554
  444.000    4.909    0.237    0.468   88.349
  444.250    4.909    0.238    0.464   88.352
  444.500    4.910    0.227    0.465   89.565
  444.750    4.911    0.222    0.468   91.384
  445.000    4.911    0.226    0.460   91.387
  445.250    5.004    0.236    0.454   90.785
