~VERSION INFORMATION
 VERS.                 2.0:   CWLS LOG ASCII STANDARD -VERSION 2.0
 WRAP.                  NO:   ONE LINE PER DEPTH STEP
~WELL INFORMATION BLOCK
#MNEM.UNIT           DATA                    DESCRIPTION OF MNEMONIC
#---------    -------------------            -------------------------------
# Generated from Intellog Unique Number	CW_82_90/WELL/1037
WELL.         CHEVRON FINA MUSKWA 16-29      : Well_name    - WELL
LOC .         00/16-29-083-02W5/0            : Location     - LOCATION
UWI .         00/16-29-083-02W5/0            : Uwi          - UNIQUE WELL ID
ENTR.         JJ                             : Entered      - ENTERED BY
SRVC.         SCHLUMBERGER                   : Scn          - SERVICE COMPANY
DATE.         9 JAN 74                       : Date         - LOG DATE
STRT.M        286.512                        : top_depth    - START DEPTH
STOP.M        487.762                        : bot_depth    - STOP DEPTH
STEP.M        0.25                           : increment    - STEP LENGTH
 NULL. -999.2500:NULL Value
~CURVE INFORMATION BLOCK
#MNEM UNIT       ERCB CURVE CODE    CURVE DESCRIPTION
#-----------   ------------------   ----------------------------------
DEPT.M        00 001 00 00         : DEPTH        - DEPTH
CALI.MM       00 280 01 00         : CAL          - CALIPER
GR  .API      00 310 00 00         : GR           - GAMMA RAY
DPHI.V/V      00 890 00 00         : PHID         - DENSITY POROSITY (SANDSTONE)
NPHI.V/V      00 330 00 00         : PHIN         - NEUTRON POROSITY (SANDSTONE)
ILD .OHMM     00 120 00 00         : RESD         - DEEP RESISTIVITY (DIL)
~PARAMETER INFORMATION
#MNEM.UNIT           DATA             DESCRIPTION OF MNEMONIC
#---------         -----------     ------------------------------
GL  .M        623.316              : gl           - GROUND LEVEL ELEVATION
EREF.M        627.278              : kb           - ELEVATION OF DEPTH REFERENCE
DATM.M        623.316              : datum        - DATUM ELEVATION
TDD .M        492.252              : tdd          - TOTAL DEPTH DRILLER
RUN .         ONE                  : Run          - RUN NUMBER
ENG .         WOON                 : Engineer     - RECORDING ENGINEER
WIT .         GOLL                 : Witness      - WITNESSED BY
BASE.         EDMONTON             : Branch       - HOME BASE OF LOGGING UNIT
MUD .         GEL CHEM             : Mud_type     - MUD TYPE
MATR.         SANDSTONE            : Logunit      - NEUTRON MATRIX
TMAX.C        30                   : BHT          - MAXIMUM RECORDED TEMPERATURE
BHTD.M        492.252              : BHTDEP       - MAXIMUM RECORDED TEMPERATURE
RMT .C        4.44444              : MDTP         - TEMPERATURE OF MUD
MUDD.KG/M     8600                 : MWT          - MUD DENSITY
NEUT.         1                    : NEUTRON      - NEUTRON TYPE
RESI.         0                    : RESIST       - RESISTIVITY TYPE
RM  .OHMM     9.6                  : RM           - RESISTIVITY OF MUD
RMC .OHMM     5                    : RMC          - RESISTIVITY OF MUD CAKE
RMF .OHMM     7.1                  : RMF          - RESISTIVITY OF MUD FILTRATE
SUFT.C        -17.7778             : SUFT         - SURFACE TEMPERATURE
~A  DEPTH      CAL       GR     PHID     PHIN     RESD
# ...
  432.512  210.980   75.174    0.079    0.308   15.162
  432.762  211.508   72.581    0.061    0.312   15.575
  433.012  212.573   77.062    0.075    0.342   15.755
  433.262  215.242   88.554    0.127    0.369   15.522
  433.512  217.910   99.856    0.184    0.414   14.418
  433.762  218.868  100.421    0.181    0.402   13.018
  434.012  219.076  100.923    0.161    0.405   11.642
  434.262  219.070   99.025    0.141    0.404   10.815
  434.512  217.996   95.359    0.129    0.420   10.594
  434.762  216.599   97.250    0.149    0.406   10.697
  435.012  215.952   98.068    0.151    0.396   11.050
  435.262  215.198   95.096    0.144    0.412   11.567
  435.512  214.444   95.282    0.143    0.429   12.505
  435.762  211.872   90.164    0.131    0.412   13.989
  436.012  208.764   88.771    0.118    0.355   14.867
  436.262  207.477   92.747    0.141    0.383   15.445
  436.512  208.111   96.975    0.190    0.399   15.685
  436.762  208.748   98.488    0.186    0.414   15.838
  437.012  209.813   93.053    0.186    0.397   15.961
  437.262  211.198   90.271    0.168    0.344   16.179
  437.512  212.903   89.004    0.131    0.316   16.214
  437.762  213.433   88.874    0.076    0.296   16.186
  438.012  214.067   85.714    0.055    0.319   15.945
  438.262  214.597   89.184    0.086    0.343   15.472
  438.512  214.058   98.717    0.127    0.359   14.454
  438.762  212.983  102.883    0.171    0.415   13.580
  439.012  211.160   99.911    0.190    0.422   13.278
  439.262  209.015   96.497    0.186    0.413   13.638
  439.512  210.080   94.726    0.171    0.403   14.277
  439.762  206.758   92.006    0.171    0.396   15.115
  440.012  207.822   90.172    0.142    0.362   16.218
  440.262  206.533   88.211    0.118    0.322   16.406
  440.512  204.814   87.450    0.081    0.309   16.317
  440.762  204.812   83.215    0.082    0.342   16.105
  441.012  207.479   89.528    0.109    0.382   15.450
  441.262  209.720   92.051    0.073    0.394   14.325
  441.512  212.067   94.195    0.058    0.375   13.057
  441.762  214.522   98.107    0.123    0.408   11.328
  442.012  216.227  103.157    0.158    0.425   10.444
  442.262  217.506  105.996    0.145    0.444    9.483
  442.512  217.714  107.445    0.146    0.479    8.893
  442.762  214.714  105.168    0.156    0.504    8.371
  443.012  213.318  103.018    0.128    0.491    8.061
  443.262  214.704  100.804    0.110    0.462    7.719
  443.512  218.014  102.064    0.116    0.427    7.462
  443.762  219.185  104.776    0.123    0.441    7.213
  444.012  215.757  106.605    0.114    0.417    7.173
  444.262  219.173  109.507    0.089    0.463    7.467
  444.512  215.424  113.040    0.159    0.476    7.727
  444.762  211.249  100.153    0.176    0.468    8.354
  445.012  206.216   97.560    0.146    0.439    8.963
  445.262  202.573   95.536    0.149    0.429    9.653
  445.512  200.751   92.501    0.165    0.396   10.495
  445.762  199.035   89.593    0.176    0.407   11.921
  446.012  200.846   89.652    0.147    0.387   12.621
  446.262  202.232   89.144    0.118    0.374   13.748
  446.512  203.617   84.910    0.103    0.352   14.723
  446.762  204.253   88.001    0.127    0.351   15.767
  447.012  205.424   91.914    0.149    0.365   16.536
  447.262  206.488   94.058    0.139    0.368   16.760
  447.512  205.840   92.539    0.122    0.375   16.668
  447.762  205.408   89.188    0.151    0.384   15.901
  448.012  204.652   87.796    0.165    0.397   15.167
  448.262  204.328   90.571    0.137    0.438   13.930
  448.512  205.820  102.000    0.111    0.417   12.411
  448.762  207.204   99.091    0.068    0.404   11.528
  449.012  207.197  101.488    0.088    0.441   10.750
  449.262  207.512  104.263    0.148    0.466    9.799
  449.512  208.042  106.471    0.144    0.481    9.400
  449.762  208.252  105.141    0.125    0.466    8.950
  450.012  208.032  100.528    0.098    0.440    8.767
  450.262  208.454   99.072    0.087    0.437    8.769
  450.512  208.554  101.090    0.088    0.426    9.197
  450.762  208.764   97.423    0.070    0.427    9.321
  451.012  208.438   98.178    0.132    0.452    9.520
  451.262  208.326  100.511    0.149    0.447    9.632
  451.512  209.925  102.150    0.149    0.469    9.652
  451.762  210.667  104.737    0.131    0.464    9.617
  452.012  210.663  108.712    0.133    0.477    9.601
  452.262  210.871  109.151    0.126    0.470    9.531
  452.512  210.331  107.316    0.088    0.455    9.478
  452.762  209.149  106.618    0.081    0.435    9.463
  453.012  208.502  106.678    0.093    0.413    9.465
  453.262  207.105  106.675    0.064    0.403    9.521
  453.512  205.710  107.367    0.039    0.389    9.577
  453.762  209.234  110.458    0.109    0.402    9.597
  454.012  210.940  116.139    0.131    0.399    9.709
  454.262  210.293  114.494    0.127    0.386    9.767
  454.512  209.431  110.069    0.091    0.426    9.881
  454.762  211.672  108.930    0.115    0.425   10.015
  455.012  214.768  106.147    0.114    0.361   10.287
  455.262  206.956   99.513    0.107    0.349   10.707
  455.512  202.672   93.636    0.131    0.367   11.018
  455.762  202.774   93.822    0.130    0.361   11.556
  456.012  203.086   91.356    0.114    0.337   12.328
  456.262  203.509   87.184    0.083    0.315   13.816
  456.512  203.826   83.897    0.043    0.299   16.329
  456.762  204.462   79.851    0.011    0.276   20.429
  457.012  204.137   76.121   -0.007    0.252   23.645
  457.262  203.917   74.856   -0.005    0.273   25.177
  457.512  203.805   78.136    0.100    0.368   23.523
  457.762  203.265   83.564    0.137    0.404   20.331
  458.012  196.842   89.309    0.188    0.440   16.600
  458.262  196.409   94.927    0.202    0.445   14.079
  458.512  196.723   97.892    0.149    0.439   12.100
  458.762  197.147   92.899    0.115    0.421   10.821
  459.012  197.247   81.843    0.074    0.401   10.783
  459.262  197.671   82.030    0.067    0.383   10.950
  459.512  198.628   86.321    0.124    0.379   11.464
  459.762  199.050   89.539    0.152    0.410   11.597
  460.012  199.044   88.146    0.147    0.434   11.776
  460.262  199.466   86.753    0.161    0.457   12.234
  460.512  199.889   85.866    0.120    0.432   13.377
  460.762  201.488   83.337    0.093    0.393   14.600
  461.012  202.980   82.133    0.058    0.300   16.025
  461.262  203.189   85.098    0.063    0.326   17.925
  461.512  203.718   91.537    0.107    0.348   20.052
  461.762  200.290   98.229    0.126    0.385   19.981
  462.012  197.932  106.057    0.141    0.414   18.316
  462.262  201.135  108.012    0.144    0.414   16.694
  462.512  203.268  106.114    0.148    0.395   15.391
  462.762  203.583   96.700    0.095    0.379   14.962
  463.012  203.685   94.424    0.099    0.370   14.938
  463.262  203.464   97.073    0.084    0.358   14.969
  463.512  203.137   98.649    0.076    0.352   14.943
  463.762  202.598   99.908    0.074    0.369   14.751
  464.012  202.807  102.116    0.093    0.397   14.449
  464.262  195.423  103.249    0.156    0.422   13.421
  464.512  195.844   97.941    0.106    0.405   12.562
  464.762  197.444   92.759    0.073    0.371   11.893
  465.012  200.005   87.261    0.066    0.333   11.431
  465.262  201.711   89.784    0.084    0.382   11.050
  465.512  202.346   94.897    0.127    0.408   10.601
  465.762  199.668  100.577    0.146    0.427   10.345
  466.012  197.203  100.196    0.149    0.400   10.038
  466.262  200.299  100.950    0.147    0.384    9.832
  466.512  203.823  102.715    0.128    0.393   10.157
  466.762  203.604   98.733    0.104    0.385   10.836
  467.012  201.994   87.677    0.073    0.333   11.560
  467.262  203.806   82.053   -0.010    0.282   13.559
  467.512  205.189   76.365    0.017    0.251   15.370
  467.762  204.758   68.404    0.025    0.243   16.839
  468.012  203.790   69.980    0.050    0.252   17.067
  468.262  202.288   75.345    0.063    0.273   15.206
  468.512  199.713   80.774    0.077    0.296   11.842
  468.762  201.528   86.897    0.084    0.348   10.235
