~VERSION INFORMATION
 VERS.                 2.0:   CWLS LOG ASCII STANDARD -VERSION 2.0
 WRAP.                  NO:   ONE LINE PER DEPTH STEP
~WELL INFORMATION BLOCK
#MNEM.UNIT           DATA                    DESCRIPTION OF MNEMONIC
#---------    -------------------            -------------------------------
# Generated from Intellog Unique Number	CC_80_83/WELL/2331
NULL.         -999.25                        : NULL_VALUE
WELL.         GULF PONY                      : Well_name    - WELL              
LOC .         10-03-081-09W4                 : Location     - LOCATION          
UWI .         00/10-03-081-09W400            : Uwi          - UNIQUE WELL ID    
ENTR.         DW                             : Entered      - ENTERED BY        
SRVC.         SCHLUMBERGER                   : Scn          - SERVICE COMPANY   
DATE.         01 FEB 75                      : Date         - LOG DATE
STRT.M        259.08                         : top_depth    - START DEPTH       
STOP.M        496.831                        : bot_depth    - STOP DEPTH        
STEP.M        0.305                          : increment    - STEP LENGTH       
~CURVE INFORMATION BLOCK
#MNEM UNIT       ERCB CURVE CODE    CURVE DESCRIPTION
#-----------   ------------------   ----------------------------------
DEPT.M        00 001 00 00         : DEPTH        - DEPTH                       
GR  .API      00 310 00 00         : GR           - GAMMA RAY                   
NPHI.V/V      00 330 00 00         : PHIN         - NEUTRON POROSITY (LIMESTONE)
DPHI.V/V      00 890 00 00         : PHID         - DENSITY POROSITY (LIMESTONE)
~PARAMETER INFORMATION       
#MNEM.UNIT           DATA             DESCRIPTION OF MNEMONIC
#---------         -----------     ------------------------------
GL  .M        702.259              : gl           - GROUND LEVEL ELEVATION      
EREF.M        706.039              : kb           - ELEVATION OF DEPTH REFERENCE
DATM.M        706.039              : datum        - DATUM ELEVATION             
TDD .M        499.872              : tdd          - TOTAL DEPTH DRILLER         
RUN .         ONE                  : Run          - RUN NUMBER                  
ENG .         BILL                 : Engineer     - RECORDING ENGINEER          
WIT .         JIM                  : Witness      - WITNESSED BY                
MUD .         GEL                  : Mud_type     - MUD TYPE                    
MATR.         LIMESTONE            : Logunit      - NEUTRON MATRIX              
TMAX.C        22.2222              : BHT          - MAXIMUM RECORDED TEMPERATURE
BHTD.M        499.872              : BHTDEP       - MAXIMUM RECORDED TEMPERATURE
MATR.         1                    : LOGUNIT      - NEUTRON MATRIX              
RMT .C        25                   : MDTP         - TEMPERATURE OF MUD          
NEUT.         1                    : NEUTRON      - NEUTRON TYPE                
RESI.         0                    : RESIST       - RESISTIVITY TYPE            
RMC .OHMM     0.25                 : RMC          - RESISTIVITY OF MUD CAKE     
RMF .OHMM     0.25                 : RMF          - RESISTIVITY OF MUD FILTRATE 
SUFT.C        4                    : SUFT         - SURFACE TEMPERATURE         
~A  DEPTH       GR     PHIN     PHID
  259.080  102.591    0.589    0.252
  259.385  104.451    0.582    0.237
  259.690  106.924    0.575    0.267
  259.994  107.558    0.583    0.270
  260.299  108.189    0.610    0.276
  260.604  109.437    0.580    0.261
  260.909  105.783    0.584    0.273
  261.214  100.298    0.606    0.270
  261.518   98.479    0.586    0.262
  261.823   96.054    0.601    0.284
  262.128   96.075    0.596    0.293
  262.433   95.489    0.606    0.252
  262.738   95.502    0.615    0.229
  263.043  100.426    0.586    0.252
  263.347   94.934    0.583    0.261
  263.652   93.735    0.601    0.255
  263.957   94.366    0.599    0.267
  264.262   95.002    0.577    0.258
  264.567   95.635    0.576    0.268
  264.871  101.171    0.608    0.275
  265.176  103.031    0.616    0.292
  265.481  102.439    0.621    0.308
  265.786   95.722    0.626    0.307
  266.091   90.232    0.627    0.303
  266.395   93.929    0.622    0.324
  266.700   93.953    0.625    0.326
  267.005   90.301    0.623    0.316
  267.310   89.717    0.624    0.319
  267.615   90.345    0.626    0.287
  267.919   87.914    0.624    0.277
  268.224   85.488    0.621    0.295
  268.529   87.350    0.618    0.284
  268.834   88.593    0.589    0.292
  269.139   88.616    0.578    0.230
  269.444   84.351    0.601    0.213
  269.748   93.561    0.601    0.279
  270.053   94.194    0.595    0.271
  270.358   88.707    0.593    0.272
  270.663   89.956    0.590    0.250
  270.968   92.422    0.599    0.263
  271.272   89.996    0.612    0.248
  271.577   91.856    0.565    0.237
  271.882   93.102    0.574    0.230
  272.187   88.225    0.563    0.248
  272.492   87.638    0.582    0.232
  272.796   88.271    0.577    0.214
  273.101   90.131    0.544    0.187
  273.406   95.050    0.562    0.183
  273.711   96.912    0.556    0.241
  274.016   95.709    0.588    0.243
  274.320   95.728    0.583    0.258
  274.625   94.524    0.533    0.261
  274.930   90.877    0.529    0.259
  275.235   91.510    0.561    0.260
  275.540   92.142    0.593    0.242
  275.845   92.165    0.573    0.238
  276.149   91.573    0.540    0.225
  276.454   86.694    0.533    0.245
  276.759   87.332    0.551    0.229
  277.064   92.252    0.572    0.234
  277.369   87.984    0.540    0.208
  277.673   86.783    0.514    0.207
  277.978   93.543    0.510    0.232
  278.283   95.402    0.536    0.199
  278.588   90.528    0.564    0.241
  278.893   87.485    0.560    0.239
  279.197   85.059    0.519    0.241
  279.502   83.244    0.487    0.252
  279.807   81.424    0.470    0.280
  280.112   77.773    0.489    0.257
  280.417   71.055    0.511    0.287
  280.721   61.281    0.461    0.322
  281.026   71.711    0.438    0.301
  281.331   82.151    0.435    0.249
  281.636   85.230    0.460    0.257
  281.941   82.194    0.489    0.263
  282.246   81.601    0.484    0.261
  282.550   91.422    0.480    0.253
  282.855  100.018    0.514    0.220
  283.160  103.718    0.572    0.194
  283.465  104.963    0.569    0.203
  283.770  105.602    0.507    0.226
  284.074  105.620    0.486    0.210
  284.379   96.453    0.485    0.244
  284.684   57.888    0.497    0.275
  284.989   45.660    0.496    0.312
  285.294   36.495    0.460    0.325
  285.598   35.912    0.447    0.337
  285.903   39.607    0.441    0.326
  286.208   43.303    0.466    0.332
  286.513   47.612    0.461    0.346
  286.818   50.692    0.452    0.350
  287.122   52.555    0.444    0.333
  287.427   48.900    0.528    0.334
  287.732   47.083    0.470    0.362
  288.037   52.620    0.437    0.335
  288.342   63.667    0.428    0.345
  288.647   74.714    0.418    0.341
  288.951   82.698    0.427    0.339
  289.256   83.946    0.446    0.339
  289.561   69.877    0.446    0.334
  289.866   68.065    0.447    0.324
  290.171   71.760    0.451    0.301
  290.475   70.561    0.504    0.286
  290.780   72.422    0.483    0.303
  291.085   72.441    0.470    0.300
  291.390   70.011    0.468    0.297
  291.695   71.871    0.465    0.243
  291.999   75.569    0.459    0.239
  292.304   71.302    0.454    0.267
  292.609   63.364    0.452    0.295
  292.914   60.322    0.474    0.264
  293.219   62.794    0.463    0.277
  293.523   72.004    0.452    0.305
  293.828   82.438    0.448    0.306
  294.133   91.647    0.475    0.284
  294.438   96.574    0.474    0.338
  294.743   94.755    0.475    0.321
  295.048   77.013    0.458    0.319
  295.352   84.997    0.449    0.324
  295.657   86.244    0.470    0.324
  295.962   74.629    0.472    0.310
  296.267   68.528    0.481    0.284
  296.572   64.261    0.472    0.254
  296.876   73.475    0.470    0.246
  297.181   76.553    0.488    0.292
  297.486   77.802    0.465    0.308
  297.791   79.661    0.453    0.309
  298.096   83.973    0.457    0.287
  298.400   85.832    0.478    0.296
  298.705   88.922    0.492    0.303
  299.010   90.774    0.496    0.303
  299.315   94.470    0.489    0.280
  299.620   98.171    0.490    0.270
  299.924  100.643    0.498    0.275
  300.229  100.664    0.493    0.276
  300.534   98.235    0.478    0.259
  300.839   93.359    0.475    0.249
  301.144   87.866    0.469    0.272
  301.449   81.763    0.450    0.265
  301.753   86.685    0.442    0.251
  302.058   98.957    0.450    0.241
  302.363  111.840    0.526    0.200
  302.668  116.764    0.553    0.156
  302.973  113.112    0.577    0.141
  303.277  117.421    0.582    0.201
  303.582  116.217    0.557    0.196
  303.887  103.989    0.532    0.187
  304.192   99.112    0.536    0.176
  304.497  106.485    0.585    0.180
  304.801  105.891    0.511    0.269
  305.106   94.889    0.468    0.303
  305.411   74.698    0.471    0.331
  305.716   72.885    0.474    0.323
  306.021   78.418    0.473    0.313
  306.325   83.341    0.468    0.323
  306.630   88.873    0.467    0.332
  306.935   96.859    0.462    0.325
  307.240  118.319    0.472    0.329
  307.545  105.478    0.470    0.346
  307.850   78.550    0.467    0.341
  308.154   71.223    0.465    0.316
  308.459   74.919    0.460    0.275
  308.764   81.066    0.462    0.221
  309.069   89.054    0.469    0.237
  309.374   94.587    0.477    0.254
  309.678  100.119    0.493    0.254
  309.983  108.107    0.534    0.238
  310.288  115.475    0.560    0.214
  310.593  123.460    0.530    0.211
  310.898  121.033    0.519    0.217
  311.202  111.869    0.510    0.213
  311.507  110.051    0.467    0.241
  311.812   97.824    0.462    0.266
  312.117  102.750    0.456    0.274
  312.422  105.217    0.459    0.280
  312.726   93.602    0.460    0.300
  313.031   88.726    0.466    0.307
  313.336   95.484    0.478    0.282
  313.641  101.632    0.495    0.258
  313.946   98.592    0.499    0.247
  314.251   84.527    0.479    0.248
  314.555   75.359    0.462    0.258
  314.860   64.970    0.448    0.293
  315.165   63.153    0.445    0.305
  315.470   65.012    0.474    0.324
  315.775   64.422    0.465    0.326
  316.079   58.931    0.447    0.317
  316.384   60.794    0.435    0.311
  316.689   62.656    0.438    0.304
  316.994   61.449    0.448    0.286
  317.299   56.572    0.458    0.281
  317.603   54.757    0.427    0.251
  317.908   57.234    0.372    0.214
  318.213   62.764    0.389    0.227
  318.518   73.196    0.448    0.279
  318.823   76.894    0.434    0.271
  319.127   81.818    0.429    0.262
  319.432   86.738    0.439    0.223
  319.737   90.434    0.454    0.229
  320.042   94.744    0.462    0.247
  320.347   99.665    0.476    0.230
  320.652  105.816    0.489    0.210
  320.956  105.840    0.494    0.203
  321.261  101.573    0.484    0.209
  321.566   97.306    0.488    0.227
  321.871   92.430    0.495    0.252
  322.176   89.390    0.486    0.261
  322.480   85.731    0.511    0.243
  322.785   82.087    0.534    0.239
  323.090   81.492    0.505    0.283
  323.395   86.412    0.461    0.276
  323.700   94.395    0.448    0.242
  324.004  102.994    0.443    0.232
  324.309  107.301    0.473    0.209
  324.614  103.649    0.490    0.212
  324.919  100.000    0.504    0.227
