~VERSION INFORMATION
 VERS.                 2.0:   CWLS LOG ASCII STANDARD -VERSION 2.0
 WRAP.                  NO:   ONE LINE PER DEPTH STEP
~WELL INFORMATION BLOCK
#MNEM.UNIT           DATA                    DESCRIPTION OF MNEMONIC
#---------    -------------------            -------------------------------
# Generated from Intellog Unique Number	CX_WELLS/WELL/2766
WELL.         NEWBY                          : Well_name    - WELL
LOC .         00/16-07-081-03W4/0            : Location     - LOCATION
UWI .         00/16-07-081-03W400            : Uwi          - UNIQUE WELL ID
ENTR.         T                              : Entered      - ENTERED BY
SRVC.         SCHLUMBERGER                   : Scn          - SERVICE COMPANY
STRT.M        150                            : top_depth    - START DEPTH
STOP.M        250                            : bot_depth    - STOP DEPTH
STEP.M        0.25                           : increment    - STEP LENGTH
 NULL. -999.2500:NULL Value
~CURVE INFORMATION BLOCK
#MNEM UNIT       ERCB CURVE CODE    CURVE DESCRIPTION
#-----------   ------------------   ----------------------------------
DEPT.M        00 001 00 00         : DEPTH        - DEPTH
GR  .API      00 310 00 00         : GR           - GAMMA RAY
NPHI.V/V      00 330 00 00         : PHIN         - NEUTRON POROSITY (SANDSTONE)
DPHI.V/V      00 890 00 00         : PHID         - DENSITY POROSITY (SANDSTONE)
ILD .OHMM     00 120 00 00         : RESD         - DEEP RESISTIVITY (DLL)
~PARAMETER INFORMATION
#MNEM.UNIT           DATA             DESCRIPTION OF MNEMONIC
#---------         -----------     ------------------------------
GL  .M        453                  : gl           - GROUND LEVEL ELEVATION
EREF.M        457.9                : kb           - ELEVATION OF DEPTH REFERENCE
DATM.M        457.9                : datum        - DATUM ELEVATION
TDD .M        258                  : tdd          - TOTAL DEPTH DRILLER
RUN .         ONE                  : Run          - RUN NUMBER
ENG .         BILL                 : Engineer     - RECORDING ENGINEER
WIT .         JIM                  : Witness      - WITNESSED BY
MUD .         GEL                  : Mud_type     - MUD TYPE
MATR.         SANDSTONE            : Logunit      - NEUTRON MATRIX
TMAX.C        18                   : BHT          - MAXIMUM RECORDED TEMPERATURE
BHTD.M        258                  : BHTDEP       - MAXIMUM RECORDED TEMPERATURE
MATR.         1                    : LOGUNIT      - NEUTRON MATRIX
RMT .C        10                   : MDTP         - TEMPERATURE OF MUD
NEUT.         1                    : NEUTRON      - NEUTRON TYPE
RESI.         2.6                  : RESIST       - RESISTIVITY TYPE
RMC .OHMM     0.25                 : RMC          - RESISTIVITY OF MUD CAKE
RMF .OHMM     2.9                  : RMF          - RESISTIVITY OF MUD FILTRATE
SUFT.C        4                    : SUFT         - SURFACE TEMPERATURE
~A  DEPTH       GR     PHIN     PHID     RESD
  150.000   91.561    0.475    0.327    6.765
  150.250   92.113    0.474    0.330    6.758
  150.500   92.677    0.473    0.331    6.742
  150.750   93.230    0.474    0.331    6.599
  151.000   93.185    0.477    0.329    6.593
  151.250   93.715    0.479    0.327    6.330
  151.500   93.692    0.483    0.321    6.199
  151.750   93.646    0.495    0.318    6.190
  152.000   94.199    0.485    0.320    6.296
  152.250   95.925    0.487    0.321    6.284
  152.500   94.683    0.494    0.324    6.272
  152.750   93.452    0.475    0.324    6.024
  153.000   92.808    0.451    0.321    5.571
  153.250   95.156    0.452    0.318    5.155
  153.500   99.288    0.462    0.313    4.951
  153.750   99.840    0.451    0.310    5.041
  154.000   99.806    0.438    0.308    5.031
  154.250   98.564    0.432    0.310    5.022
  154.500   96.700    0.431    0.311    5.009
  154.750   95.469    0.436    0.311    5.000
  155.000   96.620    0.442    0.310    4.896
  155.250   99.555    0.448    0.309    4.615
  155.500  102.513    0.461    0.304    4.522
  155.750  106.057    0.473    0.297    4.343
  156.000  110.189    0.491    0.291    4.502
  156.250  112.548    0.497    0.282    4.665
  156.500  114.896    0.500    0.278    4.837
  156.750  117.831    0.494    0.276    5.205
  157.000  113.608    0.483    0.273    5.396
  157.250  111.146    0.471    0.277    5.388
  157.500  110.514    0.465    0.289    5.274
  157.750  104.484    0.459    0.298    5.068
  158.000  103.219    0.457    0.302    4.690
  158.250  104.393    0.457    0.299    4.176
  158.500  107.938    0.468    0.295    3.938
  158.750  112.667    0.512    0.291    3.856
  159.000  109.630    0.483    0.288    3.921
  159.250  107.191    0.452    0.283    3.915
  159.500  108.342    0.454    0.280    3.907
  159.750  110.678    0.466    0.276    3.900
  160.000  111.830    0.499    0.277    3.890
  160.250  112.992    0.521    0.282    3.885
  160.500  115.904    0.540    0.291    3.731
  160.750  116.480    0.555    0.297    3.586
  161.000  117.044    0.565    0.299    3.448
  161.250  116.400    0.545    0.299    3.188
  161.500  113.362    0.498    0.299    3.243
  161.750  107.920    0.479    0.301    3.116
  162.000  110.866    0.471    0.302    2.723
  162.250  117.403    0.540    0.302    2.568
  162.500  120.349    0.564    0.304    2.662
  162.750  122.685    0.562    0.301    2.919
  163.000  121.443    0.547    0.293    3.262
  163.250  118.405    0.493    0.286    3.449
  163.500  114.183    0.482    0.281    3.857
  163.750  106.945    0.489    0.274    4.229
  164.000  107.498    0.480    0.254    4.551
  164.250  112.826    0.484    0.252    4.633
  164.500  115.186    0.478    0.256    4.800
  164.750  115.738    0.463    0.257    4.793
  165.000  112.701    0.449    0.261    4.782
  165.250  109.663    0.443    0.277    4.681
  165.500  106.615    0.448    0.288    4.500
  165.750  110.769    0.476    0.290    4.327
  166.000  116.696    0.510    0.287    3.853
  166.250  119.653    0.540    0.285    3.565
  166.500  115.995    0.548    0.285    3.558
  166.750  111.173    0.515    0.286    3.617
  167.000  105.743    0.502    0.288    3.681
  167.250  103.292    0.503    0.289    3.887
  167.500  103.845    0.498    0.289    4.027
  167.750  107.378    0.484    0.290    4.174
  168.000  110.336    0.466    0.291    4.409
  168.250  110.290    0.464    0.287    4.568
  168.500  108.449    0.459    0.284    4.651
  168.750  106.597    0.454    0.281    4.817
  169.000  105.965    0.437    0.294    4.812
  169.250  104.124    0.411    0.308    4.798
  169.500  101.673    0.406    0.320    4.704
  169.750  103.389    0.412    0.333    4.690
  170.000  103.964    0.428    0.331    4.595
  170.250  106.301    0.440    0.324    4.500
  170.500  107.475    0.449    0.314    4.323
  170.750  109.224    0.466    0.301    4.076
  171.000  108.580    0.483    0.289    3.844
  171.250  107.913    0.500    0.291    3.624
  171.500  107.292    0.533    0.301    3.227
  171.750  107.246    0.552    0.306    2.988
  172.000  105.970    0.563    0.314    2.713
  172.250  105.947    0.563    0.319    2.510
  172.500  104.705    0.563    0.320    2.276
  172.750  103.462    0.568    0.321    2.230
  173.000  105.200    0.571    0.319    2.143
  173.250  105.166    0.575    0.314    2.221
  173.500  105.121    0.575    0.308    2.390
  173.750  102.670    0.574    0.300    2.479
  174.000   99.023    0.577    0.288    2.719
  174.250   97.769    0.519    0.278    2.928
  174.500   98.345    0.466    0.269    3.153
  174.750  100.094    0.474    0.264    3.395
  175.000  103.029    0.463    0.260    3.651
  175.250  104.180    0.450    0.264    3.717
  175.500  104.146    0.435    0.273    3.779
  175.750  105.873    0.425    0.281    3.913
  176.000  108.830    0.424    0.291    3.982
  176.250  114.181    0.434    0.295    3.973
  176.500  121.316    0.439    0.297    3.893
  176.750  124.251    0.453    0.297    3.814
  177.000  124.205    0.495    0.295    3.733
  177.250  122.364    0.516    0.286    3.590
  177.500  118.729    0.495    0.277    3.382
  177.750  117.486    0.512    0.278    3.313
  178.000  116.842    0.523    0.281    3.243
  178.250  115.600    0.510    0.282    3.235
  178.500  114.956    0.487    0.284    3.172
  178.750  114.301    0.475    0.284    3.164
  179.000  113.634    0.480    0.285    3.041
  179.250  113.013    0.479    0.286    3.033
  179.500  112.357    0.500    0.285    3.085
  179.750  111.115    0.484    0.285    3.196
  180.000  110.482    0.473    0.284    3.253
  180.250  111.035    0.480    0.283    3.248
  180.500  112.785    0.494    0.280    3.240
  180.750  113.901    0.498    0.277    3.234
  181.000  113.879    0.483    0.274    3.228
  181.250  112.038    0.473    0.268    3.100
  181.500  109.599    0.467    0.263    3.036
  181.750  108.357    0.463    0.262    3.333
  182.000  108.311    0.463    0.265    3.942
  182.250  108.265    0.468    0.266    4.325
  182.500  107.000    0.470    0.265    4.485
  182.750  108.151    0.468    0.261    4.474
  183.000  109.302    0.469    0.252    4.300
  183.250  108.071    0.466    0.231    4.294
  183.500  102.042    0.373    0.207    4.363
  183.750   99.592    0.376    0.179    4.442
  184.000  103.136    0.396    0.162    5.057
  184.250  106.094    0.398    0.209    5.444
  184.500  106.014    0.318    0.221    5.748
  184.750  102.401    0.295    0.245    5.964
  185.000   95.773    0.295    0.325    6.179
  185.250   90.941    0.294    0.354    6.288
  185.500   86.695    0.294    0.368    6.515
  185.750   84.855    0.298    0.369    6.626
  186.000   82.404    0.303    0.367    6.610
  186.250   82.359    0.316    0.366    6.604
  186.500   82.324    0.338    0.369    6.467
  186.750   83.453    0.336    0.376    6.096
  187.000   85.214    0.337    0.373    5.748
  187.250   88.148    0.346    0.371    5.420
  187.500   90.508    0.369    0.366    5.111
  187.750   92.855    0.410    0.348    4.466
  188.000   96.400    0.452    0.337    4.055
  188.250   99.346    0.489    0.333    3.681
  188.500  102.879    0.488    0.323    3.041
  188.750  101.039    0.470    0.311    2.417
  189.000   96.816    0.437    0.295    2.505
  189.250   91.983    0.414    0.302    2.747
  189.500   86.541    0.409    0.309    3.014
  189.750   82.894    0.384    0.308    3.126
  190.000   81.053    0.381    0.304    3.180
  190.250   79.213    0.375    0.300    3.172
  190.500   77.372    0.364    0.303    2.991
  190.750   77.326    0.356    0.311    2.818
  191.000   79.640    0.347    0.319    2.762
  191.250   80.814    0.334    0.308    2.704
  191.500   82.563    0.339    0.299    2.699
  191.750   83.105    0.347    0.292    2.693
  192.000   83.082    0.371    0.298    2.688
  192.250   83.025    0.377    0.303    2.733
  192.500   82.979    0.378    0.304    2.726
  192.750   82.945    0.379    0.304    2.724
  193.000   82.899    0.379    0.303    2.667
  193.250   80.426    0.372    0.303    2.662
