~VERSION INFORMATION
 VERS.                 2.0:   CWLS LOG ASCII STANDARD -VERSION 2.0
 WRAP.                  NO:   ONE LINE PER DEPTH STEP
~WELL INFORMATION BLOCK
#MNEM.UNIT           DATA                    DESCRIPTION OF MNEMONIC
#---------    -------------------            -------------------------------
# Generated from Intellog Unique Number	CS_67_68/WELL/854
WELL.         AEC FISH CREEK                 : Well_name    - WELL
LOC .         00/13-30-068-08W4/0            : Location     - LOCATION
UWI .         00/13-30-068-08W4/0            : Uwi          - UNIQUE WELL ID
ENTR.         SP                             : Entered      - ENTERED BY
SRVC.         SCHLUMBERGER                   : Scn          - SERVICE COMPANY
STRT.M        405                            : top_depth    - START DEPTH
STOP.M        625                            : bot_depth    - STOP DEPTH
STEP.M        0.25                           : increment    - STEP LENGTH
 NULL. -999.2500:NULL Value
~CURVE INFORMATION BLOCK
#MNEM UNIT       ERCB CURVE CODE    CURVE DESCRIPTION
#-----------   ------------------   ----------------------------------
DEPT.M        00 001 00 00         : DEPTH        - DEPTH
ILD .OHMM     00 120 00 00         : RESD         - DEEP RESISTIVITY (DIL)
DPHI.V/V      00 890 00 00         : PHID         - DENSITY POROSITY (LIMESTONE)
NPHI.V/V      00 330 00 00         : PHIN         - NEUTRON POROSITY (LIMESTONE)
GR  .API      00 310 00 00         : GR           - GAMMA RAY
~PARAMETER INFORMATION
#MNEM.UNIT           DATA             DESCRIPTION OF MNEMONIC
#---------         -----------     ------------------------------
GL  .M        732.42               : gl           - GROUND LEVEL ELEVATION
EREF.M        731.68               : kb           - ELEVATION OF DEPTH REFERENCE
DATM.M        732.42               : datum        - DATUM ELEVATION
TDD .M        633                  : tdd          - TOTAL DEPTH DRILLER
RUN .         ONE                  : Run          - RUN NUMBER
ENG .         BILL                 : Engineer     - RECORDING ENGINEER
WIT .         JIM                  : Witness      - WITNESSED BY
MUD .         GEL                  : Mud_type     - MUD TYPE
MATR.         LIMESTONE            : Logunit      - NEUTRON MATRIX
TMAX.C        28                   : BHT          - MAXIMUM RECORDED TEMPERATURE
BHTD.M        625                  : BHTDEP       - MAXIMUM RECORDED TEMPERATURE
MATR.         1                    : LOGUNIT      - NEUTRON MATRIX
RMT .C        25                   : MDTP         - TEMPERATURE OF MUD
NEUT.         1                    : NEUTRON      - NEUTRON TYPE
RESI.         0                    : RESIST       - RESISTIVITY TYPE
RMC .OHMM     0.25                 : RMC          - RESISTIVITY OF MUD CAKE
RMF .OHMM     0.25                 : RMF          - RESISTIVITY OF MUD FILTRATE
SUFT.C        15                   : SUFT         - SURFACE TEMPERATURE
~A  DEPTH     RESD     PHID     PHIN       GR
# ...
  448.500    5.930    0.282    0.442   87.315
  448.750    5.907    0.297    0.437   89.150
  449.000    5.830    0.290    0.434   93.365
  449.250    5.732    0.287    0.436   93.371
  449.500    5.636    0.294    0.436   87.342
  449.750    5.500    0.301    0.436   89.118
  450.000    5.377    0.291    0.436   93.027
  450.250    5.218    0.285    0.436   95.900
  450.500    5.063    0.270    0.441   99.016
  450.750    5.016    0.260    0.446  102.438
  451.000    4.988    0.253    0.449  102.628
  451.250    4.988    0.255    0.438  103.062
  451.500    4.997    0.268    0.424  109.656
  451.750    4.688    0.280    0.415  113.137
  452.000    4.741    0.292    0.427  115.765
  452.250    4.795    0.295    0.437  111.321
  452.500    4.822    0.285    0.433  104.561
  452.750    4.831    0.277    0.422  100.177
  453.000    4.831    0.271    0.416  101.465
  453.250    4.831    0.267    0.414  101.471
  453.500    4.830    0.264    0.414   99.040
  453.750    4.840    0.303    0.418   93.498
  454.000    4.867    0.331    0.421   88.322
  454.250    4.885    0.344    0.421   88.511
  454.500    4.894    0.356    0.426   87.665
  454.750    4.858    0.366    0.442   83.830
  455.000    4.803    0.371    0.449   78.106
  455.250    4.723    0.355    0.438   74.027
  455.500    4.696    0.349    0.427   78.913
  455.750    4.678    0.343    0.418   82.151
  456.000    4.678    0.349    0.410   80.633
  456.250    4.696    0.342    0.406   82.531
  456.500    4.678    0.333    0.424   89.672
  456.750    4.634    0.329    0.433   96.386
  457.000    4.617    0.336    0.412  100.905
  457.250    4.634    0.344    0.396  101.461
  457.500    4.669    0.343    0.410   93.114
  457.750    4.696    0.334    0.402   90.988
  458.000    4.758    0.323    0.392   94.349
  458.250    4.821    0.314    0.398   94.843
  458.500    4.857    0.313    0.404   93.996
  458.750    4.894    0.321    0.412   94.796
  459.000    4.894    0.316    0.416   99.926
  459.250    4.894    0.316    0.416  102.615
  459.500    4.884    0.322    0.425   92.439
  459.750    4.857    0.336    0.446   84.519
  460.000    4.848    0.354    0.448   76.965
  460.250    4.829    0.362    0.436   76.362
  460.500    4.857    0.356    0.435   87.894
  460.750    4.902    0.346    0.442   96.376
  461.000    4.958    0.332    0.431   94.127
  461.250    5.043    0.323    0.423   98.831
  461.500    5.100    0.313    0.416  101.763
  461.750    5.196    0.310    0.406  100.123
  462.000    5.285    0.314    0.400   90.435
  462.250    5.405    0.314    0.399   84.772
  462.500    5.518    0.313    0.406   87.096
  462.750    5.623    0.307    0.427   90.579
  463.000    5.740    0.300    0.437   97.781
  463.250    5.849    0.299    0.425  102.727
  463.500    5.904    0.301    0.418  105.294
  463.750    5.960    0.306    0.412   99.814
  464.000    6.016    0.299    0.409   91.955
  464.250    6.062    0.290    0.406  101.474
  464.500    6.027    0.281    0.406  110.201
  464.750    5.937    0.277    0.410  116.732
  465.000    5.816    0.294    0.413  121.556
  465.250    5.591    0.305    0.424  123.331
  465.500    5.344    0.310    0.435  117.911
  465.750    5.176    0.304    0.432   99.382
  466.000    5.070    0.299    0.428   91.096
  466.250    4.929    0.296    0.422   92.567
  466.500    4.856    0.293    0.412   95.928
  466.750    4.774    0.310    0.414   92.703
  467.000    4.756    0.326    0.424   85.271
  467.250    4.756    0.325    0.411   84.058
  467.500    4.747    0.319    0.404   87.906
  467.750    4.756    0.316    0.401   83.950
  468.000    4.792    0.316    0.409   80.238
  468.250    4.855    0.320    0.418   82.319
  468.500    4.929    0.324    0.425   83.788
  468.750    5.041    0.325    0.434   85.076
  469.000    5.108    0.323    0.420   86.485
  469.250    5.185    0.319    0.404   87.896
  469.500    5.195    0.315    0.396   85.951
  469.750    5.205    0.312    0.405   81.994
  470.000    5.264    0.302    0.410   83.891
  470.250    5.293    0.295    0.412   87.679
  470.500    5.374    0.303    0.405   90.795
  470.750    5.404    0.312    0.396   83.973
  471.000    5.475    0.309    0.397   82.091
  471.250    5.558    0.304    0.406   87.403
  471.500    5.642    0.302    0.411   90.702
  471.750    5.717    0.302    0.400   92.171
  472.000    5.782    0.302    0.378   92.423
  472.250    5.825    0.296    0.379   91.759
  472.500    5.858    0.291    0.402   89.511
  472.750    5.902    0.289    0.409   88.236
  473.000    5.902    0.295    0.396   86.780
  473.250    5.902    0.297    0.398   85.202
  473.500    5.891    0.301    0.410   84.477
  473.750    5.869    0.313    0.411   84.544
  474.000    5.858    0.318    0.413   86.747
  474.250    5.858    0.313    0.418   88.156
  474.500    5.836    0.300    0.401   91.090
  474.750    5.814    0.292    0.385   94.145
  475.000    5.792    0.284    0.394   96.348
  475.250    5.674    0.282    0.406   98.002
  475.500    5.547    0.273    0.401   97.764
  475.750    5.253    0.265    0.404   98.503
  476.000    5.107    0.256    0.414  100.523
  476.250    4.946    0.250    0.419  102.297
  476.500    4.791    0.247    0.416  104.255
  476.750    4.640    0.255    0.413  106.457
  477.000    4.553    0.265    0.410  106.586
  477.250    4.444    0.266    0.413  103.972
  477.500    4.394    0.255    0.419  101.418
  477.750    4.328    0.255    0.423   99.656
  478.000    4.288    0.267    0.425  108.140
  478.250    4.263    0.278    0.426  102.719
  478.500    4.239    0.287    0.432   90.714
  478.750    4.184    0.294    0.439   85.111
  479.000    4.075    0.285    0.445   93.838
  479.250    3.689    0.278    0.449  101.284
  479.500    3.150    0.271    0.452  107.633
  479.750    2.685    0.273    0.448  109.224
  480.000    2.319    0.290    0.454  112.463
  480.250    2.139    0.300    0.475  113.264
  480.500    2.111    0.309    0.493  111.014
  480.750    2.381    0.319    0.503  112.241
  481.000    2.695    0.329    0.494  111.576
  481.250    3.068    0.341    0.482  104.572
  481.500    3.422    0.337    0.471   99.274
  481.750    3.837    0.328    0.458   97.451
  482.000    4.090    0.315    0.443  102.641
  482.250    4.303    0.306    0.432   95.392
  482.500    4.451    0.307    0.427   87.656
  482.750    4.476    0.319    0.439   84.491
  483.000    4.510    0.328    0.447   81.023
  483.250    4.535    0.316    0.440   79.383
  483.500    4.578    0.307    0.431   85.856
  483.750    4.656    0.300    0.429   87.873
  484.000    4.674    0.303    0.441   90.259
  484.250    4.683    0.324    0.440   89.411
  484.500    4.656    0.340    0.431   73.992
  484.750    4.535    0.356    0.446   68.450
  485.000    4.360    0.362    0.441   75.653
  485.250    4.074    0.338    0.421   80.720
  485.500    3.991    0.319    0.410   87.922
  485.750    3.917    0.312    0.422   93.600
  486.000    3.939    0.327    0.449   97.570
  486.250    3.998    0.336    0.447  100.564
  486.500    4.152    0.334    0.436  103.011
  486.750    4.401    0.336    0.429   96.555
  487.000    4.535    0.342    0.426   93.147
  487.250    4.700    0.348    0.438   92.117
  487.500    4.926    0.350    0.437   87.002
  487.750    5.182    0.346    0.427   81.034
  488.000    5.380    0.344    0.423   76.894
  488.250    5.597    0.339    0.424   72.145
  488.500    5.866    0.345    0.429   67.335
  488.750    6.102    0.327    0.440   71.794
  489.000    6.336    0.321    0.434   73.385
  489.250    6.934    0.323    0.419   72.173
  489.500    7.603    0.229    0.384   67.607
  489.750    8.639    0.186    0.338   65.663
  490.000    9.946    0.133    0.196   64.816
  490.250   12.070    0.095    0.174   63.239
  490.500   14.620    0.062    0.155   61.539
  490.750   17.809    0.031    0.145   59.837
  491.000   15.094    0.009    0.246   57.832
  491.250    9.243    0.120    0.309   64.242
  491.500    7.460    0.198    0.358   73.883
  491.750    6.516    0.242    0.393   83.035
