~VERSION INFORMATION
 VERS.                 2.0:   CWLS LOG ASCII STANDARD -VERSION 2.0
 WRAP.                  NO:   ONE LINE PER DEPTH STEP
~WELL INFORMATION BLOCK
#MNEM.UNIT           DATA                    DESCRIPTION OF MNEMONIC
#---------    -------------------            -------------------------------
# Generated from Intellog Unique Number	CS_73_76/WELL/3240
WELL.         10-25-075-15W4                 : Well_name    - WELL
LOC .         00/10-25-075-15W4/0            : Location     - LOCATION
UWI .         00/10-25-075-15W4/0            : Uwi          - UNIQUE WELL ID
ENTR.         SP                             : Entered      - ENTERED BY
SRVC.         SCHLUMBERGER                   : Scn          - SERVICE COMPANY
STRT.M        365                            : top_depth    - START DEPTH
STOP.M        570                            : bot_depth    - STOP DEPTH
STEP.M        0.25                           : increment    - STEP LENGTH
 NULL. -999.2500:NULL Value
~CURVE INFORMATION BLOCK
#MNEM UNIT       ERCB CURVE CODE    CURVE DESCRIPTION
#-----------   ------------------   ----------------------------------
DEPT.M        00 001 00 00         : DEPTH        - DEPTH
GR  .API      00 310 00 00         : GR           - GAMMA RAY
NPHI.V/V      00 330 00 00         : PHIN         - NEUTRON POROSITY (LIMESTONE)
DPHI.V/V      00 890 00 00         : PHID         - DENSITY POROSITY (LIMESTONE)
ILD .OHMM     00 120 00 00         : RESD         - DEEP RESISTIVITY (DIL)
~PARAMETER INFORMATION
#MNEM.UNIT           DATA             DESCRIPTION OF MNEMONIC
#---------         -----------     ------------------------------
GL  .M        741.17               : gl           - GROUND LEVEL ELEVATION
EREF.M        745.67               : kb           - ELEVATION OF DEPTH REFERENCE
DATM.M        741.17               : datum        - DATUM ELEVATION
TDD .M        574.4                : tdd          - TOTAL DEPTH DRILLER
RUN .         ONE                  : Run          - RUN NUMBER
ENG .         BILL                 : Engineer     - RECORDING ENGINEER
WIT .         JIM                  : Witness      - WITNESSED BY
MUD .         GEL                  : Mud_type     - MUD TYPE
MATR.         LIMESTONE            : Logunit      - NEUTRON MATRIX
TMAX.C        22                   : BHT          - MAXIMUM RECORDED TEMPERATURE
BHTD.M        574.4                : BHTDEP       - MAXIMUM RECORDED TEMPERATURE
MATR.         1                    : LOGUNIT      - NEUTRON MATRIX
RMT .C        25                   : MDTP         - TEMPERATURE OF MUD
NEUT.         1                    : NEUTRON      - NEUTRON TYPE
RESI.         0                    : RESIST       - RESISTIVITY TYPE
RMC .OHMM     0.25                 : RMC          - RESISTIVITY OF MUD CAKE
RMF .OHMM     0.25                 : RMF          - RESISTIVITY OF MUD FILTRATE
SUFT.C        15                   : SUFT         - SURFACE TEMPERATURE
~A  DEPTH       GR     PHIN     PHID     RESD
# ...
  539.000   83.367    0.337    0.162    3.633
  539.250   85.207    0.354    0.172    4.224
  539.500   87.048    0.355    0.185    5.196
  539.750   87.058    0.347    0.178    5.928
  540.000   82.190    0.325    0.166    6.273
  540.250   74.276    0.321    0.157    5.929
  540.500   71.848    0.342    0.173    5.296
  540.750   78.568    0.355    0.181    5.101
  541.000   84.065    0.360    0.183    4.913
  541.250   86.514    0.349    0.191    4.732
  541.500   79.210    0.339    0.176    4.732
  541.750   73.731    0.335    0.144    5.199
  542.000   69.477    0.343    0.148    5.821
  542.250   67.657    0.346    0.164    6.396
  542.500   69.497    0.351    0.174    6.769
  542.750   75.611    0.352    0.180    6.898
  543.000   79.889    0.354    0.184    7.163
  543.250   81.727    0.343    0.173    7.438
  543.500   74.421    0.316    0.147    8.020
  543.750   65.284    0.302    0.129    8.173
  544.000   65.296    0.324    0.153    8.174
  544.250   73.234    0.335    0.170    8.021
  544.500   81.784    0.341    0.176    7.582
  544.750   85.451    0.346    0.161    7.166
  545.000   82.414    0.353    0.156    7.033
  545.250   77.547    0.356    0.165    7.033
  545.500   78.778    0.355    0.176    7.034
  545.750   83.668    0.346    0.170    7.034
  546.000   86.116    0.336    0.127    7.305
  546.250   81.252    0.329    0.098    7.585
  546.500   78.214    0.341    0.123    7.877
  546.750   78.833    0.355    0.140    8.179
  547.000   80.674    0.350    0.159    8.655
  547.250   81.903    0.346    0.175    8.988
  547.500   78.258    0.339    0.177    9.333
  547.750   75.220    0.324    0.111    9.876
  548.000   74.622    0.314    0.095   10.256
  548.250   73.413    0.314    0.098   10.852
  548.500   67.327    0.304    0.119   11.059
  548.750   61.849    0.299    0.125   11.060
  549.000   63.081    0.306    0.130    9.337
  549.250   74.680    0.332    0.149    8.499
  549.500   80.787    0.355    0.167    7.883
  549.750   85.673    0.360    0.179    7.176
  550.000   83.248    0.365    0.161    6.782
  550.250   80.819    0.366    0.118    7.043
  550.500   80.831    0.355    0.134    8.502
  550.750   85.112    0.354    0.194    9.885
  551.000   88.171    0.360    0.211   11.277
  551.250   89.399    0.353    0.240   13.614
  551.500   86.974    0.342    0.258   16.746
  551.750   82.716    0.337    0.279   20.600
  552.000   78.462    0.334    0.297   21.798
  552.250   77.248    0.334    0.267   19.842
  552.500   76.040    0.323    0.252   15.247
  552.750   77.272    0.315    0.222   13.116
  553.000   80.941    0.310    0.207   11.073
  553.250   87.049    0.310    0.190    9.891
  553.500   96.212    0.312    0.178    9.003
  553.750   99.879    0.307    0.168    8.510
  554.000  103.549    0.307    0.162    9.005
  554.250  105.999    0.311    0.180   10.082
  554.500  104.791    0.307    0.201   11.721
  554.750  101.139    0.306    0.201   14.972
  555.000   83.469    0.308    0.192   18.767
  555.250   74.943    0.328    0.216   24.890
  555.500   59.101    0.345    0.266   26.338
  555.750   54.234    0.354    0.290   24.430
  556.000   57.907    0.357    0.271   23.529
  556.250   60.354    0.349    0.254   21.417
  556.500   64.025    0.336    0.238   19.865
  556.750   67.086    0.327    0.222   18.775
  557.000   68.924    0.319    0.212   17.415
  557.250   71.984    0.313    0.224   16.773
  557.500   72.605    0.309    0.237   16.461
  557.750   73.837    0.302    0.227   15.854
  558.000   76.900    0.299    0.217   15.559
  558.250   76.907    0.297    0.212   15.271
  558.500   73.870    0.299    0.212   15.271
  558.750   70.832    0.318    0.207   15.273
  559.000   70.237    0.332    0.204   16.468
  559.250   69.636    0.342    0.225   17.426
  559.500   69.649    0.325    0.257   19.511
  559.750   68.439    0.313    0.251   20.646
  560.000   64.180    0.305    0.256   23.116
  560.250   58.704    0.309    0.268   24.925
  560.500   56.278    0.310    0.281   29.528
  560.750   53.849    0.313    0.289   31.838
  561.000   48.983    0.319    0.294   37.015
  561.250   44.115    0.327    0.301   40.670
  561.500   41.077    0.338    0.306   42.233
  561.750   46.577    0.328    0.301   36.332
  562.000   53.905    0.321    0.271   28.449
  562.250   61.841    0.322    0.240   21.860
  562.500   70.998    0.305    0.213   19.898
  562.750   74.058    0.295    0.186   16.485
  563.000   71.632    0.290    0.185   14.726
  563.250   70.424    0.292    0.195   12.668
  563.500   73.481    0.323    0.209   11.316
  563.750   78.373    0.354    0.214    9.735
  564.000   83.260    0.376    0.139    9.029
  564.250   91.201    0.390    0.141    8.696
  564.500   93.648    0.365    0.203    9.737
  564.750   88.781    0.349    0.236   11.977
  565.000   72.939    0.338    0.263   15.886
  565.250   64.418    0.332    0.280   19.177
  565.500   61.377    0.340    0.279   21.879
  565.750   59.558    0.350    0.280   21.881
  566.000   66.889    0.343    0.263   19.181
  566.250   72.996    0.324    0.243   16.193
  566.500   83.371    0.303    0.205   14.740
  566.750   79.729    0.297    0.189   13.167
  567.000   76.686    0.295    0.202   11.542
  567.250   77.918    0.305    0.196   10.706
  567.500   83.419    0.309    0.184    9.745
  567.750   88.308    0.318    0.173    9.210
  568.000   93.196    0.328    0.167    8.543
  568.250   98.696    0.339    0.158    8.228
  568.500  102.975    0.350    0.144    8.229
  568.750  106.642    0.340    0.134    8.385
  569.000  110.922    0.324    0.136    8.873
  569.250  113.983    0.313    0.159    9.568
  569.500  115.821    0.317    0.171   10.124
  569.750  116.442    0.331    0.175   10.713
  570.000  115.846    0.345    0.186   11.552
