~VERSION INFORMATION
 VERS.                 2.0:   CWLS LOG ASCII STANDARD -VERSION 2.0
 WRAP.                  NO:   ONE LINE PER DEPTH STEP
~WELL INFORMATION BLOCK
#MNEM.UNIT           DATA                    DESCRIPTION OF MNEMONIC
#---------    -------------------            -------------------------------
# Generated from Intellog Unique Number	CW_70_72/WELL/3750
NULL.         -999.25                        : NULL_VALUE
WELL.         NORCEN ENERGY RESOURCES LTD.   : Well_name    - WELL              
LOC .         00/10-22-071-05W5/0            : Location     - LOCATION          
UWI .         00/10-22-071-05W5/0            : Uwi          - UNIQUE WELL ID    
ENTR.         JOETTE                         : Entered      - ENTERED BY        
SRVC.         COMPUTALOG                     : Scn          - SERVICE COMPANY   
DATE.         05/13/92                       : Date         - LOG DATE          
STRT.M        610                            : top_depth    - START DEPTH       
STOP.M        835                            : bot_depth    - STOP DEPTH        
STEP.M        0.25                           : increment    - STEP LENGTH       
~CURVE INFORMATION BLOCK
#MNEM UNIT       ERCB CURVE CODE    CURVE DESCRIPTION
#-----------   ------------------   ----------------------------------
DEPT.M        00 001 00 00         : DEPTH        - DEPTH                       
DPHI.V/V      00 890 00 00         : PHID         - DENSITY POROSITY (SANDSTONE)
GR  .API      00 310 00 00         : GR           - GAMMA RAY                   
CALI.MM       00 280 01 00         : CAL          - CALIPER                     
ILD .OHMM     00 120 00 00         : RESD         - DEEP RESISTIVITY (DIL)      
NPHI.V/V      00 330 00 00         : PHIN         - NEUTRON POROSITY (SANDSTONE)
~PARAMETER INFORMATION       
#MNEM.UNIT           DATA             DESCRIPTION OF MNEMONIC
#---------         -----------     ------------------------------
GL  .M        778.85               : gl           - GROUND LEVEL ELEVATION      
EREF.M        782.2                : kb           - ELEVATION OF DEPTH REFERENCE
DATM.M        782.2                : datum        - DATUM ELEVATION             
TDD .M        874.9                : tdd          - TOTAL DEPTH DRILLER         
RUN .         ONE                  : Run          - RUN NUMBER                  
ENG .         BILL                 : Engineer     - RECORDING ENGINEER          
WIT .         JIM                  : Witness      - WITNESSED BY                
MUD .         GEL                  : Mud_type     - MUD TYPE                    
MATR.         SANDSTONE            : Logunit      - NEUTRON MATRIX              
TMAX.C        39                   : BHT          - MAXIMUM RECORDED TEMPERATURE
BHTD.M        874.9                : BHTDEP       - MAXIMUM RECORDED TEMPERATURE
MATR.         1                    : LOGUNIT      - NEUTRON MATRIX              
RMT .C        24.4                 : MDTP         - TEMPERATURE OF MUD          
NEUT.         1                    : NEUTRON      - NEUTRON TYPE                
RESI.         0                    : RESIST       - RESISTIVITY TYPE            
RMC .OHMM     2.7                  : RMC          - RESISTIVITY OF MUD CAKE     
RMF .OHMM     4.4                  : RMF          - RESISTIVITY OF MUD FILTRATE 
SUFT.C        15                   : SUFT         - SURFACE TEMPERATURE         
~A  DEPTH     PHID       GR      CAL     RESD     PHIN
# ...
  646.500    0.328   50.809  181.269    3.301    0.393
  646.750    0.329   52.093  181.344    3.241    0.403
  647.000    0.329   54.671  181.418    3.122    0.398
  647.250    0.325   55.346  181.512    3.064    0.386
  647.500    0.310   55.391  180.554    3.008    0.389
  647.750    0.314   63.014  179.559    3.010    0.396
  648.000    0.319   63.059  178.564    3.012    0.401
  648.250    0.317   59.939  175.504    3.014    0.392
  648.500    0.314   56.212  174.509    3.074    0.380
  648.750    0.315   55.615  174.603    3.075    0.370
  649.000    0.321   56.932  174.658    3.077    0.384
  649.250    0.330   59.488  175.784    3.079    0.395
  649.500    0.329   62.697  177.961    3.140    0.398
  649.750    0.312   62.122  181.207    3.142    0.400
  650.000    0.298   61.525  181.300    3.144    0.401
  650.250    0.292   60.297  181.356    3.146    0.408
  650.500    0.290   61.626  179.347    3.208    0.417
  650.750    0.287   64.823  179.422    3.210    0.414
  651.000    0.282   64.237  180.547    3.338    0.407
  651.250    0.275   66.793  181.692    3.469    0.417
  651.500    0.245   72.513  181.729    3.748    0.434
  651.750    0.232   77.602  182.873    3.971    0.443
  652.000    0.245   73.875  183.980    4.129    0.413
  652.250    0.258   70.756  185.124    3.902    0.377
  652.500    0.284   62.603  185.180    3.757    0.373
  652.750    0.310   54.450  185.255    3.550    0.378
  653.000    0.334   51.973  183.246    3.291    0.389
  653.250    0.343   52.029  180.168    3.110    0.395
  653.500    0.339   51.432  177.108    3.053    0.395
  653.750    0.340   48.966  176.113    2.940    0.385
  654.000    0.353   47.119  175.118    2.886    0.368
  654.250    0.349   45.891  173.128    2.887    0.354
  654.500    0.347   43.425  173.203    2.834    0.361
  654.750    0.349   43.458  173.277    2.836    0.401
  655.000    0.355   42.873  172.301    2.839    0.418
  655.250    0.358   44.820  172.357    2.839    0.412
  655.500    0.356   46.126  172.450    2.896    0.419
  655.750    0.351   48.693  172.506    2.954    0.419
  656.000    0.347   49.357  171.549    3.012    0.407
  656.250    0.343   51.935  171.605    3.074    0.410
  656.500    0.346   54.502  171.698    2.960    0.407
  656.750    0.354   53.917  171.772    2.905    0.389
  657.000    0.363   48.928  172.879    2.746    0.375
  657.250    0.360   47.712  174.005    3.141    0.371
  657.500    0.353   48.387  175.149    3.082    0.361
  657.750    0.348   49.051  175.224    2.912    0.359
  658.000    0.346   52.271  176.331    2.752    0.364
  658.250    0.347   52.924  176.442    2.702    0.377
  658.500    0.350   51.708  176.498    2.755    0.397
  658.750    0.351   49.872  176.592    2.810    0.424
  659.000    0.350   48.025  176.685    2.978    0.439
  659.250    0.345   46.809  176.722    3.037    0.450
  659.500    0.342   46.223  177.848    3.157    0.435
  659.750    0.353   48.790  178.973    3.345    0.438
  660.000    0.387   53.879  181.168    3.546    0.453
  660.250    0.431   61.491  183.345    3.687    0.469
  660.500    0.342   69.733  184.470    3.688    0.440
  660.750    0.294   77.344  185.615    3.691    0.415
  661.000    0.272   78.650  185.652    3.693    0.405
  661.250    0.289   73.662  183.625    3.557    0.410
  661.500    0.310   69.912  180.565    3.425    0.415
  661.750    0.321   67.446  178.538    3.236    0.401
  662.000    0.311   73.796  177.580    3.177    0.392
  662.250    0.297   74.483  177.636    3.118    0.403
  662.500    0.302   72.636  178.743    3.062    0.407
  662.750    0.310   71.430  178.836    3.063    0.389
  663.000    0.313   71.464  178.948    3.065    0.386
  663.250    0.306   71.509  178.985    3.127    0.402
  663.500    0.286   70.912  180.130    3.128    0.418
  663.750    0.260   70.326  181.237    3.130    0.415
  664.000    0.258   67.860  181.311    3.192    0.405
  664.250    0.271   64.740  182.437    3.256    0.395
  664.500    0.292   65.427  183.562    3.258    0.349
  664.750    0.285   70.505  184.706    3.323    0.386
  665.000    0.262   75.594  186.864    3.390    0.395
  665.250    0.222   82.587  187.990    3.392    0.410
  665.500    0.199   87.687  189.115    3.459    0.416
  665.750    0.180   88.362  191.329    3.596    0.401
  666.000    0.172   87.146  191.385    3.738    0.399
  666.250    0.179   83.407  191.460    3.886    0.417
  666.500    0.459   79.027  191.572    4.118    0.437
  666.750    0.479   68.971  190.577    4.365    0.486
  667.000    0.392   54.524  191.702    4.366    0.533
  667.250    0.314   71.594  193.860    4.453    0.496
  667.500    0.279   81.098  197.087    4.371    0.437
  667.750    0.261   86.817  192.977    4.053    0.401
  668.000    0.262   82.448  188.866    3.757    0.380
  668.250    0.273   78.079  186.820    3.549    0.389
  668.500    0.289   73.079  185.863    3.290    0.387
  668.750    0.316   64.307  185.919    3.050    0.386
  669.000    0.316   67.494  185.975    2.882    0.396
  669.250    0.307   72.594  186.068    2.775    0.419
  669.500    0.302   75.803  186.143    2.623    0.413
  669.750    0.297   75.825  186.217    2.575    0.406
  670.000    0.297   73.978  186.292    2.576    0.404
  670.250    0.302   70.251  186.366    2.628    0.405
  670.500    0.309   70.926  186.441    2.680    0.410
  670.750    0.313   71.602  185.465    2.681    0.413
  671.000    0.314   71.016  184.526    2.632    0.412
  671.250    0.314   69.811  183.512    2.535    0.414
  671.500    0.313   72.367  183.605    2.489    0.416
  671.750    0.311   68.628  183.680    2.443    0.421
  672.000    0.311   64.270  183.773    2.444    0.415
  672.250    0.314   68.087  184.861    2.541    0.401
  672.500    0.304   68.762  189.177    2.641    0.407
  672.750    0.304   63.154  191.316    2.853    0.416
  673.000    0.306   61.916  192.460    3.142    0.413
  673.250    0.296   59.438  192.535    3.329    0.398
  673.500    0.276   66.419  192.628    3.666    0.380
  673.750    0.263   63.941  193.754    3.666    0.374
  674.000    0.265   59.583  193.791    4.889    0.368
  674.250    0.273   56.475  194.917    5.485    0.365
  674.500    0.269   53.998  195.028    5.594    0.373
  674.750    0.269   52.793  195.122    5.599    0.376
  675.000    0.273   52.815  195.178    5.601    0.359
  675.250    0.278   56.024  195.271    5.604    0.343
  675.500    0.280   58.580  195.327    5.398    0.361
  675.750    0.273   61.777  195.401    5.299    0.371
  676.000    0.268   63.725  195.495    5.104    0.351
  676.250    0.261   60.606  195.551    5.010    0.351
  676.500    0.262   56.248  195.607    4.918    0.353
  676.750    0.265   54.401  196.751    4.922    0.353
  677.000    0.264   53.826  196.807    4.924    0.351
  677.250    0.261   53.849  196.900    4.927    0.352
  677.500    0.263   53.904  196.956    4.657    0.355
  677.750    0.284   54.602  197.031    4.400    0.345
  678.000    0.302   54.636  196.054    4.156    0.359
  678.250    0.317   55.300  195.115    3.435    0.386
  678.500    0.324   56.617  194.102    2.894    0.391
  678.750    0.320   58.542  194.195    3.009    0.375
  679.000    0.289   68.676  195.320    3.127    0.369
  679.250    0.256   74.418  195.395    3.444    0.373
  679.500    0.254   71.930  194.419    3.720    0.377
  679.750    0.240   68.202  192.410    3.722    0.383
  680.000    0.215   70.758  193.554    3.654    0.406
  680.250    0.211   77.108  193.610    3.586    0.423
  680.500    0.241   82.198  194.717    3.454    0.418
  680.750    0.253   74.676  194.792    3.456    0.400
  681.000    0.207   74.090  193.834    3.526    0.388
  681.250    0.196   74.765  192.858    3.527    0.381
  681.500    0.191   72.918  190.849    3.598    0.384
  681.750    0.201   76.127  189.835    3.532    0.392
  682.000    0.263   76.802  189.910    3.401    0.399
  682.250    0.283   69.269  188.934    3.094    0.401
  682.500    0.300   54.811  189.045    2.923    0.376
  682.750    0.299   48.561  189.083    2.815    0.367
