~VERSION INFORMATION
 VERS.                 2.0:   CWLS LOG ASCII STANDARD -VERSION 2.0
 WRAP.                  NO:   ONE LINE PER DEPTH STEP
~WELL INFORMATION BLOCK
#MNEM.UNIT           DATA                    DESCRIPTION OF MNEMONIC
#---------    -------------------            -------------------------------
# Generated from Intellog Unique Number	CW_73_75/WELL/2745
WELL.         SEA-JOR ET AL BLANCHE 11-14    : Well_name    - WELL
LOC .         00/11-14-073-02W5/0            : Location     - LOCATION
UWI .         00/11-14-073-02W5/0            : Uwi          - UNIQUE WELL ID
ENTR.         JAYE                           : Entered      - ENTERED BY
SRVC.         SCHLUMBERGER                   : Scn          - SERVICE COMPANY
DATE.         2 FEB 80                       : Date         - LOG DATE
STRT.M        385                            : top_depth    - START DEPTH
STOP.M        625                            : bot_depth    - STOP DEPTH
STEP.M        0.25                           : increment    - STEP LENGTH
 NULL. -999.2500:NULL Value
~CURVE INFORMATION BLOCK
#MNEM UNIT       ERCB CURVE CODE    CURVE DESCRIPTION
#-----------   ------------------   ----------------------------------
DEPT.M        00 001 00 00         : DEPTH        - DEPTH
DPHI.V/V      00 890 00 00         : PHID         - DENSITY POROSITY (SANDSTONE)
NPHI.V/V      00 330 00 00         : PHIN         - NEUTRON POROSITY (SANDSTONE)
GR  .API      00 310 00 00         : GR           - GAMMA RAY
CALI.MM       00 280 01 00         : CAL          - CALIPER
ILD .OHMM     00 120 00 00         : RESD         - DEEP RESISTIVITY (DIL)
~PARAMETER INFORMATION
#MNEM.UNIT           DATA             DESCRIPTION OF MNEMONIC
#---------         -----------     ------------------------------
GL  .M        602                  : gl           - GROUND LEVEL ELEVATION
EREF.M        605.2                : kb           - ELEVATION OF DEPTH REFERENCE
DATM.M        602                  : datum        - DATUM ELEVATION
TDD .M        629                  : tdd          - TOTAL DEPTH DRILLER
RUN .         ONE                  : Run          - RUN NUMBER
BASE.         EDM                  : Branch       - HOME BASE OF LOGGING UNIT
MUD .         GEL                  : Mud_type     - MUD TYPE
MATR.         SANDSTONE            : Logunit      - NEUTRON MATRIX
TMAX.C        25                   : BHT          - MAXIMUM RECORDED TEMPERATURE
BHTD.M        630                  : BHTDEP       - MAXIMUM RECORDED TEMPERATURE
RMT .C        13.3                 : MDTP         - TEMPERATURE OF MUD
MUDD.KG/M     1170                 : MWT          - MUD DENSITY
NEUT.         1                    : NEUTRON      - NEUTRON TYPE
RESI.         0                    : RESIST       - RESISTIVITY TYPE
RM  .OHMM     4.9                  : RM           - RESISTIVITY OF MUD
RMC .OHMM     0                    : RMC          - RESISTIVITY OF MUD CAKE
RMF .OHMM     5.12                 : RMF          - RESISTIVITY OF MUD FILTRATE
SUFT.C        0                    : SUFT         - SURFACE TEMPERATURE
~A  DEPTH     PHID     PHIN       GR      CAL     RESD
# ...
  567.500    0.134    0.346   84.650    0.000    7.923
  567.750    0.114    0.349   84.049    0.000    7.688
  568.000    0.135    0.359   84.009    0.000    7.431
  568.250    0.148    0.375   83.966    0.000    7.115
  568.500    0.141    0.391   83.551    0.000    6.865
  568.750    0.126    0.404   83.197    0.000    6.661
  569.000    0.141    0.404   82.099    0.000    6.588
  569.250    0.126    0.378   80.379    0.000    6.872
  569.500    0.111    0.351   75.926    0.000    7.391
  569.750    0.106    0.318   76.008    0.000    7.798
  570.000    0.098    0.306   79.505    0.000    8.151
  570.250    0.108    0.333   81.514    0.000    8.247
  570.500    0.128    0.361   82.962    0.000    7.777
  570.750    0.126    0.367   84.039    0.000    7.306
  571.000    0.128    0.372   85.362    0.000    6.956
  571.250    0.118    0.375   86.623    0.000    6.827
  571.500    0.119    0.380   89.128    0.000    6.816
  571.750    0.121    0.384   91.197    0.000    6.819
  572.000    0.137    0.379   89.355    0.000    6.821
  572.250    0.149    0.365   89.126    0.000    6.824
  572.500    0.129    0.357   89.519    0.000    6.813
  572.750    0.151    0.366   89.600    0.000    6.920
  573.000    0.135    0.370   89.308    0.000    6.949
  573.250    0.141    0.365   88.582    0.000    6.991
  573.500    0.147    0.358   88.605    0.000    7.020
  573.750    0.139    0.349   90.920    0.000    7.050
  574.000    0.145    0.345   90.258    0.000    7.066
  574.250    0.156    0.343   86.860    0.000    7.041
  574.500    0.164    0.351   85.948    0.000    6.991
  574.750    0.146    0.354   86.714    0.000    6.993
  575.000    0.130    0.351   87.045    0.000    6.995
  575.250    0.114    0.341   88.493    0.000    6.945
  575.500    0.099    0.331   91.929    0.000    6.868
  575.750    0.109    0.343   96.420    0.000    6.728
  576.000    0.141    0.358   97.622    0.000    6.321
  576.250    0.172    0.370   96.398    0.000    5.749
  576.500    0.182    0.394   92.940    0.000    4.753
  576.750    0.188    0.421   87.554    0.000    2.931
  577.000    0.213    0.500   83.412    0.000    1.885
  577.250    0.291    0.531   84.427    0.000    1.583
  577.500    0.285    0.529   87.242    0.000    1.467
  577.750    0.258    0.524   91.485    0.000    1.459
  578.000    0.246    0.513   95.418    0.000    1.531
  578.250    0.232    0.488   96.556    0.000    1.600
  578.500    0.212    0.470   97.881    0.000    1.692
  578.750    0.193    0.461   99.765    0.000    1.785
  579.000    0.197    0.451  102.144    0.000    1.912
  579.250    0.200    0.442  102.163    0.000    2.153
  579.500    0.167    0.430   97.151    0.000    2.489
  579.750    0.142    0.409   89.965    0.000    2.812
  580.000    0.121    0.364   89.178    0.000    3.208
  580.250    0.103    0.347   92.305    0.000    3.781
  580.500    0.103    0.361   95.491    0.000    4.430
  580.750    0.121    0.377   97.374    0.000    4.997
  581.000    0.113    0.388   97.704    0.000    5.353
  581.250    0.114    0.380   97.289    0.000    5.234
  581.500    0.120    0.381   97.683    0.000    5.011
  581.750    0.114    0.383   97.266    0.000    5.023
  582.000    0.100    0.379   92.070    0.000    5.121
  582.250    0.086    0.354   87.119    0.000    5.292
  582.500    0.068    0.327   88.133    0.000    5.615
  582.750    0.077    0.346   88.899    0.000    5.925
  583.000    0.095    0.352   87.861    0.000    6.018
  583.250    0.103    0.328   89.931    0.000    5.829
  583.500    0.088    0.344   94.299    0.000    5.538
  583.750    0.107    0.375   95.623    0.000    5.263
  584.000    0.137    0.393   93.531    0.000    5.029
  584.250    0.137    0.373   91.067    0.000    4.983
  584.500    0.124    0.357   88.290    0.000    5.110
  584.750    0.118    0.342   90.671    0.000    5.290
  585.000    0.139    0.339   93.548    0.000    5.603
  585.250    0.134    0.340   93.630    0.000    5.901
  585.500    0.116    0.336   94.024    0.000    5.892
  585.750    0.102    0.336   97.334    0.000    5.951
  586.000    0.106    0.346  100.462    0.000    5.852
  586.250    0.127    0.356  101.535    0.000    5.798
  586.500    0.133    0.351  100.812    0.000    5.680
  586.750    0.114    0.356  100.581    0.000    5.607
  587.000    0.098    0.374   99.670    0.000    5.482
  587.250    0.117    0.388   96.894    0.000    5.360
  587.500    0.123    0.377   91.384    0.000    5.084
  587.750    0.140    0.357   80.844    0.000    4.914
  588.000    0.168    0.336   69.000    0.000    4.991
  588.250    0.189    0.318   57.963    0.000    5.246
  588.500    0.197    0.312   56.243    0.000    5.642
  588.750    0.206    0.324   59.679    0.000    5.976
  589.000    0.216    0.334   61.749    0.000    6.403
  589.250    0.197    0.347   61.769    0.000    6.952
  589.500    0.175    0.316   62.721    0.000    7.434
  589.750    0.155    0.293   65.784    0.000    7.711
  590.000    0.133    0.298   70.278    0.000    7.967
  590.250    0.163    0.313   76.942    0.000    8.077
  590.500    0.172    0.329   88.764    0.000    7.645
  590.750    0.154    0.346   98.225    0.000    6.681
  591.000    0.138    0.461   92.406    0.000    5.409
  591.250    0.159    0.466   80.625    0.000    4.414
  591.500    0.153    0.452   68.655    0.000    3.820
  591.750    0.111    0.428   50.847    0.000    4.039
  592.000    0.082    0.324   44.223    0.000    4.590
  592.250    0.054    0.250   50.266    0.000    5.197
  592.500    0.054    0.221   63.579    0.000    6.325
  592.750    0.118    0.226   70.803    0.000    7.327
  593.000    0.137    0.270   75.110    0.000    8.312
  593.250    0.148    0.295   66.495    0.000    9.591
  593.500    0.120    0.279   54.900    0.000    9.289
  593.750    0.119    0.270   50.137    0.000    9.346
  594.000    0.120    0.265   47.298    0.000   10.166
  594.250    0.111    0.254   47.878    0.000   11.250
  594.500    0.090    0.239   56.717    0.000   12.497
  594.750    0.094    0.249   64.626    0.000   13.338
  595.000    0.108    0.294   70.733    0.000   12.868
  595.250    0.128    0.344   70.876    0.000   10.991
  595.500    0.144    0.362   64.002    0.000    9.019
  595.750    0.162    0.355   58.370    0.000    7.057
  596.000    0.229    0.339   57.770    0.000    5.417
  596.250    0.261    0.337   58.906    0.000    4.653
  596.500    0.275    0.349   62.343    0.000    4.727
  596.750    0.285    0.371   64.101    0.000    4.847
  597.000    0.293    0.399   61.946    0.000    4.867
  597.250    0.286    0.395   59.233    0.000    5.048
  597.500    0.288    0.364   66.209    0.000    5.246
  597.750    0.268    0.347   77.721    0.000    5.493
  598.000    0.295    0.391   88.424    0.000    5.731
  598.250    0.314    0.428   96.396    0.000    5.561
  598.500    0.284    0.458   98.899    0.000    5.264
  598.750    0.175    0.456   87.241    0.000    5.397
  599.000    0.131    0.410   76.205    0.000    5.894
  599.250    0.126    0.287   66.348    0.000    6.775
  599.500    0.116    0.267   58.789    0.000    8.247
  599.750    0.124    0.255   53.157    0.000    9.943
  600.000    0.124    0.244   63.736    0.000   12.033
  600.250    0.113    0.234   76.613    0.000   13.367
  600.500    0.116    0.322   84.834    0.000   14.679
  600.750    0.116    0.347   90.257    0.000   15.342
  601.000    0.121    0.378   82.884    0.000   12.856
  601.250    0.127    0.376   64.455    0.000   10.311
  601.500    0.111    0.308   52.983    0.000    9.504
  601.750   -0.568    0.279   38.531    0.000    9.858
  602.000   -0.575    0.210   36.562    0.000   11.268
  602.250   -0.560    0.109   38.632    0.000   13.767
  602.500   -0.537    0.117   42.691    0.000   24.293
  602.750   -0.522    0.126   45.069    0.000   36.739
  603.000   -0.604    0.137   49.255    0.000   35.313
  603.250   -0.608    0.166   52.316    0.000   31.211
  603.500   -0.580    0.188   46.309    0.000   26.404
  603.750   -0.577    0.154   50.243    0.000   23.970
