~VERSION INFORMATION
 VERS.                 2.0:   CWLS LOG ASCII STANDARD -VERSION 2.0
 WRAP.                  NO:   ONE LINE PER DEPTH STEP
~WELL INFORMATION BLOCK
#MNEM.UNIT           DATA                    DESCRIPTION OF MNEMONIC
#---------    -------------------            -------------------------------
# Generated from Intellog Unique Number	CS_69_70/WELL/857
NULL.         -999.25                        : NULL_VALUE
WELL.         BVX HART LAKE                  : Well_name    - WELL              
LOC .         00/10-02-070-11W4/0            : Location     - LOCATION          
UWI .         00/10-02-070-11W4/0            : Uwi          - UNIQUE WELL ID    
ENTR.         SP                             : Entered      - ENTERED BY        
SRVC.         SCHLUMBERGER                   : Scn          - SERVICE COMPANY   
STRT.M        275                            : top_depth    - START DEPTH       
STOP.M        480                            : bot_depth    - STOP DEPTH        
STEP.M        0.25                           : increment    - STEP LENGTH       
~CURVE INFORMATION BLOCK
#MNEM UNIT       ERCB CURVE CODE    CURVE DESCRIPTION
#-----------   ------------------   ----------------------------------
DEPT.M        00 001 00 00         : DEPTH        - DEPTH                       
ILD .OHMM     00 120 00 00         : RESD         - DEEP RESISTIVITY (DIL)      
GR  .API      00 310 00 00         : GR           - GAMMA RAY                   
NPHI.V/V      00 330 00 00         : PHIN         - NEUTRON POROSITY (LIMESTONE)
DPHI.V/V      00 890 00 00         : PHID         - DENSITY POROSITY (LIMESTONE)
~PARAMETER INFORMATION       
#MNEM.UNIT           DATA             DESCRIPTION OF MNEMONIC
#---------         -----------     ------------------------------
GL  .M        604.1                : gl           - GROUND LEVEL ELEVATION      
EREF.M        606.85               : kb           - ELEVATION OF DEPTH REFERENCE
DATM.M        604.1                : datum        - DATUM ELEVATION             
TDD .M        481.2                : tdd          - TOTAL DEPTH DRILLER         
RUN .         ONE                  : Run          - RUN NUMBER                  
ENG .         BILL                 : Engineer     - RECORDING ENGINEER          
WIT .         JIM                  : Witness      - WITNESSED BY                
MUD .         GEL                  : Mud_type     - MUD TYPE                    
MATR.         LIMESTONE            : Logunit      - NEUTRON MATRIX              
TMAX.C        21                   : BHT          - MAXIMUM RECORDED TEMPERATURE
BHTD.M        481.2                : BHTDEP       - MAXIMUM RECORDED TEMPERATURE
MATR.         1                    : LOGUNIT      - NEUTRON MATRIX              
RMT .C        25                   : MDTP         - TEMPERATURE OF MUD          
NEUT.         1                    : NEUTRON      - NEUTRON TYPE                
RESI.         0                    : RESIST       - RESISTIVITY TYPE            
RMC .OHMM     0.25                 : RMC          - RESISTIVITY OF MUD CAKE     
RMF .OHMM     0.25                 : RMF          - RESISTIVITY OF MUD FILTRATE 
SUFT.C        15                   : SUFT         - SURFACE TEMPERATURE         
~A  DEPTH     RESD       GR     PHIN     PHID
  275.000    3.547   99.381    0.466    0.202
  275.250    3.430  100.174    0.525    0.213
  275.500    3.354  100.784    0.543    0.245
  275.750    3.292  100.067    0.548    0.228
  276.000    3.195  100.315    0.544    0.237
  276.250    3.090   99.537    0.542    0.212
  276.500    2.729   98.698    0.547    0.214
  276.750    2.693   98.585    0.548    0.214
  277.000    2.707   98.291    0.520    0.228
  277.250    2.763   98.237    0.499    0.211
  277.500    2.867  100.057    0.486    0.224
  277.750    2.936  102.120    0.489    0.218
  278.000    2.957  103.394    0.504    0.223
  278.250    2.979  104.912    0.505    0.206
  278.500    2.967  105.221    0.492    0.189
  278.750    2.956  103.778    0.484    0.193
  279.000    3.016  101.430    0.492    0.197
  279.250    3.055  101.860    0.502    0.204
  279.500    3.182  100.478    0.511    0.209
  279.750    3.344   99.942    0.514    0.205
  280.000    3.496   99.527    0.502    0.175
  280.250    3.528   99.472    0.492    0.140
  280.500    3.443  100.326    0.504    0.110
  280.750    3.293   99.849    0.521    0.197
  281.000    3.023   98.347    0.534    0.202
  281.250    2.940   95.453    0.542    0.207
  281.500    3.033   91.897    0.508    0.211
  281.750    3.315   88.702    0.457    0.197
  282.000    3.975   86.776    0.407    0.188
  282.250    5.011   85.394    0.395    0.213
  282.500    6.178   81.898    0.369    0.259
  282.750    7.312   78.461    0.327    0.285
  283.000    8.065   77.865    0.282    0.333
  283.250    8.913   77.328    0.261    0.248
  283.500    9.633   75.885    0.259    0.258
  283.750   11.766   72.751    0.275    0.297
  284.000   15.336   68.046    0.304    0.302
  284.250   19.693   58.749    0.258    0.359
  284.500   25.195   54.165    0.217    0.386
  284.750   32.236   51.333    0.186    0.393
  285.000   36.696   50.556    0.167    0.386
  285.250   39.441   48.931    0.156    0.397
  285.500   40.098   45.555    0.155    0.405
  285.750   38.346   44.898    0.159    0.416
  286.000   31.441   45.570    0.164    0.418
  286.250   22.021   48.054    0.173    0.411
  286.500   14.162   55.009    0.190    0.395
  286.750   11.210   64.018    0.253    0.353
  287.000    8.907   77.316    0.326    0.215
  287.250    7.262   89.708    0.391    0.207
  287.500    6.606   93.944    0.452    0.215
  287.750    6.155   96.549    0.445    0.189
  288.000    5.800   97.523    0.456    0.192
  288.250    5.567   96.987    0.472    0.204
  288.500    5.464   96.511    0.481    0.204
  288.750    5.722   89.510    0.476    0.193
  289.000    6.004   75.139    0.467    0.249
  289.250    6.229   59.379    0.472    0.292
  289.500    6.416   48.330    0.478    0.316
  289.750    6.595   40.665    0.428    0.341
  290.000    6.644   37.047    0.325    0.310
  290.250    6.630   34.638    0.309    0.321
  290.500    6.364   33.437    0.312    0.324
  290.750    5.746   33.565    0.326    0.321
  291.000    5.505   33.814    0.348    0.320
  291.250    5.284   30.983    0.361    0.310
  291.500    5.026   28.512    0.371    0.303
  291.750    4.806   26.526    0.377    0.295
  292.000    4.613   25.989    0.376    0.286
  292.250    4.511   26.784    0.386    0.275
  292.500    4.569   27.937    0.393    0.276
  292.750    4.654   30.241    0.384    0.290
  293.000    4.749   37.799    0.377    0.279
  293.250    4.837   54.843    0.372    0.280
  293.500    4.972   66.691    0.380    0.281
  293.750    5.055   77.090    0.417    0.231
  294.000    4.861   88.757    0.451    0.184
  294.250    4.198   98.974    0.487    0.191
  294.500    3.606  105.566    0.505    0.178
  294.750    3.108  110.648    0.517    0.167
  295.000    2.755  111.380    0.521    0.148
  295.250    2.553  111.146    0.534    0.179
  295.500    2.423  114.416    0.542    0.206
  295.750    2.423  113.637    0.553    0.182
  296.000    2.697  110.684    0.515    0.214
  296.250    3.222  105.617    0.483    0.228
  296.500    3.758   98.254    0.464    0.252
  296.750    4.556   88.595    0.448    0.249
  297.000    5.412   75.735    0.436    0.252
  297.250    6.115   69.519    0.431    0.264
  297.500    6.771   70.070    0.428    0.260
  297.750    7.051   74.186    0.422    0.260
  298.000    7.050   78.241    0.423    0.269
  298.250    6.932   83.263    0.440    0.254
  298.500    6.791   87.076    0.452    0.231
  298.750    6.702   90.405    0.466    0.205
  299.000    6.627   93.796    0.477    0.185
  299.250    6.456   97.609    0.455    0.220
  299.500    5.733  101.846    0.439    0.210
  299.750    5.442  106.264    0.447    0.207
  300.000    4.996  109.895    0.457    0.212
  300.250    4.769  110.808    0.470    0.217
  300.500    4.544  109.365    0.486    0.206
  300.750    4.305  113.965    0.493    0.186
  301.000    4.049  117.899    0.489    0.169
  301.250    3.880  120.201    0.495    0.171
  301.500    3.696  120.873    0.502    0.187
  301.750    3.621  123.056    0.498    0.198
  302.000    3.681  125.117    0.505    0.201
  302.250    3.870  122.406    0.514    0.194
  302.500    4.090  116.311    0.494    0.204
  302.750    4.332  109.492    0.466    0.231
  303.000    4.621  100.075    0.447    0.256
  303.250    4.751   92.892    0.431    0.283
  303.500    4.839   86.073    0.423    0.302
  303.750    4.865   81.610    0.421    0.316
  304.000    4.819   82.160    0.434    0.326
  304.250    4.591   84.706    0.443    0.314
  304.500    4.548   85.377    0.452    0.302
  304.750    4.582   83.995    0.444    0.296
  305.000    4.692   77.417    0.433    0.303
  305.250    5.371   78.029    0.424    0.286
  305.500    5.451   83.352    0.430    0.268
  305.750    5.521   90.790    0.445    0.252
  306.000    5.592   96.839    0.458    0.234
  306.250    5.633   99.383    0.472    0.244
  306.500    5.663   94.317    0.480    0.244
  306.750    5.684   91.243    0.465    0.256
  307.000    5.640   88.230    0.455    0.271
  307.250    5.629   85.880    0.445    0.293
  307.500    5.618   87.337    0.438    0.304
  307.750    5.627   91.513    0.436    0.269
  308.000    5.626   93.998    0.441    0.255
  308.250    5.625   96.241    0.447    0.273
  308.500    5.603   96.428    0.451    0.276
  308.750    5.561   97.160    0.473    0.265
  309.000    5.478   98.618    0.490    0.277
  309.250    5.407   99.290    0.516    0.301
  309.500    5.326   98.270    0.499    0.315
  309.750    5.237   93.505    0.470    0.322
  310.000    5.227   91.760    0.486    0.314
  310.250    5.225   94.306    0.494    0.306
  310.500    5.225   93.526    0.502    0.294
  310.750    5.224   88.460    0.492    0.289
  311.000    5.213   87.137    0.487    0.278
  311.250    5.183   88.355    0.483    0.294
  311.500    5.192   88.965    0.478    0.298
  311.750    5.191   89.274    0.472    0.287
  312.000    5.152   89.645    0.467    0.276
  312.250    5.113   89.895    0.465    0.275
  312.500    5.075   89.840    0.475    0.274
  312.750    5.334   88.517    0.488    0.249
  313.000    6.005   86.713    0.453    0.192
  313.250    6.612   85.994    0.400    0.165
  313.500    6.898   86.003    0.339    0.221
  313.750    6.885   86.492    0.401    0.274
  314.000    6.770   87.587    0.455    0.303
  314.250    6.261   88.983    0.469    0.293
  314.500    5.591   90.804    0.469    0.275
  314.750    5.210   92.020    0.469    0.286
  315.000    4.936   92.693    0.467    0.285
  315.250    4.791   92.941    0.466    0.288
  315.500    4.737   92.705    0.468    0.282
  315.750    4.710   88.726    0.475    0.268
  316.000    4.914   81.603    0.485    0.279
  316.250    4.996   72.428    0.491    0.293
  316.500    5.155   63.917    0.476    0.303
  316.750    5.260   61.689    0.416    0.315
  317.000    5.348   67.738    0.400    0.329
  317.250    5.468   72.760    0.400    0.270
  317.500    5.620   76.272    0.400    0.244
  317.750    5.703   78.634    0.406    0.223
  318.000    5.745   77.132    0.412    0.219
  318.250    5.766   77.381    0.417    0.238
