~VERSION INFORMATION
 VERS.                 2.0:   CWLS LOG ASCII STANDARD -VERSION 2.0
 WRAP.                  NO:   ONE LINE PER DEPTH STEP
~WELL INFORMATION BLOCK
#MNEM.UNIT           DATA                    DESCRIPTION OF MNEMONIC
#---------    -------------------            -------------------------------
# Generated from Intellog Unique Number	CW_70_72/WELL/1046
NULL.         -999.25                        : NULL_VALUE
WELL.         SUNDANCE ET AL SMITH 10-33-071 : Well_name    - WELL              
LOC .         10-33-071-23W4                 : Location     - LOCATION          
UWI .         00/10-33-071-23W4/0            : Uwi          - UNIQUE WELL ID    
ENTR.         JAYE                           : Entered      - ENTERED BY        
SRVC.         SCHLUMBERGER                   : Scn          - SERVICE COMPANY   
DATE.         3 MAR 76                       : Date         - LOG DATE          
STRT.M        432.816                        : top_depth    - START DEPTH       
STOP.M        646.066                        : bot_depth    - STOP DEPTH        
STEP.M        0.25                           : increment    - STEP LENGTH       
~CURVE INFORMATION BLOCK
#MNEM UNIT       ERCB CURVE CODE    CURVE DESCRIPTION
#-----------   ------------------   ----------------------------------
DEPT.M        00 001 00 00         : DEPTH        - DEPTH                       
DPHI.V/V      00 890 00 00         : PHID         - DENSITY POROSITY (SANDSTONE)
NPHI.V/V      00 330 00 00         : PHIN         - NEUTRON POROSITY (SANDSTONE)
GR  .API      00 310 00 00         : GR           - GAMMA RAY                   
CALI.MM       00 280 01 00         : CAL          - CALIPER                     
ILD .OHMM     00 120 00 00         : RESD         - DEEP RESISTIVITY (DIL)      
~PARAMETER INFORMATION       
#MNEM.UNIT           DATA             DESCRIPTION OF MNEMONIC
#---------         -----------     ------------------------------
GL  .M        679.399              : gl           - GROUND LEVEL ELEVATION      
EREF.M        683.057              : kb           - ELEVATION OF DEPTH REFERENCE
DATM.M        679.399              : datum        - DATUM ELEVATION             
TDD .M        662.94               : tdd          - TOTAL DEPTH DRILLER         
RUN .         ONE                  : Run          - RUN NUMBER                  
ENG .         WILSHIRE             : Engineer     - RECORDING ENGINEER          
WIT .         ROBINSON             : Witness      - WITNESSED BY                
BASE.         EDM                  : Branch       - HOME BASE OF LOGGING UNIT   
MATR.         SANDSTONE            : Logunit      - NEUTRON MATRIX              
TMAX.C        -17.7778             : BHT          - MAXIMUM RECORDED TEMPERATURE
BHTD.M        662.635              : BHTDEP       - MAXIMUM RECORDED TEMPERATURE
RMT .C        4.44444              : MDTP         - TEMPERATURE OF MUD          
MUDD.KG/M     0                    : MWT          - MUD DENSITY                 
NEUT.         1                    : NEUTRON      - NEUTRON TYPE                
RESI.         0                    : RESIST       - RESISTIVITY TYPE            
RM  .OHMM     1.93                 : RM           - RESISTIVITY OF MUD          
RMC .OHMM     0                    : RMC          - RESISTIVITY OF MUD CAKE     
RMF .OHMM     0                    : RMF          - RESISTIVITY OF MUD FILTRATE 
SUFT.C        -17.7778             : SUFT         - SURFACE TEMPERATURE         
~A  DEPTH     PHID     PHIN       GR      CAL     RESD
# ...
  578.816    0.171    0.409  116.765  183.022    5.061
  579.066    0.176    0.422  119.354  183.428    4.645
  579.316    0.179    0.433  118.420  184.150    4.408
  579.566    0.175    0.427  117.301  186.231    4.216
  579.816    0.179    0.430  118.839  192.708    4.162
  580.066    0.159    0.448  122.849  197.824    4.233
  580.316    0.176    0.472  119.690  188.184    4.513
  580.566    0.187    0.420  110.042  188.591    4.793
  580.816    0.156    0.404  102.309  188.160    5.157
  581.066    0.122    0.393  100.325  186.579    5.560
  581.316    0.085    0.376  102.357  184.056    5.994
  581.566    0.124    0.342  106.306  181.218    6.132
  581.816    0.160    0.361  111.738  181.938    6.008
  582.066    0.145    0.384  111.854  182.869    5.811
  582.316    0.147    0.383  111.970  182.856    5.758
  582.566    0.143    0.380  113.695  182.845    5.759
  582.816    0.140    0.378  116.345  184.404    5.869
  583.066    0.145    0.379  118.131  185.857    5.937
  583.316    0.151    0.380  111.387  186.578    6.040
  583.566    0.142    0.384  110.082  186.356    6.109
  583.816    0.127    0.397  113.969  184.043    6.157
  584.066    0.119    0.398  117.423  183.088    6.158
  584.316    0.112    0.394  113.770  183.598    6.148
  584.566    0.133    0.388  115.246  184.216    6.092
  584.816    0.182    0.390  118.144  184.098    6.003
  585.066    0.162    0.389  113.502  183.774    5.871
  585.316    0.143    0.385  109.662  183.342    5.774
  585.566    0.141    0.379  107.060  183.540    5.743
  585.816    0.160    0.386  105.198  183.842    5.788
  586.066    0.169    0.391  104.821  183.830    5.855
  586.316    0.154    0.388  103.764  181.623    5.990
  586.566    0.143    0.384  100.419  177.737    6.093
  586.816    0.138    0.379   99.481  179.819    6.175
  587.066    0.129    0.380  103.063  181.899    6.187
  587.316    0.155    0.383  109.051  181.679    6.143
  587.566    0.163    0.407  108.117  181.561    6.099
  587.816    0.153    0.406  110.520  181.865    6.066
  588.066    0.147    0.398  114.592  182.586    6.022
  588.316    0.166    0.394  114.956  183.726    5.990
  588.566    0.167    0.401  110.005  184.027    5.969
  588.816    0.180    0.408  107.031  184.120    5.903
  589.066    0.166    0.414  104.429  183.689    5.828
  589.316    0.149    0.419  102.939  183.260    5.764
  589.566    0.155    0.422  104.353  182.513    5.701
  589.816    0.159    0.419  108.672  182.294    5.681
  590.066    0.139    0.399  109.036  182.073    5.672
  590.316    0.145    0.397  108.720  182.060    5.610
  590.566    0.156    0.400  110.938  182.152    5.611
  590.816    0.166    0.404  114.948  182.769    5.612
  591.066    0.177    0.403  118.774  182.967    5.645
  591.316    0.187    0.384  118.024  183.060    5.678
  591.566    0.176    0.389  115.793  183.258    5.875
  591.816    0.142    0.396  112.510  183.349    6.158
  592.066    0.153    0.386  107.188  183.234    6.288
  592.316    0.157    0.371  100.074  183.014    6.348
  592.566    0.148    0.353   95.246  182.583    6.338
  592.816    0.122    0.341   92.891  182.153    6.268
  593.066    0.109    0.348   97.581  182.245    6.131
  593.316    0.099    0.366  104.373  182.339    6.018
  593.566    0.150    0.372  112.214  182.536    5.897
  593.816    0.156    0.372  114.742  182.630    5.789
  594.066    0.165    0.387  111.768  182.618    5.630
  594.316    0.147    0.393  108.362  183.129    5.579
  594.566    0.120    0.383  109.158  183.743    5.559
  594.816    0.118    0.382  109.460  184.046    5.592
  595.066    0.127    0.388  107.847  184.348    5.678
  595.316    0.154    0.389  107.963  184.126    5.775
  595.566    0.147    0.385  110.552  184.221    5.864
  595.816    0.145    0.380  110.916  184.314    5.910
  596.066    0.163    0.386  111.280  184.093    5.922
  596.316    0.147    0.404  113.003  184.080    5.912
  596.566    0.131    0.408  117.879  183.861    5.914
  596.816    0.116    0.394  123.434  183.326    5.871
  597.066    0.170    0.390  130.225  183.102    5.939
  597.316    0.159    0.388  125.645  182.778    6.121
  597.566    0.152    0.385  119.087  182.346    6.416
  597.816    0.153    0.375  112.158  182.544    7.784
  598.066    0.148    0.362  104.549  182.952    9.147
  598.316    0.134    0.349   98.299  182.941   10.315
  598.566    0.123    0.343   93.349  181.464   11.918
  598.816    0.094    0.324   87.842  180.300   13.797
  599.066    0.036    0.298   81.098  179.975   15.942
  599.316    0.014    0.262   77.321  179.648   17.251
  599.566    0.031    0.238   82.196  179.007   15.220
  599.816    0.053    0.259   87.999  178.789   13.327
  600.066    0.071    0.277   98.870  178.672   10.045
  600.316    0.078    0.308   94.351  178.762    8.161
  600.566    0.034    0.320   86.186  178.857    7.053
  600.816    0.023    0.301   87.909  179.056    6.130
  601.066    0.043    0.300   96.123  179.146    5.521
  601.316    0.104    0.335  102.728  179.031    5.399
  601.566    0.128    0.357  106.677  178.707    5.660
  601.816    0.145    0.369  106.176  178.379    6.079
  602.066    0.136    0.356   98.814  178.682    6.640
  602.316    0.125    0.349   95.161  179.506    7.026
  602.566    0.115    0.353  100.407  180.856    7.027
  602.816    0.119    0.369  102.007  183.670    6.860
  603.066    0.124    0.385  100.578  186.275    6.696
  603.316    0.131    0.376  102.487  186.892    6.500
  603.566    0.130    0.355  103.099  185.728    6.334
  603.816    0.140    0.339  104.574  184.879    6.276
  604.066    0.150    0.348  104.938  184.449    6.196
  604.316    0.135    0.362  104.128  183.913    6.232
  604.566    0.139    0.377  101.031  183.901    6.316
  604.816    0.122    0.382  101.828  183.576    6.783
  605.066    0.139    0.385  104.540  183.563    7.621
  605.316    0.149    0.389  102.370  183.342    8.805
  605.566    0.125    0.382   97.481  183.123    9.636
  605.816    0.094    0.342   89.068  182.901    9.657
  606.066    0.053    0.299   89.803  182.784    8.488
  606.316    0.066    0.286   99.004  182.875    7.488
  606.566    0.104    0.315  108.021  182.866    6.782
  606.816    0.132    0.330  113.329  182.855    6.449
  607.066    0.152    0.340  114.559  182.633    6.295
  607.316    0.159    0.351  113.686  182.725    6.180
  607.566    0.142    0.364  110.218  182.610    6.382
  607.816    0.150    0.362  107.800  182.807    6.867
  608.066    0.133    0.352  105.630  182.899    7.362
  608.316    0.112    0.344  103.645  182.887    7.803
  608.566    0.101    0.336  100.672  183.084    8.180
  608.816    0.074    0.326   96.031  182.863    8.305
  609.066    0.058    0.297   98.681  182.853    7.809
  609.316    0.062    0.288  109.181  182.842    7.454
  609.566    0.125    0.331  115.663  182.829    7.195
  609.816    0.123    0.352  118.623  182.921    6.932
  610.066    0.134    0.357  117.194  183.120    6.767
  610.316    0.136    0.339  115.024  183.108    6.755
  610.566    0.129    0.335  113.596  183.305    6.757
  610.816    0.132    0.332  109.695  183.712    6.991
  611.066    0.125    0.325  104.806  183.908    7.287
  611.316    0.111    0.325  100.472  183.898    7.412
  611.566    0.097    0.324   98.797  183.887    7.456
  611.816    0.083    0.316  102.374  184.083    7.374
  612.066    0.104    0.319  105.829  184.072    7.253
  612.316    0.111    0.331  107.429  184.059    6.961
  612.566    0.109    0.346  100.994  184.048    6.619
  612.816    0.108    0.329  102.285  184.037    5.818
  613.066    0.126    0.322  105.677  184.443    4.944
  613.316    0.157    0.333  110.429  185.478    4.209
  613.566    0.139    0.361  117.839  186.303    3.812
  613.816    0.140    0.379  122.652  187.234    3.427
  614.066    0.191    0.430  120.482  193.816    3.035
  614.316    0.182    0.462  118.560  203.642    2.774
  614.566    0.202    0.457  119.233  209.176    2.693
  614.816    0.213    0.465  119.905  217.432    2.654
  615.066    0.207    0.484  116.561  222.025    3.004
