~VERSION INFORMATION
 VERS.                 2.0:   CWLS LOG ASCII STANDARD -VERSION 2.0
 WRAP.                  NO:   ONE LINE PER DEPTH STEP
~WELL INFORMATION BLOCK
#MNEM.UNIT           DATA                    DESCRIPTION OF MNEMONIC
#---------    -------------------            -------------------------------
# Generated from Intellog Unique Number	CS_77_79/WELL/991
WELL.         HOME OIL COMPANY LIMITED       : Well_name    - WELL
LOC .         00/11-07-077-06W4/0            : Location     - LOCATION
UWI .         00/11-07-077-06W4/0            : Uwi          - UNIQUE WELL ID
ENTR.         SP                             : Entered      - ENTERED BY
SRVC.         SCHLUMBERGER                   : Scn          - SERVICE COMPANY
STRT.M        140.208                        : top_depth    - START DEPTH
STOP.M        368.458                        : bot_depth    - STOP DEPTH
STEP.M        0.25                           : increment    - STEP LENGTH
 NULL. -999.2500:NULL Value
~CURVE INFORMATION BLOCK
#MNEM UNIT       ERCB CURVE CODE    CURVE DESCRIPTION
#-----------   ------------------   ----------------------------------
DEPT.M        00 001 00 00         : DEPTH        - DEPTH
GR  .API      00 310 00 00         : GR           - GAMMA RAY
DPHI.V/V      00 890 00 00         : PHID         - DENSITY POROSITY (SANDSTONE)
NPHI.V/V      00 330 00 00         : PHIN         - NEUTRON POROSITY (SANDSTONE)
ILD .OHMM     00 120 00 00         : RESD         - DEEP RESISTIVITY (DIL)
~PARAMETER INFORMATION
#MNEM.UNIT           DATA             DESCRIPTION OF MNEMONIC
#---------         -----------     ------------------------------
GL  .M        561.96               : gl           - GROUND LEVEL ELEVATION
EREF.M        565.8                : kb           - ELEVATION OF DEPTH REFERENCE
DATM.M        561.96               : datum        - DATUM ELEVATION
TDD .M        372.466              : tdd          - TOTAL DEPTH DRILLER
RUN .         ONE                  : Run          - RUN NUMBER
ENG .         BILL                 : Engineer     - RECORDING ENGINEER
WIT .         JIM                  : Witness      - WITNESSED BY
MUD .         GEL                  : Mud_type     - MUD TYPE
MATR.         SANDSTONE            : Logunit      - NEUTRON MATRIX
TMAX.C        15.5556              : BHT          - MAXIMUM RECORDED TEMPERATURE
BHTD.M        372.466              : BHTDEP       - MAXIMUM RECORDED TEMPERATURE
MATR.         1                    : LOGUNIT      - NEUTRON MATRIX
RMT .C        25                   : MDTP         - TEMPERATURE OF MUD
NEUT.         1                    : NEUTRON      - NEUTRON TYPE
RESI.         0                    : RESIST       - RESISTIVITY TYPE
RMC .OHMM     0.25                 : RMC          - RESISTIVITY OF MUD CAKE
RMF .OHMM     0.25                 : RMF          - RESISTIVITY OF MUD FILTRATE
SUFT.C        15                   : SUFT         - SURFACE TEMPERATURE
~A  DEPTH       GR     PHID     PHIN     RESD
  140.208    0.000    0.326    0.568    2.805
  140.458  101.951    0.318    0.563    2.860
  140.708  100.119    0.302    0.557    2.859
  140.958   98.609    0.290    0.555    2.856
  141.208   97.633    0.284    0.544    2.946
  141.458   96.656    0.270    0.536    2.958
  141.708   95.640    0.265    0.534    3.112
  141.958   95.789    0.255    0.537    3.272
  142.208   96.721    0.253    0.546    3.517
  142.458   96.449    0.262    0.540    3.686
  142.708   99.158    0.254    0.525    3.787
  142.958   99.703    0.243    0.527    3.628
  143.208   98.361    0.246    0.526    3.478
  143.458   96.705    0.236    0.529    3.358
  143.708   95.543    0.224    0.532    3.254
  143.958   95.478    0.243    0.518    3.249
  144.208   96.187    0.257    0.504    3.325
  144.458   95.544    0.272    0.510    3.543
  144.708   93.933    0.264    0.520    4.069
  144.958   97.048    0.254    0.527    4.775
  145.208   93.257    0.251    0.510    5.542
  145.458   88.945    0.230    0.487    6.788
  145.708   78.787    0.184    0.470    7.950
  145.958   71.351    0.157    0.414    9.460
  146.208   61.001    0.128    0.362   10.041
  146.458   54.784    0.136    0.364    9.646
  146.708   56.009    0.162    0.359    7.887
  146.958   51.587    0.121    0.360    6.469
  147.208   53.843    0.138    0.375    5.693
  147.458   63.866    0.164    0.405    4.998
  147.708   71.786    0.236    0.424    4.367
  147.958   84.785    0.240    0.452    4.069
  148.208   95.657    0.244    0.480    4.191
  148.458   96.319    0.248    0.494    5.220
  148.708   94.308    0.260    0.493    6.254
  148.958   92.405    0.239    0.484    7.296
  149.208   91.130    0.241    0.461    8.694
  149.458   89.155    0.265    0.428   10.182
  149.708   87.388    0.269    0.436   11.433
  149.958   85.784    0.277    0.422   12.263
  150.208   90.570    0.267    0.413   13.197
  150.458   95.330    0.248    0.415   14.207
  150.708   97.763    0.240    0.429   15.552
  150.958   94.239    0.276    0.442   16.690
  151.208   90.718    0.300    0.437   17.919
  151.458   85.136    0.298    0.434   19.010
  151.708   81.200    0.296    0.420   19.579
  151.958   75.888    0.277    0.389   18.680
  152.208   73.184    0.245    0.380   17.523
  152.458   73.382    0.263    0.403   16.198
  152.708   91.843    0.248    0.425   15.600
  152.958   96.327    0.242    0.438   15.789
  153.208   94.718    0.274    0.426   16.349
  153.458   89.484    0.291    0.433   17.385
  153.708   82.211    0.280    0.446   19.080
  153.958   73.789    0.285    0.439   20.518
  154.208   63.517    0.321    0.421   24.065
  154.458   51.139    0.342    0.406   27.148
  154.708   37.235    0.351    0.387   30.572
  154.958   29.785    0.352    0.385   34.143
  155.208   28.032    0.359    0.401   36.406
  155.458   30.157    0.349    0.427   36.267
  155.708   31.860    0.379    0.441   31.640
  155.958   35.844    0.405    0.459   26.194
  156.208   40.710    0.431    0.494   22.189
  156.458   51.104    0.475    0.547   19.913
  156.708   87.933    0.398    0.544   17.768
  156.958   90.847    0.294    0.453   16.855
  157.208   90.850    0.289    0.461   16.180
  157.458   90.607    0.286    0.458   15.873
  157.708   87.260    0.276    0.451   16.162
  157.958   80.421    0.301    0.469   16.920
  158.208   74.278    0.329    0.480   18.178
  158.458   64.645    0.352    0.482   20.302
  158.708   59.593    0.353    0.461   22.185
  158.958   53.804    0.352    0.439   23.901
  159.208   53.969    0.350    0.424   27.349
  159.458   56.016    0.344    0.430   28.500
  159.708   57.391    0.354    0.450   29.245
  159.958   54.732    0.349    0.456   29.305
  160.208   51.045    0.345    0.439   28.682
  160.458   48.519    0.354    0.436   28.229
  160.708   48.878    0.340    0.449   27.939
  160.958   51.552    0.344    0.457   27.697
  161.208   55.462    0.338    0.461   27.244
  161.458   58.729    0.340    0.465   27.010
  161.708   61.037    0.352    0.456   26.154
  161.958   64.466    0.347    0.448   25.379
  162.208   67.610    0.343    0.459   24.656
  162.458   69.279    0.344    0.464   23.456
  162.708   72.258    0.340    0.454   22.586
  162.958   75.353    0.336    0.445   20.096
  163.208   78.041    0.329    0.431   17.591
  163.458   83.117    0.314    0.417   14.549
  163.708   88.219    0.292    0.416   11.642
  163.958   92.866    0.280    0.426    9.146
  164.208  104.096    0.266    0.470    7.237
  164.458  114.016    0.243    0.523    6.138
  164.708  121.251    0.220    0.547    5.334
  164.958  121.600    0.215    0.563    4.846
  165.208  119.301    0.198    0.553    4.466
  165.458  114.963    0.183    0.557    4.260
  165.708  113.237    0.198    0.570    5.001
  165.958  104.742    0.232    0.572    5.969
  166.208   91.923    0.266    0.530    8.004
  166.458   82.055    0.292    0.481   10.571
  166.708   73.301    0.337    0.443   14.826
  166.958   67.647    0.342    0.439   17.726
  167.208   67.484    0.335    0.427   19.634
  167.458   69.514    0.326    0.425   19.609
  167.708   71.367    0.306    0.420   18.857
  167.958   70.199    0.295    0.413   18.508
  168.208   66.757    0.285    0.416   18.818
  168.458   63.516    0.292    0.420   19.346
  168.708   60.146    0.292    0.410   19.533
  168.958   59.885    0.272    0.401   19.676
  169.208   61.032    0.235    0.418   19.478
  169.458   62.968    0.262    0.438   18.848
  169.708   66.307    0.298    0.441   19.049
  169.958   68.310    0.284    0.424   19.240
  170.208   71.808    0.280    0.433   19.518
  170.458   75.023    0.316    0.428   19.767
  170.708   78.319    0.325    0.422   19.035
  170.958   83.326    0.321    0.421   16.512
  171.208   90.236    0.281    0.432   13.966
  171.458  100.931    0.185    0.443   11.850
  171.708  106.742    0.189    0.454   10.004
  171.958  109.304    0.208    0.462    8.969
  172.208  113.750    0.236    0.492    7.522
  172.458  117.003    0.225    0.516    6.874
  172.708  118.741    0.223    0.511    6.290
  172.958  117.982    0.221    0.494    5.926
  173.208  119.889    0.204    0.496    5.787
  173.458  120.052    0.181    0.500    5.947
  173.708  116.689    0.201    0.497    6.614
  173.958  110.977    0.230    0.488    7.679
  174.208  108.378    0.269    0.469    8.927
  174.458  110.756    0.311    0.453   10.656
  174.708  116.274    0.335    0.444   13.762
  174.958  121.521    0.339    0.457   17.219
  175.208  113.704    0.346    0.471   19.973
  175.458  102.663    0.329    0.465   20.987
  175.708   92.479    0.306    0.454   18.965
  175.958   91.394    0.282    0.443   16.619
  176.208   93.174    0.288    0.454   15.269
  176.458   96.303    0.296    0.459   14.151
  176.708   97.871    0.299    0.451   13.270
  176.958   99.488    0.276    0.442   13.076
  177.208   97.425    0.270    0.436   14.555
  177.458   89.909    0.281    0.424   15.960
  177.708   80.385    0.285    0.417   18.614
  177.958   69.450    0.307    0.413   20.763
  178.208   57.164    0.320    0.414   22.152
  178.458   55.665    0.321    0.404   23.095
  178.708   55.925    0.317    0.391   23.572
  178.958   57.714    0.302    0.381   23.582
  179.208   60.815    0.287    0.383   22.772
  179.458   62.634    0.291    0.414   22.061
  179.708   66.629    0.309    0.438   21.363
  179.958   68.947    0.330    0.432   19.822
  180.208   70.974    0.318    0.396   17.789
  180.458   71.360    0.291    0.383   17.156
  180.708   75.377    0.277    0.377   15.389
  180.958   81.786    0.259    0.382   14.375
  181.208   84.926    0.239    0.390   14.068
  181.458   84.918    0.235    0.389   15.648
  181.708   75.975    0.251    0.405   16.790
  181.958   70.734    0.277    0.417   17.520
  182.208   71.943    0.291    0.417   17.699
  182.458   78.058    0.253    0.411   16.979
  182.708   83.922    0.237    0.406   15.757
  182.958   87.799    0.243    0.427   14.543
  183.208   87.819    0.252    0.433   13.706
  183.458   90.682    0.245    0.426   12.695
