~VERSION INFORMATION
 VERS.                 2.0:   CWLS LOG ASCII STANDARD -VERSION 2.0
 WRAP.                  NO:   ONE LINE PER DEPTH STEP
~WELL INFORMATION BLOCK
#MNEM.UNIT           DATA                    DESCRIPTION OF MNEMONIC
#---------    -------------------            -------------------------------
# Generated from Intellog Unique Number	CS_77_79/WELL/972
WELL.         BRALORNE RESOURCES LIMITED     : Well_name    - WELL
LOC .         00/10-27-077-15W4/0            : Location     - LOCATION
UWI .         00/10-27-077-15W4/0            : Uwi          - UNIQUE WELL ID
ENTR.         SP                             : Entered      - ENTERED BY
SRVC.         SCHLUMBERGER                   : Scn          - SERVICE COMPANY
STRT.M        275                            : top_depth    - START DEPTH
STOP.M        535                            : bot_depth    - STOP DEPTH
STEP.M        0.25                           : increment    - STEP LENGTH
 NULL. -999.2500:NULL Value
~CURVE INFORMATION BLOCK
#MNEM UNIT       ERCB CURVE CODE    CURVE DESCRIPTION
#-----------   ------------------   ----------------------------------
DEPT.M        00 001 00 00         : DEPTH        - DEPTH
ILD .OHMM     00 120 00 00         : RESD         - DEEP RESISTIVITY (DIL)
DPHI.V/V      00 890 00 00         : PHID         - DENSITY POROSITY (LIMESTONE)
NPHI.V/V      00 330 00 00         : PHIN         - NEUTRON POROSITY (LIMESTONE)
GR  .API      00 310 00 00         : GR           - GAMMA RAY
~PARAMETER INFORMATION
#MNEM.UNIT           DATA             DESCRIPTION OF MNEMONIC
#---------         -----------     ------------------------------
GL  .M        669.41               : gl           - GROUND LEVEL ELEVATION
EREF.M        673.69               : kb           - ELEVATION OF DEPTH REFERENCE
DATM.M        669.41               : datum        - DATUM ELEVATION
TDD .M        552                  : tdd          - TOTAL DEPTH DRILLER
RUN .         ONE                  : Run          - RUN NUMBER
ENG .         BILL                 : Engineer     - RECORDING ENGINEER
WIT .         JIM                  : Witness      - WITNESSED BY
MUD .         GEL                  : Mud_type     - MUD TYPE
MATR.         LIMESTONE            : Logunit      - NEUTRON MATRIX
TMAX.C        25                   : BHT          - MAXIMUM RECORDED TEMPERATURE
BHTD.M        552                  : BHTDEP       - MAXIMUM RECORDED TEMPERATURE
MATR.         1                    : LOGUNIT      - NEUTRON MATRIX
RMT .C        25                   : MDTP         - TEMPERATURE OF MUD
NEUT.         1                    : NEUTRON      - NEUTRON TYPE
RESI.         0                    : RESIST       - RESISTIVITY TYPE
RMC .OHMM     0.25                 : RMC          - RESISTIVITY OF MUD CAKE
RMF .OHMM     0.25                 : RMF          - RESISTIVITY OF MUD FILTRATE
SUFT.C        15                   : SUFT         - SURFACE TEMPERATURE
~A  DEPTH     RESD     PHID     PHIN       GR
  275.000    2.936    0.283    0.573    0.000
  275.250    3.048    0.278    0.584 1307.370
  275.500    3.050    0.284    0.610  105.030
  275.750    3.051    0.289    0.617  104.417
  276.000    3.052    0.277    0.609  104.411
  276.250    3.110    0.261    0.564  104.400
  276.500    3.229    0.261    0.554  102.572
  276.750    3.290    0.265    0.563  101.351
  277.000    3.353    0.267    0.547  103.161
  277.250    3.417    0.243    0.547  103.762
  277.500    3.418    0.239    0.557  101.323
  277.750    3.419    0.249    0.547   99.494
  278.000    3.421    0.254    0.541   98.270
  278.250    3.486    0.265    0.568   98.257
  278.500    3.488    0.272    0.594   98.254
  278.750    3.554    0.276    0.614  103.711
  279.000    3.691    0.255    0.556  103.097
  279.250    3.761    0.244    0.546  100.658
  279.500    3.904    0.227    0.541  103.688
  279.750    3.979    0.230    0.534  102.463
  280.000    4.054    0.207    0.558   99.417
  280.250    4.210    0.194    0.573   95.159
  280.500    4.211    0.169    0.539   91.508
  280.750    4.135    0.186    0.529   96.965
  281.000    4.060    0.215    0.550  104.850
  281.250    3.986    0.235    0.561  105.448
  281.500    3.914    0.250    0.567  105.437
  281.750    3.845    0.254    0.558  104.824
  282.000    3.705    0.236    0.571  102.997
  282.250    3.572    0.225    0.576  102.376
  282.500    3.507    0.236    0.543  104.190
  282.750    3.443    0.243    0.541  104.789
  283.000    3.444    0.252    0.551  104.175
  283.250    3.382    0.259    0.567  102.953
  283.500    3.384    0.263    0.586  100.516
  283.750    3.322    0.263    0.599   98.686
  284.000    3.263    0.255    0.610   97.461
  284.250    3.264    0.253    0.589   97.456
  284.500    3.265    0.247    0.570   95.624
  284.750    3.390    0.241    0.583   95.008
  285.000    3.454    0.242    0.586   95.002
  285.250    3.586    0.247    0.566   94.994
  285.500    3.793    0.243    0.542   95.594
  285.750    4.012    0.234    0.538   96.799
  286.000    4.088    0.225    0.546   94.362
  286.250    4.324    0.202    0.555   91.922
  286.500    4.326    0.171    0.532   92.523
  286.750    4.327    0.173    0.514   99.803
  287.000    4.410    0.210    0.509  113.151
  287.250    4.578    0.221    0.524  112.537
  287.500    4.332    0.231    0.515  111.314
  287.750    4.253    0.245    0.498  113.128
  288.000    4.024    0.240    0.508  113.723
  288.250    3.879    0.236    0.522  113.713
  288.500    3.953    0.230    0.538  112.492
  288.750    4.181    0.239    0.551  111.880
  289.000    5.226    0.252    0.545  104.583
  289.250    6.533    0.250    0.513   97.289
  289.500    8.797    0.257    0.480   91.816
  289.750   10.400    0.268    0.442   85.737
  290.000   12.296    0.308    0.380   76.620
  290.250   13.249    0.340    0.387   62.036
  290.500   13.011    0.334    0.392   59.600
  290.750   12.540    0.320    0.416   71.734
  291.000   11.433    0.294    0.428   79.012
  291.250   10.042    0.261    0.432   83.865
  291.500    8.822    0.239    0.441   89.926
  291.750    8.502    0.231    0.445   93.560
  292.000    7.751    0.231    0.462   94.770
  292.250    7.066    0.233    0.472   97.797
  292.500    6.811    0.226    0.478  101.432
  292.750    6.565    0.227    0.471  103.852
  293.000    6.816    0.234    0.467  102.630
  293.250    7.076    0.248    0.470   99.583
  293.500    7.767    0.266    0.482   96.539
  293.750    9.357    0.281    0.490   90.461
  294.000   10.269    0.287    0.466   82.559
  294.250   11.272    0.293    0.452   78.299
  294.500   11.923    0.292    0.449   74.035
  294.750   11.929    0.284    0.444   74.032
  295.000   11.495    0.274    0.435   77.059
  295.250   10.877    0.267    0.448   81.909
  295.500   10.680    0.279    0.459   86.150
  295.750   10.294    0.288    0.471   85.537
  296.000    9.924    0.298    0.473   90.991
  296.250   10.112    0.290    0.477   92.195
  296.500   10.498    0.288    0.490   91.584
  296.750   11.103    0.294    0.496   89.751
  297.000   11.529    0.302    0.492   85.492
  297.250   11.968    0.319    0.470   84.272
  297.500   12.197    0.327    0.464   84.263
  297.750   12.430    0.313    0.469   89.111
  298.000   12.433    0.305    0.464   92.748
  298.250   12.438    0.301    0.470   95.166
  298.500   12.213    0.300    0.472   95.767
  298.750   12.220    0.299    0.468   94.541
  299.000   12.223    0.299    0.464   93.930
  299.250   12.226    0.305    0.459   94.528
  299.500   12.231    0.306    0.457   93.305
  299.750   12.238    0.308    0.452   91.471
  300.000   12.472    0.307    0.450   90.857
  300.250   12.708    0.305    0.452   92.066
  300.500   12.710    0.300    0.454   92.055
  300.750   12.954    0.294    0.454   89.011
  301.000   13.203    0.288    0.450   80.504
  301.250   13.205    0.304    0.442   64.100
  301.500   12.495    0.318    0.440   57.412
  301.750   12.042    0.321    0.447   54.974
  302.000   10.579    0.310    0.456   59.823
  302.250    9.824    0.307    0.446   68.317
  302.500    9.469    0.288    0.434   76.201
  302.750    9.298    0.251    0.421   80.443
  303.000    9.131    0.230    0.438   82.259
  303.250    8.967    0.230    0.447   84.679
  303.500    8.327    0.234    0.451   87.707
  303.750    7.733    0.245    0.465   95.589
  304.000    6.794    0.231    0.463   98.621
  304.250    6.427    0.214    0.459  106.504
  304.500    5.860    0.175    0.487  110.748
  304.750    5.442    0.163    0.499  116.809
  305.000    4.961    0.159    0.505  118.019
  305.250    4.608    0.165    0.502  118.006
  305.500    4.123    0.182    0.508  118.000
  305.750    3.974    0.205    0.516  117.994
  306.000    4.050    0.190    0.526  116.767
  306.250    4.285    0.198    0.533  116.762
  306.500    4.366    0.196    0.541  119.791
  306.750    4.532    0.190    0.547  116.137
  307.000    4.619    0.165    0.550  114.917
  307.250    4.452    0.152    0.549  113.693
  307.500    3.984    0.142    0.564  115.508
  307.750    3.632    0.166    0.568  119.749
  308.000    3.436    0.194    0.576  118.522
  308.250    3.502    0.221    0.578  117.910
  308.500    4.140    0.233    0.574  116.688
  308.750    4.717    0.232    0.565  117.287
  309.000    5.787    0.232    0.530  113.634
  309.250    6.971    0.243    0.496  111.805
  309.500    8.090    0.252    0.466  113.010
  309.750    8.400    0.252    0.441  114.820
  310.000    8.402    0.238    0.442  114.814
  310.250    8.563    0.229    0.456  113.590
  310.500    8.727    0.232    0.468  112.978
  310.750    8.411    0.244    0.472  110.541
  311.000    7.668    0.260    0.477  109.318
  311.250    6.862    0.269    0.484  111.129
  311.500    6.256    0.266    0.496  114.764
  311.750    6.143    0.243    0.491  118.401
  312.000    6.743    0.237    0.500  118.999
  312.250    8.274    0.248    0.512  114.738
  312.500    9.252    0.257    0.500  112.304
  312.750    9.786    0.262    0.483  108.651
  313.000    9.789    0.271    0.465  106.822
  313.250    9.092    0.261    0.461  106.207
  313.500    8.764    0.262    0.461  105.590
  313.750    8.292    0.265    0.454  105.579
  314.000    8.141    0.259    0.461  104.966
  314.250    8.145    0.257    0.466  107.388
  314.500    7.997    0.269    0.470  109.809
  314.750    8.000    0.278    0.477  112.226
  315.000    8.004    0.282    0.480  113.434
  315.250    8.156    0.283    0.484  115.246
  315.500    8.468    0.271    0.482  114.026
  315.750    8.629    0.266    0.471  107.943
  316.000    8.958    0.276    0.459  102.472
  316.250    9.476    0.286    0.457   89.712
  316.500   10.022    0.297    0.478   76.951
  316.750   10.404    0.306    0.488   70.262
  317.000   10.801    0.308    0.481   68.433
  317.250   10.607    0.301    0.477   67.210
  317.500   10.035    0.279    0.475   65.381
  317.750    9.673    0.253    0.469   65.369
  318.000    9.498    0.275    0.460   67.186
  318.250    9.503    0.288    0.463   71.428
