~VERSION INFORMATION
 VERS.                 2.0:   CWLS LOG ASCII STANDARD -VERSION 2.0
 WRAP.                  NO:   ONE LINE PER DEPTH STEP
~WELL INFORMATION BLOCK
#MNEM.UNIT           DATA                    DESCRIPTION OF MNEMONIC
#---------    -------------------            -------------------------------
# Generated from Intellog Unique Number	CW_76_78/WELL/992
WELL.         GULF POC DROWNED 10-35         : Well_name    - WELL
LOC .         00/10-35-076-21W4/0            : Location     - LOCATION
UWI .         00/10-35-076-21W4/0            : Uwi          - UNIQUE WELL ID
ENTR.         JAYE                           : Entered      - ENTERED BY
SRVC.         SCHLUMBERGER                   : Scn          - SERVICE COMPANY
DATE.         26 FEB 77                      : Date         - LOG DATE
STRT.M        408.432                        : top_depth    - START DEPTH
STOP.M        597.432                        : bot_depth    - STOP DEPTH
STEP.M        0.25                           : increment    - STEP LENGTH
 NULL. -999.2500:NULL Value
~CURVE INFORMATION BLOCK
#MNEM UNIT       ERCB CURVE CODE    CURVE DESCRIPTION
#-----------   ------------------   ----------------------------------
DEPT.M        00 001 00 00         : DEPTH        - DEPTH
ILD .OHMM     00 120 00 00         : RESD         - DEEP RESISTIVITY (DIL)
NPHI.V/V      00 330 00 00         : PHIN         - NEUTRON POROSITY (SANDSTONE)
DPHI.V/V      00 890 00 00         : PHID         - DENSITY POROSITY (SANDSTONE)
GR  .API      00 310 00 00         : GR           - GAMMA RAY
CALI.MM       00 280 01 00         : CAL          - CALIPER
~PARAMETER INFORMATION
#MNEM.UNIT           DATA             DESCRIPTION OF MNEMONIC
#---------         -----------     ------------------------------
GL  .M        738.835              : gl           - GROUND LEVEL ELEVATION
EREF.M        742.188              : kb           - ELEVATION OF DEPTH REFERENCE
DATM.M        738.835              : datum        - DATUM ELEVATION
TDD .M        608.076              : tdd          - TOTAL DEPTH DRILLER
RUN .         ONE                  : Run          - RUN NUMBER
MATR.         SANDSTONE            : Logunit      - NEUTRON MATRIX
TMAX.C        26.1111              : BHT          - MAXIMUM RECORDED TEMPERATURE
BHTD.M        608.076              : BHTDEP       - MAXIMUM RECORDED TEMPERATURE
RMT .C        18.3333              : MDTP         - TEMPERATURE OF MUD
MUDD.KG/M     0                    : MWT          - MUD DENSITY
NEUT.         1                    : NEUTRON      - NEUTRON TYPE
RESI.         0                    : RESIST       - RESISTIVITY TYPE
RM  .OHMM     5.13                 : RM           - RESISTIVITY OF MUD
RMC .OHMM     0                    : RMC          - RESISTIVITY OF MUD CAKE
RMF .OHMM     5.09                 : RMF          - RESISTIVITY OF MUD FILTRATE
SUFT.C        -17.7778             : SUFT         - SURFACE TEMPERATURE
~A  DEPTH     RESD     PHIN     PHID       GR      CAL
# ...
  481.432    6.046    0.475    0.250  117.193  168.751
  481.682    6.106    0.496    0.260  104.027  161.175
  481.932    6.165    0.504    0.268   97.005  141.869
  482.182    6.214    0.490    0.287   95.995  135.731
  482.432    6.264    0.455    0.305   98.057  142.319
  482.682    6.301    0.460    0.302   98.222  150.017
  482.932    6.317    0.465    0.298   95.251  149.202
  483.182    6.309    0.462    0.303   91.563  148.919
  483.432    6.164    0.460    0.299   90.487  148.764
  483.682    6.100    0.475    0.306   91.701  149.043
  483.932    6.047    0.473    0.317   94.022  148.878
  484.182    5.941    0.459    0.315   93.994  148.938
  484.432    5.815    0.471    0.310   93.701  149.220
  484.682    5.568    0.491    0.317   93.802  149.726
  484.932    5.302    0.487    0.313   96.258  148.685
  485.182    5.030    0.468    0.299  102.045  147.743
  485.432    4.634    0.448    0.278  112.272  149.356
  485.682    4.365    0.438    0.240  120.805  152.179
  485.932    4.280    0.454    0.220  118.291  159.988
  486.182    4.298    0.472    0.208  113.035  165.799
  486.432    4.364    0.490    0.213  111.045  166.640
  486.682    4.464    0.471    0.235  111.019  163.817
  486.932    4.609    0.459    0.231  114.120  161.224
  487.182    4.748    0.465    0.230  118.403  163.940
  487.432    5.020    0.469    0.261  113.081  166.879
  487.682    5.454    0.453    0.239  109.002  163.397
  487.932    6.641    0.430    0.217  107.858  157.486
  488.182    7.738    0.440    0.236  105.998  153.004
  488.432    8.408    0.451    0.278  101.920  149.633
  488.682    8.840    0.458    0.315   90.844  147.485
  488.932    9.109    0.460    0.327   83.757  146.104
  489.182    9.180    0.462    0.330   80.067  147.382
  489.432    9.136    0.457    0.329   81.085  148.993
  489.682    8.975    0.454    0.316   79.745  149.493
  489.932    8.672    0.471    0.312   74.030  149.888
  490.182    8.334    0.460    0.327   72.562  152.492
  490.432    7.965    0.463    0.332   74.623  152.992
  490.682    7.474    0.467    0.308   73.550  151.516
  490.932    7.222    0.463    0.313   73.915  150.576
  491.182    8.008    0.463    0.318   78.592  149.639
  491.432    9.399    0.468    0.314   80.844  148.266
  491.682   11.981    0.468    0.309   81.666  147.209
  491.932   12.853    0.455    0.293   79.415  146.389
  492.182   11.995    0.412    0.262   72.066  146.892
  492.432    9.773    0.298    0.220   66.283  147.724
  492.682    8.744    0.244    0.139   62.658  147.563
  492.932    7.910    0.211    0.093   68.249  152.051
  493.182    7.314    0.235    0.109   73.385  157.199
  493.432    6.751    0.354    0.186   76.423  154.165
  493.682    6.370    0.384    0.259   72.671  150.236
  493.932    6.021    0.352    0.225   69.177  147.758
  494.182    5.776    0.372    0.192   72.152  147.591
  494.432    5.571    0.427    0.228   78.072  148.651
  494.682    5.443    0.436    0.317   80.785  148.829
  494.932    5.367    0.437    0.309   81.018  148.224
  495.182    5.321    0.443    0.313   78.635  147.619
  495.432    5.266    0.445    0.325   75.338  147.450
  495.682    5.201    0.446    0.330   74.195  147.518
  495.932    5.167    0.448    0.322   76.322  147.686
  496.182    5.169    0.451    0.306   78.060  147.852
  496.432    5.210    0.461    0.282   79.270  148.139
  496.682    5.223    0.470    0.292   80.613  148.417
  496.932    5.226    0.446    0.316   82.874  148.591
  497.182    5.220    0.424    0.301   84.942  148.982
  497.432    5.223    0.419    0.300   85.886  149.267
  497.682    5.197    0.418    0.292   87.033  149.213
  497.932    5.143    0.412    0.278   88.046  149.381
  498.182    5.043    0.408    0.297   89.392  149.665
  498.432    4.919    0.416    0.292   90.472  151.172
  498.682    4.840    0.430    0.274   92.468  152.219
  498.932    4.686    0.440    0.255   96.357  153.169
  499.182    4.389    0.458    0.265  101.492  153.780
  499.432    4.210    0.464    0.270  104.601  154.177
  499.682    4.002    0.459    0.263  106.858  154.453
  499.932    3.831    0.451    0.272  107.739  154.846
  500.182    3.615    0.460    0.281  106.533  156.128
  500.432    3.349    0.463    0.275  111.078  158.175
  500.682    3.148    0.455    0.229  118.433  160.893
  500.932    3.009    0.450    0.218  119.385  163.060
  501.182    2.983    0.471    0.235  115.304  165.104
  501.432    3.046    0.465    0.208  111.680  166.720
  501.682    3.208    0.466    0.219  112.696  167.554
  501.932    3.570    0.473    0.228  117.761  168.498
  502.182    3.901    0.463    0.218  118.454  169.666
  502.432    4.064    0.467    0.223  117.247  170.944
  502.682    4.180    0.473    0.235  115.782  172.663
  502.932    4.213    0.470    0.260  114.575  164.866
  503.182    4.294    0.454    0.277  112.191  156.627
  503.432    4.376    0.452    0.257  109.545  154.914
  503.682    4.526    0.462    0.244  109.841  155.863
  503.932    4.620    0.462    0.248  110.859  156.698
  504.182    4.691    0.454    0.227  110.373  157.314
  504.432    4.729    0.445    0.239  110.149  157.928
  504.682    4.714    0.441    0.244  111.423  158.434
  504.932    4.657    0.442    0.224  116.622  158.821
  505.182    4.634    0.443    0.225  121.557  159.327
  505.432    4.602    0.437    0.220  122.967  159.719
  505.682    4.588    0.443    0.208  121.172  159.896
  505.932    4.574    0.445    0.224  119.709  159.838
  506.182    4.551    0.437    0.207  119.871  159.569
  506.432    4.521    0.433    0.202  120.631  159.956
  506.682    4.532    0.436    0.207  121.317  160.791
  506.932    4.593    0.456    0.193  121.808  162.070
  507.182    4.776    0.455    0.203  121.711  163.789
  507.432    5.325    0.467    0.224  118.155  164.187
  507.682    5.818    0.489    0.235  114.074  161.477
  507.932    6.028    0.501    0.256  111.625  157.552
  508.182    5.976    0.485    0.219  109.375  154.069
  508.432    5.893    0.457    0.259  107.251  152.138
  508.682    5.832    0.428    0.300  106.308  152.533
  508.932    5.803    0.417    0.281  109.677  153.036
  509.182    5.817    0.421    0.258  111.544  154.089
  509.432    5.842    0.438    0.236  109.879  155.261
  509.682    5.888    0.453    0.224  111.551  156.432
  509.932    5.881    0.433    0.219  115.961  157.711
  510.182    5.821    0.425    0.208  114.365  158.534
  510.432    5.781    0.430    0.208  115.577  159.042
  510.682    5.732    0.446    0.221  117.963  157.770
  510.932    5.641    0.448    0.224  118.065  156.400
  511.182    5.582    0.444    0.205  118.688  156.121
  511.432    5.444    0.433    0.194  118.397  156.845
  511.682    5.359    0.421    0.204  113.400  157.350
  511.932    5.313    0.410    0.213  111.409  155.861
  512.182    5.248    0.421    0.223  112.297  154.712
  512.432    5.202    0.446    0.197  115.794  155.209
  512.682    5.130    0.481    0.192  120.210  157.148
  512.932    5.067    0.468    0.203  122.662  159.974
  513.182    5.042    0.461    0.204  119.823  161.921
  513.432    5.027    0.462    0.181  115.744  162.975
  513.682    5.039    0.459    0.189  112.770  163.366
  513.932    5.060    0.453    0.212  116.270  163.313
  514.182    5.091    0.468    0.213  120.950  163.268
  514.432    5.104    0.468    0.202  122.093  162.439
  514.682    5.097    0.432    0.191  121.997  161.725
  514.932    5.053    0.433    0.210  119.614  161.343
  515.182    5.066    0.444    0.215  121.349  160.960
  515.432    5.200    0.435    0.204  121.844  160.911
  515.682    5.368    0.423    0.197  119.329  160.864
  515.932    5.592    0.417    0.225  115.967  161.374
  516.182    5.901    0.425    0.217  114.760  161.542
  516.432    6.296    0.442    0.209  114.730  161.821
  516.682    6.880    0.453    0.225  115.355  161.985
  516.932    7.614    0.455    0.202  113.630  160.611
  517.182    8.244    0.443    0.259  107.519  160.669
  517.432    8.877    0.438    0.277  101.022  154.199
  517.682    9.593    0.453    0.274   96.877  146.074
