~VERSION INFORMATION
 VERS.                 2.0:   CWLS LOG ASCII STANDARD -VERSION 2.0
 WRAP.                  NO:   ONE LINE PER DEPTH STEP
~WELL INFORMATION BLOCK
#MNEM.UNIT           DATA                    DESCRIPTION OF MNEMONIC
#---------    -------------------            -------------------------------
# Generated from Intellog Unique Number	CS_77_79/WELL/3303
WELL.         ATCOR LTD.                     : Well_name    - WELL
LOC .         00/11-23-077-13W4/0            : Location     - LOCATION
UWI .         00/11-23-077-13W4/0            : Uwi          - UNIQUE WELL ID
ENTR.         JO                             : Entered      - ENTERED BY
SRVC.         SCHLUMBERGER                   : Scn          - SERVICE COMPANY
DATE.         05/22/92                       : Date         - LOG DATE
STRT.M        285                            : top_depth    - START DEPTH
STOP.M        505                            : bot_depth    - STOP DEPTH
STEP.M        0.25                           : increment    - STEP LENGTH
 NULL. -999.2500:NULL Value
~CURVE INFORMATION BLOCK
#MNEM UNIT       ERCB CURVE CODE    CURVE DESCRIPTION
#-----------   ------------------   ----------------------------------
DEPT.M        00 001 00 00         : DEPTH        - DEPTH
GR  .API      00 310 00 00         : GR           - GAMMA RAY
NPHI.V/V      00 330 00 00         : PHIN         - NEUTRON POROSITY (SANDSTONE)
DPHI.V/V      00 890 00 00         : PHID         - DENSITY POROSITY (SANDSTONE)
ILD .OHMM     00 120 00 00         : RESD         - DEEP RESISTIVITY (DIL)
~PARAMETER INFORMATION
#MNEM.UNIT           DATA             DESCRIPTION OF MNEMONIC
#---------         -----------     ------------------------------
GL  .M        683.2                : gl           - GROUND LEVEL ELEVATION
EREF.M        686.7                : kb           - ELEVATION OF DEPTH REFERENCE
DATM.M        686.7                : datum        - DATUM ELEVATION
TDD .M        511                  : tdd          - TOTAL DEPTH DRILLER
RUN .         ONE                  : Run          - RUN NUMBER
ENG .         BILL                 : Engineer     - RECORDING ENGINEER
WIT .         JIM                  : Witness      - WITNESSED BY
MUD .         GEL                  : Mud_type     - MUD TYPE
MATR.         SANDSTONE            : Logunit      - NEUTRON MATRIX
TMAX.C        21                   : BHT          - MAXIMUM RECORDED TEMPERATURE
BHTD.M        511                  : BHTDEP       - MAXIMUM RECORDED TEMPERATURE
MATR.         1                    : LOGUNIT      - NEUTRON MATRIX
RMT .C        20                   : MDTP         - TEMPERATURE OF MUD
NEUT.         1                    : NEUTRON      - NEUTRON TYPE
RESI.         0                    : RESIST       - RESISTIVITY TYPE
RMC .OHMM     0                    : RMC          - RESISTIVITY OF MUD CAKE
RMF .OHMM     5.64                 : RMF          - RESISTIVITY OF MUD FILTRATE
SUFT.C        5                    : SUFT         - SURFACE TEMPERATURE
~A  DEPTH       GR     PHIN     PHID     RESD
# ...
  328.500   89.057    0.457    0.286    7.084
  328.750   83.115    0.474    0.294    8.068
  329.000   76.569    0.488    0.295   11.251
  329.250   69.996    0.473    0.296   15.116
  329.500   60.425    0.441    0.335   18.912
  329.750   54.457    0.413    0.355   19.286
  330.000   52.749    0.403    0.368   20.070
  330.250   51.041    0.405    0.368   20.480
  330.500   48.151    0.399    0.359   20.173
  330.750   48.257    0.389    0.359   20.225
  331.000   49.574    0.373    0.359   19.896
  331.250   50.285    0.395    0.350   19.960
  331.500   48.578    0.425    0.339   19.661
  331.750   48.684    0.445    0.339   19.699
  332.000   51.184    0.405    0.348   19.737
  332.250   53.710    0.391    0.354   19.813
  332.500   52.634    0.390    0.362   19.516
  332.750   50.926    0.374    0.363   19.554
  333.000   49.823    0.386    0.363   19.604
  333.250   49.903    0.398    0.358   19.642
  333.500   51.851    0.400    0.354   19.705
  333.750   53.745    0.414    0.354   19.743
  334.000   58.139    0.407    0.357   19.806
  334.250   59.483    0.397    0.361   19.857
  334.500   60.141    0.392    0.356   19.921
  334.750   60.248    0.393    0.334   19.959
  335.000   57.935    0.393    0.328   19.660
  335.250   53.203    0.394    0.339   19.711
  335.500   53.310    0.386    0.348   19.391
  335.750   55.231    0.376    0.347   19.101
  336.000   55.338    0.376    0.334   18.790
  336.250   55.445    0.376    0.328   18.839
  336.500   54.342    0.377    0.347   18.533
  336.750   54.449    0.384    0.371   18.580
  337.000   54.555    0.402    0.375   18.302
  337.250   55.267    0.418    0.376   17.690
  337.500   54.191    0.424    0.374   17.414
  337.750   51.851    0.400    0.382   16.526
  338.000   52.563    0.472    0.394   15.983
  338.250   56.325    0.491    0.398   15.713
  338.500   55.854    0.441    0.388   16.055
  338.750   55.303    0.425    0.381   17.015
  339.000   54.804    0.434    0.378   17.037
  339.250   56.148    0.427    0.383   17.729
  339.500   58.042    0.415    0.389   18.114
  339.750   56.334    0.403    0.385   18.149
  340.000   52.812    0.392    0.370   17.866
  340.250   50.499    0.388    0.365   17.268
  340.500   54.840    0.387    0.363   17.010
  340.750   59.812    0.382    0.353   16.744
  341.000   59.919    0.377    0.340   16.787
  341.250   57.606    0.387    0.344   16.830
  341.500   56.530    0.407    0.350   16.863
  341.750   57.215    0.420    0.360   16.917
  342.000   63.370    0.438    0.364   16.642
  342.250   62.267    0.387    0.372   16.096
  342.500   58.745    0.426    0.381   15.567
  342.750   60.666    0.455    0.386   15.315
  343.000   61.378    0.433    0.383   15.344
  343.250   55.436    0.422    0.382   15.383
  343.500   49.468    0.421    0.378   15.718
  343.750   51.416    0.424    0.379   16.039
  344.000   54.574    0.408    0.383   16.701
  344.250   54.680    0.388    0.387   16.722
  344.500   52.973    0.389    0.381   17.413
  344.750   51.265    0.400    0.361   17.435
  345.000   50.794    0.410    0.349   18.143
  345.250   50.242    0.415    0.347   18.537
  345.500   47.903    0.414    0.355   18.573
  345.750   50.482    0.411    0.358   19.315
  346.000   49.958    0.407    0.359   19.722
  346.250   47.645    0.401    0.356   20.138
  346.500   45.937    0.391    0.355   20.189
  346.750   44.861    0.385    0.353   20.254
  347.000   44.336    0.383    0.353   20.306
  347.250   43.838    0.387    0.354   20.358
  347.500   43.918    0.393    0.356   20.411
  347.750   42.842    0.406    0.356   20.476
  348.000   42.949    0.409    0.357   20.503
  348.250   44.265    0.398    0.357   20.555
  348.500   44.372    0.400    0.358   20.608
  348.750   43.269    0.391    0.359   20.661
  349.000   42.166    0.384    0.359   20.741
  349.250   41.090    0.385    0.359   20.807
  349.500   41.143    0.398    0.352   20.847
  349.750   41.881    0.406    0.345   20.914
  350.000   42.593    0.395    0.342   20.955
  350.250   45.724    0.384    0.349   20.995
  350.500   46.462    0.377    0.359   21.076
  350.750   45.991    0.379    0.362   20.734
  351.000   45.439    0.386    0.365   20.774
  351.250   44.968    0.389    0.366   20.462
  351.500   44.470    0.393    0.359   20.502
  351.750   43.945    0.398    0.351   20.555
  352.000   43.474    0.402    0.346   20.234
  352.250   42.949    0.404    0.352   19.931
  352.500   42.504    0.407    0.356   19.620
  352.750   42.584    0.411    0.355   19.301
  353.000   43.296    0.418    0.354   18.679
  353.250   43.981    0.421    0.350   18.715
  353.500   44.088    0.425    0.354   18.411
  353.750   44.826    0.421    0.359   17.795
  354.000   44.328    0.411    0.363   17.517
  354.250   44.435    0.413    0.364   17.562
  354.500   43.910    0.418    0.363   17.299
  354.750   42.834    0.409    0.362   17.029
  355.000   43.545    0.400    0.360   17.062
  355.250   45.466    0.407    0.358   17.117
  355.500   44.968    0.416    0.359   16.839
  355.750   43.865    0.418    0.364   16.904
  356.000   43.999    0.422    0.371   16.937
  356.250   45.894    0.420    0.376   16.969
  356.500   50.261    0.416    0.374   17.681
  356.750   52.155    0.424    0.370   17.394
  357.000   51.052    0.416    0.371   17.427
  357.250   49.345    0.400    0.372   17.494
  357.500   48.873    0.392    0.368   17.517
  357.750   49.558    0.422    0.367   17.255
  358.000   49.087    0.428    0.367   17.288
  358.250   48.589    0.447    0.365   17.332
  358.500   48.696    0.446    0.366   17.084
  358.750   51.248    0.435    0.372   16.806
  359.000   52.511    0.439    0.380   16.860
  359.250   55.091    0.441    0.386   16.893
  359.500   57.039    0.434    0.382   16.640
  359.750   57.092    0.424    0.375   16.661
  360.000   57.199    0.414    0.370   16.715
  360.250   55.491    0.430    0.372   17.067
  360.500   56.834    0.444    0.373   17.416
  360.750   59.334    0.418    0.367   21.762
  361.000   58.231    0.158    0.270   30.328
  361.250   52.289    0.120    0.214   65.739
  361.500   48.767    0.129    0.130   60.107
  361.750   48.847    0.144    0.007   53.017
  362.000   49.007    0.159    0.012   56.152
  362.250   49.692    0.154    0.021   59.435
  362.500   51.008    0.188    0.043   51.474
  362.750   55.376    0.247    0.100   42.949
  363.000   59.085    0.397    0.294   30.977
  363.250   65.871    0.402    0.331   22.356
  363.500   64.795    0.426    0.309   21.189
  363.750   62.483    0.441    0.287   17.055
  364.000   64.377    0.455    0.319   15.321
  364.250   65.694    0.457    0.336   17.154
  364.500   66.405    0.449    0.345   17.198
  364.750   66.512    0.443    0.344   16.919
  365.000   66.041    0.439    0.344   16.666
  365.250   65.516    0.438    0.343   16.719
  365.500   64.440    0.436    0.343   16.741
  365.750   64.520    0.427    0.344   17.093
  366.000   64.048    0.427    0.346   17.137
  366.250   63.550    0.435    0.348   17.203
  366.500   63.657    0.434    0.346   17.226
  366.750   63.790    0.428    0.330   16.671
  367.000   65.107    0.436    0.339   16.103
  367.250   65.792    0.452    0.358   15.841
  367.500   66.477    0.463    0.357   15.321
  367.750   67.873    0.468    0.362   15.350
  368.000   67.953    0.453    0.367   15.963
  368.250   69.874    0.459    0.348   16.300
  368.500   72.374    0.467    0.315   16.373
  368.750   74.900    0.450    0.252   15.805
  369.000   70.168    0.361    0.187   13.932
  369.250   64.226    0.327    0.127    8.680
  369.500   66.752    0.377    0.173    5.210
  369.750   72.908    0.470    0.227    3.825
  370.000   76.670    0.462    0.274    4.604
  370.250   74.962    0.450    0.309    8.145
  370.500   72.623    0.434    0.314   13.640
  370.750   69.732    0.420    0.330   17.679
  371.000   66.788    0.420    0.331   18.051
  371.250   66.922    0.422    0.331   16.820
  371.500   68.816    0.420    0.329   15.399
  371.750   73.183    0.427    0.323   15.169
