~VERSION INFORMATION
 VERS.                 2.0:   CWLS LOG ASCII STANDARD -VERSION 2.0
 WRAP.                  NO:   ONE LINE PER DEPTH STEP
~WELL INFORMATION BLOCK
#MNEM.UNIT           DATA                    DESCRIPTION OF MNEMONIC
#---------    -------------------            -------------------------------
# Generated from Intellog Unique Number	CW_73_75/WELL/2741
WELL.         TRICENT ER AL MITSUE 10-17     : Well_name    - WELL
LOC .         00/10-17-073-04W5/0            : Location     - LOCATION
UWI .         00/10-17-073-04W5/0            : Uwi          - UNIQUE WELL ID
ENTR.         JAYE                           : Entered      - ENTERED BY
SRVC.         SCHLUMBERGER                   : Scn          - SERVICE COMPANY
DATE.         14 MAR 80                      : Date         - LOG DATE
STRT.M        365                            : top_depth    - START DEPTH
STOP.M        595                            : bot_depth    - STOP DEPTH
STEP.M        0.25                           : increment    - STEP LENGTH
 NULL. -999.2500:NULL Value
~CURVE INFORMATION BLOCK
#MNEM UNIT       ERCB CURVE CODE    CURVE DESCRIPTION
#-----------   ------------------   ----------------------------------
DEPT.M        00 001 00 00         : DEPTH        - DEPTH
DPHI.V/V      00 890 00 00         : PHID         - DENSITY POROSITY (SANDSTONE)
NPHI.V/V      00 330 00 00         : PHIN         - NEUTRON POROSITY (SANDSTONE)
GR  .API      00 310 00 00         : GR           - GAMMA RAY
CALI.MM       00 280 01 00         : CAL          - CALIPER
ILD .OHMM     00 120 00 00         : RESD         - DEEP RESISTIVITY (DIL)
~PARAMETER INFORMATION
#MNEM.UNIT           DATA             DESCRIPTION OF MNEMONIC
#---------         -----------     ------------------------------
GL  .M        580.4                : gl           - GROUND LEVEL ELEVATION
EREF.M        585                  : kb           - ELEVATION OF DEPTH REFERENCE
DATM.M        580.4                : datum        - DATUM ELEVATION
TDD .M        1650                 : tdd          - TOTAL DEPTH DRILLER
RUN .         ONE                  : Run          - RUN NUMBER
ENG .         HOOK                 : Engineer     - RECORDING ENGINEER
WIT .         ZBIOI                : Witness      - WITNESSED BY
BASE.         5720                 : Branch       - HOME BASE OF LOGGING UNIT
MUD .         GEL CHEM             : Mud_type     - MUD TYPE
MATR.         SANDSTONE            : Logunit      - NEUTRON MATRIX
TMAX.C        48                   : BHT          - MAXIMUM RECORDED TEMPERATURE
BHTD.M        1651                 : BHTDEP       - MAXIMUM RECORDED TEMPERATURE
RMT .C        20                   : MDTP         - TEMPERATURE OF MUD
MUDD.KG/M     1070                 : MWT          - MUD DENSITY
NEUT.         1                    : NEUTRON      - NEUTRON TYPE
RESI.         0                    : RESIST       - RESISTIVITY TYPE
RM  .OHMM     1.18                 : RM           - RESISTIVITY OF MUD
RMC .OHMM     0                    : RMC          - RESISTIVITY OF MUD CAKE
RMF .OHMM     0.616                : RMF          - RESISTIVITY OF MUD FILTRATE
SUFT.C        0                    : SUFT         - SURFACE TEMPERATURE
~A  DEPTH     PHID     PHIN       GR      CAL     RESD
  365.000    0.439    0.498   70.650  287.992    3.164
  365.250    0.439    0.534   71.681  295.191    2.716
  365.500    0.437    0.559   69.127  241.551    2.208
  365.750    0.433    0.519   71.396  233.803    2.081
  366.000    0.433    0.494   75.210  263.429    2.240
  366.250    0.433    0.471   77.542  285.032    2.722
  366.500    0.414    0.447   77.334  315.287    3.205
  366.750    0.322    0.416   72.992  222.230    3.984
  367.000    0.258    0.391   69.447  204.480    4.485
  367.250    0.267    0.393   68.995  244.525    4.845
  367.500    0.280    0.398   70.211  253.355    5.166
  367.750    0.283    0.403   70.501  256.000    5.448
  368.000    0.287    0.410   70.921  256.485    5.669
  368.250    0.295    0.415   70.402  256.447    5.845
  368.500    0.308    0.418   69.767  244.882    5.848
  368.750    0.325    0.418   69.002  226.098    5.574
  369.000    0.370    0.439   67.686  230.289    5.128
  369.250    0.440    0.478   67.851  267.445    4.788
  369.500    0.447    0.502   69.504  281.737    4.572
  369.750    0.450    0.514   71.769  277.581    4.416
  370.000    0.451    0.496   69.279  270.652    4.185
  370.250    0.453    0.502   65.798  263.609    3.945
  370.500    0.453    0.526   65.407  257.088    3.977
  370.750    0.453    0.582   68.912  279.926    4.131
  371.000    0.452    0.551   72.909  324.917    4.291
  371.250    0.446    0.517   75.735  334.460    4.342
  371.500    0.429    0.490   71.702  344.525    4.225
  371.750    0.410    0.548   67.602  300.297    3.879
  372.000    0.417    0.589   61.955  270.288    3.292
  372.250    0.430    0.564   58.474  253.671    2.362
  372.500    0.443    0.542   59.939  295.668    2.035
  372.750    0.449    0.508   63.999  343.440    2.223
  373.000    0.453    0.492   69.051  355.149    2.608
  373.250    0.448    0.477   68.967  350.997    3.059
  373.500    0.410    0.466   65.240  300.075    3.725
  373.750    0.349    0.459   60.216  243.384    4.320
  374.000    0.324    0.450   54.817  251.801    4.505
  374.250    0.352    0.431   51.893  207.884    4.399
  374.500    0.356    0.413   53.916  204.041    4.272
  374.750    0.332    0.411   53.770  211.632    4.103
  375.000    0.327    0.412   52.950  208.611    3.948
  375.250    0.319    0.395   52.252  210.232    3.906
  375.500    0.313    0.384   52.109  216.070    3.901
  375.750    0.322    0.393   52.648  222.012    3.948
  376.000    0.324    0.400   54.047  223.010    4.039
  376.250    0.319    0.405   56.811  219.371    4.244
  376.500    0.313    0.415   60.004  218.521    4.375
  376.750    0.296    0.423   63.630  220.131    4.520
  377.000    0.271    0.430   66.269  220.101    4.599
  377.250    0.261    0.433   69.958  220.066    4.715
  377.500    0.273    0.438   74.328  220.657    4.717
  377.750    0.302    0.448   78.329  225.364    4.607
  378.000    0.363    0.458   81.897  237.075    4.533
  378.250    0.415    0.457   85.585  251.565    4.622
  378.500    0.445    0.450   90.694  301.395    4.874
  378.750    0.340    0.441   91.169  280.353    5.158
  379.000    0.246    0.427   84.661  264.449    5.428
  379.250    0.240    0.421   78.893  243.510    5.799
  379.500    0.254    0.416   76.647  237.293    6.080
  379.750    0.274    0.417   75.581  232.215    6.316
  380.000    0.297    0.433   75.620  231.461    6.295
  380.250    0.333    0.455   75.663  237.712    5.558
  380.500    0.375    0.568   75.090  245.304    4.736
  380.750    0.417    0.591   75.996  254.545    3.730
  381.000    0.441    0.589   78.819  318.897    3.166
  381.250    0.451    0.582   81.585  375.523    3.139
  381.500    0.455    0.569   83.171  380.851    3.212
  381.750    0.456    0.559   82.103  365.260    3.362
  382.000    0.457    0.548   79.795  357.093    3.491
  382.250    0.457    0.536   76.499  348.512    3.716
  382.500    0.457    0.521   75.371  303.768    3.948
  382.750    0.456    0.502   75.658  282.411    4.249
  383.000    0.454    0.488   77.555  268.163    4.599
  383.250    0.449    0.475   79.822  259.376    4.831
  383.500    0.441    0.487   83.266  237.198    4.990
  383.750    0.425    0.455   86.458  240.356    5.059
  384.000    0.388    0.422   85.824  299.868    5.158
  384.250    0.300    0.391   80.363  285.312    5.114
  384.500    0.263    0.377   76.079  222.753    5.069
  384.750    0.278    0.396   76.433  226.321    5.006
  385.000    0.405    0.448   75.917  260.083    4.843
  385.250    0.434    0.552   73.302  246.965    4.447
  385.500    0.443    0.578   69.827  254.042    4.037
  385.750    0.444    0.514   70.239  304.590    3.950
  386.000    0.435    0.497   70.401  283.026    4.244
  386.250    0.385    0.460   68.961  232.932    4.533
  386.500    0.327    0.433   64.247  218.064    4.916
  386.750    0.293    0.413   63.114  215.355    5.022
  387.000    0.293    0.410   62.049  216.457    5.035
  387.250    0.301    0.411   60.663  217.150    4.972
  387.500    0.313    0.410   56.070  218.250    4.856
  387.750    0.324    0.402   54.629  219.452    4.707
  388.000    0.317    0.403   57.208  220.146    4.622
  388.250    0.330    0.428   59.722  220.626    4.539
  388.500    0.329    0.432   60.754  221.008    4.551
  388.750    0.324    0.432   61.230  221.187    4.648
  389.000    0.322    0.431   61.271  221.248    4.739
  389.250    0.316    0.434   62.181  221.113    4.841
  389.500    0.309    0.456   64.017  220.981    5.010
  389.750    0.319    0.450   65.356  220.955    5.213
  390.000    0.348    0.442   67.253  220.606    5.497
  390.250    0.349    0.437   69.586  221.200    5.338
  390.500    0.356    0.440   71.546  221.984    4.748
  390.750    0.396    0.495   71.954  223.495    4.351
  391.000    0.436    0.525   70.575  245.304    4.048
  391.250    0.450    0.519   67.713  317.588    3.894
  391.500    0.438    0.496   63.618  343.516    3.882
  391.750    0.419    0.458   60.135  254.788    3.951
  392.000    0.347    0.448   57.518  209.532    4.111
  392.250    0.326    0.440   57.500  225.776    4.231
  392.500    0.333    0.436   58.163  230.076    4.266
  392.750    0.342    0.423   59.192  229.632    4.252
  393.000    0.338    0.410   59.914  227.641    4.215
  393.250    0.341    0.426   59.773  225.035    4.155
  393.500    0.328    0.431   58.086  222.532    4.104
  393.750    0.323    0.455   55.717  220.537    4.076
  394.000    0.319    0.463   54.399  219.375    4.041
  394.250    0.314    0.460   55.739  220.070    3.946
  394.500    0.309    0.454   58.068  221.477    3.875
  394.750    0.295    0.451   59.841  224.123    3.834
  395.000    0.285    0.455   61.801  228.416    3.830
  395.250    0.281    0.474   65.428  232.914    3.875
  395.500    0.299    0.467   67.016  235.464    3.995
  395.750    0.319    0.455   67.988  233.782    4.158
  396.000    0.330    0.442   68.648  229.418    4.368
  396.250    0.319    0.440   69.432  224.442    4.632
  396.500    0.329    0.437   69.537  221.937    4.766
  396.750    0.320    0.434   68.960  220.464    4.877
  397.000    0.304    0.427   67.272  221.884    4.991
  397.250    0.287    0.412   64.473  223.905    5.051
  397.500    0.270    0.392   61.857  226.344    4.979
  397.750    0.259    0.396   61.405  223.740    4.872
  398.000    0.263    0.419   62.312  218.662    4.775
  398.250    0.313    0.430   64.088  220.380    4.716
  398.500    0.336    0.428   66.047  223.024    4.719
  398.750    0.337    0.428   68.317  225.051    4.757
  399.000    0.332    0.430   70.024  225.434    4.814
  399.250    0.347    0.439   71.674  223.960    4.853
  399.500    0.349    0.442   72.585  222.585    4.856
  399.750    0.341    0.441   72.935  220.711    4.832
  400.000    0.338    0.455   73.719  220.055    4.817
  400.250    0.333    0.457   71.785  220.126    4.802
  400.500    0.323    0.452   67.438  220.603    4.779
  400.750    0.331    0.477   64.143  221.302    4.781
  401.000    0.346    0.488   61.836  222.607    4.856
  401.250    0.356    0.465   60.766  223.910    4.960
