~VERSION INFORMATION
 VERS.                 2.0:   CWLS LOG ASCII STANDARD -VERSION 2.0
 WRAP.                  NO:   ONE LINE PER DEPTH STEP
~WELL INFORMATION BLOCK
#MNEM.UNIT           DATA                    DESCRIPTION OF MNEMONIC
#---------    -------------------            -------------------------------
# Generated from Intellog Unique Number	CS_73_76/WELL/3244
WELL.         10-27-076-05W4                 : Well_name    - WELL
LOC .         00/10-27-076-05W4/0            : Location     - LOCATION
UWI .         00/10-27-076-05W4/0            : Uwi          - UNIQUE WELL ID
ENTR.         SP                             : Entered      - ENTERED BY
SRVC.         SCHLUMBERGER                   : Scn          - SERVICE COMPANY
STRT.M        160                            : top_depth    - START DEPTH
STOP.M        410                            : bot_depth    - STOP DEPTH
STEP.M        0.25                           : increment    - STEP LENGTH
 NULL. -999.2500:NULL Value
~CURVE INFORMATION BLOCK
#MNEM UNIT       ERCB CURVE CODE    CURVE DESCRIPTION
#-----------   ------------------   ----------------------------------
DEPT.M        00 001 00 00         : DEPTH        - DEPTH
DPHI.V/V      00 890 00 00         : PHID         - DENSITY POROSITY (LIMESTONE)
NPHI.V/V      00 330 00 00         : PHIN         - NEUTRON POROSITY (LIMESTONE)
GR  .API      00 310 00 00         : GR           - GAMMA RAY
ILD .OHMM     00 120 00 00         : RESD         - DEEP RESISTIVITY (DIL)
~PARAMETER INFORMATION
#MNEM.UNIT           DATA             DESCRIPTION OF MNEMONIC
#---------         -----------     ------------------------------
GL  .M        569.67               : gl           - GROUND LEVEL ELEVATION
EREF.M        573.87               : kb           - ELEVATION OF DEPTH REFERENCE
DATM.M        569.67               : datum        - DATUM ELEVATION
TDD .M        416.7                : tdd          - TOTAL DEPTH DRILLER
RUN .         ONE                  : Run          - RUN NUMBER
ENG .         BILL                 : Engineer     - RECORDING ENGINEER
WIT .         JIM                  : Witness      - WITNESSED BY
MUD .         GEL                  : Mud_type     - MUD TYPE
MATR.         LIMESTONE            : Logunit      - NEUTRON MATRIX
TMAX.C        36.7                 : BHT          - MAXIMUM RECORDED TEMPERATURE
BHTD.M        416.7                : BHTDEP       - MAXIMUM RECORDED TEMPERATURE
MATR.         1                    : LOGUNIT      - NEUTRON MATRIX
RMT .C        25                   : MDTP         - TEMPERATURE OF MUD
NEUT.         1                    : NEUTRON      - NEUTRON TYPE
RESI.         0                    : RESIST       - RESISTIVITY TYPE
RMC .OHMM     0.25                 : RMC          - RESISTIVITY OF MUD CAKE
RMF .OHMM     0.25                 : RMF          - RESISTIVITY OF MUD FILTRATE
SUFT.C        15                   : SUFT         - SURFACE TEMPERATURE
~A  DEPTH     PHID     PHIN       GR     RESD
# ...
  203.500    0.267    0.401   72.672   21.710
  203.750    0.265    0.406   74.506   22.541
  204.000    0.285    0.413   74.520   23.409
  204.250    0.280    0.420   72.709   23.862
  204.500    0.277    0.425   71.506   24.321
  204.750    0.268    0.413   67.270   23.892
  205.000    0.254    0.396   67.888   23.467
  205.250    0.230    0.391   70.938   23.053
  205.500    0.244    0.403   72.165   22.233
  205.750    0.257    0.408   71.570   21.433
  206.000    0.271    0.396   74.014   20.290
  206.250    0.265    0.386   78.278   18.854
  206.500    0.258    0.406   81.325   17.519
  206.750    0.249    0.425   83.160   16.892
  207.000    0.248    0.421   82.566   17.222
  207.250    0.240    0.406   86.223   17.232
  207.500    0.255    0.403   87.454   17.898
  207.750    0.246    0.404   87.464   17.906
  208.000    0.249    0.409   86.868   17.918
  208.250    0.250    0.415   84.455   17.599
  208.500    0.257    0.426   83.249   17.289
  208.750    0.269    0.427   80.835   16.363
  209.000    0.267    0.421   82.668   15.205
  209.250    0.255    0.410   90.575   14.129
  209.500    0.242    0.404   93.627   12.889
  209.750    0.232    0.411   94.853   11.978
  210.000    0.233    0.426   94.865   11.335
  210.250    0.230    0.445   99.739   10.731
  210.500    0.221    0.445  103.396   10.156
  210.750    0.215    0.456  106.445    9.439
  211.000    0.208    0.455  108.280    8.934
  211.250    0.206    0.449  109.504    8.300
  211.500    0.201    0.461  109.519    7.572
  211.750    0.198    0.485  107.709    7.167
  212.000    0.216    0.501  104.077    7.581
  212.250    0.230    0.485  100.448    8.170
  212.500    0.240    0.487   99.851    8.969
  212.750    0.251    0.496  103.508    9.845
  213.000    0.257    0.508  100.486   11.216
  213.250    0.249    0.491   97.461   12.311
  213.500    0.264    0.473   95.045   13.515
  213.750    0.273    0.457   96.273   13.776
  214.000    0.247    0.451   98.713   13.532
  214.250    0.231    0.446   99.334   13.049
  214.500    0.244    0.445   98.133   12.582
  214.750    0.254    0.446   97.540   12.360
  215.000    0.237    0.451   96.338   13.075
  215.250    0.221    0.465   96.350   13.831
  215.500    0.225    0.486   91.502   15.183
  215.750    0.242    0.470   79.975   18.285
  216.000    0.279    0.446   66.020   21.616
  216.250    0.289    0.425   58.138   25.083
  216.500    0.283    0.423   53.291   27.030
  216.750    0.294    0.430   56.343   27.050
  217.000    0.304    0.419   55.754   26.081
  217.250    0.303    0.401   55.759   21.288
  217.500    0.274    0.393   64.274   18.031
  217.750    0.256    0.401   78.862   14.718
  218.000    0.245    0.448   91.629   12.936
  218.250    0.236    0.475   96.501   12.021
  218.500    0.245    0.479   94.692   11.809
  218.750    0.285    0.465   89.845   12.261
  219.000    0.279    0.453   81.356   13.711
  219.250    0.275    0.456   78.939   16.512
  219.500    0.256    0.449   75.309   19.161
  219.750    0.260    0.438   76.536   19.175
  220.000    0.250    0.439   77.763   17.818
  220.250    0.234    0.430   81.420   15.663
  220.500    0.221    0.415   82.650   14.553
  220.750    0.212    0.408   82.054   13.275
  221.000    0.216    0.412   84.494   12.564
  221.250    0.223    0.418   86.936   11.893
  221.500    0.217    0.432   88.165   12.582
  221.750    0.227    0.454   86.354   13.558
  222.000    0.227    0.436   80.294   14.078
  222.250    0.236    0.420   74.234   13.832
  222.500    0.239    0.420   69.388   13.336
  222.750    0.216    0.432   75.478   12.858
  223.000    0.217    0.439   80.955   12.631
  223.250    0.230    0.450   79.144   14.126
  223.500    0.265    0.468   72.476   15.795
  223.750    0.282    0.460   61.558   18.673
  224.000    0.301    0.450   54.889   20.881
  224.250    0.310    0.438   50.652   21.683
  224.500    0.307    0.423   54.914   22.105
  224.750    0.306    0.432   56.752   22.531
  225.000    0.315    0.438   57.369   23.397
  225.250    0.319    0.433   59.207   23.854
  225.500    0.318    0.435   58.609   24.311
  225.750    0.318    0.432   58.018   24.328
  226.000    0.329    0.439   56.207   24.799
  226.250    0.334    0.436   55.005   24.818
  226.500    0.336    0.428   56.838   24.835
  226.750    0.338    0.431   60.498   24.393
  227.000    0.345    0.433   62.332   23.964
  227.250    0.329    0.436   63.560   23.980
  227.500    0.322    0.440   63.570   23.995
  227.750    0.326    0.446   63.586   24.013
  228.000    0.338    0.452   63.595   24.022
  228.250    0.334    0.448   62.395   24.041
  228.500    0.324    0.453   59.371   24.061
  228.750    0.321    0.449   58.169   24.522
  229.000    0.323    0.441   58.185   24.541
  229.250    0.324    0.425   58.803   24.553
  229.500    0.325    0.441   59.420   24.570
  229.750    0.327    0.452   60.041   24.585
  230.000    0.336    0.432   58.840   24.602
  230.250    0.337    0.421   58.246   24.164
  230.500    0.332    0.435   58.866   22.453
  230.750    0.328    0.443   60.702   20.864
  231.000    0.321    0.441   63.143   19.031
  231.250    0.315    0.447   65.585   16.421
  231.500    0.303    0.458   68.025   12.679
  231.750    0.273    0.471   75.328   10.348
  232.000    0.280    0.486   79.590    8.292
  232.250    0.286    0.497   77.782    6.895
  232.500    0.305    0.517   75.366    7.294
  232.750    0.335    0.490   68.697    8.308
  233.000    0.334    0.462   64.459   11.820
  233.250    0.308    0.442   62.041   15.615
  233.500    0.322    0.444   61.450   18.120
  233.750    0.317    0.431   62.068   20.267
  234.000    0.308    0.437   62.689   21.046
  234.250    0.305    0.432   61.487   21.852
  234.500    0.316    0.435   60.891   22.281
  234.750    0.309    0.439   60.296   22.291
  235.000    0.311    0.455   60.312   22.311
  235.250    0.320    0.463   60.930   22.319
  235.500    0.327    0.458   61.549   21.933
  235.750    0.332    0.449   62.169   21.945
  236.000    0.330    0.443   62.789   21.956
  236.250    0.321    0.439   62.196   21.968
  236.500    0.322    0.435   60.995   21.987
  236.750    0.313    0.432   60.401   22.000
  237.000    0.301    0.441   61.021   22.011
  237.250    0.300    0.439   61.640   22.032
  237.500    0.301    0.428   61.048   22.043
  237.750    0.301    0.433   61.060   22.061
  238.000    0.300    0.445   61.678   22.075
  238.250    0.307    0.448   61.690   22.085
  238.500    0.303    0.445   61.703   22.097
  238.750    0.312    0.451   61.715   22.112
  239.000    0.320    0.458   61.730   21.727
  239.250    0.322    0.463   61.742   22.146
  239.500    0.330    0.459   61.753   21.751
  239.750    0.331    0.454   62.373   21.762
  240.000    0.317    0.447   63.601   21.782
  240.250    0.306    0.451   64.829   21.791
  240.500    0.317    0.459   66.664   21.809
  240.750    0.306    0.463   69.713   21.824
  241.000    0.309    0.451   69.728   21.835
  241.250    0.308    0.438   68.524   23.099
  241.500    0.290    0.431   70.965   24.891
  241.750    0.268    0.428   77.053   27.323
  242.000    0.250    0.407   79.493   29.442
  242.250    0.123    0.245   75.257   31.144
  242.500    0.022    0.207   74.053   44.307
  242.750    0.050    0.235   72.244   32.966
  243.000    0.078    0.285   68.004   25.453
  243.250    0.148    0.339   67.412   20.776
  243.500    0.225    0.408   68.639   20.033
  243.750    0.321    0.455   68.650   20.422
  244.000    0.316    0.450   65.628   21.602
  244.250    0.317    0.454   66.855   19.706
  244.500    0.305    0.455   66.259   19.720
  244.750    0.304    0.469   63.845   19.738
  245.000    0.323    0.494   63.856   20.113
  245.250    0.326    0.506   63.871   20.131
  245.500    0.321    0.515   63.274   20.140
  245.750    0.308    0.514   62.679   20.537
  246.000    0.305    0.514   65.123   20.548
  246.250    0.309    0.493   66.956   20.556
  246.500    0.320    0.479   66.968   20.192
  246.750    0.323    0.478   66.982   19.836
