~VERSION INFORMATION
 VERS.                 2.0:   CWLS LOG ASCII STANDARD -VERSION 2.0
 WRAP.                  NO:   ONE LINE PER DEPTH STEP
~WELL INFORMATION BLOCK
#MNEM.UNIT           DATA                    DESCRIPTION OF MNEMONIC
#---------    -------------------            -------------------------------
# Generated from Intellog Unique Number	CW_73_75/WELL/1040
WELL.         11-16-074-21W4                 : Well_name    - WELL
LOC .         00/11-16-074-21W4/0            : Location     - LOCATION
UWI .         00/11-16-074-21W4/0            : Uwi          - UNIQUE WELL ID
ENTR.         JAYE                           : Entered      - ENTERED BY
SRVC.         SCHLUMBERGER                   : Scn          - SERVICE COMPANY
DATE.         2 JAN 77                       : Date         - LOG DATE
STRT.M        387.096                        : top_depth    - START DEPTH
STOP.M        600.346                        : bot_depth    - STOP DEPTH
STEP.M        0.25                           : increment    - STEP LENGTH
 NULL. -999.2500:NULL Value
~CURVE INFORMATION BLOCK
#MNEM UNIT       ERCB CURVE CODE    CURVE DESCRIPTION
#-----------   ------------------   ----------------------------------
DEPT.M        00 001 00 00         : DEPTH        - DEPTH
DPHI.V/V      00 890 00 00         : PHID         - DENSITY POROSITY (SANDSTONE)
NPHI.V/V      00 330 00 00         : PHIN         - NEUTRON POROSITY (SANDSTONE)
GR  .API      00 310 00 00         : GR           - GAMMA RAY
CALI.MM       00 280 01 00         : CAL          - CALIPER
ILD .OHMM     00 120 00 00         : RESD         - DEEP RESISTIVITY (DIL)
~PARAMETER INFORMATION
#MNEM.UNIT           DATA             DESCRIPTION OF MNEMONIC
#---------         -----------     ------------------------------
GL  .M        685.495              : gl           - GROUND LEVEL ELEVATION
EREF.M        689.458              : kb           - ELEVATION OF DEPTH REFERENCE
DATM.M        685.495              : datum        - DATUM ELEVATION
TDD .M        664.464              : tdd          - TOTAL DEPTH DRILLER
RUN .         ONE                  : Run          - RUN NUMBER
ENG .         MCDONALD             : Engineer     - RECORDING ENGINEER
WIT .         SMAILES              : Witness      - WITNESSED BY
BASE.         EDMONTON             : Branch       - HOME BASE OF LOGGING UNIT
MUD .         GEL CHEM             : Mud_type     - MUD TYPE
MATR.         SANDSTONE            : Logunit      - NEUTRON MATRIX
TMAX.C        26.1111              : BHT          - MAXIMUM RECORDED TEMPERATURE
BHTD.M        663.245              : BHTDEP       - MAXIMUM RECORDED TEMPERATURE
RMT .C        10                   : MDTP         - TEMPERATURE OF MUD
MUDD.KG/M     0                    : MWT          - MUD DENSITY
NEUT.         1                    : NEUTRON      - NEUTRON TYPE
RESI.         0                    : RESIST       - RESISTIVITY TYPE
RM  .OHMM     4.63                 : RM           - RESISTIVITY OF MUD
RMC .OHMM     4.67                 : RMC          - RESISTIVITY OF MUD CAKE
RMF .OHMM     4.66                 : RMF          - RESISTIVITY OF MUD FILTRATE
SUFT.C        -17.7778             : SUFT         - SURFACE TEMPERATURE
~A  DEPTH     PHID     PHIN       GR      CAL     RESD
  387.096    0.277    0.540  110.093  211.188    2.697
  387.346    0.287    0.539  106.776  210.901    2.796
  387.596    0.282    0.542  107.088  210.920    2.909
  387.846    0.283    0.536  109.220  210.941    3.204
  388.096    0.287    0.521  105.296  211.473    3.576
  388.346    0.267    0.520   99.130  211.698    4.050
  388.596    0.254    0.524   94.115  211.409    4.681
  388.846    0.242    0.510   87.042  209.583    5.340
  389.096    0.215    0.414   80.331  206.322    5.587
  389.346    0.173    0.396   78.224  203.265    5.490
  389.596    0.183    0.396   84.715  202.363    5.267
  389.846    0.274    0.401   97.262  203.716    4.997
  390.096    0.264    0.409  103.026  207.118    4.715
  390.346    0.262    0.431  104.431  213.290    4.441
  390.596    0.275    0.428   98.326  214.951    4.175
  390.846    0.294    0.410   95.916  213.535    4.088
  391.096    0.275    0.425  100.772  218.784    4.114
  391.346    0.287    0.437  109.383  219.317    4.344
  391.596    0.273    0.460  113.997  210.929    4.621
  391.846    0.266    0.443  110.738  213.411    4.961
  392.096    0.246    0.427  101.000  214.865    5.316
  392.346    0.259    0.426   95.865  212.424    5.803
  392.596    0.279    0.422   91.759  208.649    6.252
  392.846    0.257    0.352   88.318  204.772    6.591
  393.096    0.181    0.345   88.391  202.638    6.681
  393.346    0.172    0.372   95.850  202.350    6.340
  393.596    0.274    0.388  104.824  203.498    5.829
  393.846    0.262    0.391  108.045  205.262    5.320
  394.096    0.247    0.407  107.210  207.434    4.947
  394.346    0.237    0.412  107.827  212.580    4.668
  394.596    0.232    0.426  108.868  215.576    4.883
  394.846    0.217    0.447  107.244  218.157    5.361
  395.096    0.241    0.470   99.989  218.588    5.830
  395.346    0.257    0.407   89.161  215.223    6.189
  395.596    0.289    0.390   75.244  208.066    6.427
  395.846    0.296    0.376   75.680  205.522    6.505
  396.096    0.275    0.372   80.718  205.438    6.427
  396.346    0.256    0.399   84.787  204.946    6.042
  396.596    0.249    0.404   82.800  203.736    5.536
  396.846    0.229    0.371   89.171  205.702    5.214
  397.096    0.142    0.388   94.874  207.978    5.002
  397.346    0.128    0.439  102.940  210.972    4.852
  397.596    0.235    0.453  103.921  212.225    4.874
  397.846    0.248    0.472  101.753  213.166    5.016
  398.096    0.265    0.475   97.767  216.568    5.296
  398.346    0.275    0.426   91.965  217.408    5.707
  398.596    0.280    0.409   95.187  209.019    5.960
  398.846    0.260    0.420  100.528  219.088    6.133
  399.096    0.242    0.432  102.901  215.723    6.310
  399.346    0.258    0.409  103.882  205.182    6.433
  399.596    0.251    0.400  106.800  207.458    6.511
  399.846    0.250    0.411  107.841  214.861    6.457
  400.096    0.233    0.412  105.733  215.393    6.439
  400.346    0.266    0.409   99.507  205.363    6.409
  400.596    0.286    0.401   94.614  205.384    6.172
  400.846    0.282    0.391   91.234  206.635    6.020
  401.096    0.280    0.396   85.916  207.063    5.807
  401.346    0.257    0.417   71.576  206.877    5.510
  401.596    0.294    0.399   51.967  205.666    5.276
  401.846    0.323    0.375   41.866  202.508    5.128
  402.096    0.341    0.363   36.367  201.091    5.114
  402.346    0.345    0.356   36.016  200.394    5.128
  402.596    0.347    0.356   37.965  200.208    5.189
  402.846    0.347    0.360   43.608  200.127    5.243
  403.096    0.347    0.363   48.767  200.043    5.257
  403.346    0.345    0.383   56.773  200.165    5.262
  403.596    0.341    0.403   60.720  200.291    5.228
  403.846    0.333    0.426   61.580  200.311    5.214
  404.096    0.337    0.434   58.624  200.226    5.209
  404.346    0.348    0.410   61.058  200.244    5.253
  404.596    0.348    0.393   63.553  200.468    5.306
  404.846    0.342    0.390   65.441  200.594    5.350
  405.096    0.335    0.402   68.904  200.716    5.394
  405.346    0.331    0.395   73.821  201.040    5.429
  405.596    0.326    0.384   78.980  201.267    5.505
  405.846    0.317    0.383   83.594  201.286    5.571
  406.096    0.307    0.376   89.480  201.412    5.638
  406.346    0.290    0.372   97.122  201.737    5.717
  406.596    0.265    0.372  107.852  202.678    5.743
  406.846    0.237    0.404  111.255  204.543    5.654
  407.096    0.231    0.429  109.875  206.819    5.276
  407.346    0.239    0.425  107.160  205.916    4.772
  407.596    0.252    0.418  104.992  202.961    3.979
  407.846    0.252    0.419  105.428  203.493    3.430
  408.096    0.243    0.446  112.706  205.974    3.001
  408.346    0.261    0.473  118.955  206.199    2.694
  408.596    0.268    0.509  123.084  205.398    2.571
  408.846    0.281    0.539  127.941  204.602    2.549
  409.096    0.291    0.567  128.437  204.925    2.614
  409.346    0.270    0.566  129.841  205.563    2.655
  409.596    0.268    0.566  130.277  206.504    2.609
  409.846    0.268    0.580  130.532  207.549    2.760
  410.096    0.266    0.571  132.663  208.597    3.057
  410.346    0.265    0.552  133.885  209.536    3.405
  410.596    0.276    0.529  134.320  210.582    3.849
  410.846    0.289    0.502  133.302  211.525    4.449
  411.096    0.289    0.476  126.592  212.261    4.901
  411.346    0.289    0.476  117.278  212.998    4.951
  411.596    0.280    0.474  115.957  213.327    4.847
  411.846    0.292    0.467  117.059  213.345    4.772
  412.096    0.285    0.458  117.979  215.520    4.680
  412.346    0.271    0.456  120.958  214.821    4.737
  412.596    0.266    0.452  123.392  213.610    4.875
  412.846    0.274    0.454  121.950  211.681    5.090
  413.096    0.284    0.471  115.725  214.884    5.345
  413.346    0.267    0.465  110.770  213.669    5.459
  413.596    0.276    0.447  103.758  209.792    5.536
  413.846    0.272    0.434   96.260  204.889    5.613
  414.096    0.275    0.456   96.574  201.628    5.617
  414.346    0.297    0.457   96.344  200.214    5.399
  414.596    0.278    0.456   93.752  199.821    5.315
  414.846    0.293    0.448   89.463  200.251    5.369
  415.096    0.309    0.419   89.173  204.066    5.455
  415.346    0.293    0.418   93.786  209.110    5.520
  415.596    0.275    0.467   99.612  215.282    5.526
  415.846    0.281    0.487  100.350  217.558    5.510
  416.096    0.306    0.458   96.789  207.630    5.505
  416.346    0.318    0.453   94.802  202.625    5.429
  416.596    0.333    0.477   93.300  201.927    5.365
  416.846    0.337    0.497   92.524  201.949    5.242
  417.096    0.340    0.493   92.415  202.276    5.113
  417.346    0.346    0.475   92.729  202.092    5.016
  417.596    0.341    0.469   93.831  202.008    4.965
  417.846    0.326    0.481   95.115  201.821    4.960
  418.096    0.327    0.484   95.004  200.917    4.965
  418.346    0.340    0.473   94.713  200.223    4.987
  418.596    0.352    0.457   94.906  199.932    5.020
  418.846    0.358    0.450   96.856  199.645    5.034
  419.096    0.338    0.445  106.376  199.561    5.011
  419.346    0.324    0.436  112.625  202.146    4.951
  419.596    0.315    0.432  118.450  204.729    4.856
  419.846    0.297    0.439  121.065  208.953    4.780
  420.096    0.287    0.439  121.381  216.047    4.794
  420.346    0.275    0.440  118.787  220.271    4.843
  420.596    0.282    0.466  108.686  219.368    4.847
  420.846    0.305    0.481   96.586  215.697    4.807
  421.096    0.311    0.461   87.878  208.435    4.794
  421.346    0.321    0.451   79.350  202.302    4.798
  421.596    0.324    0.452   83.178  203.449    4.802
  421.846    0.299    0.475   89.124  209.622    4.834
  422.096    0.284    0.493   89.983  214.359    4.892
  422.346    0.304    0.507   90.237  214.790    4.969
  422.596    0.332    0.502   89.340  209.579    5.048
  422.846    0.349    0.445   84.811  201.293    5.100
  423.096    0.364    0.432   87.547  201.314    5.123
  423.346    0.358    0.435   89.254  201.436    5.166
