~VERSION INFORMATION
 VERS.                 2.0:   CWLS LOG ASCII STANDARD -VERSION 2.0
 WRAP.                  NO:   ONE LINE PER DEPTH STEP
~WELL INFORMATION BLOCK
#MNEM.UNIT           DATA                    DESCRIPTION OF MNEMONIC
#---------    -------------------            -------------------------------
# Generated from Intellog Unique Number	CS_67_68/WELL/806
WELL.         BURNT LAKE                     : Well_name    - WELL
LOC .         00/10-26-068-04W4/0            : Location     - LOCATION
UWI .         00/10-26-068-04W4/0            : Uwi          - UNIQUE WELL ID
ENTR.         SP                             : Entered      - ENTERED BY
SRVC.         SCHLUMBERGER                   : Scn          - SERVICE COMPANY
STRT.M        365                            : top_depth    - START DEPTH
STOP.M        595                            : bot_depth    - STOP DEPTH
STEP.M        0.25                           : increment    - STEP LENGTH
 NULL. -999.2500:NULL Value
~CURVE INFORMATION BLOCK
#MNEM UNIT       ERCB CURVE CODE    CURVE DESCRIPTION
#-----------   ------------------   ----------------------------------
DEPT.M        00 001 00 00         : DEPTH        - DEPTH
GR  .API      00 310 00 00         : GR           - GAMMA RAY
NPHI.V/V      00 330 00 00         : PHIN         - NEUTRON POROSITY (LIMESTONE)
DPHI.V/V      00 890 00 00         : PHID         - DENSITY POROSITY (LIMESTONE)
ILD .OHMM     00 120 00 00         : RESD         - DEEP RESISTIVITY (DIL)
~PARAMETER INFORMATION
#MNEM.UNIT           DATA             DESCRIPTION OF MNEMONIC
#---------         -----------     ------------------------------
GL  .M        731.85               : gl           - GROUND LEVEL ELEVATION
EREF.M        735.7                : kb           - ELEVATION OF DEPTH REFERENCE
DATM.M        731.85               : datum        - DATUM ELEVATION
TDD .M        600.34               : tdd          - TOTAL DEPTH DRILLER
RUN .         ONE                  : Run          - RUN NUMBER
ENG .         BILL                 : Engineer     - RECORDING ENGINEER
WIT .         JIM                  : Witness      - WITNESSED BY
MUD .         GEL                  : Mud_type     - MUD TYPE
MATR.         LIMESTONE            : Logunit      - NEUTRON MATRIX
TMAX.C        20                   : BHT          - MAXIMUM RECORDED TEMPERATURE
BHTD.M        600.34               : BHTDEP       - MAXIMUM RECORDED TEMPERATURE
MATR.         1                    : LOGUNIT      - NEUTRON MATRIX
RMT .C        25                   : MDTP         - TEMPERATURE OF MUD
NEUT.         1                    : NEUTRON      - NEUTRON TYPE
RESI.         0                    : RESIST       - RESISTIVITY TYPE
RMC .OHMM     0.25                 : RMC          - RESISTIVITY OF MUD CAKE
RMF .OHMM     0.25                 : RMF          - RESISTIVITY OF MUD FILTRATE
SUFT.C        15                   : SUFT         - SURFACE TEMPERATURE
~A  DEPTH       GR     PHIN     PHID     RESD
# ...
  452.000   59.769    0.391    0.289    6.892
  452.250   62.301    0.388    0.285    7.022
  452.500   63.561    0.391    0.284    7.114
  452.750   63.242    0.397    0.298    7.141
  453.000   59.034    0.391    0.314    7.154
  453.250   55.615    0.393    0.323    7.168
  453.500   57.297    0.398    0.330    7.154
  453.750   58.132    0.396    0.335    7.114
  454.000   57.023    0.386    0.334    7.087
  454.250   57.978    0.386    0.331    7.087
  454.500   60.449    0.394    0.331    7.074
  454.750   61.105    0.411    0.333    7.048
  455.000   58.598    0.412    0.335    7.008
  455.250   55.604    0.395    0.337    6.956
  455.500   57.166    0.383    0.339    6.891
  455.750   57.574    0.392    0.339    6.827
  456.000   57.618    0.401    0.339    6.788
  456.250   56.204    0.407    0.336    6.750
  456.500   55.582    0.402    0.329    6.725
  456.750   56.658    0.393    0.325    6.763
  457.000   57.006    0.383    0.324    6.839
  457.250   56.621    0.381    0.330    6.929
  457.500   55.818    0.380    0.332    7.007
  457.750   54.769    0.382    0.325    7.021
  458.000   54.387    0.402    0.318    7.007
  458.250   54.794    0.397    0.329    6.968
  458.500   54.898    0.393    0.338    6.929
  458.750   54.398    0.392    0.343    6.788
  459.000   53.650    0.392    0.345    6.637
  459.250   54.181    0.398    0.345    6.575
  459.500   56.536    0.412    0.342    6.310
  459.750   61.803    0.403    0.332    5.233
  460.000   68.166    0.390    0.319    4.275
  460.250   75.077    0.380    0.299    3.674
  460.500   82.958    0.421    0.280    3.314
  460.750   90.597    0.472    0.262    3.110
  461.000   94.103    0.523    0.280    2.985
  461.250   95.971    0.535    0.289    2.946
  461.500   97.593    0.568    0.297    2.907
  461.750   98.367    0.553    0.291    2.924
  462.000   99.383    0.544    0.286    3.035
  462.250  100.036    0.562    0.302    3.364
  462.500   98.925    0.574    0.311    3.722
  462.750   93.258    0.556    0.303    4.235
  463.000   93.604    0.521    0.290    4.703
  463.250   91.403    0.495    0.282    5.262
  463.500   84.157    0.471    0.282    5.671
  463.750   81.101    0.458    0.284    5.976
  464.000   81.085    0.457    0.284    6.134
  464.250   82.891    0.451    0.290    6.203
  464.500   82.571    0.440    0.292    6.180
  464.750   79.637    0.438    0.294    6.134
  465.000   79.073    0.445    0.294    6.088
  465.250   79.909    0.449    0.292    6.054
  465.500   79.345    0.453    0.294    5.942
  465.750   75.136    0.444    0.305    5.942
  466.000   69.895    0.442    0.312    5.942
  466.250   74.009    0.449    0.298    5.964
  466.500   77.517    0.443    0.280    5.997
  466.750   80.053    0.446    0.269    6.031
  467.000   81.919    0.453    0.262    6.134
  467.250   77.528    0.452    0.269    6.261
  467.500   74.777    0.441    0.282    6.191
  467.750   81.869    0.438    0.288    5.777
  468.000   90.113    0.455    0.292    5.154
  468.250   94.470    0.468    0.293    4.693
  468.500   96.764    0.483    0.273    4.330
  468.750   98.631    0.492    0.257    4.086
  469.000  100.499    0.500    0.249    3.892
  469.250  101.818    0.490    0.250    3.784
  469.500  100.101    0.481    0.254    3.756
  469.750   97.228    0.482    0.251    3.763
  470.000   97.577    0.489    0.247    3.813
  470.250   97.436    0.487    0.260    3.943
  470.500   95.781    0.476    0.268    4.048
  470.750   92.726    0.469    0.270    4.210
  471.000   94.229    0.461    0.267    4.362
  471.250   94.516    0.464    0.263    4.529
  471.500   92.918    0.454    0.262    4.614
  471.750   89.802    0.441    0.266    4.614
  472.000   88.815    0.432    0.268    4.546
  472.250   91.593    0.435    0.268    4.265
  472.500   94.249    0.452    0.278    3.972
  472.750   96.421    0.478    0.275    3.784
  473.000   98.712    0.492    0.258    3.604
  473.250  100.272    0.507    0.268    3.498
  473.500  100.622    0.527    0.275    3.491
  473.750   99.573    0.515    0.283    3.720
  474.000   95.427    0.500    0.311    4.362
  474.250   88.606    0.436    0.350    5.553
  474.500   81.298    0.323    0.374    6.354
  474.750   79.094    0.294    0.389    8.119
  475.000   75.251    0.284    0.410    9.343
  475.250   69.641    0.303    0.411    9.537
  475.500   68.170    0.312    0.399    8.832
  475.750   69.911    0.335    0.383    7.806
  476.000   70.323    0.367    0.350    7.202
  476.250   67.817    0.405    0.329    6.461
  476.500   63.241    0.464    0.337    6.132
  476.750   62.434    0.471    0.348    5.797
  477.000   62.659    0.464    0.356    5.626
  477.250   62.828    0.462    0.328    5.490
  477.500   61.900    0.436    0.304    5.399
  477.750   60.669    0.414    0.293    5.338
  478.000   60.712    0.397    0.287    5.328
  478.250   63.004    0.437    0.318    5.368
  478.500   64.933    0.470    0.340    5.552
  478.750   66.860    0.465    0.355    5.775
  479.000   67.938    0.461    0.342    6.282
  479.250   62.149    0.471    0.238    6.976
  479.500   54.051    0.223    0.166    8.042
  479.750   51.117    0.225    0.111    9.032
  480.000   55.416    0.353    0.192    9.716
  480.250   60.376    0.407    0.259    9.134
  480.500   62.673    0.413    0.302    7.878
  480.750   65.994    0.418    0.335    7.174
  481.000   67.864    0.425    0.352    6.533
  481.250   70.398    0.431    0.342    6.131
  481.500   72.146    0.427    0.333    6.028
  481.750   68.423    0.412    0.326    5.972
  482.000   70.227    0.408    0.323    5.938
  482.250   74.221    0.448    0.326    5.938
  482.500   77.485    0.462    0.321    5.927
  482.750   78.745    0.444    0.312    5.905
  483.000   78.971    0.430    0.305    5.883
  483.250   83.447    0.427    0.299    5.839
  483.500   85.196    0.445    0.292    5.731
  483.750   84.329    0.441    0.305    5.624
  484.000   79.574    0.438    0.323    5.499
  484.250   76.092    0.435    0.331    5.408
  484.500   74.190    0.447    0.338    5.337
  484.750   74.056    0.461    0.342    5.297
  485.000   73.128    0.470    0.326    5.189
  485.250   74.023    0.452    0.297    5.055
  485.500   74.431    0.422    0.276    4.952
  485.750   78.848    0.394    0.262    4.788
  486.000   82.235    0.436    0.285    4.569
  486.250   84.285    0.469    0.296    4.360
  486.500   83.173    0.490    0.298    4.084
  486.750   85.767    0.482    0.294    3.904
  487.000   87.818    0.474    0.289    3.818
  487.250   89.138    0.470    0.285    3.963
  487.500   89.244    0.486    0.300    4.176
  487.750   86.795    0.473    0.306    4.153
  488.000   83.925    0.462    0.296    3.418
  488.250   88.828    0.483    0.289    2.715
  488.500   93.794    0.521    0.283    2.373
  488.750   96.815    0.542    0.282    2.153
  489.000   97.770    0.550    0.291    2.105
  489.250   97.633    0.569    0.288    2.165
  489.500   96.098    0.540    0.278    2.243
  489.750   97.112    0.517    0.271    2.325
  490.000   98.007    0.502    0.268    2.431
  490.250   98.111    0.506    0.267    2.543
  490.500   98.096    0.500    0.268    2.725
  490.750   98.687    0.490    0.270    3.004
  491.000   96.423    0.511    0.286    3.548
  491.250   89.237    0.416    0.311    4.509
  491.500   80.471    0.352    0.328    5.859
  491.750   74.624    0.328    0.339    7.787
  492.000   77.219    0.328    0.336    9.748
  492.250   78.236    0.322    0.347   11.666
  492.500   70.258    0.309    0.357   14.522
  492.750   63.800    0.299    0.356   16.586
  493.000   59.715    0.290    0.362   18.349
  493.250   55.750    0.275    0.382   19.156
  493.500   54.762    0.262    0.390   20.300
  493.750   55.169    0.248    0.392   21.392
  494.000   55.213    0.239    0.395   22.459
  494.250   53.983    0.230    0.409   22.883
  494.500   53.841    0.217    0.422   22.883
  494.750   54.556    0.251    0.408   22.416
  495.000   56.481    0.289    0.386   21.796
  495.250   57.741    0.333    0.365   20.721
