~VERSION INFORMATION
 VERS.                 2.0:   CWLS LOG ASCII STANDARD -VERSION 2.0
 WRAP.                  NO:   ONE LINE PER DEPTH STEP
~WELL INFORMATION BLOCK
#MNEM.UNIT           DATA                    DESCRIPTION OF MNEMONIC
#---------    -------------------            -------------------------------
# Generated from Intellog Unique Number	CS_69_70/WELL/869
WELL.         BOW VALLEY EXPLORATION         : Well_name    - WELL
LOC .         00/10-18-069-13W4/0            : Location     - LOCATION
UWI .         00/10-18-069-13W4/0            : Uwi          - UNIQUE WELL ID
ENTR.         SP                             : Entered      - ENTERED BY
SRVC.         SCHLUMBERGER                   : Scn          - SERVICE COMPANY
STRT.M        243.840                        : top_depth    - START DEPTH
STOP.M        441.590                        : bot_depth    - STOP DEPTH
STEP.M        0.25                           : increment    - STEP LENGTH
 NULL. -999.2500:NULL Value
~CURVE INFORMATION BLOCK
#MNEM UNIT       ERCB CURVE CODE    CURVE DESCRIPTION
#-----------   ------------------   ----------------------------------
DEPT.M        00 001 00 00         : DEPTH        - DEPTH
GR  .API      00 310 00 00         : GR           - GAMMA RAY
DPHI.V/V      00 890 00 00         : PHID         - DENSITY POROSITY (SANDSTONE)
NPHI.V/V      00 330 00 00         : PHIN         - NEUTRON POROSITY (SANDSTONE)
ILD .OHMM     00 120 00 00         : RESD         - DEEP RESISTIVITY (DIL)
~PARAMETER INFORMATION
#MNEM.UNIT           DATA             DESCRIPTION OF MNEMONIC
#---------         -----------     ------------------------------
GL  .M        547.421              : gl           - GROUND LEVEL ELEVATION
EREF.M        550.469              : kb           - ELEVATION OF DEPTH REFERENCE
DATM.M        547.421              : datum        - DATUM ELEVATION
TDD .M        445.008              : tdd          - TOTAL DEPTH DRILLER
RUN .         ONE                  : Run          - RUN NUMBER
ENG .         BILL                 : Engineer     - RECORDING ENGINEER
WIT .         JIM                  : Witness      - WITNESSED BY
MUD .         GEL                  : Mud_type     - MUD TYPE
MATR.         SANDSTONE            : Logunit      - NEUTRON MATRIX
TMAX.C        25                   : BHT          - MAXIMUM RECORDED TEMPERATURE
BHTD.M        441.96               : BHTDEP       - MAXIMUM RECORDED TEMPERATURE
MATR.         1                    : LOGUNIT      - NEUTRON MATRIX
RMT .C        25                   : MDTP         - TEMPERATURE OF MUD
NEUT.         1                    : NEUTRON      - NEUTRON TYPE
RESI.         0                    : RESIST       - RESISTIVITY TYPE
RMC .OHMM     0.25                 : RMC          - RESISTIVITY OF MUD CAKE
RMF .OHMM     0.25                 : RMF          - RESISTIVITY OF MUD FILTRATE
SUFT.C        15                   : SUFT         - SURFACE TEMPERATURE
~A  DEPTH       GR     PHID     PHIN     RESD
# ...
  287.340  109.027    0.121    0.278    6.382
  287.590  102.416    0.129    0.265    5.635
  287.840   98.233    0.176    0.313    4.749
  288.090  102.609    0.220    0.365    4.008
  288.340  108.741    0.274    0.403    3.514
  288.590  112.678    0.301    0.442    3.264
  288.840  115.165    0.318    0.448    3.088
  289.090  117.252    0.314    0.446    3.032
  289.340  119.035    0.305    0.443    2.988
  289.590  121.455    0.300    0.442    2.987
  289.840  120.892    0.291    0.443    2.999
  290.090  117.783    0.280    0.439    3.004
  290.340  115.933    0.276    0.446    3.002
  290.590  115.122    0.278    0.451    2.957
  290.840  114.874    0.275    0.452    2.863
  291.090  114.267    0.270    0.458    2.790
  291.340  112.377    0.264    0.474    2.763
  291.590  107.932    0.261    0.487    2.801
  291.840  103.604    0.262    0.510    2.872
  292.090   98.167    0.283    0.461    2.967
  292.340   94.651    0.279    0.416    3.098
  292.590   95.241    0.265    0.398    3.263
  292.840   96.345    0.257    0.393    3.368
  293.090   95.736    0.256    0.389    3.464
  293.340   95.100    0.250    0.397    3.477
  293.590  100.111    0.242    0.398    3.366
  293.840  103.516    0.237    0.406    3.192
  294.090  102.186    0.253    0.436    3.024
  294.340   98.932    0.265    0.457    2.917
  294.590   94.172    0.275    0.465    2.832
  294.840   90.221    0.289    0.455    2.788
  295.090   87.934    0.302    0.453    2.740
  295.340   89.456    0.308    0.459    2.708
  295.590   90.512    0.308    0.456    2.700
  295.840   91.151    0.305    0.450    2.706
  296.090   90.573    0.304    0.438    2.711
  296.340   87.708    0.306    0.426    2.715
  296.590   85.134    0.308    0.419    2.725
  296.840   83.620    0.313    0.429    2.710
  297.090   81.950    0.322    0.440    2.706
  297.340   81.510    0.323    0.448    2.739
  297.590   83.620    0.315    0.454    2.786
  297.840   87.495    0.303    0.451    2.839
  298.090   87.013    0.295    0.459    2.894
  298.340   85.005    0.286    0.469    2.943
  298.590   83.970    0.292    0.475    3.000
  298.840   83.823    0.298    0.456    3.088
  299.090   87.049    0.289    0.442    3.170
  299.340   89.597    0.287    0.432    3.254
  299.590   92.074    0.285    0.436    3.357
  299.840   94.934    0.271    0.441    3.470
  300.090   98.385    0.269    0.441    3.554
  300.340  101.681    0.267    0.450    3.657
  300.590  105.226    0.250    0.465    3.710
  300.840  107.571    0.226    0.468    3.772
  301.090  109.562    0.235    0.452    3.830
  301.340  106.612    0.250    0.442    3.886
  301.590  101.921    0.265    0.460    3.927
  301.840   99.187    0.274    0.452    3.956
  302.090   98.241    0.275    0.436    3.930
  302.340   93.626    0.272    0.430    3.911
  302.590   94.092    0.273    0.425    3.825
  302.840   98.905    0.259    0.432    3.731
  303.090  100.881    0.244    0.454    3.644
  303.340   99.774    0.237    0.469    3.577
  303.590  101.760    0.242    0.493    3.608
  303.840  104.040    0.246    0.505    3.727
  304.090  102.858    0.246    0.446    3.863
  304.340  102.426    0.242    0.424    4.029
  304.590  104.819    0.239    0.434    4.108
  304.840  105.783    0.246    0.445    4.101
  305.090  102.113    0.258    0.455    4.013
  305.340   97.948    0.264    0.447    3.946
  305.590   95.805    0.252    0.436    3.940
  305.840  100.407    0.245    0.426    3.965
  306.090  102.937    0.247    0.419    4.029
  306.340  103.413    0.257    0.396    4.106
  306.590  103.025    0.261    0.382    4.214
  306.840  102.927    0.251    0.372    4.346
  307.090  102.888    0.240    0.375    4.442
  307.340  102.111    0.233    0.384    4.546
  307.590   99.493    0.227    0.389    4.603
  307.840   96.986    0.236    0.399    4.609
  308.090   96.361    0.240    0.412    4.599
  308.340   96.938    0.241    0.424    4.468
  308.590  101.238    0.235    0.431    4.357
  308.840  105.457    0.231    0.422    4.230
  309.090  108.158    0.227    0.408    3.997
  309.340  110.485    0.230    0.404    3.700
  309.590  113.301    0.219    0.420    3.381
  309.840   97.566    0.236    0.432    3.192
  310.090   86.114    0.259    0.438    2.981
  310.340   77.865    0.282    0.442    2.853
  310.590   76.219    0.305    0.446    2.792
  310.840   75.004    0.316    0.433    2.773
  311.090   74.767    0.328    0.422    2.781
  311.340   76.689    0.339    0.431    2.828
  311.590   79.737    0.346    0.445    2.906
  311.840   82.238    0.337    0.460    2.951
  312.090   81.187    0.317    0.458    2.963
  312.340   79.444    0.299    0.417    3.072
  312.590   79.690    0.289    0.415    3.188
  312.840   81.656    0.287    0.423    3.327
  313.090   85.894    0.290    0.430    3.484
  313.340   89.521    0.277    0.421    3.583
  313.590   91.119    0.260    0.415    3.513
  313.840   88.556    0.255    0.407    3.303
  314.090   82.594    0.269    0.415    3.076
  314.340   78.781    0.282    0.428    2.879
  314.590   75.743    0.296    0.430    2.711
  314.840   75.549    0.310    0.413    2.635
  315.090   79.366    0.325    0.409    2.627
  315.340   85.147    0.307    0.414    2.665
  315.590   89.979    0.294    0.416    2.841
  315.840   94.884    0.279    0.426    3.031
  316.090   97.375    0.264    0.431    3.240
  316.340   98.255    0.250    0.421    3.558
  316.590   97.790    0.256    0.405    3.842
  316.840   97.247    0.252    0.393    4.034
  317.090   99.161    0.246    0.398    4.121
  317.340  100.529    0.247    0.407    4.128
  317.590   98.738    0.236    0.411    4.006
  317.840   94.775    0.242    0.414    3.816
  318.090   88.556    0.271    0.403    3.662
  318.340   84.830    0.264    0.386    3.544
  318.590   81.321    0.257    0.384    3.457
  318.840   79.867    0.269    0.396    3.343
  319.090   83.297    0.280    0.406    3.291
  319.340   86.284    0.284    0.413    3.260
  319.590   85.853    0.291    0.425    3.262
  319.840   82.291    0.295    0.439    3.282
  320.090   78.290    0.298    0.427    3.305
  320.340   75.421    0.296    0.418    3.450
  320.590   75.785    0.293    0.415    3.562
  320.840   79.698    0.255    0.418    3.696
  321.090   82.124    0.249    0.413    3.818
  321.340   83.879    0.243    0.404    3.935
  321.590   85.237    0.242    0.396    3.987
  321.840   85.462    0.246    0.391    4.003
  322.090   86.289    0.251    0.392    3.962
  322.340   89.225    0.254    0.399    3.899
  322.590   93.391    0.255    0.403    3.845
  322.840   97.736    0.244    0.411    3.761
  323.090  102.849    0.228    0.402    3.647
  323.340  106.301    0.217    0.405    3.548
  323.590  109.084    0.206    0.422    3.457
  323.840  109.154    0.225    0.437    3.385
  324.090  103.483    0.253    0.471    3.329
  324.340   99.738    0.269    0.481    3.347
  324.590   99.415    0.259    0.472    3.395
  324.840  104.393    0.244    0.476    3.500
  325.090  105.532    0.231    0.473    3.619
  325.340  100.461    0.238    0.449    3.665
  325.590   94.008    0.252    0.428    3.590
  325.840   84.505    0.277    0.416    3.477
  326.090   80.385    0.292    0.409    3.346
  326.340   79.835    0.295    0.409    3.218
  326.590   81.702    0.298    0.417    3.101
  326.840   81.545    0.284    0.416    2.980
  327.090   78.898    0.278    0.413    3.033
  327.340   77.454    0.300    0.426    2.973
  327.590   75.907    0.314    0.434    2.895
  327.840   75.152    0.325    0.429    2.807
  328.090   75.942    0.332    0.419    2.726
  328.340   77.240    0.328    0.416    2.637
  328.590   78.781    0.331    0.418    2.585
  328.840   78.465    0.335    0.424    2.566
  329.090   79.270    0.335    0.425    2.582
  329.340   78.937    0.324    0.418    2.640
  329.590   77.843    0.317    0.410    2.734
  329.840   76.457    0.310    0.409    2.875
  330.090   79.400    0.297    0.417    3.016
  330.340   80.650    0.283    0.421    3.178
  330.590   82.682    0.272    0.413    3.294
