~VERSION INFORMATION
 VERS.                 2.0:   CWLS LOG ASCII STANDARD -VERSION 2.0
 WRAP.                  NO:   ONE LINE PER DEPTH STEP
~WELL INFORMATION BLOCK
#MNEM.UNIT           DATA                    DESCRIPTION OF MNEMONIC
#---------    -------------------            -------------------------------
# Generated from Intellog Unique Number	CW_79_81/WELL/2472
WELL.         10-23-081-20W4                 : Well_name    - WELL
LOC .         00/10-23-081-20W4/0            : Location     - LOCATION
UWI .         00/10-23-081-20W4/0            : Uwi          - UNIQUE WELL ID
ENTR.         MAX                            : Entered      - ENTERED BY
SRVC.         SCHLUMBERGER                   : Scn          - SERVICE COMPANY
STRT.M        182.88                         : top_depth    - START DEPTH
STOP.M        405.13                         : bot_depth    - STOP DEPTH
STEP.M        0.25                           : increment    - STEP LENGTH
 NULL. -999.2500:NULL Value
~CURVE INFORMATION BLOCK
#MNEM UNIT       ERCB CURVE CODE    CURVE DESCRIPTION
#-----------   ------------------   ----------------------------------
DEPT.M        00 001 00 00         : DEPTH        - DEPTH
ILD .OHMM     00 120 00 00         : RESD         - DEEP RESISTIVITY (DIL)
NPHI.V/V      00 330 00 00         : PHIN         - NEUTRON POROSITY (SANDSTONE)
DPHI.V/V      00 890 00 00         : PHID         - DENSITY POROSITY (SANDSTONE)
GR  .API      00 310 00 00         : GR           - GAMMA RAY
CALI.MM       00 280 01 00         : CAL          - CALIPER
~PARAMETER INFORMATION
#MNEM.UNIT           DATA             DESCRIPTION OF MNEMONIC
#---------         -----------     ------------------------------
GL  .M        582.778              : gl           - GROUND LEVEL ELEVATION
EREF.M        586.13               : kb           - ELEVATION OF DEPTH REFERENCE
DATM.M        582.778              : datum        - DATUM ELEVATION
TDD .M        414.223              : tdd          - TOTAL DEPTH DRILLER
RUN .         ONE                  : Run          - RUN NUMBER
ENG .         BILL                 : Engineer     - RECORDING ENGINEER
WIT .         JIM                  : Witness      - WITNESSED BY
MUD .         GEL                  : Mud_type     - MUD TYPE
MATR.         SANDSTONE            : Logunit      - NEUTRON MATRIX
TMAX.C        25.5556              : BHT          - MAXIMUM RECORDED TEMPERATURE
BHTD.M        414.223              : BHTDEP       - MAXIMUM RECORDED TEMPERATURE
MATR.         1                    : LOGUNIT      - NEUTRON MATRIX
RMT .C        11.6667              : MDTP         - TEMPERATURE OF MUD
NEUT.         1                    : NEUTRON      - NEUTRON TYPE
RESI.         0                    : RESIST       - RESISTIVITY TYPE
RMC .OHMM     3.8                  : RMC          - RESISTIVITY OF MUD CAKE
RMF .OHMM     2.57                 : RMF          - RESISTIVITY OF MUD FILTRATE
SUFT.C        -20                  : SUFT         - SURFACE TEMPERATURE
~A  DEPTH     RESD     PHIN     PHID       GR      CAL
  182.880    2.181    0.588    0.276   93.184  201.982
  183.130    2.212    0.584    0.279   92.964  202.014
  183.380    2.217    0.576    0.282   91.375  202.930
  183.630    2.215    0.558    0.280   89.080  204.140
  183.880    2.205    0.543    0.274   86.434  204.857
  184.130    2.165    0.563    0.268   84.124  204.280
  184.380    2.130    0.566    0.271   87.521  205.128
  184.630    2.129    0.583    0.282   90.552  204.770
  184.880    2.127    0.580    0.286   91.671  203.532
  185.130    2.125    0.573    0.282   92.153  202.979
  185.380    2.123    0.564    0.276   92.347  203.405
  185.630    2.121    0.548    0.279   91.533  203.756
  185.880    2.119    0.542    0.268   90.828  203.383
  186.130    2.117    0.548    0.264   91.311  202.244
  186.380    2.139    0.561    0.265   91.448  201.391
  186.630    2.168    0.577    0.271   90.310  201.031
  186.880    2.205    0.585    0.278   87.840  201.262
  187.130    2.278    0.572    0.279   84.131  201.348
  187.380    2.342    0.569    0.270   80.535  197.709
  187.630    2.582    0.594    0.267   75.694  200.098
  187.880    2.932    0.590    0.277   66.859  199.838
  188.130    3.537    0.544    0.284   58.196  194.186
  188.380    4.848    0.484    0.287   51.386  182.555
  188.630    9.930    0.481    0.302   45.721  166.442
  188.880   13.199    0.477    0.349   46.224  166.069
  189.130   18.445    0.463    0.351   46.011  166.498
  189.380   21.843    0.448    0.347   47.362  167.213
  189.630   23.624    0.449    0.345   48.771  167.833
  189.880   25.210    0.464    0.347   49.485  167.966
  190.130   26.888    0.469    0.348   49.800  167.058
  190.380   28.263    0.489    0.349   51.265  166.283
  190.630   29.158    0.489    0.349   51.055  166.313
  190.880   30.034    0.483    0.350   50.495  166.643
  191.130   30.860    0.486    0.354   49.704  167.266
  191.380   31.481    0.499    0.357   49.088  168.084
  191.630   31.565    0.507    0.351   49.396  168.582
  191.880   31.368    0.511    0.359   49.655  166.983
  192.130   31.054    0.502    0.354   49.444  164.662
  192.380   30.598    0.491    0.353   49.578  162.938
  192.630   29.904    0.482    0.352   49.597  161.993
  192.880   28.557    0.473    0.351   49.269  161.925
  193.130   26.061    0.454    0.350   48.595  162.746
  193.380   21.033    0.455    0.348   48.620  162.779
  193.630   18.708    0.447    0.349   48.881  162.406
  193.880   17.509    0.449    0.347   48.949  162.065
  194.130   16.142    0.451    0.345   48.854  161.904
  194.380   14.764    0.450    0.344   48.585  161.938
  194.630   13.934    0.441    0.342   48.140  161.972
  194.880   13.036    0.452    0.346   48.165  162.014
  195.130   12.411    0.454    0.351   49.154  162.045
  195.380   11.763    0.454    0.351   50.756  161.783
  195.630   11.158    0.457    0.348   52.627  161.034
  195.880   10.729    0.464    0.345   54.382  160.090
  196.130   10.572    0.473    0.346   55.795  159.732
  196.380   10.453    0.483    0.349   56.104  160.264
  196.630   10.483    0.496    0.343   55.886  160.711
  196.880   10.558    0.504    0.341   55.161  160.820
  197.130   10.665    0.502    0.345   53.792  160.852
  197.380   10.780    0.492    0.352   51.846  160.985
  197.630   10.872    0.486    0.355   49.553  161.408
  197.880   10.948    0.484    0.352   47.839  161.944
  198.130   10.913    0.500    0.355   46.652  161.567
  198.380   10.858    0.497    0.351   47.298  161.816
  198.630   10.856    0.496    0.348   48.708  162.634
  198.880   10.940    0.496    0.349   50.176  163.449
  199.130   11.120    0.471    0.356   51.174  163.269
  199.380   11.248    0.469    0.361   51.438  164.114
  199.630   11.246    0.482    0.358   51.456  165.320
  199.880   10.983    0.498    0.358   51.127  165.647
  200.130   10.454    0.500    0.362   50.104  165.488
  200.380    9.866    0.489    0.365   48.966  165.231
  200.630    9.450    0.483    0.359   49.415  165.265
  200.880    9.094    0.470    0.361   50.400  165.300
  201.130    8.000    0.472    0.351   51.348  164.948
  201.380    7.227    0.487    0.340   52.293  164.881
  201.630    6.206    0.503    0.328   53.586  165.107
  201.880    5.102    0.512    0.322   55.111  165.532
  202.130    4.033    0.512    0.330   56.821  165.802
  202.380    3.317    0.510    0.332   59.495  165.024
  202.630    2.762    0.509    0.322   63.919  165.842
  202.880    2.674    0.518    0.314   65.384  166.069
  203.130    2.790    0.530    0.307   66.444  166.299
  203.380    3.029    0.548    0.302   67.794  166.628
  203.630    3.459    0.576    0.301   67.555  166.584
  203.880    4.162    0.555    0.292   63.959  166.214
  204.130    4.961    0.526    0.300   57.960  166.245
  204.380    5.754    0.502    0.315   55.607  166.277
  204.630    6.167    0.496    0.339   56.324  166.509
  204.880    6.051    0.491    0.358   59.529  166.740
  205.130    5.588    0.445    0.335   65.415  166.549
  205.380    5.046    0.431    0.276   69.292  167.405
  205.630    5.013    0.442    0.268   73.945  167.830
  205.880    5.096    0.468    0.273   74.777  167.670
  206.130    5.157    0.487    0.291   74.334  167.508
  206.380    5.115    0.489    0.312   74.064  167.736
  206.630    4.896    0.470    0.315   74.656  168.890
  206.880    4.606    0.456    0.309   76.368  170.555
  207.130    4.223    0.468    0.300   79.162  177.249
  207.380    3.942    0.503    0.291   83.174  188.064
  207.630    3.774    0.548    0.282   86.899  191.627
  207.880    3.718    0.581    0.274   89.177  187.154
  208.130    3.838    0.551    0.276   89.346  186.822
  208.380    4.166    0.485    0.270   90.090  198.695
  208.630    4.500    0.466    0.283   90.803  203.824
  208.880    4.683    0.462    0.279   90.650  200.137
  209.130    4.836    0.455    0.268   89.745  195.074
  209.380    5.043    0.439    0.254   87.912  193.439
  209.630    5.392    0.423    0.243   83.294  194.541
  209.880    5.752    0.416    0.255   76.322  180.285
  210.130    6.088    0.426    0.267   67.314  175.611
  210.380    6.337    0.410    0.277   57.436  170.649
  210.630    6.509    0.389    0.290   51.899  167.744
  210.880    6.593    0.380    0.301   52.555  167.288
  211.130    6.492    0.399    0.290   58.917  167.724
  211.380    6.169    0.419    0.278   64.003  167.755
  211.630    5.658    0.431    0.282   63.794  167.400
  211.880    5.226    0.430    0.287   68.793  167.334
  212.130    4.800    0.425    0.284   74.946  167.756
  212.380    4.384    0.424    0.270   80.866  169.847
  212.630    3.906    0.444    0.244   89.427  176.835
  212.880    3.430    0.470    0.237   97.407  182.175
  213.130    3.239    0.470    0.238  100.668  183.388
  213.380    3.145    0.477    0.235  104.623  184.895
  213.630    3.113    0.501    0.234  107.307  187.867
  213.880    3.119    0.539    0.234  107.964  191.326
  214.130    3.148    0.572    0.231  107.056  192.143
  214.380    3.107    0.552    0.226  107.949  183.366
  214.630    3.073    0.551    0.241  107.250  189.121
  214.880    3.017    0.559    0.237  105.560  188.239
  215.130    2.886    0.569    0.225  106.505  186.311
  215.380    2.690    0.577    0.224  109.883  185.069
  215.630    2.474    0.584    0.258  111.523  183.537
  215.880    2.472    0.592    0.260  112.127  177.218
  216.130    2.535    0.596    0.267  112.145  176.841
  216.380    2.660    0.599    0.275  108.691  176.789
  216.630    2.856    0.593    0.282  103.502  176.821
  216.880    3.162    0.566    0.281   98.488  176.854
  217.130    3.710    0.501    0.271   95.732  176.888
  217.380    4.330    0.469    0.255   96.043  175.456
  217.630    4.393    0.459    0.241   96.788  176.307
  217.880    4.212    0.462    0.255   97.300  177.682
  218.130    4.027    0.472    0.265   97.784  178.303
  218.380    3.926    0.485    0.261   98.035  177.748
  218.630    3.923    0.506    0.258   97.304  176.618
  218.880    4.085    0.518    0.262   95.878  176.646
  219.130    4.359    0.538    0.265   93.120  177.075
