~VERSION INFORMATION
 VERS.                 2.0:   CWLS LOG ASCII STANDARD -VERSION 2.0
 WRAP.                  NO:   ONE LINE PER DEPTH STEP
~WELL INFORMATION BLOCK
#MNEM.UNIT           DATA                    DESCRIPTION OF MNEMONIC
#---------    -------------------            -------------------------------
# Generated from Intellog Unique Number	CS_77_79/WELL/960
WELL.         CDN. SUP. THORNBURY            : Well_name    - WELL
LOC .         00/10-22-078-14W4/0            : Location     - LOCATION
UWI .         00/10-22-078-14W4/0            : Uwi          - UNIQUE WELL ID
ENTR.         JHS                            : Entered      - ENTERED BY
SRVC.         SCHLUMBERGER                   : Scn          - SERVICE COMPANY
STRT.M        275                            : top_depth    - START DEPTH
STOP.M        518.25                         : bot_depth    - STOP DEPTH
STEP.M        0.25                           : increment    - STEP LENGTH
 NULL. -999.2500:NULL Value
~CURVE INFORMATION BLOCK
#MNEM UNIT       ERCB CURVE CODE    CURVE DESCRIPTION
#-----------   ------------------   ----------------------------------
DEPT.M        00 001 00 00         : DEPTH        - DEPTH
NPHI.V/V      00 330 00 00         : PHIN         - NEUTRON POROSITY (LIMESTONE)
GR  .API      00 310 00 00         : GR           - GAMMA RAY
ILD .OHMM     00 120 00 00         : RESD         - DEEP RESISTIVITY (DIL)
DPHI.V/V      00 890 00 00         : PHID         - DENSITY POROSITY (LIMESTONE)
~PARAMETER INFORMATION
#MNEM.UNIT           DATA             DESCRIPTION OF MNEMONIC
#---------         -----------     ------------------------------
GL  .M        685.4                : gl           - GROUND LEVEL ELEVATION
EREF.M        689.9                : kb           - ELEVATION OF DEPTH REFERENCE
DATM.M        689.9                : datum        - DATUM ELEVATION
TDD .M        665                  : tdd          - TOTAL DEPTH DRILLER
RUN .         ONE                  : Run          - RUN NUMBER
ENG .         BILL                 : Engineer     - RECORDING ENGINEER
WIT .         JIM                  : Witness      - WITNESSED BY
MUD .         GEL                  : Mud_type     - MUD TYPE
MATR.         LIMESTONE            : Logunit      - NEUTRON MATRIX
TMAX.C        19                   : BHT          - MAXIMUM RECORDED TEMPERATURE
BHTD.M        665                  : BHTDEP       - MAXIMUM RECORDED TEMPERATURE
MATR.         1                    : LOGUNIT      - NEUTRON MATRIX
RMT .C        25                   : MDTP         - TEMPERATURE OF MUD
NEUT.         1                    : NEUTRON      - NEUTRON TYPE
RESI.         0                    : RESIST       - RESISTIVITY TYPE
RMC .OHMM     0.25                 : RMC          - RESISTIVITY OF MUD CAKE
RMF .OHMM     0.25                 : RMF          - RESISTIVITY OF MUD FILTRATE
SUFT.C        15                   : SUFT         - SURFACE TEMPERATURE
~A  DEPTH     PHIN       GR     RESD     PHID
# ...
  449.000    0.399   88.208    7.327    0.201
  449.250    0.373   91.307    7.328    0.194
  449.500    0.343   93.175    7.330    0.189
  449.750    0.326   93.803    7.332    0.195
  450.000    0.340   98.144    7.236    0.206
  450.250    0.374   98.754    6.839    0.192
  450.500    0.392   99.362    6.713    0.192
  450.750    0.388  101.205    6.344    0.202
  451.000    0.378   98.725    5.996    0.201
  451.250    0.363   96.864    5.666    0.198
  451.500    0.378   96.240    5.457    0.197
  451.750    0.387   98.081    5.157    0.197
  452.000    0.388   98.073    4.873    0.198
  452.250    0.382   96.210    4.694    0.200
  452.500    0.376   94.970    4.352    0.194
  452.750    0.371   93.111    4.036    0.190
  453.000    0.378   90.631    3.742    0.205
  453.250    0.393   90.622    3.340    0.231
  453.500    0.430   89.379    2.816    0.282
  453.750    0.448   88.136    2.419    0.292
  454.000    0.463   86.273    2.079    0.283
  454.250    0.526   86.883    1.928    0.283
  454.500    0.547   87.493    1.929    0.284
  454.750    0.564   88.717    2.005    0.272
  455.000    0.589   88.711    2.165    0.266
  455.250    0.510   86.849    2.428    0.253
  455.500    0.458   85.606    2.828    0.235
  455.750    0.418   88.066    3.233    0.222
  456.000    0.387   89.910    3.839    0.229
  456.250    0.400   91.136    4.305    0.209
  456.500    0.391   88.040    4.829    0.196
  456.750    0.384   84.944    5.213    0.186
  457.000    0.380   88.638    5.419    0.180
  457.250    0.387   91.100    5.422    0.190
  457.500    0.397   91.709    5.322    0.206
  457.750    0.417   89.848    5.126    0.214
  458.000    0.385   87.371    5.228    0.213
  458.250    0.371   81.806    5.331    0.196
  458.500    0.369   79.944    5.540    0.172
  458.750    0.350   81.787    5.650    0.164
  459.000    0.379   86.715    5.653    0.180
  459.250    0.396   87.943    5.242    0.193
  459.500    0.401   89.168    4.953    0.203
  459.750    0.410   91.630    4.593    0.205
  460.000    0.428   94.706    4.259    0.197
  460.250    0.440   94.080    3.801    0.199
  460.500    0.412   94.071    3.525    0.208
  460.750    0.427   95.298    3.460    0.213
  461.000    0.438   97.759    3.397    0.199
  461.250    0.428  101.453    3.399    0.199
  461.500    0.428  103.296    3.466    0.214
  461.750    0.406  105.754    3.534    0.226
  462.000    0.378  105.129    3.816    0.210
  462.250    0.373  101.417    3.891    0.204
  462.500    0.388  100.176    3.820    0.207
  462.750    0.408  103.870    3.750    0.210
  463.000    0.440  106.946    3.824    0.207
  463.250    0.430  103.234    3.899    0.199
  463.500    0.411   97.053    4.053    0.186
  463.750    0.396   93.958    4.213    0.167
  464.000    0.434   97.652    4.296    0.181
  464.250    0.462  100.114    4.298    0.215
  464.500    0.449  100.104    4.383    0.234
  464.750    0.410   88.368    4.732    0.220
  465.000    0.392   75.396    5.307    0.203
  465.250    0.382   72.919    5.840    0.208
  465.500    0.410   76.613    6.426    0.221
  465.750    0.445   80.309    7.488    0.224
  466.000    0.400   79.682    8.239    0.209
  466.250    0.384   75.352    9.068    0.206
  466.500    0.354   69.170    9.423    0.211
  466.750    0.348   66.694    9.795    0.235
  467.000    0.352   71.004    9.615    0.259
  467.250    0.369   77.169    9.262    0.258
  467.500    0.377   80.245    9.092    0.242
  467.750    0.360   79.620    9.631    0.233
  468.000    0.342   70.971   10.202    0.241
  468.250    0.317   69.110   10.404    0.224
  468.500    0.316   82.064   10.213    0.210
  468.750    0.345   97.486    9.837    0.200
  469.000    0.367  105.503    8.949    0.195
  469.250    0.384  112.900    7.838    0.181
  469.500    0.353  114.126    7.992    0.186
  469.750    0.341  106.710    8.629    0.202
  470.000    0.349   96.826   10.053    0.222
  470.250    0.335   85.088   12.401    0.232
  470.500    0.349   80.142   15.297    0.226
  470.750    0.355   78.282   17.821    0.237
  471.000    0.363   80.742   19.612    0.249
  471.250    0.392   82.581   20.774    0.248
  471.500    0.403   83.193   22.009    0.249
  471.750    0.404   80.098   22.019    0.261
  472.000    0.403   81.321   21.209    0.264
  472.250    0.400   84.401   20.041    0.251
  472.500    0.385   86.862   18.583    0.246
  472.750    0.364   83.766   17.901    0.271
  473.000    0.335   75.733   18.607    0.258
  473.250    0.319   73.872   19.337    0.227
  473.500    0.321   72.630   20.482    0.193
  473.750    0.323   65.213   22.113    0.168
  474.000    0.330   62.119   23.427    0.195
  474.250    0.336   60.875   23.890    0.258
  474.500    0.324   69.507   23.009    0.267
  474.750    0.354   78.141   20.539    0.245
  475.000    0.359   85.538   18.685    0.205
  475.250    0.344   89.234   16.364    0.194
  475.500    0.337   89.840   14.606    0.190
  475.750    0.323   90.451   13.543    0.183
  476.000    0.328   93.528   12.799    0.183
  476.250    0.359   97.840   12.805    0.178
  476.500    0.382   94.746   13.309    0.182
  476.750    0.391   72.515   15.215    0.208
  477.000    0.358   65.716   17.063    0.244
  477.250    0.364   61.387   19.136    0.231
  477.500    0.345   55.203   22.296    0.215
  477.750    0.334   55.814   24.072    0.241
  478.000    0.321   63.213   22.319    0.238
  478.250    0.353   72.463   19.923    0.200
  478.500    0.402   87.269   18.828    0.182
  478.750    0.416   87.876   18.136    0.202
  479.000    0.426   76.139   19.955    0.236
  479.250    0.415   67.490   24.151    0.250
  479.500    0.388   61.925   28.677    0.264
  479.750    0.400   59.447   35.373    0.277
  480.000    0.407   61.907   42.810    0.287
  480.250    0.379   69.306   46.220    0.276
  480.500    0.369   75.471   48.040    0.262
  480.750    0.364   81.015   45.407    0.258
  481.000    0.348   81.006   42.905    0.259
  481.250    0.338   84.702   37.577    0.260
  481.500    0.343   93.953   33.538    0.263
  481.750    0.346  107.524   29.934    0.259
  482.000    0.337  115.540   24.761    0.243
  482.250    0.342  108.124   20.096    0.228
  482.500    0.352   98.856   17.938    0.206
  482.750    0.366   93.291   17.276    0.207
  483.000    0.392   90.195   17.291    0.229
  483.250    0.393   86.485   18.314    0.244
  483.500    0.384   81.537   19.401    0.213
  483.750    0.357   79.676   19.409    0.177
  484.000    0.323   83.990   18.693    0.160
  484.250    0.315   94.473   16.372    0.185
  484.500    0.286  101.872   13.803    0.190
  484.750    0.309  106.801   12.797    0.170
  485.000    0.325  108.028   12.563    0.160
  485.250    0.336   95.674   13.566    0.181
  485.500    0.386   80.850   15.804    0.219
  485.750    0.379   70.966   18.411    0.267
  486.000    0.387   74.043   21.451    0.260
  486.250    0.371   77.737   22.725    0.249
  486.500    0.362   79.581   21.475    0.246
  486.750    0.346   81.423   19.535    0.241
  487.000    0.322   85.734   17.437    0.221
  487.250    0.303   88.814   16.796    0.187
  487.500    0.305   91.273   17.128    0.134
  487.750    0.319   90.030   17.468    0.101
  488.000    0.336   92.491   17.145    0.108
  488.250    0.342   96.185   16.513    0.179
  488.500    0.328   98.029   15.314    0.171
  488.750    0.314   98.636   14.749    0.166
  489.000    0.316  100.479   14.481    0.181
  489.250    0.398   98.618   14.764    0.169
  489.500    0.443   92.437   15.940    0.179
  489.750    0.470   79.467   20.426    0.231
  490.000    0.431   54.768   29.337    0.299
  490.250    0.369   41.796   41.344    0.308
  490.500    0.329   48.577   52.975    0.295
  490.750    0.307   70.172   59.417    0.272
  491.000    0.307   84.978   50.095    0.253
  491.250    0.330   93.611   41.434    0.257
  491.500    0.388   92.985   34.932    0.258
  491.750    0.401   86.803   30.591    0.242
  492.000    0.392   81.239   26.287    0.234
  492.250    0.361   76.910   23.913    0.245
