~VERSION INFORMATION
 VERS.                 2.0:   CWLS LOG ASCII STANDARD -VERSION 2.0
 WRAP.                  NO:   ONE LINE PER DEPTH STEP
~WELL INFORMATION BLOCK
#MNEM.UNIT           DATA                    DESCRIPTION OF MNEMONIC
#---------    -------------------            -------------------------------
# Generated from Intellog Unique Number	CS_77_79/WELL/3307
WELL.         UNIVERSAL EXPLORATIONS LTD.    : Well_name    - WELL
LOC .         00/13-24-078-07W4/0            : Location     - LOCATION
UWI .         00/13-24-078-07W4/0            : Uwi          - UNIQUE WELL ID
ENTR.         JOETTE                         : Entered      - ENTERED BY
SRVC.         SCHLUMBERGER                   : Scn          - SERVICE COMPANY
DATE.         08-26-92                       : Date         - LOG DATE
STRT.M        125                            : top_depth    - START DEPTH
STOP.M        321                            : bot_depth    - STOP DEPTH
STEP.M        0.25                           : increment    - STEP LENGTH
 NULL. -999.2500:NULL Value
~CURVE INFORMATION BLOCK
#MNEM UNIT       ERCB CURVE CODE    CURVE DESCRIPTION
#-----------   ------------------   ----------------------------------
DEPT.M        00 001 00 00         : DEPTH        - DEPTH
ILD .OHMM     00 120 00 00         : RESD         - DEEP RESISTIVITY (DIL)
DPHI.V/V      00 890 00 00         : PHID         - DENSITY POROSITY (SANDSTONE)
NPHI.V/V      00 330 00 00         : PHIN         - NEUTRON POROSITY (SANDSTONE)
GR  .API      00 310 00 00         : GR           - GAMMA RAY
~PARAMETER INFORMATION
#MNEM.UNIT           DATA             DESCRIPTION OF MNEMONIC
#---------         -----------     ------------------------------
GL  .M        547.2                : gl           - GROUND LEVEL ELEVATION
EREF.M        550.73               : kb           - ELEVATION OF DEPTH REFERENCE
DATM.M        550.73               : datum        - DATUM ELEVATION
TDD .M        325                  : tdd          - TOTAL DEPTH DRILLER
RUN .         ONE                  : Run          - RUN NUMBER
ENG .         BILL                 : Engineer     - RECORDING ENGINEER
WIT .         JIM                  : Witness      - WITNESSED BY
MUD .         GEL                  : Mud_type     - MUD TYPE
MATR.         SANDSTONE            : Logunit      - NEUTRON MATRIX
TMAX.C        18                   : BHT          - MAXIMUM RECORDED TEMPERATURE
BHTD.M        325                  : BHTDEP       - MAXIMUM RECORDED TEMPERATURE
MATR.         1                    : LOGUNIT      - NEUTRON MATRIX
RMT .C        16                   : MDTP         - TEMPERATURE OF MUD
NEUT.         1                    : NEUTRON      - NEUTRON TYPE
RESI.         0                    : RESIST       - RESISTIVITY TYPE
RMC .OHMM     0.533                : RMC          - RESISTIVITY OF MUD CAKE
RMF .OHMM     0.533                : RMF          - RESISTIVITY OF MUD FILTRATE
SUFT.C        15                   : SUFT         - SURFACE TEMPERATURE
~A  DEPTH     RESD     PHID     PHIN       GR
# ...
  299.000   20.062    0.279    0.390   72.502
  299.250   17.238    0.279    0.382   66.987
  299.500   16.591    0.286    0.405   58.413
  299.750   16.584    0.281    0.382   61.457
  300.000   16.894    0.271    0.367   66.327
  300.250   17.539    0.264    0.382   66.919
  300.500   18.206    0.263    0.378   67.523
  300.750   18.899    0.259    0.368   69.953
  301.000   18.895    0.264    0.362   72.989
  301.250   18.185    0.262    0.362   75.419
  301.500   16.535    0.257    0.373   77.237
  301.750   15.034    0.250    0.387   78.444
  302.000   14.198    0.245    0.384   79.655
  302.250   13.408    0.245    0.377   81.473
  302.500   12.661    0.244    0.371   85.125
  302.750   11.957    0.244    0.385   85.721
  303.000   11.729    0.243    0.391   81.428
  303.250   11.288    0.243    0.386   75.902
  303.500   11.281    0.245    0.381   75.283
  303.750   11.494    0.244    0.396   75.268
  304.000   11.933    0.243    0.392   74.031
  304.250   12.625    0.237    0.375   66.683
  304.500   13.613    0.246    0.360   61.779
  304.750   14.958    0.261    0.360   58.708
  305.000   16.751    0.275    0.354   62.971
  305.250   17.062    0.283    0.347   69.067
  305.500   15.514    0.278    0.357   73.941
  305.750   13.844    0.269    0.397   77.592
  306.000   11.892    0.242    0.406   78.799
  306.250   11.231    0.234    0.402   77.562
  306.500   10.408    0.227    0.396   79.380
  306.750   10.017    0.223    0.389   83.643
  307.000    9.639    0.230    0.386   86.684
  307.250    9.633    0.237    0.383   86.665
  307.500    9.451    0.243    0.373   82.372
  307.750    9.445    0.235    0.378   81.746
  308.000    9.443    0.231    0.383   84.168
  308.250    9.438    0.233    0.391   85.382
  308.500    9.435    0.241    0.396   87.201
  308.750    9.430    0.249    0.400   89.630
  309.000    9.424    0.251    0.392   86.559
  309.250    9.422    0.236    0.383   77.989
  309.500    9.419    0.227    0.383   76.752
  309.750    9.415    0.229    0.377   77.348
  310.000    9.411    0.237    0.371   80.388
  310.250    9.231    0.245    0.357   85.258
  310.500    9.053    0.241    0.366   87.691
  310.750    9.049    0.236    0.380   88.899
  311.000    9.394    0.217    0.388   86.439
  311.250    9.569    0.197    0.402   78.476
  311.500    9.750    0.200    0.374   79.683
  311.750   10.122    0.231    0.365   78.446
  312.000   10.508    0.245    0.356   76.597
  312.250   11.116    0.245    0.363   79.642
  312.500   11.111    0.243    0.379   77.178
  312.750   10.898    0.237    0.387   73.489
  313.000   10.893    0.254    0.365   72.871
  313.250   11.309    0.260    0.353   71.022
  313.500   11.742    0.261    0.358   69.174
  313.750   12.901    0.262    0.368   65.492
  314.000   13.394    0.265    0.373   58.144
  314.250   14.442    0.266    0.362   58.125
  314.500   15.570    0.260    0.354   61.773
  314.750   16.472    0.260    0.349   62.987
  315.000   16.783    0.271    0.347   63.584
  315.250   17.424    0.276    0.356   61.735
  315.500   17.414    0.271    0.364   57.442
  315.750   17.409    0.270    0.369   51.316
  316.000   17.400    0.276    0.363   51.297
  316.250   17.392    0.296    0.355   54.945
  316.500   17.385    0.293    0.349   57.989
  316.750   18.049    0.271    0.344   61.641
  317.000   20.214    0.244    0.340   62.233
  317.250   23.069    0.244    0.346   53.666
  317.500   23.497    0.263    0.363   41.429
  317.750   15.487    0.305    0.383   39.581
  318.000   12.103    0.307    0.372   39.566
  318.250    7.975    0.287    0.360   41.992
  318.500    6.597    0.250    0.359   44.425
  318.750    6.470    0.228    0.392   46.854
  319.000    6.467    0.229    0.422   48.669
  319.250    7.105    0.230    0.463   49.268
  319.500    7.808    0.228    0.475   49.864
  319.750    9.797    0.223    0.475   50.457
  320.000   12.526    0.279    0.464   50.445
  320.250   16.322    0.313    0.454   51.034
  320.500   21.674    0.298    0.348   51.026
  320.750   22.931    0.278    0.311   51.623
  321.000   23.360    0.268    0.223   52.822
