~V
VERS. 2.00: Ver 2.00
WRAP. NO:
VEND. PRIZM:GeoGraphix
~W
STRT.M 63.0000:START DEPTH
STOP.M 270.0000:STOP DEPTH
STEP.M 0.3000:STEP
NULL. -999.2500:NULL VALUE
WELL. 00/11-34-083-05W4/0 :WELL
COMP. :COMPANY
UWI. 00_11-34-083-05W4_0:UNIQUE WELL ID
FLD. :FIELD
CNTY. :COUNTY
STAT. :STATE
CTRY. :COUNTRY
PDAT. :PERMANENT DATUM
LMF. :LOG MEASURED FROM
DMF. :DRILLING MEASURED FROM
LOC1. :LOCATION LINE 1
LOC2. :LOCATION LINE 2
LOC3. :LOCATION LINE 3
SEC. :SECTION
TWP. :TOWNSHIP
RAN. :RANGE
SRVC. :Logging Company
BASE. :Logging Unit Location
ENG. :Logging Engineer
WITN. :Witnessed By
RUN. :Run No.
MUD_TYPE. :Type Fluid in Hole
MUDS. :Source of Mud Sample
RMFS. :Source of Mud Filtrate
RMCS. :Source of Mud Cake
LOC. :LOCATION
DATE. :LOG DATE
~C
DEPT.M :DEPTH
PHID. :Density Pososity
NPHI. :NPHI
RHOB.KGM3 :Bulk Density
GR.API :GR
ILD.Ohmm :ILD
~P
EKB. -999.2500:ELEVATION OF KELLY BUSHING
EDF. -999.2500:ELEVATION OF DRILLING FLOOR
EGL. -999.2500:ELEVATION OF GROUND LEVEL
EPD. -999.2500:ELEVATION OF PERMANENT DATUM
APD. -999.2500:LMF DISTANCE ABOVE PERMANENT DATUM
LAT. -999.2500:LATITUDE OF WELL LOCATION
LONG. -999.2500:LONGITUDE OF WELL LOCATION
TDD. -999.2500:Total Depth Driller
TDL. -999.2500:Total Depth Logger
LCSG1. -999.2500:Depth of Casing from Logger
CSIZE. -999.2500:Casing Size
CWT. -999.2500:Casing Weight
BS. -999.2500:Bit Size
TLI. 63.0000:Top Logged Interval
BLI. 270.0000:Bottom Logged Interval
MRT. 0.0000:Maximum Recorded Temperature
WMUD. -999.2500:Drilling Mud Density
DFV. -999.2500:Drilling Mud Viscosity
PH. -999.2500:Drilling Mud pH
DFL. -999.2500:Drilling Mud Fluid Loss
RM. -999.2500:Resistivity of Drilling Fluid
RMT. -999.2500:Measured Temp. of Drilling Fluid
RMF. -999.2500:Resistivity of Drilling Fluid Filtrate
RMFT. -999.2500:Measured Temp. of Drilling Fluid Filtrate
RMC. -999.2500:Resistivity of Mud Cake
RMCT. -999.2500:Measured Temp. of Mud Cake
PHImax.V/V 0.3900:Maximum allowable Porosity
RwBnd.OHMM 0.1500:Bound Water Resistivity
RhoHy.KG/MT 1000.0000:Hydrocarbon Bulk density
SwCutoff.V/V 0.7000:Water Saturation Cutoff
PHINsh.V/V 0.4800:New Description
Rw.OHMM 1.0000:Formation Water Resistivity
Rshl.OHMM 5.0000:Resistivity shale
Trw.DEGC 25.0000:Rw measured at Lab conditions
ShaleCutoff.V/V 0.4000:New Description
GRcln.API 45.0000:Gamma Ray clean
RhoM.KG/MT 2650.0000:Bulk Density Matrix
GRshl.API 90.0000:Gamma Ray shale
m. 2.0000:Archie "m"
n. 2.0000:Archie "n"
GasTol.V/V 0.0500:Gas Tollerance
BHTemp.DEGC 25.0000:Bottom Hole Temperature
BHTDepth.M 1000.0000:Bottom Hole Depth
PHIDsh.US/MT 0.1800:New Description
a. 1.0000:Archie "a"
Gas Tol.V/V 0.0500:Gas Tollerance
RhoF.KG/MT 1000.0000:Bulk Density Fluid
RhoShl.KG/MT 2300.0000:Bulk Density Shale
TarCutoff.V/V 0.0300:New Description
SurfTemp.DEGC 10.0000:New Description
HIshl.V/V 0.4000:Neutron Hydrogen Index shale
NULL. -999.2500:
~A
# ...
  207.0000     0.3527     0.3866  2068.1274    38.6414     1.0705 
  207.3000     0.3526     0.3748  2068.2922    40.5001     1.0720 
  207.6000     0.3582     0.3650  2058.9084    43.0694     1.0735 
  207.9000     0.3561     0.3649  2062.4106    46.9010     1.0750 
  208.2000     0.3439     0.3427  2082.6328    49.5267     1.0764 
  208.5000     0.3222     0.3172  2118.3579    49.7644     1.0930 
  208.8000     0.3269     0.3114  2110.5688    48.9586     1.1152 
  209.1000     0.3350     0.3134  2097.2671    46.8408     1.1375 
  209.4000     0.3381     0.3236  2092.1101    43.4220     1.1598 
  209.7000     0.3414     0.3349  2086.7529    42.2720     1.1622 
  210.0000     0.3459     0.3388  2079.3140    42.9161     1.1375 
  210.3000     0.3402     0.3308  2088.6108    46.0904     1.1066 
  210.6000     0.3144     0.3179  2131.2849    52.1177     1.0456 
  210.9000     0.2898     0.3356  2171.7937    66.0797     1.0959 
  211.2000     0.2711     0.3501  2202.7073    65.5415     1.1461 
  211.5000     0.3074     0.3592  2142.7771    63.0297     1.2580 
  211.8000     0.3311     0.3547  2103.6716    63.5165     1.3736 
  212.1000     0.3320     0.3570  2102.2522    68.6445     1.3986 
  212.4000     0.3183     0.3644  2124.8140    67.7113     1.4232 
  212.7000     0.3049     0.3531  2146.8359    67.3627     1.3928 
  213.0000     0.2905     0.3541  2170.7505    67.0607     1.3679 
  213.3000     0.2945     0.3565  2164.0269    59.6771     1.3738 
  213.6000     0.3378     0.3722  2092.6184    74.0492     1.3881 
  213.9000     0.3005     0.4051  2154.1423    86.0040     1.4091 
  214.2000     0.2801     0.4152  2187.9009    74.9710     1.4082 
  214.5000     0.3187     0.3854  2124.0886    48.0516     1.3957 
  214.8000     0.3336     0.3567  2099.6150    48.5835     1.3832 
  215.1000     0.3070     0.3542  2143.3823    74.1700     1.4341 
  215.4000     0.2987     0.3608  2157.1130    80.4058     1.4955 
  215.7000     0.2874     0.3767  2175.7595    91.7079     1.5568 
  216.0000     0.2760     0.4091  2194.5908    92.3748     1.6239 
  216.3000     0.2973     0.3828  2159.4451    81.9460     1.6989 
  216.6000     0.3020     0.3877  2151.7476    93.7220     1.7682 
  216.9000     0.2776     0.4123  2191.9058   101.3904     1.7688 
  217.2000     0.2775     0.4044  2192.0996    78.8370     1.7693 
  217.5000     0.3080     0.3861  2141.8486    64.5968     1.7267 
  217.8000     0.3285     0.3767  2107.9338    59.4901     1.6050 
  218.1000     0.3391     0.3767  2090.4331    59.0392     1.5205 
  218.4000     0.3249     0.3735  2113.8345    81.9262     1.5040 
  218.7000     0.2795     0.3913  2188.7908   109.0858     1.5435 
  219.0000     0.2647     0.4438  2213.2554    99.1420     1.6000 
  219.3000     0.3083     0.4177  2141.3457    76.0551     1.5437 
  219.6000     0.3384     0.3837  2091.6892    47.3844     1.4548 
  219.9000     0.3600     0.3608  2055.9587    42.2577     1.3119 
  220.2000     0.3613     0.3499  2053.8101    38.8495     1.1690 
  220.5000     0.3530     0.3488  2067.5723    36.4043     1.1047 
  220.8000     0.3495     0.3464  2073.3735    34.5603     1.0515 
  221.1000     0.3479     0.3401  2075.9097    33.3546     0.9982 
  221.4000     0.3600     0.3415  2055.9968    32.3800     0.9710 
  221.7000     0.3610     0.3511  2054.4324    32.3189     0.9696 
  222.0000     0.3627     0.3507  2051.4666    32.4049     0.9681 
  222.3000     0.3698     0.3587  2039.8634    34.4161     0.9666 
  222.6000     0.3687     0.3593  2041.7129    36.4251     0.9662 
  222.9000     0.3760     0.3496  2029.5316    37.5144     0.9723 
  223.2000     0.3761     0.3563  2029.5118    38.2456     0.9784 
  223.5000     0.3694     0.3613  2040.4387    38.5859     0.9844 
  223.8000     0.3585     0.3504  2058.5161    42.0382     0.9905 
  224.1000     0.3451     0.3517  2080.6504    63.2269     1.0726 
  224.4000     0.3246     0.3669  2114.3411    76.9938     1.1660 
  224.7000     0.3043     0.3857  2147.9355    86.4553     1.3463 
  225.0000     0.2918     0.4021  2168.5457    91.1102     1.5490 
  225.3000     0.2795     0.4046  2188.8850    92.5025     1.7054 
  225.6000     0.2642     0.3951  2214.1465    92.6506     1.8516 
  225.9000     0.2634     0.3939  2215.3870    94.8540     1.8575 
  226.2000     0.2735     0.3827  2198.6558    97.4268     1.8634 
  226.5000     0.2843     0.3764  2180.8594    88.7538     1.8323 
  226.8000     0.2898     0.3778  2171.8447    82.2546     1.7435 
  227.1000     0.2974     0.4084  2159.2776    83.0435     1.6546 
  227.4000     0.3093     0.4283  2139.5916    81.8505     1.5118 
  227.7000     0.3383     0.4017  2091.7605    51.0506     1.3617 
  228.0000     0.3642     0.3709  2049.0947    48.2460     1.2585 
  228.3000     0.3427     0.3735  2084.4824    50.6623     1.1950 
  228.6000     0.3441     0.3635  2082.3003    49.6696     1.1316 
  228.9000     0.3421     0.3691  2085.5073    57.6738     1.1502 
  229.2000     0.3312     0.3699  2103.4922    65.5796     1.2030 
  229.5000     0.3363     0.3705  2095.0859    64.4099     1.2559 
  229.8000     0.3265     0.3667  2111.3552    67.2645     1.3087 
  230.1000     0.3148     0.3666  2130.6145    70.7629     1.3537 
  230.4000     0.3335     0.3741  2099.6736    63.7887     1.3984 
  230.7000     0.3513     0.3810  2070.2749    47.4453     1.3014 
  231.0000     0.3668     0.3723  2044.8247    39.2921     1.1859 
  231.3000     0.3558     0.3666  2062.9175    42.7769     1.0705 
  231.6000     0.3505     0.3660  2071.5957    47.6723     1.0638 
  231.9000     0.3465     0.3531  2078.3513    53.6222     1.0654 
  232.2000     0.3299     0.3526  2105.6313    59.3053     1.0747 
  232.5000     0.3119     0.3655  2135.3936    60.1525     1.1716 
  232.8000     0.3207     0.3667  2120.8442    53.3207     1.2685 
  233.1000     0.3172     0.3770  2126.5781    56.2706     1.3654 
  233.4000     0.3077     0.3966  2142.2253    59.7063     1.3391 
  233.7000     0.3277     0.3925  2109.2507    50.6146     1.2739 
  234.0000     0.3568     0.3642  2061.3052    40.8775     1.2087 
  234.3000     0.3713     0.3643  2037.2748    33.7542     1.1451 
  234.6000     0.3687     0.3491  2041.6526    28.8884     1.0831 
  234.9000     0.3662     0.3182  2045.7169    31.2886     1.0211 
  235.2000     0.3845     0.4164  2015.6315    35.4140     0.9591 
  235.5000     0.4309     0.4706  1938.9391    37.2382     0.9079 
  235.8000     0.4776     0.4611  1861.9290    35.1818     0.9095 
  236.1000     0.4234     0.3954  1951.4655    29.7463     0.9111 
  236.4000     0.3900     0.3491  2006.4449    31.8185     0.9128 
  236.7000     0.3774     0.3601  2027.3221    30.4351     0.9144 
  237.0000     0.3694     0.3596  2040.4452    26.5211     0.9161 
  237.3000     0.3594     0.3468  2057.0647    22.2517     0.9218 
  237.6000     0.3647     0.3492  2048.1665    23.8308     0.9281 
  237.9000     0.3697     0.3525  2039.9382    30.0372     0.9343 
  238.2000     0.3677     0.3711  2043.2181    38.1222     0.9406 
  238.5000     0.3629     0.3808  2051.2004    46.8329     0.9469 
  238.8000     0.3459     0.3638  2079.2278    48.3120     0.9618 
  239.1000     0.3323     0.3565  2101.6570    48.7577     0.9817 
  239.4000     0.3308     0.3505  2104.1855    49.2314     1.0015 
  239.7000     0.3384     0.3742  2091.5972    49.8256     1.0161 
  240.0000     0.3556     0.3893  2063.3159    42.7599     1.0267 
  240.3000     0.3688     0.3873  2041.5232    41.5669     1.0596 
  240.6000     0.3478     0.3035  2076.1997    47.7091     1.1593 
  240.9000     0.2879     0.2943  2175.0088    59.5375     1.2623 
  241.2000     0.2470     0.3252  2242.4094    69.2393     1.4394 
  241.5000     0.2343     0.3465  2263.4370    77.3308     1.6165 
  241.8000     0.2556     0.3703  2228.1902    84.4288     1.6945 
  242.1000     0.2703     0.3830  2204.0059    84.4453     1.7705 
  242.4000     0.2749     0.3755  2196.3892    83.9197     1.7327 
  242.7000     0.2838     0.3675  2181.6711    82.8282     1.5652 
