~VERSION INFORMATION
 VERS.                 2.0:   CWLS LOG ASCII STANDARD -VERSION 2.0
 WRAP.                  NO:   ONE LINE PER DEPTH STEP
~WELL INFORMATION BLOCK
#MNEM.UNIT           DATA                    DESCRIPTION OF MNEMONIC
#---------    -------------------            -------------------------------
# Generated from Intellog Unique Number	CS_67_68/WELL/838
WELL.         FISHER CREEK                   : Well_name    - WELL
LOC .         00/11-16-068-05W4/0            : Location     - LOCATION
UWI .         00/11-16-068-05W4/0            : Uwi          - UNIQUE WELL ID
ENTR.         SP                             : Entered      - ENTERED BY
SRVC.         SCHLUMBERGER                   : Scn          - SERVICE COMPANY
STRT.M        335                            : top_depth    - START DEPTH
STOP.M        555                            : bot_depth    - STOP DEPTH
STEP.M        0.25                           : increment    - STEP LENGTH
 NULL. -999.2500:NULL Value
~CURVE INFORMATION BLOCK
#MNEM UNIT       ERCB CURVE CODE    CURVE DESCRIPTION
#-----------   ------------------   ----------------------------------
DEPT.M        00 001 00 00         : DEPTH        - DEPTH
ILD .OHMM     00 120 00 00         : RESD         - DEEP RESISTIVITY (DIL)
DPHI.V/V      00 890 00 00         : PHID         - DENSITY POROSITY (LIMESTONE)
NPHI.V/V      00 330 00 00         : PHIN         - NEUTRON POROSITY (LIMESTONE)
GR  .API      00 310 00 00         : GR           - GAMMA RAY
~PARAMETER INFORMATION
#MNEM.UNIT           DATA             DESCRIPTION OF MNEMONIC
#---------         -----------     ------------------------------
GL  .M        683.92               : gl           - GROUND LEVEL ELEVATION
EREF.M        687.58               : kb           - ELEVATION OF DEPTH REFERENCE
DATM.M        683.92               : datum        - DATUM ELEVATION
TDD .M        568                  : tdd          - TOTAL DEPTH DRILLER
RUN .         ONE                  : Run          - RUN NUMBER
ENG .         BILL                 : Engineer     - RECORDING ENGINEER
WIT .         JIM                  : Witness      - WITNESSED BY
MUD .         GEL                  : Mud_type     - MUD TYPE
MATR.         LIMESTONE            : Logunit      - NEUTRON MATRIX
TMAX.C        24                   : BHT          - MAXIMUM RECORDED TEMPERATURE
BHTD.M        568                  : BHTDEP       - MAXIMUM RECORDED TEMPERATURE
MATR.         1                    : LOGUNIT      - NEUTRON MATRIX
RMT .C        25                   : MDTP         - TEMPERATURE OF MUD
NEUT.         1                    : NEUTRON      - NEUTRON TYPE
RESI.         0                    : RESIST       - RESISTIVITY TYPE
RMC .OHMM     0.25                 : RMC          - RESISTIVITY OF MUD CAKE
RMF .OHMM     0.25                 : RMF          - RESISTIVITY OF MUD FILTRATE
SUFT.C        15                   : SUFT         - SURFACE TEMPERATURE
~A  DEPTH     RESD     PHID     PHIN       GR
# ...
  465.500    5.237    0.305    0.496   74.528
  465.750    5.092    0.285    0.526   73.438
  466.000    4.906    0.278    0.554   71.620
  466.250    4.798    0.282    0.564   74.045
  466.500    4.719    0.285    0.536   76.773
  466.750    4.693    0.291    0.483   72.593
  467.000    4.703    0.291    0.460   72.109
  467.250    4.830    0.279    0.498   76.776
  467.500    5.121    0.265    0.522   74.111
  467.750    5.319    0.264    0.524   72.657
  468.000    5.173    0.261    0.512   73.324
  468.250    5.145    0.286    0.502   75.568
  468.500    5.108    0.284    0.491   77.932
  468.750    5.196    0.277    0.486   79.569
  469.000    5.387    0.275    0.473   79.449
  469.250    5.552    0.266    0.460   74.844
  469.500    5.767    0.255    0.461   71.814
  469.750    6.012    0.232    0.484   70.179
  470.000    6.220    0.051    0.502   66.241
  470.250    6.436    0.042    0.507   57.817
  470.500    6.837    0.046    0.506   49.030
  470.750    7.236    0.147    0.292   50.728
  471.000    7.459    0.211    0.403   54.305
  471.250    7.322    0.292    0.444   56.609
  471.500    7.228    0.318    0.456   58.610
  471.750    7.003    0.290    0.460   59.580
  472.000    6.438    0.267    0.466   60.914
  472.250    6.390    0.261    0.470   61.036
  472.500    6.428    0.280    0.455   59.765
  472.750    6.932    0.219    0.440   57.705
  473.000    7.850    0.146    0.395   54.857
  473.250    9.091    0.123    0.368   60.252
  473.500   10.811    0.271    0.413   64.980
  473.750   12.105    0.303    0.453   68.678
  474.000   12.786    0.315    0.466   70.618
  474.250   12.575    0.314    0.470   67.710
  474.500   10.762    0.313    0.480   71.105
  474.750    8.721    0.299    0.450   73.348
  475.000    6.936    0.272    0.473   76.077
  475.250    5.579    0.260    0.512   78.623
  475.500    4.581    0.266    0.558   79.412
  475.750    3.643    0.271    0.581   77.716
  476.000    3.031    0.291    0.589   72.080
  476.250    2.479    0.314    0.597   69.475
  476.500    2.146    0.320    0.576   68.749
  476.750    2.013    0.316    0.555   68.871
  477.000    1.922    0.319    0.562   68.387
  477.250    1.872    0.326    0.554   67.782
  477.500    1.869    0.336    0.561   67.358
  477.750    1.927    0.334    0.582   70.996
  478.000    1.899    0.325    0.601   73.542
  478.250    1.892    0.320    0.603   73.421
  478.500    1.907    0.313    0.607   70.877
  478.750    1.933    0.307    0.584   69.969
  479.000    1.973    0.309    0.563   70.455
  479.250    2.011    0.299    0.556   72.940
  479.500    2.077    0.299    0.575   75.669
  479.750    2.190    0.301    0.565   76.821
  480.000    2.309    0.291    0.531   77.185
  480.250    2.425    0.286    0.521   80.823
  480.500    2.533    0.281    0.534   83.612
  480.750    2.582    0.278    0.543   85.188
  481.000    2.598    0.284    0.548   82.765
  481.250    2.593    0.281    0.549   83.493
  481.500    2.594    0.281    0.554   83.797
  481.750    2.600    0.276    0.556   80.949
  482.000    2.635    0.275    0.551   81.617
  482.250    2.670    0.281    0.548   83.618
  482.500    2.742    0.287    0.557   84.467
  482.750    2.821    0.292    0.552   81.013
  483.000    2.887    0.275    0.552   80.651
  483.250    2.964    0.256    0.537   82.167
  483.500    3.120    0.236    0.497   82.350
  483.750    3.246    0.241    0.483   85.078
  484.000    3.410    0.244    0.503   88.109
  484.250    3.568    0.240    0.518   90.534
  484.500    3.623    0.237    0.504   85.323
  484.750    3.651    0.235    0.466   79.324
  485.000    3.680    0.236    0.465   81.567
  485.250    3.737    0.240    0.475   83.568
  485.500    3.844    0.248    0.454   84.417
  485.750    4.008    0.246    0.453   84.903
  486.000    4.131    0.234    0.482   83.207
  486.250    4.211    0.225    0.488   82.784
  486.500    4.228    0.225    0.476   83.330
  486.750    4.151    0.233    0.494   83.452
  487.000    4.036    0.235    0.488   81.877
  487.250    3.925    0.238    0.506   81.878
  487.500    3.725    0.250    0.529   84.182
  487.750    3.548    0.262    0.504   83.395
  488.000    3.748    0.258    0.433   77.153
  488.250    4.126    0.066    0.390   68.245
  488.500    5.638    0.026    0.339   59.155
  488.750    8.168   -0.002    0.314   52.974
  489.000    9.878    0.024    0.305   55.036
  489.250   10.513    0.093    0.343   60.794
  489.500   10.166    0.210    0.369   62.371
  489.750    9.776    0.257    0.391   59.342
  490.000    9.400    0.302    0.368   54.373
  490.250    8.886    0.336    0.348   48.919
  490.500    8.433    0.351    0.334   46.617
  490.750    8.079    0.327    0.372   48.497
  491.000    8.006    0.315    0.398   49.467
  491.250    8.268    0.323    0.431   49.165
  491.500    8.619    0.333    0.411   50.681
  491.750    9.365    0.339    0.396   54.621
  492.000   10.042    0.345    0.428   61.107
  492.250   10.809    0.341    0.456   65.775
  492.500   11.504    0.333    0.464   69.472
  492.750   12.060    0.326    0.472   67.292
  493.000   12.292    0.327    0.494   63.535
  493.250   12.204    0.340    0.478   60.990
  493.500   12.138    0.331    0.460   64.809
  493.750   11.738    0.327    0.446   68.568
  494.000   11.118    0.328    0.457   71.902
  494.250   10.551    0.327    0.467   74.509
  494.500    9.994    0.317    0.462   77.237
  494.750    9.449    0.309    0.450   78.026
  495.000    8.882    0.297    0.440   78.815
  495.250    8.351    0.284    0.428   77.604
  495.500    8.353    0.262    0.398   73.665
  495.750    8.725    0.238    0.387   71.121
  496.000    9.285    0.261    0.390   63.182
  496.250   10.165    0.278    0.384   52.880
  496.500   11.170    0.287    0.372   43.426
  496.750   11.910    0.276    0.362   57.670
  497.000   12.486    0.261    0.350   71.852
  497.250   12.119    0.225    0.383   83.611
  497.500   10.628    0.176    0.425   89.551
  497.750    9.479    0.186    0.446   85.612
  498.000   10.397    0.213    0.428   59.735
  498.250   12.550    0.232    0.413   49.978
  498.500   16.426    0.254    0.409   39.252
  498.750   19.385    0.299    0.392   38.586
  499.000   21.624    0.313    0.368   46.587
  499.250   22.206    0.289    0.361   52.830
  499.500   20.144    0.265    0.368   59.922
  499.750   15.547    0.237    0.372   70.468
  500.000   13.840    0.219    0.391   84.105
  500.250   12.320    0.235    0.413   88.894
  500.500   11.345    0.245    0.405   95.925
  500.750   10.930    0.250    0.392  104.896
  501.000   10.729    0.241    0.380  106.473
  501.250   10.793    0.243    0.394   82.110
  501.500   11.401    0.253    0.423   66.656
  501.750   12.862    0.280    0.418   58.536
  502.000   14.841    0.300    0.385   49.991
  502.250   17.881    0.288    0.380   57.023
  502.500   20.135    0.292    0.391   62.175
  502.750   21.510    0.305    0.376   65.388
  503.000   22.423    0.294    0.378   63.328
  503.250   22.054    0.296    0.395   55.329
  503.500   21.047    0.306    0.407   45.391
  503.750   20.856    0.313    0.418   43.816
  504.000   22.877    0.323    0.404   49.029
  504.250   23.847    0.318    0.388   52.666
  504.500   24.907    0.304    0.390   53.212
  504.750   25.723    0.296    0.390   55.395
  505.000   26.071    0.299    0.384   58.123
  505.250   25.689    0.310    0.380   57.154
  505.500   24.241    0.297    0.385   60.186
  505.750   21.378    0.291    0.397   63.641
  506.000   18.960    0.297    0.407   64.188
  506.250   18.197    0.296    0.401   57.704
  506.500   17.863    0.295    0.397   51.583
  506.750   17.602    0.293    0.404   49.039
  507.000   17.408    0.290    0.408   51.040
  507.250   17.413    0.286    0.397   50.556
  507.500   17.950    0.280    0.412   42.738
  507.750   18.608    0.276    0.413   39.285
  508.000   19.363    0.296    0.390   41.043
  508.250   19.736    0.318    0.369   41.892
  508.500   19.890    0.327    0.380   44.378
  508.750   19.745    0.306    0.399   47.228
