~VERSION INFORMATION
 VERS.                 2.0:   CWLS LOG ASCII STANDARD -VERSION 2.0
 WRAP.                  NO:   ONE LINE PER DEPTH STEP
~WELL INFORMATION BLOCK
#MNEM.UNIT           DATA                    DESCRIPTION OF MNEMONIC
#---------    -------------------            -------------------------------
# Generated from Intellog Unique Number	CX_WELLS/WELL/2975
WELL.         ULSTER ET AL HANGST            : Well_name    - WELL
LOC .         00/12-23-082-11W4/0            : Location     - LOCATION
UWI .         00/12-23-082-11W400            : Uwi          - UNIQUE WELL ID
ENTR.         T                              : Entered      - ENTERED BY
SRVC.         SCHLUMBERGER                   : Scn          - SERVICE COMPANY
STRT.M        270                            : top_depth    - START DEPTH
STOP.M        493                            : bot_depth    - STOP DEPTH
STEP.M        0.25                           : increment    - STEP LENGTH
 NULL. -999.2500:NULL Value
~CURVE INFORMATION BLOCK
#MNEM UNIT       ERCB CURVE CODE    CURVE DESCRIPTION
#-----------   ------------------   ----------------------------------
DEPT.M        00 001 00 00         : DEPTH        - DEPTH
GR  .API      00 310 00 00         : GR           - GAMMA RAY
NPHI.V/V      00 330 00 00         : PHIN         - NEUTRON POROSITY (SANDSTONE)
DPHI.V/V      00 890 00 00         : PHID         - DENSITY POROSITY (SANDSTONE)
ILD .OHMM     00 120 00 00         : RESD         - DEEP RESISTIVITY (OTHER)
~PARAMETER INFORMATION
#MNEM.UNIT           DATA             DESCRIPTION OF MNEMONIC
#---------         -----------     ------------------------------
GL  .M        716                  : gl           - GROUND LEVEL ELEVATION
EREF.M        721.2                : kb           - ELEVATION OF DEPTH REFERENCE
DATM.M        721.2                : datum        - DATUM ELEVATION
TDD .M        497                  : tdd          - TOTAL DEPTH DRILLER
RUN .         ONE                  : Run          - RUN NUMBER
ENG .         BILL                 : Engineer     - RECORDING ENGINEER
WIT .         JIM                  : Witness      - WITNESSED BY
MUD .         GEL                  : Mud_type     - MUD TYPE
MATR.         SANDSTONE            : Logunit      - NEUTRON MATRIX
TMAX.C        22                   : BHT          - MAXIMUM RECORDED TEMPERATURE
BHTD.M        496                  : BHTDEP       - MAXIMUM RECORDED TEMPERATURE
MATR.         1                    : LOGUNIT      - NEUTRON MATRIX
RMT .C        20                   : MDTP         - TEMPERATURE OF MUD
NEUT.         1                    : NEUTRON      - NEUTRON TYPE
RESI.         7                    : RESIST       - RESISTIVITY TYPE
RMC .OHMM     8.2                  : RMC          - RESISTIVITY OF MUD CAKE
RMF .OHMM     8.2                  : RMF          - RESISTIVITY OF MUD FILTRATE
SUFT.C        4                    : SUFT         - SURFACE TEMPERATURE
~A  DEPTH       GR     PHIN     PHID     RESD
# ...
  357.000   66.829    0.450    0.313   14.700
  357.250   66.338    0.449    0.315   14.209
  357.500   66.383    0.438    0.312   13.481
  357.750   66.471    0.427    0.305   13.498
  358.000   67.161    0.424    0.290   13.047
  358.250   68.475    0.424    0.275   12.379
  358.500   69.766    0.424    0.270   12.166
  358.750   71.681    0.423    0.269   11.543
  359.000   74.175    0.426    0.262   10.944
  359.250   77.249    0.428    0.255   10.185
  359.500   83.374    0.429    0.247    9.478
  359.750   81.035    0.428    0.243    9.503
  360.000   78.718    0.427    0.242    9.522
  360.250   79.408    0.436    0.247    9.371
  360.500   80.142    0.440    0.250    8.890
  360.750   80.810    0.448    0.243    8.435
  361.000   80.898    0.453    0.243    8.137
  361.250   80.386    0.461    0.244    7.295
  361.500   79.917    0.478    0.248    6.185
  361.750   79.382    0.493    0.275    5.440
  362.000   79.449    0.505    0.278    4.527
  362.250   81.386    0.518    0.290    4.458
  362.500   82.633    0.512    0.252    4.390
  362.750   85.149    0.501    0.239    4.396
  363.000   88.267    0.496    0.235    4.407
  363.250   91.363    0.493    0.232    4.337
  363.500   92.632    0.493    0.229    4.271
  363.750   95.171    0.495    0.225    4.204
  364.000   95.816    0.498    0.222    4.137
  364.250   97.130    0.494    0.219    4.074
  364.500   97.842    0.492    0.218    4.085
  364.750   97.909    0.491    0.215    4.020
  365.000   96.794    0.493    0.220    4.028
  365.250   96.281    0.495    0.227    3.964
  365.500   95.769    0.500    0.234    3.974
  365.750   95.857    0.498    0.246    3.839
  366.000   98.396    0.492    0.246    3.572
  366.250   99.042    0.518    0.239    3.263
  366.500  100.957    0.535    0.234    2.874
  366.750  101.647    0.555    0.229    2.673
  367.000  102.359    0.560    0.225    2.398
  367.250  102.403    0.549    0.222    2.272
  367.500  102.492    0.554    0.222    2.195
  367.750  102.580    0.558    0.222    2.327
  368.000  100.263    0.562    0.222    2.517
  368.250   97.946    0.554    0.223    2.719
  368.500   93.847    0.543    0.230    2.879
  368.750   90.305    0.522    0.238    3.352
  369.000   86.785    0.506    0.255    3.761
  369.250   88.077    0.489    0.271    4.142
  369.500   88.767    0.469    0.284    4.391
  369.750   88.276    0.469    0.286    4.567
  370.000   87.162    0.475    0.268    4.753
  370.250   86.048    0.481    0.270    4.765
  370.500   83.731    0.476    0.279    4.871
  370.750   81.391    0.471    0.288    4.884
  371.000   77.270    0.461    0.290    4.896
  371.250   75.555    0.452    0.263    5.002
  371.500   78.650    0.468    0.268    5.018
  371.750   81.768    0.469    0.271    5.031
  372.000   81.835    0.462    0.275    5.041
  372.250   80.720    0.456    0.279    5.246
  372.500   79.027    0.450    0.288    5.667
  372.750   77.289    0.444    0.294    6.354
  373.000   74.371    0.439    0.287    7.399
  373.250   71.452    0.433    0.273    8.452
  373.500   69.135    0.431    0.265    9.130
  373.750   66.840    0.438    0.265    9.508
  374.000   66.283    0.440    0.272   10.094
  374.250   65.815    0.445    0.279   10.120
  374.500   65.903    0.447    0.297   10.331
  374.750   65.391    0.448    0.301   10.351
  375.000   64.856    0.447    0.304   10.187
  375.250   64.966    0.444    0.314   10.025
  375.500   65.033    0.443    0.320   10.052
  375.750   64.542    0.443    0.318   10.085
  376.000   64.653    0.445    0.316   10.104
  376.250   64.697    0.446    0.314   10.144
  376.500   64.808    0.446    0.319   10.164
  376.750   64.897    0.444    0.324   10.191
  377.000   65.007    0.444    0.326   10.225
  377.250   65.052    0.444    0.329   10.251
  377.500   65.162    0.441    0.332   10.271
  377.750   65.251    0.437    0.336   10.305
  378.000   65.318    0.434    0.330   10.326
  378.250   65.406    0.429    0.325   10.360
  378.500   65.495    0.426    0.319   10.387
  378.750   65.004    0.426    0.321   10.222
  379.000   64.469    0.426    0.324   10.255
  379.250   63.355    0.428    0.330   10.276
  379.500   61.639    0.430    0.336   10.119
  379.750   59.924    0.430    0.342   10.146
  380.000   58.832    0.431    0.348   10.172
  380.250   58.319    0.432    0.354   10.004
  380.500   58.430    0.432    0.352    9.858
  380.750   58.496    0.432    0.346    9.878
  381.000   58.563    0.430    0.335    9.904
  381.250   58.673    0.430    0.336    9.753
  381.500   58.740    0.430    0.338    9.772
  381.750   58.249    0.432    0.338    9.791
  382.000   58.360    0.433    0.337    9.817
  382.250   58.449    0.435    0.335    9.856
  382.500   58.537    0.436    0.335    9.875
  382.750   58.604    0.435    0.337    9.901
  383.000   58.692    0.432    0.349    9.933
  383.250   58.781    0.431    0.352    9.960
  383.500   59.471    0.431    0.353    9.992
  383.750   59.604    0.428    0.350   10.194
  384.000   59.047    0.424    0.347   10.227
  384.250   58.534    0.423    0.345   10.440
  384.500   58.623    0.422    0.341   10.474
  384.750   58.733    0.419    0.338   10.706
  385.000   58.822    0.415    0.336   10.734
  385.250   58.888    0.417    0.336   10.770
  385.500   59.021    0.422    0.334   10.986
  385.750   59.066    0.428    0.335   11.023
  386.000   58.553    0.429    0.335   11.044
  386.250   58.062    0.430    0.336   11.088
  386.500   57.549    0.431    0.335   11.102
  386.750   57.638    0.432    0.332   11.132
  387.000   57.125    0.434    0.329   11.168
  387.250   56.635    0.436    0.328   11.205
  387.500   56.745    0.436    0.329   11.234
  387.750   56.745    0.436    0.330   11.256
  388.000   58.749    0.436    0.330   11.286
  388.250   59.417    0.438    0.331   11.316
  388.500   59.461    0.444    0.333   11.345
  388.750   59.594    0.448    0.329   11.375
  389.000   59.638    0.445    0.330   11.209
  389.250   59.749    0.441    0.333   11.224
  389.500   59.860    0.441    0.339   11.053
  389.750   59.948    0.443    0.340   11.075
  390.000   59.993    0.439    0.341   10.899
  390.250   60.081    0.438    0.336   10.740
  390.500   60.816    0.437    0.328   10.768
  390.750   60.860    0.434    0.321   10.590
  391.000   60.993    0.426    0.316   10.618
  391.250   61.059    0.419    0.320   10.463
  391.500   61.148    0.421    0.325   10.484
  391.750   61.236    0.430    0.328   10.511
  392.000   61.325    0.440    0.329   10.532
  392.250   61.414    0.440    0.332   10.378
  392.500   61.502    0.438    0.330   10.200
  392.750   62.215    0.436    0.328   10.240
  393.000   63.528    0.431    0.325   10.065
  393.250   66.022    0.427    0.321    9.905
  393.500   69.096    0.434    0.317    9.391
  393.750   72.793    0.445    0.311    8.264
  394.000   77.091    0.454    0.304    7.007
  394.250   78.984    0.462    0.291    5.518
  394.500   79.073    0.470    0.273    4.856
  394.750   79.161    0.477    0.262    4.684
  395.000   81.099    0.483    0.254    4.282
  395.250   83.593    0.484    0.256    4.133
  395.500   86.065    0.485    0.263    3.921
  395.750   89.183    0.483    0.272    3.857
  396.000   88.670    0.476    0.279    3.728
  396.250   87.578    0.469    0.288    3.738
  396.500   86.419    0.454    0.286    3.747
  396.750   85.305    0.443    0.281    3.973
  397.000   84.191    0.433    0.279    4.295
  397.250   83.678    0.418    0.283    4.812
  397.500   82.586    0.411    0.250    5.713
  397.750   82.675    0.412    0.214    6.530
  398.000   83.365    0.416    0.191    6.666
  398.250   84.678    0.420    0.193    7.072
  398.500   86.571    0.425    0.203    7.091
  398.750   87.862    0.428    0.209    7.110
  399.000   88.530    0.430    0.216    6.868
  399.250   89.220    0.431    0.219    6.634
  399.500   89.331    0.436    0.226    6.408
  399.750   90.623    0.441    0.232    6.421
  400.000   91.313    0.445    0.243    6.437
  400.250   92.003    0.454    0.256    6.454
