~VERSION INFORMATION
 VERS.                 2.0:   CWLS LOG ASCII STANDARD -VERSION 2.0
 WRAP.                  NO:   ONE LINE PER DEPTH STEP
~WELL INFORMATION BLOCK
#MNEM.UNIT           DATA                    DESCRIPTION OF MNEMONIC
#---------    -------------------            -------------------------------
# Generated from Intellog Unique Number	CW_79_81/WELL/877
WELL.         10-32-079-21W4                 : Well_name    - WELL
LOC .         00/10-32-079-21W4/0            : Location     - LOCATION
UWI .         00/10-32-079-21W4/0            : Uwi          - UNIQUE WELL ID
ENTR.         MAX                            : Entered      - ENTERED BY
SRVC.         SCHLUMBERGER                   : Scn          - SERVICE COMPANY
STRT.M        195                            : top_depth    - START DEPTH
STOP.M        415                            : bot_depth    - STOP DEPTH
STEP.M        0.25                           : increment    - STEP LENGTH
 NULL. -999.2500:NULL Value
~CURVE INFORMATION BLOCK
#MNEM UNIT       ERCB CURVE CODE    CURVE DESCRIPTION
#-----------   ------------------   ----------------------------------
DEPT.M        00 001 00 00         : DEPTH        - DEPTH
ILD .OHMM     00 120 00 00         : RESD         - DEEP RESISTIVITY (DIL)
NPHI.V/V      00 330 00 00         : PHIN         - NEUTRON POROSITY (SANDSTONE)
DPHI.V/V      00 890 00 00         : PHID         - DENSITY POROSITY (SANDSTONE)
CALI.MM       00 280 01 00         : CAL          - CALIPER
GR  .API      00 310 00 00         : GR           - GAMMA RAY
~PARAMETER INFORMATION
#MNEM.UNIT           DATA             DESCRIPTION OF MNEMONIC
#---------         -----------     ------------------------------
GL  .M        576.83               : gl           - GROUND LEVEL ELEVATION
EREF.M        580.8                : kb           - ELEVATION OF DEPTH REFERENCE
DATM.M        576.83               : datum        - DATUM ELEVATION
TDD .M        446.75               : tdd          - TOTAL DEPTH DRILLER
RUN .         ONE                  : Run          - RUN NUMBER
ENG .         BILL                 : Engineer     - RECORDING ENGINEER
WIT .         JIM                  : Witness      - WITNESSED BY
MUD .         GEL                  : Mud_type     - MUD TYPE
MATR.         SANDSTONE            : Logunit      - NEUTRON MATRIX
TMAX.C        27.2                 : BHT          - MAXIMUM RECORDED TEMPERATURE
BHTD.M        446.75               : BHTDEP       - MAXIMUM RECORDED TEMPERATURE
RMT .C        12.2                 : MDTP         - TEMPERATURE OF MUD
MUDD.KG/M     1188                 : MWT          - MUD DENSITY
NEUT.         1                    : NEUTRON      - NEUTRON TYPE
RESI.         0                    : RESIST       - RESISTIVITY TYPE
RM  .OHMM     1.35                 : RM           - RESISTIVITY OF MUD
RMC .OHMM     0                    : RMC          - RESISTIVITY OF MUD CAKE
RMF .OHMM     4.93                 : RMF          - RESISTIVITY OF MUD FILTRATE
SUFT.C        -5                   : SUFT         - SURFACE TEMPERATURE
~A  DEPTH     RESD     PHIN     PHID      CAL       GR
# ...
  231.500    7.681    0.482    0.241  224.067   77.448
  231.750    7.077    0.484    0.227  224.121   77.480
  232.000    6.344    0.488    0.227  225.657   79.283
  232.250    5.955    0.484    0.230  229.640   80.496
  232.500    5.955    0.488    0.239  229.694   84.961
  232.750    5.908    0.484    0.240  235.160   87.064
  233.000    5.804    0.479    0.245  235.214   87.092
  233.250    6.081    0.478    0.235  232.316   90.962
  233.500    7.446    0.475    0.230  232.369   90.416
  233.750    8.472    0.469    0.236  232.430   88.078
  234.000    9.641    0.457    0.234  231.999   83.978
  234.250    9.472    0.454    0.214  230.084   80.177
  234.500    9.391    0.467    0.213  227.179   76.072
  234.750   10.396    0.464    0.228  220.837   68.720
  235.000   13.699    0.434    0.271  219.422   49.564
  235.250   15.877    0.426    0.308  219.469   51.962
  235.500   15.886    0.428    0.291  220.507   52.876
  235.750   15.467    0.418    0.283  221.551   52.908
  236.000   14.252    0.409    0.274  223.094   58.849
  236.250   11.981    0.412    0.262  223.627   73.055
  236.500    9.709    0.420    0.238  223.687   80.467
  236.750    8.863    0.460    0.229  223.734   85.518
  237.000    8.093    0.466    0.205  223.795   87.920
  237.250    7.666    0.461    0.224  223.856   83.819
  237.500    8.030    0.454    0.237  223.417   79.715
  237.750    8.413    0.447    0.246  222.972   78.271
  238.000    8.574    0.456    0.225  222.534   79.783
  238.250    8.047    0.466    0.226  223.080   79.520
  238.500    7.416    0.472    0.237  223.639   81.025
  238.750    7.154    0.482    0.227  223.707   80.766
  239.000    7.093    0.481    0.256  223.740   77.555
  239.250    7.431    0.466    0.260  224.293   74.336
  239.500    7.714    0.457    0.252  224.839   74.077
  239.750    6.851    0.485    0.242  228.835   81.190
  240.000    5.760    0.518    0.228  231.841   88.902
  240.250    4.931    0.550    0.206  232.387   98.381
  240.500    4.222    0.550    0.189  232.441  105.506
  240.750    3.927    0.525    0.196  232.495  106.420
  241.000    4.076    0.509    0.196  233.526  104.980
  241.250    4.116    0.496    0.169  234.577  104.717
  241.500    3.899    0.488    0.156  235.129  106.221
  241.750    3.527    0.543    0.164  235.170  107.738
  242.000    3.162    0.565    0.215  235.230  106.589
  242.250    3.078    0.569    0.251  235.776  106.031
  242.500    3.166    0.555    0.258  236.315  105.178
  242.750    3.841    0.517    0.244  236.376  102.553
  243.000    4.062    0.477    0.242  235.944   99.039
  243.250    5.066    0.467    0.251  235.506   96.415
  243.500    6.318    0.461    0.246  234.097   94.085
  243.750    6.930    0.456    0.247  233.147   94.121
  244.000    6.934    0.468    0.252  231.725   95.925
  244.250    6.689    0.479    0.233  229.811   95.072
  244.500    6.164    0.466    0.221  228.880   96.580
  244.750    5.525    0.465    0.204  226.494   98.683
  245.000    4.999    0.485    0.239  224.574   96.649
  245.250    4.778    0.503    0.246  222.174   91.954
  245.500    4.870    0.540    0.256  219.768   84.311
  245.750    5.102    0.547    0.267  217.348   76.376
  246.000    5.544    0.544    0.283  214.942   68.139
  246.250    7.043    0.531    0.317  213.526   62.267
  246.500   10.171    0.501    0.349  213.580   59.052
  246.750   14.827    0.488    0.358  213.648   58.789
  247.000   16.413    0.475    0.370  213.203   56.165
  247.250   17.515    0.479    0.367  213.250   55.607
  247.500   21.249    0.493    0.365  213.310   54.462
  247.750   22.883    0.489    0.368  212.865   52.428
  248.000   27.509    0.476    0.371  212.441   50.980
  248.250   33.076    0.510    0.356  211.996   50.422
  248.500   34.650    0.522    0.329  212.056   51.049
  248.750   38.008    0.484    0.304  212.103   50.495
  249.000   39.819    0.424    0.253  212.164   48.461
  249.250   40.210    0.394    0.205  212.211   48.784
  249.500   39.507    0.391    0.209  212.265   49.407
  249.750   38.816    0.473    0.290  212.325   49.439
  250.000   37.798    0.510    0.338  212.379   50.952
  250.250   37.476    0.507    0.361  212.440   51.574
  250.500   37.156    0.489    0.361  212.979   51.611
  250.750   37.182    0.478    0.361  213.525   52.233
  251.000   37.557    0.498    0.355  214.576   51.970
  251.250   37.557    0.501    0.360  215.115   51.412
  251.500   38.662    0.506    0.365  215.169   51.440
  251.750   40.497    0.507    0.363  215.236   50.296
  252.000   42.826    0.492    0.366  215.768   49.443
  252.250   45.693    0.490    0.366  216.314   50.065
  252.500   48.753    0.491    0.366  216.375   53.050
  252.750   53.970    0.511    0.371  216.921   51.905
  253.000   59.741    0.512    0.361  216.974   51.638
  253.250   65.531    0.497    0.361  217.042   52.265
  253.500   69.292    0.478    0.362  218.080   51.116
  253.750   69.979    0.464    0.353  218.120   48.201
  254.000   70.022    0.468    0.350  218.672   48.528
  254.250   70.077    0.500    0.347  219.212   49.446
  254.500   69.485    0.484    0.341  219.272   50.065
  254.750   68.269    0.478    0.349  219.333   50.691
  255.000   65.862    0.501    0.350  218.402   51.909
  255.250   64.113    0.491    0.352  217.971   53.417
  255.500   61.276    0.487    0.356  217.519   54.331
  255.750   55.950    0.500    0.353  216.596   54.068
  256.000   52.028    0.520    0.347  215.666   52.923
  256.250   50.655    0.534    0.344  215.719   53.845
  256.500   50.223    0.510    0.348  215.288   54.169
  256.750   49.799    0.490    0.351  214.850   52.135
  257.000   50.297    0.493    0.345  214.904   50.990
  257.250   49.422    0.500    0.354  214.951   53.380
  257.500   48.996    0.476    0.369  215.510   53.712
  257.750   47.699    0.477    0.371  215.577   54.334
  258.000   46.441    0.504    0.379  215.618   53.481
  258.250   43.985    0.508    0.372  215.186   52.337
  258.500   39.788    0.494    0.372  214.256   52.069
  258.750   34.701    0.479    0.367  214.296   51.216
  259.000   30.538    0.470    0.357  214.364   49.481
  259.250   25.437    0.457    0.356  214.424   49.805
  259.500   22.189    0.475    0.341  214.970   52.203
  259.750   21.596    0.490    0.337  215.024   52.534
  260.000   21.222    0.474    0.358  215.078   52.562
  260.250   21.238    0.488    0.357  215.125   55.256
  260.500   20.867    0.509    0.359  214.693   53.218
  260.750   20.867    0.511    0.363  214.242   52.077
  261.000   20.334    0.490    0.353  213.325   52.404
  261.250   19.608    0.497    0.351  213.372   51.256
  261.500   19.622    0.498    0.345  213.426   50.403
  261.750   18.754    0.488    0.329  213.972   48.955
  262.000   18.768    0.482    0.327  214.032   49.282
  262.250   19.129    0.474    0.339  214.079   50.791
  262.500   19.680    0.467    0.362  214.645   52.898
  262.750   19.692    0.460    0.357  215.184   52.040
  263.000   19.706    0.449    0.354  215.723   52.072
  263.250   19.706    0.470    0.358  215.292   50.042
  263.500   19.556    0.470    0.368  215.339   49.189
  263.750   19.391    0.467    0.357  214.901   51.284
  264.000   19.391    0.464    0.346  214.961   52.214
  264.250   19.237    0.445    0.345  215.029   51.352
  264.500   19.078    0.444    0.345  215.561   50.503
  264.750   18.743    0.451    0.343  215.615   51.425
  265.000   18.247    0.433    0.340  216.161   53.224
  265.250   17.600    0.451    0.334  217.199   55.614
  265.500   15.922    0.483    0.334  217.751   58.307
  265.750   13.508    0.500    0.323  218.297   60.706
  266.000   10.650    0.484    0.333  218.849   63.099
  266.250    8.474    0.496    0.295  219.395   62.541
  266.500    8.099    0.513    0.278  219.941   59.621
  266.750    7.742    0.498    0.297  220.487   58.182
  267.000    7.468    0.496    0.318  221.525   65.598
  267.250    7.010    0.492    0.288  222.576   69.165
  267.500    6.518    0.499    0.276  223.115   76.286
  267.750    6.005    0.522    0.258  223.661   80.160
