~VERSION INFORMATION
 VERS.                 2.0:   CWLS LOG ASCII STANDARD -VERSION 2.0
 WRAP.                  NO:   ONE LINE PER DEPTH STEP
~WELL INFORMATION BLOCK
#MNEM.UNIT           DATA                    DESCRIPTION OF MNEMONIC
#---------    -------------------            -------------------------------
# Generated from Intellog Unique Number	CS_71_72/WELL/929
WELL.         AEC ET AL FOSTER CREEK         : Well_name    - WELL
LOC .         00/16-36-072-01W4/0            : Location     - LOCATION
UWI .         00/16-36-072-01W4/0            : Uwi          - UNIQUE WELL ID
ENTR.         SP                             : Entered      - ENTERED BY
SRVC.         SCHLUMBERGER                   : Scn          - SERVICE COMPANY
STRT.M        315                            : top_depth    - START DEPTH
STOP.M        585                            : bot_depth    - STOP DEPTH
STEP.M        0.25                           : increment    - STEP LENGTH
 NULL. -999.2500:NULL Value
~CURVE INFORMATION BLOCK
#MNEM UNIT       ERCB CURVE CODE    CURVE DESCRIPTION
#-----------   ------------------   ----------------------------------
DEPT.M        00 001 00 00         : DEPTH        - DEPTH
ILD .OHMM     00 120 00 00         : RESD         - DEEP RESISTIVITY (DIL)
DPHI.V/V      00 890 00 00         : PHID         - DENSITY POROSITY (LIMESTONE)
NPHI.V/V      00 330 00 00         : PHIN         - NEUTRON POROSITY (LIMESTONE)
GR  .API      00 310 00 00         : GR           - GAMMA RAY
~PARAMETER INFORMATION
#MNEM.UNIT           DATA             DESCRIPTION OF MNEMONIC
#---------         -----------     ------------------------------
GL  .M        676                  : gl           - GROUND LEVEL ELEVATION
EREF.M        680.3                : kb           - ELEVATION OF DEPTH REFERENCE
DATM.M        676                  : datum        - DATUM ELEVATION
TDD .M        775                  : tdd          - TOTAL DEPTH DRILLER
RUN .         ONE                  : Run          - RUN NUMBER
ENG .         BILL                 : Engineer     - RECORDING ENGINEER
WIT .         JIM                  : Witness      - WITNESSED BY
MUD .         GEL                  : Mud_type     - MUD TYPE
MATR.         LIMESTONE            : Logunit      - NEUTRON MATRIX
TMAX.C        19                   : BHT          - MAXIMUM RECORDED TEMPERATURE
BHTD.M        775                  : BHTDEP       - MAXIMUM RECORDED TEMPERATURE
MATR.         1                    : LOGUNIT      - NEUTRON MATRIX
RMT .C        25                   : MDTP         - TEMPERATURE OF MUD
NEUT.         1                    : NEUTRON      - NEUTRON TYPE
RESI.         0                    : RESIST       - RESISTIVITY TYPE
RMC .OHMM     0.25                 : RMC          - RESISTIVITY OF MUD CAKE
RMF .OHMM     0.25                 : RMF          - RESISTIVITY OF MUD FILTRATE
SUFT.C        15                   : SUFT         - SURFACE TEMPERATURE
~A  DEPTH     RESD     PHID     PHIN       GR
# ...
  445.500   12.970    0.341    0.416   58.174
  445.750   13.985    0.331    0.426   55.761
  446.000   14.521    0.284    0.451   51.536
  446.250   16.561    0.208    0.473   49.120
  446.500   20.363    0.191    0.269   46.703
  446.750   21.953    0.303    0.277   44.899
  447.000   22.372    0.334    0.443   49.774
  447.250   18.897    0.349    0.468   54.651
  447.500   16.886    0.357    0.470   59.533
  447.750   14.809    0.360    0.458   57.113
  448.000   14.535    0.351    0.451   52.885
  448.250   13.741    0.346    0.441   55.327
  448.500   13.742    0.340    0.437   57.164
  448.750   13.745    0.338    0.434   56.578
  449.000   13.746    0.333    0.443   54.778
  449.250   13.748    0.327    0.460   54.186
  449.500   12.755    0.319    0.476   54.807
  449.750   11.398    0.321    0.483   57.261
  450.000   10.980    0.334    0.482   59.103
  450.250   10.776    0.338    0.465   60.940
  450.500   12.063    0.335    0.451   61.559
  450.750   13.005    0.331    0.466   62.788
  451.000   14.022    0.328    0.478   62.808
  451.250   14.023    0.327    0.493   62.213
  451.500   14.024    0.324    0.484   61.016
  451.750   14.293    0.322    0.475   58.608
  452.000   14.295    0.318    0.482   58.625
  452.250   14.030    0.318    0.475   58.636
  452.500   14.032    0.321    0.457   59.869
  452.750   13.516    0.334    0.455   61.715
  453.000   12.078    0.338    0.473   62.942
  453.250   11.206    0.336    0.485   64.171
  453.500   10.014    0.332    0.500   67.225
  453.750    9.290    0.333    0.466   69.677
  454.000    8.459    0.361    0.465   67.263
  454.250    7.280    0.433    0.494   60.598
  454.500    6.506    0.489    0.477   59.400
  454.750    6.036    0.509    0.461   60.630
  455.000    6.151    0.444    0.489   61.256
  455.250    6.508    0.383    0.491   60.063
  455.500    7.150    0.299    0.466   58.865
  455.750    8.003    0.285    0.445   58.882
  456.000    8.628    0.271    0.428   61.327
  456.250    9.302    0.266    0.435   63.770
  456.500   10.029    0.278    0.446   63.788
  456.750   10.812    0.286    0.437   60.772
  457.000   11.656    0.294    0.441   59.575
  457.250   12.333    0.289    0.436   65.059
  457.500   10.418    0.272    0.417   73.582
  457.750    8.799    0.256    0.413   77.236
  458.000    7.717    0.245    0.438   80.895
  458.250    7.026    0.257    0.468   77.880
  458.500    6.398    0.266    0.480   76.073
  458.750    5.826    0.278    0.478   74.881
  459.000    5.718    0.283    0.480   74.293
  459.250    5.405    0.284    0.517   73.696
  459.500    5.110    0.289    0.550   72.502
  459.750    4.922    0.307    0.522   71.298
  460.000    4.654    0.314    0.512   67.677
  460.250    4.483    0.324    0.513   65.265
  460.500    4.318    0.312    0.538   66.497
  460.750    4.006    0.300    0.534   67.725
  461.000    3.787    0.300    0.521   68.960
  461.250    3.648    0.317    0.551   69.579
  461.500    3.385    0.335    0.574   71.427
  461.750    3.140    0.332    0.591   73.270
  462.000    2.969    0.329    0.595   74.503
  462.250    2.969    0.321    0.569   75.736
  462.500    2.969    0.314    0.554   76.965
  462.750    3.262    0.293    0.552   77.583
  463.000    3.517    0.286    0.522   78.207
  463.250    4.011    0.280    0.486   78.827
  463.500    4.662    0.277    0.467   76.422
  463.750    5.218    0.266    0.469   74.004
  464.000    5.626    0.254    0.474   70.986
  464.250    5.626    0.258    0.467   69.786
  464.500    5.319    0.265    0.461   71.635
  464.750    5.124    0.282    0.463   72.859
  465.000    5.124    0.278    0.479   74.092
  465.250    5.222    0.263    0.504   75.327
  465.500    5.423    0.252    0.514   75.338
  465.750    5.526    0.252    0.496   74.142
  466.000    5.631    0.254    0.490   71.127
  466.250    5.527    0.270    0.465   72.353
  466.500    5.225    0.277    0.454   78.446
  466.750    4.669    0.300    0.453   80.892
  467.000    4.332    0.307    0.477   79.087
  467.250    4.173    0.308    0.504   77.283
  467.500    4.020    0.316    0.472   78.514
  467.750    3.946    0.323    0.460   85.826
  468.000    3.593    0.317    0.493   88.270
  468.250    3.396    0.305    0.512   88.891
  468.500    3.594    0.296    0.526   84.050
  468.750    3.874    0.273    0.493   76.776
  469.000    4.177    0.253    0.443   64.042
  469.250    4.675    0.261    0.417   59.807
  469.500    4.947    0.270    0.420   68.938
  469.750    5.234    0.278    0.461   72.597
  470.000    5.435    0.275    0.496   75.647
  470.250    5.538    0.257    0.432   64.130
  470.500    6.200    0.244    0.411   55.648
  470.750    6.684    0.264    0.408   52.014
  471.000    7.072    0.271    0.406   50.214
  471.250    7.769    0.253    0.399   51.442
  471.500    7.917    0.247    0.400   53.281
  471.750    8.068    0.258    0.405   54.515
  472.000    8.223    0.263    0.423   53.921
  472.250    8.379    0.259    0.435   54.548
  472.500    8.539    0.260    0.444   58.211
  472.750    8.867    0.248    0.452   58.227
  473.000    9.035    0.212    0.446   53.389
  473.250    9.561    0.175    0.359   50.972
  473.500    9.743    0.125    0.371   54.025
  473.750    9.563    0.239    0.379   65.591
  474.000    8.230    0.271    0.385   68.640
  474.250    7.084    0.272    0.395   71.084
  474.500    6.212    0.267    0.425   73.531
  474.750    5.054    0.264    0.458   69.912
  475.000    4.689    0.271    0.488   67.493
  475.250    4.602    0.277    0.499   62.656
  475.500    4.690    0.284    0.447   60.240
  475.750    4.963    0.293    0.435   57.221
  476.000    5.057    0.297    0.429   56.019
  476.250    5.251    0.296    0.421   56.044
  476.500    5.351    0.285    0.421   57.267
  476.750    5.453    0.268    0.433   62.765
  477.000    5.558    0.251    0.435   65.816
  477.250    5.664    0.246    0.437   67.652
  477.500    5.665    0.266    0.441   68.881
  477.750    5.665    0.286    0.426   69.503
  478.000    5.561    0.304    0.410   68.912
  478.250    5.458    0.302    0.400   64.071
  478.500    5.458    0.287    0.386   58.013
  478.750    5.459    0.279    0.363   64.105
  479.000    5.358    0.270    0.346   66.550
  479.250    5.359    0.267    0.372   63.538
  479.500    5.461    0.297    0.389   64.766
  479.750    5.565    0.293    0.366   71.466
  480.000    5.889    0.239    0.371   74.514
  480.250    6.001    0.214    0.377   77.567
  480.500    6.231    0.230    0.382   75.763
  480.750    6.350    0.258    0.389   67.279
  481.000    6.233    0.276    0.401   57.584
  481.250    6.004    0.286    0.376   52.739
  481.500    5.893    0.287    0.351   47.289
  481.750    5.366    0.282    0.338   44.270
  482.000    5.169    0.273    0.335   44.284
  482.250    4.979    0.277    0.358   54.025
  482.500    4.887    0.276    0.374   64.973
  482.750    4.887    0.265    0.381   72.277
  483.000    4.888    0.242    0.372   78.971
  483.250    4.798    0.234    0.394   83.847
  483.500    4.622    0.276    0.407   72.932
  483.750    4.369    0.296    0.381   61.413
  484.000    4.209    0.305    0.379   51.713
  484.250    3.905    0.295    0.380   42.013
  484.500    3.832    0.291    0.364   40.206
  484.750    3.623    0.303    0.356   42.655
  485.000    3.556    0.300    0.345   40.850
  485.250    3.426    0.296    0.365   39.654
  485.500    3.426    0.300    0.374   36.635
  485.750    3.426    0.317    0.391   34.221
  486.000    3.427    0.321    0.387   31.201
  486.250    3.428    0.326    0.379   30.611
  486.500    3.493    0.332    0.366   34.881
  486.750    3.560    0.331    0.394   39.156
  487.000    3.627    0.313    0.403   41.600
  487.250    3.767    0.289    0.398   43.434
  487.500    3.838    0.290    0.388   44.664
  487.750    3.912    0.309    0.381   45.292
  488.000    3.986    0.320    0.422   44.097
  488.250    3.987    0.326    0.413   40.470
  488.500    3.987    0.322    0.390   38.051
  488.750    3.988    0.320    0.377   49.000
