~VERSION INFORMATION
 VERS.                 2.0:   CWLS LOG ASCII STANDARD -VERSION 2.0
 WRAP.                  NO:   ONE LINE PER DEPTH STEP
~WELL INFORMATION BLOCK
#MNEM.UNIT           DATA                    DESCRIPTION OF MNEMONIC
#---------    -------------------            -------------------------------
# Generated from Intellog Unique Number	CW_82_90/WELL/3077
WELL.         TEXEX WABASCA 11-19            : Well_name    - WELL
LOC .         00/11-19-085-22W4/0            : Location     - LOCATION
UWI .         00/11-19-085-22W4/0            : Uwi          - UNIQUE WELL ID
ENTR.         JAYE                           : Entered      - ENTERED BY
SRVC.         WESTERN ATLAS                  : Scn          - SERVICE COMPANY
DATE.         23 FEB 75                      : Date         - LOG DATE
STRT.M        152.4                          : top_depth    - START DEPTH
STOP.M        353.65                         : bot_depth    - STOP DEPTH
STEP.M        0.25                           : increment    - STEP LENGTH
 NULL. -999.2500:NULL Value
~CURVE INFORMATION BLOCK
#MNEM UNIT       ERCB CURVE CODE    CURVE DESCRIPTION
#-----------   ------------------   ----------------------------------
DEPT.M        00 001 00 00         : DEPTH        - DEPTH
CALI.MM       00 280 01 00         : CAL          - CALIPER
GR  .API      00 310 00 00         : GR           - GAMMA RAY
NPHI.V/V      00 330 00 00         : PHIN         - NEUTRON POROSITY (SANDSTONE)
DPHI.V/V      00 890 00 00         : PHID         - DENSITY POROSITY (SANDSTONE)
ILD .OHMM     00 120 00 00         : RESD         - DEEP RESISTIVITY (DIL)
~PARAMETER INFORMATION
#MNEM.UNIT           DATA             DESCRIPTION OF MNEMONIC
#---------         -----------     ------------------------------
GL  .M        559.399              : gl           - GROUND LEVEL ELEVATION
EREF.M        562.356              : kb           - ELEVATION OF DEPTH REFERENCE
DATM.M        559.399              : datum        - DATUM ELEVATION
TDD .M        354.482              : tdd          - TOTAL DEPTH DRILLER
RUN .         ONE                  : Run          - RUN NUMBER
ENG .         FAYE                 : Engineer     - RECORDING ENGINEER
WIT .         McDOUGAL             : Witness      - WITNESSED BY
BASE.         EDMONTON             : Branch       - HOME BASE OF LOGGING UNIT
MUD .         MUD GEL              : Mud_type     - MUD TYPE
MATR.         SANDSTONE            : Logunit      - NEUTRON MATRIX
TMAX.C        25.5556              : BHT          - MAXIMUM RECORDED TEMPERATURE
BHTD.M        354.482              : BHTDEP       - MAXIMUM RECORDED TEMPERATURE
RMT .C        15.5556              : MDTP         - TEMPERATURE OF MUD
MUDD.KG/M     9000                 : MWT          - MUD DENSITY
NEUT.         1                    : NEUTRON      - NEUTRON TYPE
RESI.         0                    : RESIST       - RESISTIVITY TYPE
RM  .OHMM     8.8                  : RM           - RESISTIVITY OF MUD
RMC .OHMM     0                    : RMC          - RESISTIVITY OF MUD CAKE
RMF .OHMM     0                    : RMF          - RESISTIVITY OF MUD FILTRATE
SUFT.C        4                    : SUFT         - SURFACE TEMPERATURE
~A  DEPTH      CAL       GR     PHIN     PHID     RESD
# ...
  225.400  252.518   48.556    0.530    0.305    8.957
  225.650  254.195   48.930    0.513    0.272    8.283
  225.900  256.083   48.441    0.501    0.263    7.341
  226.150  257.551   51.657    0.496    0.289    6.517
  226.400  259.229   52.279    0.486    0.277    6.140
  226.650  260.176   50.306    0.488    0.245    6.394
  226.900  261.436   48.766    0.496    0.238    7.078
  227.150  262.486   48.153    0.509    0.247    7.607
  227.400  263.223   46.427    0.523    0.296    8.282
  227.650  263.333   45.504    0.539    0.306    8.593
  227.900  263.023   47.796    0.557    0.296    8.527
  228.150  262.819   49.221    0.583    0.277    7.174
  228.400  262.510   50.460    0.596    0.273    6.428
  228.650  262.514   50.588    0.562    0.272    5.760
  228.900  262.729   50.221    0.526    0.272    4.983
  229.150  262.524   52.759    0.515    0.272    4.634
  229.400  261.797   53.874    0.514    0.273    4.505
  229.650  260.651   54.559    0.510    0.274    4.546
  229.900  257.624   54.130    0.511    0.275    4.931
  230.150  254.701   51.107    0.529    0.278    5.718
  230.400  252.300   46.601    0.570    0.284    6.631
  230.650  249.900   41.725    0.585    0.310    7.761
  230.900  248.128   43.336    0.579    0.339    9.586
  231.150  247.504   45.007    0.564    0.323   12.083
  231.400  246.882   45.445    0.545    0.292   12.700
  231.650  247.618   44.893    0.515    0.270   12.601
  231.900  247.624   45.515    0.495    0.301   12.140
  232.150  246.896   46.384    0.496    0.296   11.123
  232.400  245.228   45.523    0.520    0.286    7.533
  232.650  243.455   47.072    0.521    0.287    6.953
  232.900  240.845   49.918    0.512    0.293    6.430
  233.150  238.132   51.714    0.489    0.301    5.968
  233.400  236.254   52.151    0.480    0.302    5.571
  233.650  234.586   49.807    0.464    0.297    4.928
  233.900  232.919   44.745    0.453    0.303    5.630
  234.150  232.295   42.217    0.447    0.302    6.954
  234.400  231.672   40.614    0.444    0.307    9.030
  234.650  231.050   39.877    0.444    0.324   10.887
  234.900  230.951   40.129    0.446    0.328   12.509
  235.150  231.164   41.060    0.452    0.329   13.098
  235.400  231.170   41.620    0.466    0.331   12.782
  235.650  231.278   43.725    0.480    0.329   12.178
  235.900  232.016   46.262    0.494    0.303   10.113
  236.150  233.066   48.737    0.506    0.291    8.199
  236.400  234.429   52.015    0.518    0.281    6.646
  236.650  236.421   55.047    0.530    0.280    5.675
  236.900  238.309   56.472    0.542    0.283    5.001
  237.150  239.464   55.736    0.557    0.283    4.432
  237.400  240.304   55.924    0.566    0.284    4.214
  237.650  242.089   56.300    0.568    0.288    4.166
  237.900  243.139   56.181    0.499    0.294    4.267
  238.150  244.398   54.455    0.487    0.295    4.689
  238.400  245.867   55.447    0.479    0.291    5.357
  238.650  246.603   52.672    0.475    0.289    5.986
  238.900  247.026   52.923    0.463    0.303    7.151
  239.150  247.345   52.433    0.451    0.281    8.094
  239.400  248.918   52.931    0.444    0.218    8.878
  239.650  248.819   53.245    0.443    0.157    9.612
  239.900  248.511   54.237    0.444    0.242    9.936
  240.150  248.409   53.624    0.462    0.277    9.860
  240.400  248.102   54.060    0.487    0.292    9.498
  240.650  247.583   53.632    0.517    0.280    9.132
  240.900  246.647   52.525    0.522    0.267    8.781
  241.150  245.606   50.551    0.525    0.256    8.365
  241.400  244.878   50.309    0.520    0.262    7.808
  241.650  245.197   50.374    0.496    0.273    7.605
  241.900  245.621   49.637    0.493    0.274    7.603
  242.150  245.730   50.815    0.489    0.276    7.517
  242.400  244.792   54.465    0.482    0.281    7.432
  242.650  242.498   54.964    0.476    0.273    7.443
  242.900  240.201   57.191    0.462    0.282    7.708
  243.150  237.382   57.628    0.430    0.290    8.362
  243.400  232.683   55.964    0.420    0.302    8.919
  243.650  230.386   53.435    0.413    0.298    9.445
  243.900  225.685   50.721    0.404    0.264   10.417
  244.150  222.657   46.524    0.387    0.092   12.771
  244.400  219.839   41.957    0.330    0.061   16.676
  244.650  218.694   43.259    0.323    0.049   20.597
  244.900  218.281   46.105    0.319    0.060   26.302
  245.150  218.181   49.136    0.319    0.068   30.107
  245.400  218.603   47.102    0.325    0.102   29.436
  245.650  219.446   45.129    0.409    0.185   26.971
  245.900  219.973   44.824    0.456    0.257   18.096
  246.150  221.232   46.991    0.476    0.292   13.571
  246.400  223.851   49.528    0.487    0.278   11.375
  246.650  226.261   53.053    0.491    0.276    9.035
  246.900  230.030   54.047    0.488    0.278    7.124
  247.150  232.649   53.433    0.481    0.273    6.419
  247.400  233.386   53.808    0.471    0.266    6.241
  247.650  233.705   52.638    0.472    0.260    6.321
  247.900  233.606   51.345    0.484    0.251    6.631
  248.150  233.296   50.609    0.500    0.239    7.009
  248.400  232.778   50.304    0.511    0.211    7.774
  248.650  232.260   50.184    0.516    0.188    8.606
  248.900  232.265   50.002    0.514    0.252    9.814
  249.150  232.690   49.821    0.512    0.267   10.905
  249.400  233.007   49.393    0.425    0.285   12.460
  249.650  233.429   47.112    0.399    0.283   14.939
  249.900  234.901   44.212    0.382    0.262   17.780
  250.150  235.741   41.251    0.368    0.185   22.001
  250.400  237.208   39.773    0.361    0.073   24.905
  250.650  240.564   41.878    0.363    0.069   21.503
  250.900  241.402   43.920    0.384    0.154   17.176
  251.150  243.497   48.126    0.424    0.195   13.025
  251.400  246.534   51.590    0.454    0.247   11.308
  251.650  250.095   55.794    0.463    0.243   10.955
  251.900  253.132   54.255    0.463    0.240   10.417
  252.150  255.751   54.135    0.464    0.233   10.337
  252.400  257.429   52.903    0.466    0.216   11.027
  252.650  259.211   50.745    0.467    0.185   11.483
  252.900  261.307   47.969    0.477    0.185   12.159
  253.150  263.929   47.912    0.495    0.240   12.337
  253.400  264.454   50.078    0.543    0.231   12.424
  253.650  266.343   52.554    0.590    0.220   12.514
  253.900  266.868   53.609    0.602    0.210   12.439
  254.150  267.815   53.922    0.608    0.209   12.367
  254.400  268.866   54.296    0.608    0.233   12.274
  254.650  269.393   54.548    0.605    0.237   11.911
  254.900  270.970   53.872    0.593    0.239   11.602
  255.150  271.285   54.309    0.559    0.243   11.323
  255.400  271.185   54.745    0.523    0.242   10.988
  255.650  270.458   52.588    0.488    0.243   10.904
  255.900  267.851   52.963    0.488    0.244   11.001
  256.150  266.807   53.770    0.493    0.239   11.040
  256.400  262.002   54.330    0.493    0.238   11.202
  256.650  255.942   56.620    0.489    0.242   11.409
  256.900  255.942   56.995    0.485    0.245   11.858
  257.150  247.274   55.331    0.489    0.250   12.348
  257.400  245.082   53.914    0.497    0.261   13.246
  257.650  241.426   50.768    0.498    0.265   14.369
  257.900  237.457   46.756    0.475    0.265   15.158
  258.150  232.547   46.884    0.447    0.274   15.210
  258.400  230.042   47.755    0.443    0.305   15.009
  258.650  227.224   50.167    0.440    0.299   14.648
  258.900  225.348   54.928    0.431    0.286   14.188
  259.150  224.725   53.079    0.432    0.293   13.795
  259.400  224.625   46.473    0.438    0.289   13.463
  259.650  224.733   45.550    0.446    0.282   13.434
  259.900  225.889   44.998    0.463    0.276   13.529
  260.150  228.716   45.806    0.488    0.302   13.451
  260.400  232.172   46.366    0.496    0.292   13.102
  260.650  235.209   53.105    0.504    0.262   12.528
  260.900  238.875   56.074    0.505    0.259   12.295
  261.150  241.493   54.410    0.504    0.264   11.998
  261.400  244.635   53.920    0.501    0.263   11.686
  261.650  247.463   54.480    0.511    0.263   11.532
