~VERSION INFORMATION
 VERS.                 2.0:   CWLS LOG ASCII STANDARD -VERSION 2.0
 WRAP.                  NO:   ONE LINE PER DEPTH STEP
~WELL INFORMATION BLOCK
#MNEM.UNIT           DATA                    DESCRIPTION OF MNEMONIC
#---------    -------------------            -------------------------------
# Generated from Intellog Unique Number	CW_73_75/WELL/1048
WELL.         CDN SUP ET AL FRANCIS 11-35    : Well_name    - WELL
LOC .         00/11-35-074-20W4/0            : Location     - LOCATION
UWI .         00/11-35-074-20W4/0            : Uwi          - UNIQUE WELL ID
ENTR.         JAYE                           : Entered      - ENTERED BY
SRVC.         SCHLUMBERGER                   : Scn          - SERVICE COMPANY
DATE.         3 MAR 76                       : Date         - LOG DATE
STRT.M        323.088                        : top_depth    - START DEPTH
STOP.M        524.313                        : bot_depth    - STOP DEPTH
STEP.M        0.25                           : increment    - STEP LENGTH
 NULL. -999.2500:NULL Value
~CURVE INFORMATION BLOCK
#MNEM UNIT       ERCB CURVE CODE    CURVE DESCRIPTION
#-----------   ------------------   ----------------------------------
DEPT.M        00 001 00 00         : DEPTH        - DEPTH
GR  .API      00 310 00 00         : GR           - GAMMA RAY
CALI.IN       00 280 01 00         : CAL          - CALIPER
NPHI.V/V      00 330 00 00         : PHIN         - NEUTRON POROSITY (SANDSTONE)
DPHI.V/V      00 890 00 00         : PHID         - DENSITY POROSITY (SANDSTONE)
ILD .OHMM     00 120 00 00         : RESD         - DEEP RESISTIVITY (DLL)
~PARAMETER INFORMATION
#MNEM.UNIT           DATA             DESCRIPTION OF MNEMONIC
#---------         -----------     ------------------------------
GL  .M        640.69               : gl           - GROUND LEVEL ELEVATION
EREF.M        644.652              : kb           - ELEVATION OF DEPTH REFERENCE
DATM.M        640.69               : datum        - DATUM ELEVATION
TDD .M        585.216              : tdd          - TOTAL DEPTH DRILLER
RUN .         ONE                  : Run          - RUN NUMBER
BASE.         EDM                  : Branch       - HOME BASE OF LOGGING UNIT
MUD .         GEL CHEM             : Mud_type     - MUD TYPE
MATR.         SANDSTONE            : Logunit      - NEUTRON MATRIX
TMAX.C        23.8889              : BHT          - MAXIMUM RECORDED TEMPERATURE
BHTD.M        585.826              : BHTDEP       - MAXIMUM RECORDED TEMPERATURE
RMT .C        17.7778              : MDTP         - TEMPERATURE OF MUD
MUDD.KG/M     1164                 : MWT          - MUD DENSITY
NEUT.         1                    : NEUTRON      - NEUTRON TYPE
RESI.         1                    : RESIST       - RESISTIVITY TYPE
RM  .OHMM     1.96                 : RM           - RESISTIVITY OF MUD
RMC .OHMM     0                    : RMC          - RESISTIVITY OF MUD CAKE
RMF .OHMM     2.24                 : RMF          - RESISTIVITY OF MUD FILTRATE
SUFT.C        -17.7778             : SUFT         - SURFACE TEMPERATURE
~A  DEPTH       GR      CAL     PHIN     PHID     RESD
# ...
  432.588   43.170    7.612    0.136    0.009   42.035
  432.838   45.774    7.630    0.147    0.007   37.817
  433.088   49.582    7.631    0.178    0.006   31.688
  433.338   52.376    7.619    0.343    0.117   25.369
  433.588   52.956    7.598    0.387    0.172   16.742
  433.838   52.967    7.561    0.417    0.304    8.194
  434.088   55.129    7.520    0.423    0.330    6.854
  434.338   56.658    7.470    0.427    0.325    6.132
  434.588   54.708    7.441    0.446    0.327    5.639
  434.838   55.604    7.429    0.451    0.336    5.457
  435.088   58.905    7.426    0.475    0.329    5.397
  435.338   61.511    7.426    0.475    0.319    5.407
  435.588   62.469    7.431    0.460    0.307    5.496
  435.838   63.303    7.449    0.440    0.292    5.597
  436.088   63.251    7.466    0.429    0.306    5.700
  436.338   63.325    7.476    0.422    0.317    5.752
  436.588   62.450    7.485    0.451    0.296    5.846
  436.838   61.576    7.519    0.484    0.280    5.889
  437.088   62.535    7.600    0.497    0.263    5.889
  437.338   65.013    7.681    0.488    0.269    5.889
  437.588   68.124    7.753    0.487    0.284    5.867
  437.838   70.159    7.830    0.463    0.271    5.856
  438.088   71.309    7.890    0.447    0.260    5.824
  438.338   72.205    7.945    0.458    0.257    5.585
  438.588   72.342    8.013    0.468    0.252    5.316
  438.838   72.543    8.145    0.477    0.240    5.042
  439.088   73.124    8.251    0.531    0.233    4.688
  439.338   73.578    8.298    0.523    0.233    4.765
  439.588   73.651    8.291    0.501    0.248    5.023
  439.838   74.043    8.051    0.474    0.269    5.354
  440.088   75.002    7.900    0.459    0.268    5.634
  440.338   76.531    7.850    0.442    0.252    5.865
  440.588   79.831    7.830    0.434    0.230    6.060
  440.838   80.981    7.830    0.434    0.204    6.239
  441.088   79.411    7.835    0.455    0.207    6.239
  441.338   79.359    7.840    0.469    0.209    6.104
  441.588   80.697    7.841    0.482    0.220    5.993
  441.838   82.796    7.833    0.493    0.231    6.026
  442.088   76.291    7.834    0.468    0.213    6.136
  442.338   75.796    7.830    0.483    0.202    6.364
  442.588   77.261    7.848    0.499    0.209    6.588
  442.838   80.816    7.857    0.473    0.211    6.807
  443.088   83.547    7.858    0.462    0.205    6.932
  443.338   85.456    7.871    0.467    0.196    6.945
  443.588   85.782    7.889    0.473    0.206    6.894
  443.838   84.022    7.907    0.467    0.223    6.844
  444.088   81.566    7.916    0.491    0.210    6.806
  444.338   82.778    7.950    0.493    0.218    6.732
  444.588   84.751    8.023    0.483    0.228    6.610
  444.838   84.003    8.095    0.488    0.219    6.420
  445.088   84.139    8.100    0.493    0.210    6.224
  445.338   85.985    8.050    0.479    0.198    5.775
  445.588   85.047    8.009    0.474    0.193    5.243
  445.838   86.323    7.976    0.485    0.210    4.607
  446.088   89.750    7.943    0.495    0.209    4.122
  446.338   90.078    7.914    0.491    0.202    3.416
  446.588   88.190    7.898    0.482    0.215    2.700
  446.838   85.229    7.881    0.496    0.209    2.456
  447.088   82.898    7.870    0.501    0.199    2.632
  447.338   80.760    7.870    0.490    0.194    2.968
  447.588   78.746    7.871    0.468    0.202    3.498
  447.838   77.364    7.868    0.468    0.204    4.069
  448.088   76.426    7.872    0.467    0.204    6.393
  448.338   78.588    7.865    0.450    0.210    7.451
  448.588   80.622    7.865    0.439    0.233    7.560
  448.838   81.141    7.858    0.447    0.229    7.519
  449.088   79.948    7.833    0.448    0.219    7.409
  449.338   78.378    7.817    0.439    0.208    7.315
  449.588   78.325    7.805    0.438    0.205    7.288
  449.838   79.538    7.802    0.444    0.192    7.288
  450.088   79.550    7.798    0.443    0.220    7.328
  450.338   79.054    7.786    0.432    0.205    7.341
  450.588   77.546    7.778    0.438    0.189    7.354
  450.838   75.912    7.775    0.432    0.202    7.354
  451.088   75.481    7.776    0.424    0.203    7.394
  451.338   75.682    7.776    0.420    0.193    7.407
  451.588   76.010    7.781    0.428    0.186    7.434
  451.838   76.652    7.791    0.443    0.197    7.434
  452.088   78.245    7.795    0.440    0.196    7.406
  452.338   79.458    7.817    0.417    0.184    7.433
  452.588   80.355    7.848    0.446    0.217    7.446
  452.838   81.125    7.895    0.462    0.212    7.446
  453.088   82.401    7.997    0.478    0.204    7.432
  453.338   83.171    8.035    0.489    0.221    7.364
  453.588   80.967    8.036    0.490    0.209    7.205
  453.838   78.321    7.957    0.473    0.215    6.959
  454.088   79.091    7.738    0.482    0.224    6.747
  454.338   82.012    7.616    0.498    0.210    6.613
  454.588   83.035    7.550    0.515    0.190    6.576
  454.838   82.161    7.483    0.496    0.224    6.624
  455.088   78.818    7.458    0.462    0.260    6.770
  455.338   73.135    7.446    0.463    0.246    7.138
  455.588   67.389    7.434    0.445    0.223    7.948
  455.838   63.099    7.444    0.417    0.189    9.433
  456.088   59.439    7.461    0.370    0.165   10.257
  456.338   55.401    7.500    0.374    0.178   10.164
  456.588   52.060    7.560    0.401    0.294    9.228
  456.838   50.363    7.641    0.451    0.330    8.454
  457.088   51.322    7.683    0.464    0.317    7.620
  457.338   54.118    7.701    0.476    0.308    6.968
  457.588   55.330    7.719    0.480    0.302    6.561
  457.838   56.100    7.741    0.468    0.311    6.201
  458.088   56.364    7.754    0.447    0.309    6.022
  458.338   53.466    7.767    0.443    0.290    5.838
  458.588   50.060    7.776    0.450    0.275    5.743
  458.838   46.717    7.781    0.445    0.292    5.701
  459.088   45.272    7.790    0.440    0.291    5.639
  459.338   44.337    7.808    0.437    0.298    5.547
  459.588   44.156    7.813    0.445    0.330    5.457
  459.838   44.295    7.805    0.432    0.326    5.407
  460.088   45.506    7.810    0.422    0.320    5.377
  460.338   47.985    7.815    0.422    0.311    5.367
  460.588   49.704    7.820    0.436    0.307    5.406
  460.838   50.157    7.808    0.446    0.327    5.486
  461.088   50.295    7.796    0.440    0.317    5.668
  461.338   50.306    7.797    0.440    0.310    5.889
  461.588   50.316    7.789    0.438    0.298    6.220
  461.838   50.394    7.760    0.451    0.296    6.486
  462.088   50.340    7.753    0.454    0.312    6.714
  462.338   50.222    7.758    0.440    0.311    6.838
  462.588   50.234    7.754    0.429    0.316    6.887
  462.838   50.245    7.746    0.443    0.309    6.825
  463.088   50.761    7.743    0.461    0.344    6.738
  463.338   51.532    7.735    0.470    0.335    6.652
  463.588   53.061    7.732    0.446    0.313    6.544
  463.838   54.717    7.724    0.441    0.304    6.461
  464.088   55.929    7.716    0.447    0.310    6.390
  464.338   57.206    7.709    0.457    0.296    6.355
  464.588   58.039    7.697    0.473    0.296    6.332
  464.838   58.745    7.689    0.456    0.276    6.424
  465.088   56.733    7.681    0.424    0.255    6.675
  465.338   54.530    7.682    0.400    0.223    7.037
  465.588   52.832    7.674    0.347    0.188    7.527
  465.838   52.273    7.667    0.344    0.165    8.443
  466.088   53.994    7.655    0.376    0.163    9.032
  466.338   55.331    7.643    0.446    0.184    8.724
  466.588   57.873    7.656    0.448    0.265    8.096
  466.838   61.299    7.670    0.418    0.266    7.678
  467.088   66.624    7.712    0.427    0.240    7.177
  467.338   73.215    7.802    0.464    0.220    6.734
  467.588   77.844    7.925    0.472    0.206    6.271
  467.838   81.271    7.993    0.463    0.194    5.894
  468.088   84.382    8.053    0.501    0.179    5.570
  468.338   86.101    8.100    0.509    0.184    5.293
  468.588   84.720    8.143    0.491    0.181    5.141
  468.838   82.771    8.177    0.479    0.181    5.066
