~VERSION INFORMATION
 VERS.                 2.0:   CWLS LOG ASCII STANDARD -VERSION 2.0
 WRAP.                  NO:   ONE LINE PER DEPTH STEP
~WELL INFORMATION BLOCK
#MNEM.UNIT           DATA                    DESCRIPTION OF MNEMONIC
#---------    -------------------            -------------------------------
# Generated from Intellog Unique Number	CW_73_75/WELL/928
WELL.         GULF POC DROWNED 10-22         : Well_name    - WELL
LOC .         00/10-22-075-21W4/0            : Location     - LOCATION
UWI .         00/10-22-075-21W4/0            : Uwi          - UNIQUE WELL ID
ENTR.         JAYE                           : Entered      - ENTERED BY
SRVC.         SCHLUMBERGER                   : Scn          - SERVICE COMPANY
DATE.         19 FEB 77                      : Date         - LOG DATE
STRT.M        368.808                        : top_depth    - START DEPTH
STOP.M        562.058                        : bot_depth    - STOP DEPTH
STEP.M        0.25                           : increment    - STEP LENGTH
 NULL. -999.2500:NULL Value
~CURVE INFORMATION BLOCK
#MNEM UNIT       ERCB CURVE CODE    CURVE DESCRIPTION
#-----------   ------------------   ----------------------------------
DEPT.M        00 001 00 00         : DEPTH        - DEPTH
ILD .OHMM     00 120 00 00         : RESD         - DEEP RESISTIVITY (DIL)
NPHI.V/V      00 330 00 00         : PHIN         - NEUTRON POROSITY (SANDSTONE)
DPHI.V/V      00 890 00 00         : PHID         - DENSITY POROSITY (SANDSTONE)
GR  .API      00 310 00 00         : GR           - GAMMA RAY
CALI.MM       00 280 01 00         : CAL          - CALIPER
~PARAMETER INFORMATION
#MNEM.UNIT           DATA             DESCRIPTION OF MNEMONIC
#---------         -----------     ------------------------------
GL  .M        677.875              : gl           - GROUND LEVEL ELEVATION
EREF.M        681.228              : kb           - ELEVATION OF DEPTH REFERENCE
DATM.M        677.875              : datum        - DATUM ELEVATION
TDD .M        571.5                : tdd          - TOTAL DEPTH DRILLER
RUN .         ONE                  : Run          - RUN NUMBER
ENG .         CROCKFORD            : Engineer     - RECORDING ENGINEER
WIT .         FULTON               : Witness      - WITNESSED BY
BASE.         EDM                  : Branch       - HOME BASE OF LOGGING UNIT
MUD .         GEL BENDEX           : Mud_type     - MUD TYPE
MATR.         SANDSTONE            : Logunit      - NEUTRON MATRIX
TMAX.C        15.5556              : BHT          - MAXIMUM RECORDED TEMPERATURE
BHTD.M        570.586              : BHTDEP       - MAXIMUM RECORDED TEMPERATURE
RMT .C        13.3333              : MDTP         - TEMPERATURE OF MUD
MUDD.KG/M     1140                 : MWT          - MUD DENSITY
NEUT.         1                    : NEUTRON      - NEUTRON TYPE
RESI.         0                    : RESIST       - RESISTIVITY TYPE
RM  .OHMM     2.88                 : RM           - RESISTIVITY OF MUD
RMC .OHMM     0                    : RMC          - RESISTIVITY OF MUD CAKE
RMF .OHMM     2.84                 : RMF          - RESISTIVITY OF MUD FILTRATE
SUFT.C        -17.7778             : SUFT         - SURFACE TEMPERATURE
~A  DEPTH     RESD     PHIN     PHID       GR      CAL
# ...
  514.808    5.782    0.437    0.162  113.504  167.404
  515.058    5.805    0.452    0.156  114.208  167.659
  515.308    5.817    0.452    0.175  116.334  167.808
  515.558    5.840    0.430    0.197  119.941  167.850
  515.808    5.885    0.428    0.189  121.697  167.677
  516.058    5.963    0.437    0.149  119.560  167.625
  516.308    6.032    0.431    0.158  118.845  167.662
  516.558    6.089    0.428    0.146  118.621  167.810
  516.808    6.125    0.440    0.150  117.846  167.749
  517.058    6.149    0.433    0.182  117.191  167.683
  517.308    6.173    0.422    0.197  116.720  167.931
  517.558    6.197    0.413    0.172  119.653  168.811
  517.808    6.187    0.412    0.166  119.365  169.697
  518.058    6.131    0.417    0.165  117.167  170.156
  518.308    6.007    0.412    0.179  116.264  170.509
  518.558    5.887    0.401    0.192  120.058  170.758
  518.808    5.801    0.430    0.183  124.161  170.591
  519.058    5.737    0.444    0.165  124.370  169.908
  519.308    5.685    0.445    0.146  121.678  169.744
  519.558    5.571    0.455    0.149  119.231  169.256
  519.808    5.479    0.457    0.167  115.798  169.088
  520.058    5.470    0.434    0.149  113.353  168.921
  520.308    5.543    0.420    0.114  112.142  168.549
  520.558    5.638    0.431    0.128  111.859  167.963
  520.808    5.864    0.428    0.114  112.375  166.961
  521.058    6.021    0.416    0.166  115.676  166.165
  521.308    6.078    0.403    0.155  117.247  165.170
  521.558    6.068    0.401    0.155  115.478  164.573
  521.808    6.115    0.415    0.186  114.701  164.099
  522.058    6.254    0.414    0.197  117.506  163.610
  522.308    6.373    0.405    0.184  121.671  163.339
  522.558    6.422    0.426    0.169  122.129  163.178
  522.808    6.423    0.443    0.160  121.967  163.220
  523.058    6.247    0.448    0.154  124.464  164.306
  523.308    6.054    0.437    0.166  128.442  166.022
  523.558    5.932    0.428    0.173  131.248  168.052
  523.808    5.856    0.434    0.172  128.802  168.930
  524.058    5.945    0.409    0.168  123.514  166.257
  524.308    6.196    0.399    0.164  117.670  162.740
  524.558    7.087    0.390    0.153  114.918  160.688
  524.808    7.709    0.383    0.150  114.075  159.474
  525.058    7.754    0.374    0.164  114.718  158.576
  525.308    7.347    0.377    0.165  116.225  158.413
  525.558    6.988    0.385    0.173  118.104  158.454
  525.808    6.784    0.384    0.171  116.893  158.183
  526.058    6.887    0.369    0.132  111.914  158.230
  526.308    7.590    0.341    0.091  105.765  158.584
  526.558    9.303    0.308    0.051  100.534  159.043
  526.808   11.150    0.282    0.031   91.540  159.822
  527.058   12.589    0.241    0.011   81.867  160.278
  527.308   13.694    0.204   -0.012   73.549  160.636
  527.558   14.868    0.218   -0.019   75.059  161.095
  527.808   14.247    0.247   -0.017   84.597  161.663
  528.058   12.093    0.277    0.023   93.642  162.546
  528.308   10.457    0.311    0.062  103.614  163.104
  528.558    8.794    0.397    0.107  114.018  164.613
  528.808    7.577    0.427    0.151  116.640  164.245
  529.058    6.700    0.450    0.153  112.524  164.282
  529.308    6.505    0.439    0.147  108.409  164.006
  529.558    6.339    0.418    0.143  111.710  163.536
  529.808    6.340    0.422    0.144  114.764  163.056
  530.058    6.341    0.424    0.116  114.172  162.676
  530.308    6.402    0.417    0.103  111.723  162.402
  530.558    6.487    0.412    0.108  109.338  161.926
  530.808    6.598    0.406    0.118  112.884  161.655
  531.058    6.686    0.420    0.136  119.768  161.590
  531.308    6.738    0.430    0.125  120.163  161.210
  531.558    6.802    0.422    0.131  116.298  161.042
  531.808    6.842    0.399    0.147  113.914  161.403
  532.058    6.933    0.397    0.132  113.690  161.864
  532.308    7.038    0.412    0.104  115.694  162.118
  532.558    7.066    0.410    0.109  117.941  162.474
  532.808    6.885    0.398    0.143  119.510  162.515
  533.058    6.598    0.369    0.125  116.879  162.666
  533.308    6.381    0.366    0.144  117.216  162.710
  533.558    6.183    0.383    0.149  117.486  162.854
  533.808    6.161    0.385    0.135  112.630  162.888
  534.058    6.255    0.365    0.093  108.330  162.933
  534.308    6.362    0.353    0.049  106.688  163.091
  534.558    6.364    0.380    0.083  108.690  163.129
  534.808    6.132    0.399    0.136  113.289  163.059
  535.058    5.423    0.403    0.172  117.018  162.786
  535.308    4.451    0.423    0.198  120.258  162.725
  535.558    3.546    0.458    0.208  121.085  162.557
  535.808    2.910    0.497    0.234  119.750  162.084
  536.058    2.376    0.572    0.236  118.480  161.386
  536.308    2.043    0.577    0.224  117.946  160.180
  536.558    1.932    0.571    0.222  118.962  159.278
  536.808    1.936    0.491    0.201  119.480  158.172
  537.058    2.067    0.471    0.181  119.629  157.477
  537.308    2.343    0.457    0.167  118.170  157.101
  537.558    2.695    0.396    0.146  113.129  157.565
  537.808    3.170    0.378    0.102  108.151  158.760
  538.058    4.249    0.339    0.059  105.705  159.952
  538.308    5.467    0.312    0.040  100.664  160.619
  538.558    6.384    0.339    0.055  108.164  161.292
  538.808    6.529    0.384    0.113  114.861  161.858
  539.058    6.494    0.371    0.126  113.899  162.106
  539.308    6.364    0.356    0.125  108.737  162.357
  539.558    6.271    0.372    0.146  111.106  162.509
  539.808    6.088    0.388    0.145  119.720  162.656
  540.058    5.779    0.394    0.125  121.784  162.490
  540.308    5.496    0.417    0.125  116.927  162.531
  540.558    4.999    0.433    0.131  111.269  162.583
  540.808    4.953    0.443    0.129  111.480  162.207
  541.058    5.220    0.437    0.086  109.406  161.940
  541.308    5.731    0.405    0.050  105.538  161.771
  541.558    6.199    0.383    0.044  101.608  161.593
  541.808    6.400    0.371    0.080  100.337  161.330
  542.058    6.366    0.382    0.116  102.463  161.257
  542.308    6.238    0.395    0.179  105.204  161.196
  542.558    6.044    0.403    0.174  112.952  160.091
  542.808    5.857    0.403    0.170  116.067  158.982
  543.058    5.760    0.386    0.146  118.254  157.869
  543.308    5.837    0.347    0.146  116.549  156.868
  543.558    6.338    0.335    0.125  107.986  157.011
  543.808    7.169    0.325    0.100   96.891  157.473
  544.058    8.641    0.319    0.051   96.050  158.459
  544.308   10.165    0.316    0.025  105.095  159.550
  544.558    9.850    0.333    0.043  116.799  160.744
  544.808    9.246    0.355    0.077  124.546  162.141
  545.058    8.488    0.371    0.105  138.534  163.545
  545.308    7.835    0.394    0.126  144.736  164.318
  545.558    7.179    0.387    0.114  143.649  164.576
  545.808    6.505    0.390    0.129  132.244  163.780
  546.058    6.050    0.413    0.149  132.890  162.879
  546.308    5.862    0.430    0.172  135.570  161.874
  546.558    5.996    0.412    0.171  134.915  161.081
  546.808    6.284    0.390    0.159  130.803  161.121
  547.058    6.622    0.370    0.138  130.269  161.900
  547.308    7.270    0.368    0.123  131.965  162.881
  547.558    7.748    0.383    0.117  134.831  164.076
  547.808    7.807    0.385    0.107  138.191  164.848
  548.058    7.650    0.375    0.121  142.664  165.419
  548.308    7.496    0.386    0.135  147.511  165.770
  548.558    7.332    0.381    0.127  152.414  166.341
  548.808    7.184    0.373    0.124  154.169  166.590
  549.058    7.159    0.361    0.133  147.831  166.527
  549.308    7.161    0.350    0.111  137.231  166.048
  549.558    7.202    0.356    0.102  129.223  165.043
  549.808    7.298    0.375    0.156  121.836  161.950
  550.058    7.368    0.375    0.202  113.767  159.688
  550.308    7.452    0.327    0.231  106.070  157.433
  550.558    7.680    0.289    0.252   97.691  156.008
  550.808    8.063    0.249    0.265   91.415  155.214
  551.058    8.819    0.229    0.285   94.406  155.048
