~VERSION INFORMATION
 VERS.                 2.0:   CWLS LOG ASCII STANDARD -VERSION 2.0
 WRAP.                  NO:   ONE LINE PER DEPTH STEP
~WELL INFORMATION BLOCK
#MNEM.UNIT           DATA                    DESCRIPTION OF MNEMONIC
#---------    -------------------            -------------------------------
# Generated from Intellog Unique Number	CS_77_79/WELL/1012
WELL.         ICGR CHARD                     : Well_name    - WELL
LOC .         00/11-36-078-06W4/0            : Location     - LOCATION
UWI .         00/11-36-078-06W4/0            : Uwi          - UNIQUE WELL ID
ENTR.         JHS                            : Entered      - ENTERED BY
SRVC.         SCHLUMBERGER                   : Scn          - SERVICE COMPANY
STRT.M        100                            : top_depth    - START DEPTH
STOP.M        375                            : bot_depth    - STOP DEPTH
STEP.M        0.25                           : increment    - STEP LENGTH
 NULL. -999.2500:NULL Value
~CURVE INFORMATION BLOCK
#MNEM UNIT       ERCB CURVE CODE    CURVE DESCRIPTION
#-----------   ------------------   ----------------------------------
DEPT.M        00 001 00 00         : DEPTH        - DEPTH
DPHI.V/V      00 890 00 00         : PHID         - DENSITY POROSITY (LIMESTONE)
NPHI.V/V      00 330 00 00         : PHIN         - NEUTRON POROSITY (LIMESTONE)
GR  .API      00 310 00 00         : GR           - GAMMA RAY
ILD .OHMM     00 120 00 00         : RESD         - DEEP RESISTIVITY (DIL)
~PARAMETER INFORMATION
#MNEM.UNIT           DATA             DESCRIPTION OF MNEMONIC
#---------         -----------     ------------------------------
GL  .M        533.73               : gl           - GROUND LEVEL ELEVATION
EREF.M        537.26               : kb           - ELEVATION OF DEPTH REFERENCE
DATM.M        537.26               : datum        - DATUM ELEVATION
TDD .M        381                  : tdd          - TOTAL DEPTH DRILLER
RUN .         ONE                  : Run          - RUN NUMBER
ENG .         BILL                 : Engineer     - RECORDING ENGINEER
WIT .         JIM                  : Witness      - WITNESSED BY
MUD .         GEL                  : Mud_type     - MUD TYPE
MATR.         LIMESTONE            : Logunit      - NEUTRON MATRIX
TMAX.C        20                   : BHT          - MAXIMUM RECORDED TEMPERATURE
BHTD.M        381                  : BHTDEP       - MAXIMUM RECORDED TEMPERATURE
MATR.         1                    : LOGUNIT      - NEUTRON MATRIX
RMT .C        25                   : MDTP         - TEMPERATURE OF MUD
NEUT.         1                    : NEUTRON      - NEUTRON TYPE
RESI.         0                    : RESIST       - RESISTIVITY TYPE
RMC .OHMM     0.25                 : RMC          - RESISTIVITY OF MUD CAKE
RMF .OHMM     0.25                 : RMF          - RESISTIVITY OF MUD FILTRATE
SUFT.C        15                   : SUFT         - SURFACE TEMPERATURE
~A  DEPTH     PHID     PHIN       GR     RESD
  100.000    0.303    0.564  112.041    3.007
  100.250    0.294    0.568  108.980    3.011
  100.500    0.310    0.551  105.306    3.014
  100.750    0.325    0.568  108.980    3.019
  101.000    0.323    0.589  110.816    3.026
  101.250    0.319    0.547  110.204    2.974
  101.500    0.330    0.572  105.306    2.977
  101.750    0.330    0.594   96.735    2.982
  102.000    0.322    0.595   94.898    3.104
  102.250    0.323    0.584  101.633    3.108
  102.500    0.336    0.583  104.082    3.112
  102.750    0.342    0.596   96.735    3.059
  103.000    0.347    0.590   90.612    3.063
  103.250    0.349    0.575   93.061    3.011
  103.500    0.350    0.559   94.286    2.959
  103.750    0.350    0.551   94.286    2.908
  104.000    0.349    0.547   93.674    2.858
  104.250    0.350    0.577   94.286    2.755
  104.500    0.349    0.591   95.510    2.657
  104.750    0.339    0.584   95.510    2.562
  105.000    0.341    0.595   94.898    2.472
  105.250    0.355    0.588   91.837    2.428
  105.500    0.371    0.579   86.939    2.433
  105.750    0.345    0.567   90.612    2.483
  106.000    0.322    0.558   88.775    2.487
  106.250    0.330    0.588   86.939    2.491
  106.500    0.336    0.606   93.674    2.495
  106.750    0.341    0.604   97.959    2.452
  107.000    0.339    0.562   97.347    2.455
  107.250    0.336    0.564   94.898    2.413
  107.500    0.339    0.605   91.225    2.416
  107.750    0.345    0.615   88.163    2.420
  108.000    0.347    0.612   85.714    2.472
  108.250    0.346    0.599   87.551    2.476
  108.500    0.342    0.556   90.000    2.527
  108.750    0.336    0.559   90.612    2.530
  109.000    0.331    0.591   97.959    2.584
  109.250    0.336    0.601   98.571    2.586
  109.500    0.339    0.589   95.510    2.543
  109.750    0.329    0.560   94.898    2.546
  110.000    0.319    0.547   94.286    2.599
  110.250    0.314    0.543   91.837    2.653
  110.500    0.317    0.554   91.225    2.708
  110.750    0.317    0.585   94.898    2.819
  111.000    0.315    0.565   96.735    2.876
  111.250    0.324    0.554   99.796    2.880
  111.500    0.328    0.568  101.020    2.885
  111.750    0.321    0.580  100.408    2.889
  112.000    0.297    0.589  101.020    3.006
  112.250    0.281    0.597   98.571    3.069
  112.500    0.284    0.579   94.898    3.132
  112.750    0.294    0.552   96.123    3.138
  113.000    0.292    0.533   94.898    3.202
  113.250    0.277    0.536   93.061    3.462
  113.500    0.277    0.547   96.735    3.669
  113.750    0.278    0.541   94.898    3.744
  114.000    0.278    0.509   89.388    3.751
  114.250    0.292    0.514   90.000    3.685
  114.500    0.313    0.533   98.571    3.487
  114.750    0.310    0.523  101.020    3.428
  115.000    0.281    0.531   99.796    3.500
  115.250    0.272    0.530   94.286    3.640
  115.500    0.287    0.533   88.775    4.009
  115.750    0.288    0.533   82.041    4.586
  116.000    0.254    0.523   73.469    5.243
  116.250    0.211    0.458   58.776    7.971
  116.500    0.175    0.373   48.367   10.217
  116.750    0.235    0.316   37.959   11.467
  117.000    0.302    0.371   36.735   12.628
  117.250    0.308    0.389   46.531   14.173
  117.500    0.297    0.389   44.082   13.930
  117.750    0.315    0.381   37.959   12.453
  118.000    0.372    0.385   55.714   10.513
  118.250    0.358    0.413   77.755    8.385
  118.500    0.286    0.484   93.674    5.856
  118.750    0.293    0.491   96.123    4.671
  119.000    0.267    0.506   92.449    4.177
  119.250    0.266    0.505   95.510    4.184
  119.500    0.267    0.506   97.347    4.352
  119.750    0.240    0.519   97.347    4.793
  120.000    0.233    0.490   94.898    5.377
  120.250    0.268    0.459   92.449    6.514
  120.500    0.296    0.486   86.939    7.593
  120.750    0.303    0.512   80.816    9.020
  121.000    0.291    0.495   77.143   10.515
  121.250    0.294    0.453   71.020   12.730
  121.500    0.297    0.431   66.123   15.707
  121.750    0.286    0.437   66.123   19.379
  122.000    0.313    0.433   64.898   20.952
  122.250    0.331    0.401   71.020   20.583
  122.500    0.335    0.409   69.184   19.852
  122.750    0.409    0.438   62.449   19.504
  123.000    0.425    0.475   59.388   19.543
  123.250    0.310    0.461   63.673   19.208
  123.500    0.307    0.458   69.796   18.513
  123.750    0.316    0.448   73.469   17.192
  124.000    0.325    0.452   74.694   16.889
  124.250    0.336    0.468   69.184   19.703
  124.500    0.350    0.490   61.224   22.106
  124.750    0.355    0.462   57.551   24.817
  125.000    0.352    0.430   61.837   25.806
  125.250    0.342    0.421   68.571   25.365
  125.500    0.318    0.405   71.633   22.665
  125.750    0.288    0.387   72.857   19.137
  126.000    0.262    0.408   77.143   14.155
  126.250    0.256    0.432   78.367   11.076
  126.500    0.268    0.433   81.429    9.006
  126.750    0.286    0.427   88.775    8.359
  127.000    0.288    0.438   96.735    8.372
  127.250    0.297    0.462   93.674    9.398
  127.500    0.325    0.488   83.265   11.380
  127.750    0.351    0.483   76.531   13.780
  128.000    0.350    0.453   77.143   15.759
  128.250    0.352    0.441   74.694   18.026
  128.500    0.344    0.424   71.633   18.751
  128.750    0.325    0.436   80.204   15.834
  129.000    0.302    0.467   87.551   12.393
  129.250    0.288    0.485   90.612   10.266
  129.500    0.287    0.474   91.837    8.507
  129.750    0.294    0.470   94.286    9.196
  130.000    0.303    0.470   90.000    9.932
  130.250    0.303    0.459   82.653   12.975
  130.500    0.309    0.416   77.755   15.710
  130.750    0.390    0.405   71.020   19.018
  131.000    0.536    0.488   60.612   22.595
  131.250    0.453    0.611   47.143   26.849
  131.500    0.378    0.549   38.571   30.134
  131.750    0.369    0.385   36.122   33.831
  132.000    0.366    0.368   36.735   35.183
  132.250    0.359    0.361   37.347   36.601
  132.500    0.364    0.380   34.898   36.652
  132.750    0.374    0.398   34.286   35.345
  133.000    0.382    0.406   36.735   32.821
  133.250    0.389    0.392   41.020   29.891
  133.500    0.427    0.379   42.857   28.279
  133.750    0.512    0.432   38.571   27.795
  134.000    0.615    0.552   31.837   27.327
  134.250    0.615    0.626   26.326   28.424
  134.500    0.596    0.619   32.449   30.724
  134.750    0.502    0.600   37.959   31.343
  135.000    0.416    0.526   41.020   33.233
  135.250    0.398    0.474   38.571   33.922
  135.500    0.398    0.456   37.959   35.289
  135.750    0.403    0.469   42.245   36.713
  136.000    0.383    0.491   47.143   37.473
  136.250    0.350    0.433   49.592   38.270
  136.500    0.347    0.409   48.367   38.313
  136.750    0.367    0.440   43.469   38.406
  137.000    0.384    0.481   39.184   39.187
  137.250    0.359    0.457   36.735   39.237
  137.500    0.359    0.427   33.673   40.042
  137.750    0.372    0.403   30.612   40.880
  138.000    0.371    0.409   34.286   41.758
  138.250    0.364    0.424   39.184   41.014
  138.500    0.371    0.419   41.020   41.069
  138.750    0.380    0.420   41.633   40.373
  139.000    0.382    0.414   41.633   39.693
  139.250    0.367    0.399   42.857   39.009
  139.500    0.361    0.404   44.082   38.312
  139.750    0.364    0.423   44.694   38.379
  140.000    0.369    0.412   45.918   37.718
  140.250    0.366    0.395   44.694   36.377
  140.500    0.377    0.385   44.694   34.425
  140.750    0.395    0.431   48.980   31.969
  141.000    0.384    0.473   57.551   30.803
  141.250    0.356    0.465   61.224   29.152
  141.500    0.345    0.432   62.449   27.062
  141.750    0.357    0.407   63.673   26.092
  142.000    0.382    0.456   65.510   24.230
  142.250    0.362    0.468   66.123   22.926
  142.500    0.345    0.468   64.898   22.540
  142.750    0.359    0.463   65.510   23.895
  143.000    0.370    0.441   66.735   24.394
  143.250    0.366    0.431   69.184   24.417
