~VERSION INFORMATION
 VERS.                 2.0:   CWLS LOG ASCII STANDARD -VERSION 2.0
 WRAP.                  NO:   ONE LINE PER DEPTH STEP
~WELL INFORMATION BLOCK
#MNEM.UNIT           DATA                    DESCRIPTION OF MNEMONIC
#---------    -------------------            -------------------------------
# Generated from Intellog Unique Number	CS_73_76/WELL/4864
WELL.         ALBERTA ENERGY CO.LTD.         : Well_name    - WELL
LOC .         00/12-36-072-03W4/0            : Location     - LOCATION
UWI .         00/12-36-072-03W4/0            : Uwi          - UNIQUE WELL ID
ENTR.         JOETTE                         : Entered      - ENTERED BY
SRVC.         SCHLUMBERGER                   : Scn          - SERVICE COMPANY
DATE.         05/13/92                       : Date         - LOG DATE
STRT.M        345                            : top_depth    - START DEPTH
STOP.M        575                            : bot_depth    - STOP DEPTH
STEP.M        0.25                           : increment    - STEP LENGTH
 NULL. -999.2500:NULL Value
~CURVE INFORMATION BLOCK
#MNEM UNIT       ERCB CURVE CODE    CURVE DESCRIPTION
#-----------   ------------------   ----------------------------------
DEPT.M        00 001 00 00         : DEPTH        - DEPTH
ILD .OHMM     00 120 00 00         : RESD         - DEEP RESISTIVITY (DIL)
DPHI.V/V      00 890 00 00         : PHID         - DENSITY POROSITY (SANDSTONE)
NPHI.V/V      00 330 00 00         : PHIN         - NEUTRON POROSITY (SANDSTONE)
GR  .API      00 310 00 00         : GR           - GAMMA RAY
CALI.MM       00 280 01 00         : CAL          - CALIPER
~PARAMETER INFORMATION
#MNEM.UNIT           DATA             DESCRIPTION OF MNEMONIC
#---------         -----------     ------------------------------
GL  .M        698.81               : gl           - GROUND LEVEL ELEVATION
EREF.M        702.22               : kb           - ELEVATION OF DEPTH REFERENCE
DATM.M        702.22               : datum        - DATUM ELEVATION
TDD .M        588                  : tdd          - TOTAL DEPTH DRILLER
RUN .         ONE                  : Run          - RUN NUMBER
ENG .         BILL                 : Engineer     - RECORDING ENGINEER
WIT .         JIM                  : Witness      - WITNESSED BY
MUD .         GEL                  : Mud_type     - MUD TYPE
MATR.         SANDSTONE            : Logunit      - NEUTRON MATRIX
TMAX.C        30                   : BHT          - MAXIMUM RECORDED TEMPERATURE
BHTD.M        588                  : BHTDEP       - MAXIMUM RECORDED TEMPERATURE
MATR.         1                    : LOGUNIT      - NEUTRON MATRIX
RMT .C        12                   : MDTP         - TEMPERATURE OF MUD
NEUT.         1                    : NEUTRON      - NEUTRON TYPE
RESI.         0                    : RESIST       - RESISTIVITY TYPE
RMC .OHMM     2.7                  : RMC          - RESISTIVITY OF MUD CAKE
RMF .OHMM     2.6                  : RMF          - RESISTIVITY OF MUD FILTRATE
SUFT.C        15                   : SUFT         - SURFACE TEMPERATURE
~A  DEPTH     RESD     PHID     PHIN       GR      CAL
  345.000    3.864    0.232    0.486   90.250  151.148
  345.250    3.587    0.219    0.500   85.578  151.193
  345.500    3.331    0.227    0.531   88.582  151.282
  345.750    3.151    0.242    0.555   89.217  151.312
  346.000    3.529    0.243    0.539   85.724  150.586
  346.250    5.859    0.239    0.539   89.306  149.874
  346.500    7.913    0.244    0.506   89.941  149.934
  346.750    8.534    0.258    0.466   85.269  149.193
  347.000    9.922    0.279    0.457   77.058  148.466
  347.250   11.537    0.280    0.464   73.565  147.740
  347.500   15.007    0.280    0.472   71.263  147.800
  347.750   15.302    0.281    0.481   72.475  147.874
  348.000   15.316    0.293    0.496   71.341  147.934
  348.250   15.046    0.299    0.491   70.796  148.009
  348.500   14.504    0.295    0.479   74.980  148.855
  348.750   14.242    0.294    0.454   75.614  150.502
  349.000   13.732    0.294    0.444   73.879  150.532
  349.250   13.742    0.285    0.438   69.807  150.607
  349.500   14.275    0.287    0.447   65.124  150.666
  349.750   15.689    0.330    0.456   57.503  150.711
  350.000   18.240    0.337    0.464   58.138  150.801
  350.250   20.429    0.325    0.467   61.131  150.861
  350.500   20.065    0.318    0.462   64.124  150.905
  350.750   19.704    0.339    0.461   66.538  150.965
  351.000   16.977    0.341    0.477   71.323  151.811
  351.250   14.084    0.322    0.483   71.946  152.672
  351.500   12.362    0.303    0.465   69.632  153.518
  351.750   15.493    0.319    0.474   72.614  153.578
  352.000   17.028    0.322    0.457   76.208  153.623
  352.250   15.813    0.295    0.454   76.253  152.125
  352.500   15.237    0.281    0.446   77.466  151.384
  352.750   14.969    0.284    0.414   78.112  152.245
  353.000   16.146    0.295    0.420   72.249  153.862
  353.250   18.423    0.286    0.435   68.166  156.295
  353.500   18.094    0.258    0.443   75.888  156.355
  353.750   16.495    0.268    0.451   80.650  153.270
  354.000   15.897    0.281    0.461   75.977  150.185
  354.250   15.912    0.308    0.460   65.408  147.901
  354.500   16.219    0.314    0.460   58.956  147.174
  354.750   17.494    0.300    0.474   53.104  146.448
  355.000   21.116    0.262    0.547   50.201  146.493
  355.250   24.093    0.232    0.562   48.477  146.568
  355.500   26.480    0.210    0.573   49.111  145.856
  355.750   28.043    0.188    0.566   51.514  145.886
  356.000   28.053    0.181    0.533   56.877  145.961
  356.250   25.564    0.260    0.508   61.662  146.006
  356.500   19.314    0.259    0.481   62.864  146.065
  356.750   16.638    0.259    0.478   64.088  146.125
  357.000   14.609    0.262    0.483   65.901  146.986
  357.250   14.077    0.269    0.473   75.993  147.046
  357.500   13.320    0.278    0.463   75.448  147.120
  357.750   13.080    0.290    0.472   73.724  147.180
  358.000   13.595    0.279    0.474   76.138  147.240
  358.250   14.122    0.274    0.467   77.340  147.285
  358.500   14.950    0.279    0.445   77.975  147.360
  358.750   16.431    0.288    0.427   74.481  148.220
  359.000   17.394    0.284    0.426   69.219  149.052
  359.250   18.417    0.272    0.437   67.507  149.111
  359.500   18.776    0.272    0.442   68.141  149.171
  359.750   19.150    0.272    0.453   65.816  148.430
  360.000   19.164    0.267    0.464   64.682  147.703
  360.250   18.819    0.282    0.467   65.327  145.404
  360.500   18.487    0.301    0.472   67.141  143.892
  360.750   18.157    0.281    0.477   68.955  141.608
  361.000   17.834    0.274    0.483   64.872  141.653
  361.250   17.191    0.262    0.475   53.702  140.956
  361.500   16.571    0.259    0.467   62.603  141.031
  361.750   16.279    0.262    0.462   67.955  141.076
  362.000   15.686    0.264    0.463   68.011  141.150
  362.250   15.123    0.266    0.467   67.477  141.996
  362.500   14.310    0.266    0.470   67.500  142.041
  362.750   13.789    0.253    0.472   69.325  142.872
  363.000   12.105    0.261    0.476   72.896  142.932
  363.250   11.237    0.260    0.478   82.976  143.022
  363.500   10.434    0.257    0.473   89.507  143.067
  363.750    9.687    0.263    0.484   93.090  143.141
  364.000    8.345    0.271    0.494   87.828  143.171
  364.250    6.924    0.277    0.505   97.908  140.872
  364.500    5.855    0.267    0.496  104.439  139.375
  364.750    5.337    0.221    0.514  100.946  139.434
  365.000    5.240    0.207    0.514   88.608  141.067
  365.250    4.776    0.225    0.514   91.012  142.714
  365.500    4.689    0.224    0.559  105.208  143.545
  365.750    4.356    0.226    0.588  109.970  143.619
  366.000    4.199    0.230    0.599  111.205  143.694
  366.250    4.046    0.231    0.604  111.250  142.953
  366.500    3.758    0.225    0.591  108.358  143.027
  366.750    3.691    0.223    0.588  109.582  143.072
  367.000    3.694    0.223    0.590  110.806  143.117
  367.250    3.983    0.227    0.594  110.262  143.177
  367.500    7.681    0.234    0.597  111.497  143.252
  367.750   10.181    0.239    0.605  112.699  143.326
  368.000   13.498    0.244    0.604  115.102  144.973
  368.250   16.601    0.248    0.575  113.378  145.804
  368.500   18.945    0.256    0.546  100.450  145.849
  368.750   19.314    0.290    0.523   96.368  145.123
  369.000   19.329    0.326    0.518   85.799  143.625
  369.250   20.466    0.346    0.516   67.553  141.326
  369.500   22.489    0.354    0.481   56.395  139.027
  369.750   29.257    0.321    0.496   74.741  139.873
  370.000   34.657    0.306    0.509   84.209  141.521
  370.250   38.818    0.311    0.482   91.341  142.337
  370.500   38.847    0.334    0.464   80.761  143.198
  370.750   36.069    0.351    0.460   42.467  142.471
  371.000   28.828    0.359    0.441   29.540  140.959
  371.250   25.781    0.359    0.434   25.446  140.232
  371.500   25.806    0.357    0.434   24.912  140.307
  371.750   27.313    0.346    0.421   26.136  140.352
  372.000   30.587    0.339    0.418   29.719  141.198
  372.250   32.380    0.330    0.429   45.095  142.044
  372.500   35.600    0.316    0.441   51.637  142.103
  372.750   36.301    0.321    0.412   59.347  142.979
  373.000   36.315    0.332    0.424   56.444  143.024
  373.250   33.718    0.332    0.439   41.158  143.069
  373.500   30.725    0.324    0.428   35.896  142.372
  373.750   29.073    0.307    0.418   50.682  141.631
  374.000   28.025    0.306    0.414   54.276  140.148
  374.250   27.014    0.312    0.410   55.500  140.208
  374.500   26.533    0.311    0.408   56.123  139.452
  374.750   26.060    0.303    0.405   62.676  139.526
  375.000   26.079    0.290    0.403   65.658  139.586
  375.250   26.094    0.304    0.399   65.125  139.646
  375.500   26.114    0.322    0.427   62.221  139.706
  375.750   24.260    0.333    0.443   59.307  140.552
  376.000   22.103    0.342    0.456   58.183  140.611
  376.250   19.393    0.332    0.469   58.228  141.472
  376.500   16.396    0.321    0.452   57.683  142.288
  376.750   15.226    0.305    0.397   58.318  143.921
  377.000   15.819    0.277    0.389   63.069  146.384
  377.250   19.823    0.248    0.391   68.443  147.215
  377.500   23.046    0.240    0.413   69.088  148.076
  377.750   27.300    0.234    0.441   69.701  148.106
  378.000   29.453    0.237    0.439   76.821  147.379
  378.250   30.027    0.252    0.430   82.173  145.867
  378.500   30.050    0.291    0.439   68.656  144.369
  378.750   30.078    0.291    0.444   62.214  143.628
  379.000   29.537    0.305    0.443   51.645  142.916
  379.250   29.015    0.320    0.445   52.870  141.403
  379.500   28.498    0.313    0.442   50.556  141.448
  379.750   28.525    0.319    0.438   52.959  140.752
  380.000   28.541    0.327    0.443   59.490  140.782
  380.250   30.226    0.340    0.446   64.252  140.886
  380.500   30.815    0.351    0.442   60.170  140.901
  380.750   30.832    0.356    0.442   57.856  140.991
  381.000   30.861    0.356    0.444   57.322  141.051
  381.250   30.311    0.356    0.449   57.957  141.110
