~VERSION INFORMATION
 VERS.                 2.0:   CWLS LOG ASCII STANDARD -VERSION 2.0
 WRAP.                  NO:   ONE LINE PER DEPTH STEP
~WELL INFORMATION BLOCK
#MNEM.UNIT           DATA                    DESCRIPTION OF MNEMONIC
#---------    -------------------            -------------------------------
# Generated from Intellog Unique Number	CX_WELLS/WELL/2862
WELL.         ARCOR ET AL HOUSE              : Well_name    - WELL
LOC .         00/10-35-081-15W4/0            : Location     - LOCATION
UWI .         00/10-35-081-15W400            : Uwi          - UNIQUE WELL ID
ENTR.         T                              : Entered      - ENTERED BY
SRVC.         SCHLUMBERGER                   : Scn          - SERVICE COMPANY
STRT.M        140                            : top_depth    - START DEPTH
STOP.M        360                            : bot_depth    - STOP DEPTH
STEP.M        0.25                           : increment    - STEP LENGTH
 NULL. -999.2500:NULL Value
~CURVE INFORMATION BLOCK
#MNEM UNIT       ERCB CURVE CODE    CURVE DESCRIPTION
#-----------   ------------------   ----------------------------------
DEPT.M        00 001 00 00         : DEPTH        - DEPTH
GR  .API      00 310 00 00         : GR           - GAMMA RAY
NPHI.V/V      00 330 00 00         : PHIN         - NEUTRON POROSITY (SANDSTONE)
DPHI.V/V      00 890 00 00         : PHID         - DENSITY POROSITY (SANDSTONE)
ILD .OHMM     00 120 00 00         : RESD         - DEEP RESISTIVITY (OTHER)
~PARAMETER INFORMATION
#MNEM.UNIT           DATA             DESCRIPTION OF MNEMONIC
#---------         -----------     ------------------------------
GL  .M        572                  : gl           - GROUND LEVEL ELEVATION
EREF.M        576.6                : kb           - ELEVATION OF DEPTH REFERENCE
DATM.M        576.6                : datum        - DATUM ELEVATION
TDD .M        365                  : tdd          - TOTAL DEPTH DRILLER
RUN .         ONE                  : Run          - RUN NUMBER
ENG .         BILL                 : Engineer     - RECORDING ENGINEER
WIT .         JIM                  : Witness      - WITNESSED BY
MUD .         GEL                  : Mud_type     - MUD TYPE
MATR.         SANDSTONE            : Logunit      - NEUTRON MATRIX
TMAX.C        24                   : BHT          - MAXIMUM RECORDED TEMPERATURE
BHTD.M        365                  : BHTDEP       - MAXIMUM RECORDED TEMPERATURE
MATR.         1                    : LOGUNIT      - NEUTRON MATRIX
RMT .C        133333               : MDTP         - TEMPERATURE OF MUD
NEUT.         1                    : NEUTRON      - NEUTRON TYPE
RESI.         2.2                  : RESIST       - RESISTIVITY TYPE
RMC .OHMM     2.5                  : RMC          - RESISTIVITY OF MUD CAKE
RMF .OHMM     2.9                  : RMF          - RESISTIVITY OF MUD FILTRATE
SUFT.C        4                    : SUFT         - SURFACE TEMPERATURE
~A  DEPTH       GR     PHIN     PHID     RESD
# ...
  227.000   75.299    0.472    0.257   10.176
  227.250   78.275    0.480    0.253    9.796
  227.500   74.687    0.487    0.257    8.911
  227.750   71.698    0.475    0.266    8.574
  228.000   69.305    0.465    0.277    8.572
  228.250   66.315    0.458    0.286    8.568
  228.500   63.922    0.449    0.292    8.563
  228.750   61.531    0.444    0.301    9.058
  229.000   57.944    0.436    0.304    9.763
  229.250   59.727    0.426    0.298   10.132
  229.500   65.091    0.414    0.278   10.320
  229.750   74.033    0.420    0.266   10.314
  230.000   78.203    0.428    0.268   10.309
  230.250   79.390    0.436    0.275   10.304
  230.500   73.416    0.437    0.283   10.299
  230.750   74.005    0.439    0.288   10.689
  231.000   74.002    0.442    0.291   10.888
  231.250   73.399    0.444    0.300   11.516
  231.500   71.006    0.446    0.303   11.953
  231.750   66.820    0.447    0.310   11.948
  232.000   64.428    0.446    0.310   11.941
  232.250   65.615    0.441    0.297   11.932
  232.500   67.400    0.434    0.277   11.930
  232.750   70.971    0.421    0.268   11.700
  233.000   74.543    0.419    0.265   11.479
  233.250   75.733    0.425    0.265   11.471
  233.500   78.113    0.429    0.268   11.468
  233.750   79.895    0.436    0.273   11.461
  234.000   77.501    0.443    0.288   11.455
  234.250   73.917    0.443    0.300   11.667
  234.500   69.734    0.436    0.314   11.882
  234.750   67.341    0.425    0.325   12.104
  235.000   66.142    0.408    0.337   12.801
  235.250   64.342    0.409    0.347   12.795
  235.500   63.144    0.413    0.344   13.034
  235.750   62.541    0.424    0.342   13.026
  236.000   61.937    0.430    0.342   13.020
  236.250   61.334    0.442    0.344   13.012
  236.500   61.923    0.453    0.342   13.008
  236.750   62.516    0.452    0.341   13.000
  237.000   63.703    0.448    0.341   12.995
  237.250   63.697    0.443    0.345   12.991
  237.500   63.689    0.444    0.348   12.742
  237.750   63.684    0.448    0.350   12.497
  238.000   66.063    0.449    0.350   12.491
  238.250   67.845    0.452    0.348   12.252
  238.500   69.032    0.453    0.344   12.247
  238.750   69.623    0.453    0.341   12.012
  239.000   68.422    0.452    0.340   12.007
  239.250   66.625    0.452    0.340   12.000
  239.500   66.025    0.456    0.340   11.770
  239.750   64.229    0.458    0.340   11.765
  240.000   63.626    0.456    0.338   11.540
  240.250   64.213    0.446    0.335   11.534
  240.500   64.802    0.431    0.338   11.313
  240.750   64.798    0.430    0.342   11.096
  241.000   64.195    0.427    0.345   10.882
  241.250   62.994    0.424    0.349   10.880
  241.500   61.795    0.446    0.350   10.470
  241.750   62.980    0.472    0.349   10.464
  242.000   64.170    0.483    0.348   10.265
  242.250   67.145    0.486    0.344   10.261
  242.500   67.736    0.480    0.338    9.874
  242.750   68.923    0.472    0.330    9.871
  243.000   71.303    0.461    0.320    9.683
  243.250   73.683    0.435    0.306    9.318
  243.500   75.466    0.424    0.290    9.140
  243.750   77.248    0.417    0.280    8.966
  244.000   77.244    0.422    0.281    8.631
  244.250   77.236    0.430    0.283    8.465
  244.500   77.231    0.449    0.276    8.148
  244.750   78.416    0.464    0.273    7.842
  245.000   79.005    0.473    0.267    7.550
  245.250   79.595    0.476    0.264    7.404
  245.500   80.782    0.471    0.263    7.263
  245.750   81.373    0.461    0.260    7.124
  246.000   81.961    0.461    0.258    6.987
  246.250   82.555    0.463    0.254    6.852
  246.500   83.145    0.463    0.257    6.851
  246.750   81.946    0.460    0.263    6.847
  247.000   78.953    0.455    0.272    7.105
  247.250   77.157    0.453    0.280    7.376
  247.500   74.764    0.457    0.287    7.801
  247.750   74.163    0.463    0.290    7.798
  248.000   74.155    0.472    0.295    7.505
  248.250   76.537    0.472    0.284    6.826
  248.500   81.303    0.462    0.284    6.572
  248.750   86.070    0.468    0.298    6.092
  249.000   87.852    0.477    0.309    5.540
  249.250   87.249    0.485    0.310    5.232
  249.500   86.646    0.480    0.299    5.231
  249.750   86.639    0.468    0.276    5.327
  250.000   82.455    0.459    0.267    5.530
  250.250   78.273    0.460    0.261    5.960
  250.500   75.882    0.462    0.263    6.303
  250.750   77.068    0.467    0.266    6.667
  251.000   78.847    0.471    0.266    7.051
  251.250   79.441    0.477    0.265    7.319
  251.500   80.031    0.478    0.264    7.597
  251.750   80.023    0.465    0.264    7.885
  252.000   79.422    0.442    0.262    8.031
  252.250   79.415    0.439    0.262    8.178
  252.500   78.811    0.437    0.262    8.175
  252.750   78.805    0.436    0.264    8.018
  253.000   78.800    0.437    0.265    8.015
  253.250   79.390    0.441    0.265    7.860
  253.500   80.576    0.445    0.265    7.857
  253.750   82.359    0.448    0.261    7.853
  254.000   82.948    0.457    0.259    7.850
  254.250   83.537    0.465    0.261    7.996
  254.500   84.130    0.471    0.270    8.143
  254.750   84.719    0.472    0.276    8.141
  255.000   83.521    0.470    0.276    8.290
  255.250   79.933    0.466    0.258    8.604
  255.500   80.522    0.456    0.254    8.764
  255.750   82.307    0.430    0.259    8.926
  256.000   85.284    0.417    0.262    9.093
  256.250   86.471    0.412    0.265    9.261
  256.500   85.866    0.416    0.265    9.434
  256.750   85.265    0.427    0.247    9.426
  257.000   85.258    0.438    0.233    9.425
  257.250   85.251    0.445    0.233    9.418
  257.500   85.842    0.450    0.237    9.415
  257.750   87.624    0.453    0.241    9.235
  258.000   89.408    0.457    0.243    9.231
  258.250   90.593    0.459    0.242    9.054
  258.500   91.183    0.465    0.238    8.714
  258.750   92.967    0.469    0.236    8.548
  259.000   93.557    0.473    0.235    8.226
  259.250   92.358    0.475    0.236    7.770
  259.500   91.755    0.476    0.243    7.480
  259.750   90.555    0.471    0.263    7.065
  260.000   89.356    0.466    0.261    6.801
  260.250   91.138    0.459    0.245    6.304
  260.500   94.116    0.458    0.239    5.843
  260.750   95.898    0.458    0.239    5.519
  261.000   94.698    0.461    0.239    5.312
  261.250   93.499    0.462    0.237    5.410
  261.500   93.493    0.465    0.236    5.616
  261.750   93.485    0.470    0.235    6.053
  262.000   92.885    0.477    0.234    6.647
  262.250   92.281    0.485    0.234    6.901
  262.500   92.869    0.482    0.236    7.162
  262.750   93.461    0.486    0.241    7.434
  263.000   94.050    0.488    0.251    7.571
  263.250   93.447    0.492    0.259    7.426
  263.500   92.249    0.480    0.269    7.015
  263.750   89.855    0.460    0.276    6.502
  264.000   89.848    0.455    0.280    6.377
  264.250   89.842    0.450    0.269    6.872
  264.500   87.448    0.448    0.253    7.549
  264.750   86.250    0.441    0.235    7.836
  265.000   85.647    0.439    0.245    8.935
  265.250   87.430    0.434    0.258    9.630
  265.500   88.019    0.434    0.264   10.185
  265.750   86.819    0.437    0.259   10.376
  266.000   86.815    0.434    0.243   10.370
  266.250   85.019    0.393    0.208   10.367
  266.500   79.044    0.296    0.170   10.359
  266.750   71.879    0.249    0.089   10.355
  267.000   68.889    0.258    0.045   10.546
  267.250   80.815    0.340    0.086   10.741
  267.500   86.178    0.372    0.154   10.738
  267.750   86.766    0.402    0.254   10.532
  268.000   85.566    0.423    0.259   10.527
  268.250   84.965    0.423    0.263   10.325
  268.500   83.169    0.433    0.264   10.128
  268.750   83.757    0.442    0.264    9.933
  269.000   84.943    0.453    0.261    9.743
  269.250   84.938    0.463    0.253    9.556
  269.500   84.933    0.433    0.247    9.552
  269.750   84.925    0.416    0.246    9.369
  270.000   85.516    0.422    0.242    8.850
  270.250   87.894    0.428    0.240    8.202
