~VERSION INFORMATION
 VERS.                 2.0:   CWLS LOG ASCII STANDARD -VERSION 2.0
 WRAP.                  NO:   ONE LINE PER DEPTH STEP
~WELL INFORMATION BLOCK
#MNEM.UNIT           DATA                    DESCRIPTION OF MNEMONIC
#---------    -------------------            -------------------------------
# Generated from Intellog Unique Number	CS_69_70/WELL/881
WELL.         HUSKEY OIL OPERATION           : Well_name    - WELL
LOC .         00/10-34-069-05W4/0            : Location     - LOCATION
UWI .         00/10-34-069-05W4/0            : Uwi          - UNIQUE WELL ID
ENTR.         SP                             : Entered      - ENTERED BY
SRVC.         SCHLUMBERGER                   : Scn          - SERVICE COMPANY
STRT.M        300                            : top_depth    - START DEPTH
STOP.M        550                            : bot_depth    - STOP DEPTH
STEP.M        0.25                           : increment    - STEP LENGTH
 NULL. -999.2500:NULL Value
~CURVE INFORMATION BLOCK
#MNEM UNIT       ERCB CURVE CODE    CURVE DESCRIPTION
#-----------   ------------------   ----------------------------------
DEPT.M        00 001 00 00         : DEPTH        - DEPTH
ILD .OHMM     00 120 00 00         : RESD         - DEEP RESISTIVITY (DIL)
DPHI.V/V      00 890 00 00         : PHID         - DENSITY POROSITY (LIMESTONE)
NPHI.V/V      00 330 00 00         : PHIN         - NEUTRON POROSITY (LIMESTONE)
GR  .API      00 310 00 00         : GR           - GAMMA RAY
~PARAMETER INFORMATION
#MNEM.UNIT           DATA             DESCRIPTION OF MNEMONIC
#---------         -----------     ------------------------------
GL  .M        673.5                : gl           - GROUND LEVEL ELEVATION
EREF.M        677.2                : kb           - ELEVATION OF DEPTH REFERENCE
DATM.M        673.5                : datum        - DATUM ELEVATION
TDD .M        558                  : tdd          - TOTAL DEPTH DRILLER
RUN .         ONE                  : Run          - RUN NUMBER
ENG .         BILL                 : Engineer     - RECORDING ENGINEER
WIT .         JIM                  : Witness      - WITNESSED BY
MUD .         GEL                  : Mud_type     - MUD TYPE
MATR.         LIMESTONE            : Logunit      - NEUTRON MATRIX
TMAX.C        22                   : BHT          - MAXIMUM RECORDED TEMPERATURE
BHTD.M        558                  : BHTDEP       - MAXIMUM RECORDED TEMPERATURE
MATR.         1                    : LOGUNIT      - NEUTRON MATRIX
RMT .C        25                   : MDTP         - TEMPERATURE OF MUD
NEUT.         1                    : NEUTRON      - NEUTRON TYPE
RESI.         0                    : RESIST       - RESISTIVITY TYPE
RMC .OHMM     0.25                 : RMC          - RESISTIVITY OF MUD CAKE
RMF .OHMM     0.25                 : RMF          - RESISTIVITY OF MUD FILTRATE
SUFT.C        15                   : SUFT         - SURFACE TEMPERATURE
~A  DEPTH     RESD     PHID     PHIN       GR
# ...
  430.500    2.420    0.257    0.516   92.923
  430.750    2.448    0.256    0.511   92.313
  431.000    2.537    0.266    0.524   93.824
  431.250    2.794    0.271    0.531   94.124
  431.500    3.072    0.274    0.542   92.422
  431.750    3.434    0.286    0.562   88.722
  432.000    3.747    0.300    0.537   79.323
  432.250    4.173    0.313    0.481   71.319
  432.500    4.476    0.330    0.460   66.164
  432.750    4.837    0.348    0.441   63.493
  433.000    5.217    0.351    0.440   59.125
  433.250    5.511    0.352    0.437   56.273
  433.500    5.878    0.355    0.434   58.208
  433.750    6.388    0.355    0.446   59.780
  434.000    6.995    0.355    0.459   58.200
  434.250    7.748    0.355    0.463   57.953
  434.500    8.811    0.354    0.439   58.556
  434.750    9.852    0.352    0.422   58.855
  435.000   10.994    0.347    0.424   58.911
  435.250   12.108    0.340    0.429   58.907
  435.500   13.259    0.336    0.431   59.933
  435.750   14.356    0.340    0.419   60.960
  436.000   15.194    0.352    0.415   60.229
  436.250   15.281    0.340    0.426   57.860
  436.500   14.939    0.333    0.424   56.523
  436.750   14.550    0.324    0.421   55.489
  437.000   14.224    0.328    0.423   54.697
  437.250   13.542    0.333    0.428   55.724
  437.500   13.214    0.329    0.438   56.446
  437.750   13.140    0.326    0.450   56.382
  438.000   13.140    0.338    0.468   56.378
  438.250   13.803    0.351    0.485   58.313
  438.500   14.391    0.359    0.476   59.461
  438.750   14.749    0.352    0.464   56.548
  439.000   15.003    0.347    0.455   55.453
  439.250   15.377    0.342    0.444   57.570
  439.500   15.583    0.337    0.450   59.384
  439.750   15.643    0.334    0.456   60.350
  440.000   15.409    0.340    0.461   60.164
  440.250   15.178    0.333    0.465   59.130
  440.500   14.923    0.327    0.458   58.337
  440.750   14.616    0.323    0.444   58.031
  441.000   14.370    0.328    0.444   57.966
  441.250   14.236    0.333    0.432   58.083
  441.500   14.290    0.336    0.422   58.746
  441.750   14.482    0.338    0.416   59.832
  442.000   14.592    0.338    0.430   60.253
  442.250   14.483    0.337    0.444   59.522
  442.500   14.320    0.335    0.435   57.578
  442.750   13.815    0.328    0.431   56.180
  443.000   13.379    0.323    0.433   56.904
  443.250   13.229    0.319    0.437   58.414
  443.500   13.636    0.334    0.439   59.441
  443.750   14.216    0.354    0.446   57.497
  444.000   14.709    0.348    0.450   56.099
  444.250   15.104    0.342    0.453   54.883
  444.500   15.133    0.334    0.459   55.727
  444.750   14.766    0.332    0.457   56.875
  445.000   14.165    0.337    0.456   58.083
  445.250   13.640    0.341    0.456   58.503
  445.500   13.259    0.339    0.460   56.863
  445.750   14.741    0.334    0.467   56.010
  446.000   17.477    0.326    0.466   56.734
  446.250   20.603    0.239    0.443   56.124
  446.500   25.369    0.130    0.344   51.332
  446.750   29.015    0.088    0.182   49.267
  447.000   31.594    0.074    0.271   51.687
  447.250   30.654    0.146    0.338   53.077
  447.500   23.172    0.199    0.375   52.043
  447.750   19.072    0.188    0.270   50.827
  448.000   16.931    0.155    0.288   52.883
  448.250   15.698    0.252    0.365   55.485
  448.500   15.088    0.315    0.437   56.996
  448.750   14.419    0.332    0.437   57.720
  449.000   14.069    0.342    0.429   57.837
  449.250   13.755    0.351    0.423   58.560
  449.500   13.396    0.357    0.419   59.041
  449.750   13.071    0.346    0.419   57.522
  450.000   12.875    0.336    0.434   61.335
  450.250   12.611    0.326    0.461   63.695
  450.500   12.352    0.321    0.457   65.025
  450.750   12.190    0.315    0.446   62.959
  451.000   12.008    0.311    0.433   60.531
  451.250   11.986    0.304    0.428   59.194
  451.500   11.941    0.301    0.430   59.796
  451.750   12.032    0.310    0.436   60.519
  452.000   12.078    0.315    0.429   61.122
  452.250   12.102    0.318    0.431   60.996
  452.500   12.310    0.331    0.441   59.537
  452.750   12.498    0.342    0.448   58.625
  453.000   12.713    0.348    0.439   58.560
  453.250   12.957    0.338    0.429   60.253
  453.500   13.056    0.318    0.424   61.219
  453.750   13.206    0.308    0.430   61.093
  454.000   13.131    0.303    0.440   60.059
  454.250   12.959    0.319    0.445   59.873
  454.500   12.622    0.340    0.452   60.354
  454.750   12.362    0.349    0.465   60.714
  455.000   11.972    0.343    0.473   60.589
  455.250   11.163    0.340    0.469   59.857
  455.500   10.195    0.338    0.467   59.671
  455.750    8.797    0.337    0.464   62.152
  456.000    6.816    0.333    0.458   65.360
  456.250    5.494    0.323    0.448   68.629
  456.500    4.273    0.313    0.453   71.595
  456.750    3.140    0.300    0.487   73.833
  457.000    2.689    0.289    0.512   75.284
  457.250    2.378    0.287    0.531   74.249
  457.500    2.192    0.303    0.560   74.427
  457.750    2.164    0.291    0.585   75.514
  458.000    2.180    0.278    0.599   76.358
  458.250    2.201    0.275    0.573   76.294
  458.500    2.209    0.295    0.538   74.472
  458.750    2.247    0.290    0.514   73.983
  459.000    2.388    0.279    0.512   79.009
  459.250    2.575    0.271    0.516   83.065
  459.500    2.794    0.277    0.521   83.061
  459.750    3.356    0.295    0.532   78.573
  460.000    4.109    0.309    0.512   74.447
  460.250    4.771    0.292    0.472   73.049
  460.500    5.255    0.274    0.463   75.348
  460.750    5.583    0.262    0.458   76.132
  461.000    5.711    0.233    0.429   72.916
  461.250    5.397    0.141    0.413   76.548
  461.500    4.674    0.110    0.396   79.029
  461.750    4.205    0.180    0.399   80.843
  462.000    3.891    0.210    0.422   83.748
  462.250    3.567    0.226    0.442   87.137
  462.500    3.270    0.235    0.470   89.134
  462.750    3.038    0.239    0.485   91.069
  463.000    2.860    0.238    0.481   91.671
  463.250    2.702    0.233    0.470   88.879
  463.500    2.558    0.230    0.461   86.451
  463.750    2.491    0.227    0.475   85.841
  464.000    2.496    0.225    0.491   86.625
  464.250    2.573    0.231    0.499   86.682
  464.500    2.672    0.238    0.498   86.071
  464.750    2.932    0.245    0.495   84.795
  465.000    3.205    0.246    0.481   84.063
  465.250    3.597    0.244    0.459   82.544
  465.500    3.931    0.239    0.439   81.267
  465.750    4.313    0.236    0.428   82.233
  466.000    4.496    0.237    0.426   83.866
  466.250    4.679    0.230    0.427   86.224
  466.500    4.878    0.221    0.422   87.978
  466.750    4.999    0.213    0.418   88.823
  467.000    5.182    0.211    0.424   89.243
  467.250    5.312    0.216    0.434   86.694
  467.500    5.434    0.218    0.436   83.235
  467.750    5.548    0.216    0.430   80.564
  468.000    5.580    0.217    0.425   78.075
  468.250    5.665    0.226    0.442   78.799
  468.500    5.840    0.243    0.429   79.340
  468.750    6.216    0.259    0.414   76.791
  469.000    6.833    0.275    0.426   73.150
  469.250    7.625    0.281    0.449   69.631
  469.500    8.838    0.089    0.430   66.294
  469.750    9.514    0.068    0.372   63.017
  470.000   10.538    0.055    0.324   60.407
  470.250   11.132    0.107    0.349   63.009
  470.500   11.388    0.148    0.382   65.247
  470.750   11.672    0.225    0.394   66.698
  471.000   12.009    0.255    0.402   65.058
  471.250   12.308    0.260    0.401   63.841
  471.500   12.332    0.262    0.397   64.504
  471.750   12.240    0.253    0.395   66.075
  472.000   12.760    0.243    0.396   67.041
  472.250   14.789    0.238    0.411   67.280
  472.500   18.106    0.284    0.437   63.821
  472.750   21.065    0.327    0.422   59.938
  473.000   23.866    0.331    0.405   58.904
  473.250   27.090    0.320    0.398   65.506
  473.500   31.398    0.311    0.400   67.866
  473.750   30.006    0.310    0.413   67.437
