~VERSION INFORMATION
 VERS.                 2.0:   CWLS LOG ASCII STANDARD -VERSION 2.0
 WRAP.                  NO:   ONE LINE PER DEPTH STEP
~WELL INFORMATION BLOCK
#MNEM.UNIT           DATA                    DESCRIPTION OF MNEMONIC
#---------    -------------------            -------------------------------
# Generated from Intellog Unique Number	CS_73_76/WELL/3249
WELL.         10-30-076-04W4                 : Well_name    - WELL
LOC .         00/10-30-076-04W4/0            : Location     - LOCATION
UWI .         00/10-30-076-04W4/0            : Uwi          - UNIQUE WELL ID
ENTR.         SP                             : Entered      - ENTERED BY
SRVC.         SCHLUMBERGER                   : Scn          - SERVICE COMPANY
STRT.M        150                            : top_depth    - START DEPTH
STOP.M        415                            : bot_depth    - STOP DEPTH
STEP.M        0.25                           : increment    - STEP LENGTH
 NULL. -999.2500:NULL Value
~CURVE INFORMATION BLOCK
#MNEM UNIT       ERCB CURVE CODE    CURVE DESCRIPTION
#-----------   ------------------   ----------------------------------
DEPT.M        00 001 00 00         : DEPTH        - DEPTH
NPHI.V/V      00 330 00 00         : PHIN         - NEUTRON POROSITY (LIMESTONE)
DPHI.V/V      00 890 00 00         : PHID         - DENSITY POROSITY (LIMESTONE)
GR  .API      00 310 00 00         : GR           - GAMMA RAY
ILD .OHMM     00 120 00 00         : RESD         - DEEP RESISTIVITY (DIL)
~PARAMETER INFORMATION
#MNEM.UNIT           DATA             DESCRIPTION OF MNEMONIC
#---------         -----------     ------------------------------
GL  .M        586                  : gl           - GROUND LEVEL ELEVATION
EREF.M        589.3                : kb           - ELEVATION OF DEPTH REFERENCE
DATM.M        586                  : datum        - DATUM ELEVATION
TDD .M        430                  : tdd          - TOTAL DEPTH DRILLER
RUN .         ONE                  : Run          - RUN NUMBER
ENG .         BILL                 : Engineer     - RECORDING ENGINEER
WIT .         JIM                  : Witness      - WITNESSED BY
MUD .         GEL                  : Mud_type     - MUD TYPE
MATR.         LIMESTONE            : Logunit      - NEUTRON MATRIX
TMAX.C        18.9                 : BHT          - MAXIMUM RECORDED TEMPERATURE
BHTD.M        430                  : BHTDEP       - MAXIMUM RECORDED TEMPERATURE
MATR.         1                    : LOGUNIT      - NEUTRON MATRIX
RMT .C        25                   : MDTP         - TEMPERATURE OF MUD
NEUT.         1                    : NEUTRON      - NEUTRON TYPE
RESI.         0                    : RESIST       - RESISTIVITY TYPE
RMC .OHMM     0.25                 : RMC          - RESISTIVITY OF MUD CAKE
RMF .OHMM     0.25                 : RMF          - RESISTIVITY OF MUD FILTRATE
SUFT.C        15                   : SUFT         - SURFACE TEMPERATURE
~A  DEPTH     PHIN     PHID       GR     RESD
  150.000    0.531    0.234  114.000    4.101
  150.250    0.524    0.225  115.865    4.258
  150.500    0.517    0.222  117.090    4.339
  150.750    0.507    0.230  116.488    4.504
  151.000    0.508    0.217  116.493    4.676
  151.250    0.517    0.221  119.548    4.677
  151.500    0.504    0.209  118.335    4.592
  151.750    0.541    0.215  112.245    4.593
  152.000    0.536    0.214  109.201    4.680
  152.250    0.535    0.205  106.158    4.859
  152.500    0.515    0.189  102.507    5.138
  152.750    0.500    0.209   99.463    5.434
  153.000    0.480    0.203   97.640    5.641
  153.250    0.463    0.201   97.647    5.856
  153.500    0.454    0.215   99.481    5.858
  153.750    0.444    0.203  100.097    5.751
  154.000    0.442    0.195  100.102    5.647
  154.250    0.446    0.201   98.280    5.442
  154.500    0.475    0.212   97.065    5.344
  154.750    0.488    0.223   98.291    5.246
  155.000    0.485    0.190   99.517    5.151
  155.250    0.479    0.201   99.522    5.153
  155.500    0.486    0.198   98.309    5.154
  155.750    0.471    0.205   95.876    5.060
  156.000    0.451    0.198   95.882    4.969
  156.250    0.472    0.203   96.498    4.879
  156.500    0.486    0.210   95.285    4.880
  156.750    0.501    0.221   92.852    4.791
  157.000    0.506    0.226   90.421    4.618
  157.250    0.514    0.239   89.815    4.534
  157.500    0.511    0.252   89.821    4.620
  157.750    0.498    0.258   92.876    4.622
  158.000    0.490    0.243   95.321    4.623
  158.250    0.496    0.251   97.768    4.539
  158.500    0.515    0.233   97.772    4.456
  158.750    0.532    0.228   95.951    4.375
  159.000    0.526    0.221   94.126    4.296
  159.250    0.515    0.229   92.912    4.378
  159.500    0.504    0.239   93.533    4.545
  159.750    0.507    0.235   92.928    4.631
  160.000    0.497    0.234   93.540    4.719
  160.250    0.489    0.223   95.986    4.720
  160.500    0.491    0.232   97.212    4.721
  160.750    0.496    0.244   96.608    4.722
  161.000    0.500    0.225   96.616    4.551
  161.250    0.473    0.217   97.230    4.306
  161.500    0.482    0.210   99.069    4.150
  161.750    0.494    0.221   99.682    3.999
  162.000    0.500    0.216   99.688    3.855
  162.250    0.513    0.211   99.692    3.856
  162.500    0.529    0.208   99.090    3.929
  162.750    0.529    0.223   98.486    4.004
  163.000    0.535    0.231   97.881    4.005
  163.250    0.537    0.242   97.277    4.006
  163.500    0.528    0.239   99.114    4.006
  163.750    0.540    0.236  101.560    3.791
  164.000    0.547    0.235  104.006    3.722
  164.250    0.559    0.227  104.621    3.654
  164.500    0.563    0.234  104.626    3.588
  164.750    0.571    0.246  102.804    3.458
  165.000    0.529    0.245  100.371    3.395
  165.250    0.521    0.236   97.936    3.334
  165.500    0.529    0.203   96.113    3.334
  165.750    0.548    0.199   96.729    3.274
  166.000    0.543    0.237  100.394    3.336
  166.250    0.528    0.249  101.620    3.337
  166.500    0.529    0.256  101.629    3.338
  166.750    0.544    0.258  101.632    3.401
  167.000    0.534    0.240  102.247    3.531
  167.250    0.530    0.240  102.253    3.598
  167.500    0.544    0.242  100.430    3.666
  167.750    0.541    0.245   98.607    3.736
  168.000    0.537    0.252   98.613    3.807
  168.250    0.541    0.249  102.890    3.808
  168.500    0.551    0.241  102.896    3.809
  168.750    0.570    0.234  101.071    3.740
  169.000    0.541    0.219   99.248    3.741
  169.250    0.543    0.218   96.815    3.742
  169.500    0.558    0.229   94.993    3.813
  169.750    0.563    0.240   94.997    3.814
  170.000    0.555    0.242   96.835    3.815
  170.250    0.558    0.242   96.838    3.887
  170.500    0.574    0.237   97.455    3.888
  170.750    0.577    0.243   96.851    3.962
  171.000    0.557    0.235   95.638    3.963
  171.250    0.544    0.238   93.205    3.964
  171.500    0.555    0.244   90.162    3.892
  171.750    0.564    0.250   87.728    3.822
  172.000    0.572    0.248   90.173    3.752
  172.250    0.574    0.258   91.401    3.684
  172.500    0.564    0.266   91.407    3.685
  172.750    0.560    0.261   91.412    3.755
  173.000    0.547    0.237   91.418    3.756
  173.250    0.548    0.238   90.813    3.757
  173.500    0.557    0.242   90.820    3.758
  173.750    0.563    0.256   92.049    3.690
  174.000    0.571    0.269   92.053    3.556
  174.250    0.572    0.256   91.448    3.364
  174.500    0.580    0.267   90.847    3.183
  174.750    0.572    0.279   90.850    3.125
  175.000    0.549    0.279   92.078    3.012
  175.250    0.528    0.261   93.911    2.957
  175.500    0.517    0.254   93.919    2.958
  175.750    0.529    0.243   93.314    2.959
  176.000    0.534    0.235   92.101    3.071
  176.250    0.532    0.210   90.887    3.130
  176.500    0.523    0.213   90.896    3.189
  176.750    0.518    0.233   91.509    3.250
  177.000    0.543    0.241   92.126    3.191
  177.250    0.551    0.236   92.132    3.192
  177.500    0.554    0.227   92.746    3.134
  177.750    0.560    0.227   92.144    3.135
  178.000    0.559    0.244   92.759    3.194
  178.250    0.530    0.239   90.936    3.255
  178.500    0.503    0.239   89.723    3.379
  178.750    0.513    0.222   91.558    3.443
  179.000    0.525    0.225   94.613    3.509
  179.250    0.529    0.231   93.400    3.575
  179.500    0.536    0.225   92.188    3.576
  179.750    0.529    0.225   93.412    3.713
  180.000    0.535    0.208   94.638    3.713
  180.250    0.530    0.208   94.644    3.784
  180.500    0.526    0.216   94.649    3.785
  180.750    0.536    0.228   95.266    3.857
  181.000    0.545    0.248   94.661    3.858
  181.250    0.552    0.225   91.620    3.788
  181.500    0.530    0.211   91.015    3.719
  181.750    0.528    0.222   91.022    3.720
  182.000    0.552    0.228   93.467    3.721
  182.250    0.553    0.226   93.472    3.863
  182.500    0.528    0.214   90.430    3.936
  182.750    0.509    0.194   87.386    4.568
  183.000    0.509    0.073   75.807    5.816
  183.250    0.276    0.035   59.958   17.080
  183.500    0.255    0.056   40.451   24.768
  183.750    0.299    0.139   26.432   30.960
  184.000    0.309    0.198   23.389   33.354
  184.250    0.317    0.228   25.835   17.418
  184.500    0.339    0.217   34.989    9.797
  184.750    0.368    0.226   49.019    7.015
  185.000    0.398    0.239   74.025    5.411
  185.250    0.464    0.241   92.325    4.495
  185.500    0.488    0.210   96.600    4.098
  185.750    0.493    0.206   94.167    3.876
  186.000    0.505    0.219   92.956    3.877
  186.250    0.516    0.221   92.349    4.584
  186.500    0.488    0.211   88.698    5.624
  186.750    0.456    0.215   83.216    7.433
  187.000    0.433    0.221   77.734    9.290
  187.250    0.407    0.222   73.471   12.508
  187.500    0.385    0.221   74.698   13.727
  187.750    0.379    0.230   75.922   15.351
  188.000    0.386    0.245   70.442   16.233
  188.250    0.416    0.257   68.007   17.491
  188.500    0.430    0.266   65.575   18.497
  188.750    0.436    0.266   62.533   19.202
  189.000    0.448    0.274   61.928   19.566
  189.250    0.432    0.270   65.593   19.210
  189.500    0.421    0.252   71.090   17.841
  189.750    0.407    0.229   73.533   16.567
  190.000    0.413    0.206   76.588   16.268
  190.250    0.426    0.176   77.813   17.205
  190.500    0.385    0.139   75.381   17.860
  190.750    0.393    0.166   75.386   18.540
  191.000    0.424    0.248   82.100   19.245
  191.250    0.427    0.273   86.983   19.980
  191.500    0.436    0.275   85.161   20.358
  191.750    0.441    0.268   85.777   20.363
  192.000    0.431    0.262   88.222   19.993
  192.250    0.419    0.258   89.447   18.567
  192.500    0.415    0.254   89.455   17.565
  192.750    0.437    0.245   90.680   16.930
  193.000    0.448    0.260   90.686   16.934
  193.250    0.438    0.273   88.863   17.256
