~VERSION INFORMATION
 VERS.                 2.0:   CWLS LOG ASCII STANDARD -VERSION 2.0
 WRAP.                  NO:   ONE LINE PER DEPTH STEP
~WELL INFORMATION BLOCK
#MNEM.UNIT           DATA                    DESCRIPTION OF MNEMONIC
#---------    -------------------            -------------------------------
# Generated from Intellog Unique Number	CW_82_90/WELL/3077
WELL.         TEXEX WABASCA 11-19            : Well_name    - WELL
LOC .         00/11-19-085-22W4/0            : Location     - LOCATION
UWI .         00/11-19-085-22W4/0            : Uwi          - UNIQUE WELL ID
ENTR.         JAYE                           : Entered      - ENTERED BY
SRVC.         WESTERN ATLAS                  : Scn          - SERVICE COMPANY
DATE.         23 FEB 75                      : Date         - LOG DATE
STRT.M        152.4                          : top_depth    - START DEPTH
STOP.M        353.65                         : bot_depth    - STOP DEPTH
STEP.M        0.25                           : increment    - STEP LENGTH
 NULL. -999.2500:NULL Value
~CURVE INFORMATION BLOCK
#MNEM UNIT       ERCB CURVE CODE    CURVE DESCRIPTION
#-----------   ------------------   ----------------------------------
DEPT.M        00 001 00 00         : DEPTH        - DEPTH
CALI.MM       00 280 01 00         : CAL          - CALIPER
GR  .API      00 310 00 00         : GR           - GAMMA RAY
NPHI.V/V      00 330 00 00         : PHIN         - NEUTRON POROSITY (SANDSTONE)
DPHI.V/V      00 890 00 00         : PHID         - DENSITY POROSITY (SANDSTONE)
ILD .OHMM     00 120 00 00         : RESD         - DEEP RESISTIVITY (DIL)
~PARAMETER INFORMATION
#MNEM.UNIT           DATA             DESCRIPTION OF MNEMONIC
#---------         -----------     ------------------------------
GL  .M        559.399              : gl           - GROUND LEVEL ELEVATION
EREF.M        562.356              : kb           - ELEVATION OF DEPTH REFERENCE
DATM.M        559.399              : datum        - DATUM ELEVATION
TDD .M        354.482              : tdd          - TOTAL DEPTH DRILLER
RUN .         ONE                  : Run          - RUN NUMBER
ENG .         FAYE                 : Engineer     - RECORDING ENGINEER
WIT .         McDOUGAL             : Witness      - WITNESSED BY
BASE.         EDMONTON             : Branch       - HOME BASE OF LOGGING UNIT
MUD .         MUD GEL              : Mud_type     - MUD TYPE
MATR.         SANDSTONE            : Logunit      - NEUTRON MATRIX
TMAX.C        25.5556              : BHT          - MAXIMUM RECORDED TEMPERATURE
BHTD.M        354.482              : BHTDEP       - MAXIMUM RECORDED TEMPERATURE
RMT .C        15.5556              : MDTP         - TEMPERATURE OF MUD
MUDD.KG/M     9000                 : MWT          - MUD DENSITY
NEUT.         1                    : NEUTRON      - NEUTRON TYPE
RESI.         0                    : RESIST       - RESISTIVITY TYPE
RM  .OHMM     8.8                  : RM           - RESISTIVITY OF MUD
RMC .OHMM     0                    : RMC          - RESISTIVITY OF MUD CAKE
RMF .OHMM     0                    : RMF          - RESISTIVITY OF MUD FILTRATE
SUFT.C        4                    : SUFT         - SURFACE TEMPERATURE
~A  DEPTH      CAL       GR     PHIN     PHID     RESD
# ...
  188.900  216.577   41.700    0.498    0.366   25.022
  189.150  216.269   42.693    0.492    0.366   25.248
  189.400  216.169   43.376    0.500    0.366   25.429
  189.650  215.964   43.875    0.521    0.365   25.469
  189.900  216.073   43.199    0.540    0.363   24.626
  190.150  216.600   43.389    0.522    0.364   25.883
  190.400  217.546   43.393    0.500    0.364   26.408
  190.650  218.493   45.313    0.503    0.360   26.155
  190.900  219.333   44.761    0.496    0.356   25.956
  191.150  220.698   44.827    0.433    0.355   25.851
  191.400  221.434   46.375    0.431    0.355   25.940
  191.650  222.067   46.256    0.437    0.354   25.931
  191.900  222.908   45.952    0.449    0.352   25.830
  192.150  223.750   47.315    0.461    0.350   25.582
  192.400  224.486   45.528    0.468    0.348   25.481
  192.650  225.433   44.173    0.470    0.347   25.333
  192.900  225.855   43.374    0.468    0.348   24.859
  193.150  226.591   43.440    0.471    0.341   24.081
  193.400  226.597   44.680    0.467    0.336   23.985
  193.650  226.080   44.004    0.439    0.338   23.757
  193.900  225.456   44.132    0.419    0.337   23.356
  194.150  224.311   43.580    0.412    0.332   23.048
  194.400  223.793   46.550    0.410    0.327   22.744
  194.650  222.856   42.538    0.409    0.323   22.404
  194.900  222.234   42.975    0.408    0.328   21.944
  195.150  220.670   45.883    0.408    0.329   21.897
  195.400  218.897   47.184    0.408    0.332   22.425
  195.650  217.961   53.120    0.408    0.337   23.614
  195.900  217.861   46.390    0.408    0.330   24.865
  196.150  217.761   46.457    0.407    0.318   25.749
  196.400  216.826   51.279    0.404    0.296   26.176
  196.650  216.307   54.125    0.400    0.276   26.265
  196.900  215.477   55.675    0.395    0.312   25.680
  197.150  215.167   64.142    0.386    0.343   24.193
  197.400  215.589   67.420    0.373    0.332   22.582
  197.650  215.699   61.617    0.353    0.315   22.492
  197.900  215.808   59.335    0.324    0.030   25.272
  198.150  216.022   54.583    0.281    0.003   33.493
  198.400  216.132   54.711    0.271    0.005   41.908
  198.650  216.137   54.467    0.263    0.013   44.457
  198.900  216.037   45.699    0.254    0.032   45.025
  199.150  216.356   44.220    0.248    0.066   45.012
  199.400  216.256   41.445    0.287    0.163   42.961
  199.650  216.051   48.306    0.472    0.275   39.363
  199.900  216.056   53.809    0.506    0.342   34.753
  200.150  215.851   52.146    0.510    0.329   29.511
  200.400  215.753   51.655    0.502    0.314   26.740
  200.650  216.070   50.115    0.487    0.315   25.192
  200.900  216.389   44.559    0.480    0.325   23.601
  201.150  216.916   43.945    0.484    0.334   22.567
  201.400  218.490   45.927    0.491    0.336   21.901
  201.650  220.794   47.166    0.499    0.333   21.452
  201.900  224.355   45.688    0.512    0.330   20.780
  202.150  227.497   47.854    0.528    0.327   19.723
  202.400  231.371   47.611    0.546    0.323   14.709
  202.650  235.976   50.149    0.582    0.305   11.469
  202.900  240.791   53.860    0.589    0.259    8.272
  203.150  245.188   54.667    0.571    0.161    5.814
  203.400  247.703   55.227    0.559    0.245    5.057
  203.650  251.472   56.961    0.554    0.258    4.200
  203.900  258.901   58.757    0.555    0.301    3.694
  204.150  264.867   59.009    0.561    0.303    3.487
  204.400  263.617   59.446    0.575    0.322    3.447
  204.650  258.393   60.253    0.590    0.325    3.498
  204.900  256.411   61.307    0.581    0.315    3.569
  205.150  255.998   62.979    0.565    0.287    3.655
  205.400  256.945   62.551    0.557    0.228    3.743
  205.650  258.099   61.877    0.550    0.263    3.826
  205.900  259.673   64.289    0.543    0.249    3.904
  206.150  260.618   64.726    0.540    0.249    3.998
  206.400  262.820   64.114    0.540    0.315    4.064
  206.650  263.974   63.870    0.542    0.314    4.108
  206.900  264.606   63.750    0.563    0.308    4.138
  207.150  264.297   63.816    0.568    0.259    4.144
  207.400  263.570   65.056    0.551    0.235    4.182
  207.650  263.366   66.543    0.544    0.231    4.212
  207.900  263.370   65.312    0.545    0.236    4.226
  208.150  263.585   63.524    0.555    0.266    4.186
  208.400  264.739   63.899    0.568    0.264    4.131
  208.650  265.059   64.769    0.562    0.255    4.122
  208.900  264.958   64.340    0.557    0.258    4.113
  209.150  264.022   63.170    0.542    0.256    4.089
  209.400  263.295   61.568    0.530    0.252    4.111
  209.650  262.359   59.719    0.522    0.252    4.264
  209.900  261.109   58.179    0.519    0.258    4.351
  210.150  260.276   57.936    0.521    0.257    4.431
  210.400  258.608   57.632    0.527    0.262    4.530
  210.650  256.522   57.080    0.535    0.292    4.605
  210.900  254.958   55.971    0.550    0.307    4.733
  211.150  252.557   53.628    0.571    0.317    4.821
  211.400  249.739   51.347    0.587    0.320    4.928
  211.650  247.443   50.918    0.585    0.315    5.018
  211.900  243.788   48.946    0.573    0.304    5.149
  212.150  240.134   47.715    0.521    0.293    5.302
  212.400  238.465   48.275    0.490    0.300    5.573
  212.650  237.214   50.379    0.454    0.319    6.079
  212.900  234.919   51.248    0.453    0.321    6.582
  213.150  234.087   51.005    0.453    0.318    7.260
  213.400  232.837   50.021    0.450    0.314    7.816
  213.650  232.110   48.790    0.447    0.316    8.094
  213.900  230.965   49.103    0.437    0.318    8.398
  214.150  228.250   47.439    0.423    0.308    8.777
  214.400  225.850   43.922    0.412    0.285    9.191
  214.650  223.764   43.061    0.409    0.246    9.696
  214.900  222.619   44.054    0.407    0.209   10.153
  215.150  222.101   43.934    0.404    0.240   10.593
  215.400  221.791   45.237    0.400    0.286   11.093
  215.650  221.483   46.785    0.391    0.307   11.572
  215.900  220.964   47.592    0.379    0.305   12.029
  216.150  220.237   44.384    0.369    0.284   12.387
  216.400  219.406   41.300    0.345    0.250   12.876
  216.650  219.934   40.377    0.249    0.140   14.387
  216.900  220.669   40.381    0.226    0.019   16.106
  217.150  221.930   40.323    0.226    0.038   17.897
  217.400  223.398   41.812    0.234    0.201   18.880
  217.650  225.808   42.803    0.249    0.245   18.874
  217.900  227.172   46.143    0.467    0.289   18.181
  218.150  228.119   45.715    0.464    0.305   16.971
  218.400  228.646   44.114    0.467    0.308   14.790
  218.650  230.429   45.106    0.475    0.311   13.602
  218.900  232.001   46.408    0.484    0.317   13.054
  219.150  234.411   47.092    0.499    0.327   12.716
  219.400  238.076   48.207    0.513    0.310   12.226
  219.650  241.010   50.003    0.529    0.277   11.844
  219.900  243.628   51.305    0.541    0.271   11.262
  220.150  245.306   53.595    0.524    0.270   10.649
  220.400  246.879   50.881    0.518    0.269    9.885
  220.650  249.185   51.503    0.539    0.259    9.023
  220.900  251.385   52.310    0.539    0.253    8.360
  221.150  252.750   52.685    0.546    0.254    7.492
  221.400  252.755   51.083    0.572    0.292    6.814
  221.650  252.342   51.025    0.558    0.332    6.301
  221.900  252.556   52.636    0.507    0.306    5.816
  222.150  252.455   52.640    0.488    0.300    5.634
  222.400  252.461   54.003    0.471    0.299    5.560
  222.650  252.151   53.081    0.468    0.303    5.569
  222.900  251.842   50.491    0.470    0.307    5.650
  223.150  251.219   49.383    0.474    0.308    5.950
  223.400  250.493   48.398    0.482    0.309    6.430
  223.650  249.347   47.599    0.492    0.310    7.027
  223.900  248.097   46.492    0.504    0.313    8.133
  224.150  247.999   44.148    0.520    0.321    8.871
  224.400  248.002   42.979    0.535    0.339    9.481
  224.650  248.843   45.330    0.543    0.333    9.818
  224.900  250.104   45.273    0.542    0.291    9.852
  225.150  250.944   44.165    0.535    0.308    9.508
