~VERSION INFORMATION
 VERS.                 2.0:   CWLS LOG ASCII STANDARD -VERSION 2.0
 WRAP.                  NO:   ONE LINE PER DEPTH STEP
~WELL INFORMATION BLOCK
#MNEM.UNIT           DATA                    DESCRIPTION OF MNEMONIC
#---------    -------------------            -------------------------------
# Generated from Intellog Unique Number	CC_84_87/WELL/1183
NULL.         -999.25                        : NULL_VALUE
WELL.         SUNCOR CHEECHAM                : Well_name    - WELL              
LOC .         10-06-085-06W4                 : Location     - LOCATION          
UWI .         00/10-06-085-06W400            : Uwi          - UNIQUE WELL ID    
ENTR.         DW                             : Entered      - ENTERED BY        
SRVC.         SCHLUMBERGER                   : Scn          - SERVICE COMPANY   
DATE.         01 FEB 81                      : Date         - LOG DATE
STRT.M        138                            : top_depth    - START DEPTH       
STOP.M        275.1                          : bot_depth    - STOP DEPTH        
STEP.M        0.3                            : increment    - STEP LENGTH       
~CURVE INFORMATION BLOCK
#MNEM UNIT       ERCB CURVE CODE    CURVE DESCRIPTION
#-----------   ------------------   ----------------------------------
DEPT.M        00 001 00 00         : DEPTH        - DEPTH                       
DPHI.V/V      00 890 00 00         : PHID         - DENSITY POROSITY (LIMESTONE)
NPHI.V/V      00 330 00 00         : PHIN         - NEUTRON POROSITY (LIMESTONE)
GR  .API      00 310 00 00         : GR           - GAMMA RAY                   
ILD .OHMM     00 120 00 00         : RESD         - DEEP RESISTIVITY (DIL)      
~PARAMETER INFORMATION       
#MNEM.UNIT           DATA             DESCRIPTION OF MNEMONIC
#---------         -----------     ------------------------------
GL  .M        482.2                : gl           - GROUND LEVEL ELEVATION      
EREF.M        485.9                : kb           - ELEVATION OF DEPTH REFERENCE
DATM.M        485.9                : datum        - DATUM ELEVATION             
TDD .M        275                  : tdd          - TOTAL DEPTH DRILLER         
RUN .         ONE                  : Run          - RUN NUMBER                  
ENG .         BILL                 : Engineer     - RECORDING ENGINEER          
WIT .         JIM                  : Witness      - WITNESSED BY                
MUD .         GEL                  : Mud_type     - MUD TYPE                    
MATR.         LIMESTONE            : Logunit      - NEUTRON MATRIX              
TMAX.C        13                   : BHT          - MAXIMUM RECORDED TEMPERATURE
BHTD.M        275                  : BHTDEP       - MAXIMUM RECORDED TEMPERATURE
MATR.         1                    : LOGUNIT      - NEUTRON MATRIX              
RMT .C        25                   : MDTP         - TEMPERATURE OF MUD          
NEUT.         1                    : NEUTRON      - NEUTRON TYPE                
RESI.         0                    : RESIST       - RESISTIVITY TYPE            
RMC .OHMM     0.25                 : RMC          - RESISTIVITY OF MUD CAKE     
RMF .OHMM     0.25                 : RMF          - RESISTIVITY OF MUD FILTRATE 
SUFT.C        4                    : SUFT         - SURFACE TEMPERATURE         
~A  DEPTH     PHID     PHIN       GR     RESD
# ...
  242.401    0.168    0.349   94.356    4.537
  242.701    0.168    0.358   93.634    4.357
  243.001    0.174    0.392   88.576    3.874
  243.301    0.188    0.403   83.524    3.515
  243.601    0.188    0.397   78.460    3.251
  243.901    0.186    0.396   81.458    2.945
  244.201    0.191    0.388   85.709    2.884
  244.501    0.188    0.389   92.426    2.933
  244.801    0.182    0.394   99.787    2.978
  245.101    0.145    0.385  100.922    3.030
  245.401    0.157    0.393   93.380    3.079
  245.701    0.173    0.399   88.322    3.130
  246.001    0.164    0.399   90.085    2.946
  246.301    0.163    0.388   94.322    2.884
  246.601    0.149    0.384   92.372    2.932
  246.901    0.158    0.382   89.787    2.923
  247.201    0.171    0.376   89.697    2.808
  247.501    0.160    0.389   80.913    2.597
  247.801    0.203    0.400   79.569    2.447
  248.101    0.178    0.389   80.102    2.218
  248.401    0.173    0.386   74.411    2.131
  248.701    0.205    0.401   67.492    2.008
  249.001    0.220    0.409   60.579    1.892
  249.301    0.239    0.415   45.594    1.620
  249.601    0.259    0.394   50.440    1.193
  249.901    0.250    0.401   53.444    1.042
  250.201    0.241    0.410   52.110    1.121
  250.501    0.242    0.419   46.446    1.139
  250.801    0.289    0.433   49.428    1.135
  251.101    0.286    0.429   54.929    1.111
  251.401    0.256    0.412   59.174    1.068
  251.701    0.234    0.380   54.726    1.025
  252.001    0.246    0.392   50.898    1.003
  252.301    0.272    0.400   51.425    1.038
  252.601    0.277    0.396   51.964    1.056
  252.901    0.266    0.397   46.889    1.053
  253.201    0.262    0.416   43.704    1.030
  253.501    0.296    0.427   41.732    0.990
  253.801    0.304    0.442   42.881    0.950
  254.101    0.289    0.436   64.502    0.948
  254.401    0.266    0.419   71.218    1.020
  254.701    0.199    0.413   70.472    1.183
  255.001    0.210    0.424   71.031    1.400
  255.301    0.171    0.417   75.276    1.626
  255.601    0.139    0.393   91.298    1.924
  255.901    0.149    0.390   90.591    2.502
  256.201    0.174    0.360   82.425    2.848
  256.501    0.184    0.365   75.502    2.582
  256.801    0.208    0.385   67.344    2.300
  257.101    0.233    0.386   59.784    1.759
  257.401    0.241    0.385   56.599    1.345
  257.701    0.239    0.405   48.439    1.152
  258.001    0.235    0.415   42.130    1.026
  258.301    0.235    0.401   42.665    0.862
  258.601    0.264    0.401   48.141    0.797
  258.901    0.251    0.416   64.181    0.766
  259.201    0.226    0.432   71.505    0.824
  259.501    0.209    0.442   70.163    0.956
  259.801    0.214    0.446   66.364    1.029
  260.101    0.240    0.429   56.341    1.006
  260.401    0.266    0.423   47.563    0.967
  260.701    0.282    0.416   42.487    0.877
  261.001    0.282    0.397   41.148    0.780
  261.301    0.265    0.372   47.264    0.778
  261.601    0.214    0.363   75.709    0.791
  261.901    0.148    0.376   79.919    0.867
  262.201    0.160    0.411   74.257    1.086
  262.501    0.182    0.410   65.483    1.284
  262.801    0.201    0.397   48.023    1.306
  263.101    0.227    0.394   43.579    0.962
  263.401    0.249    0.394   46.585    0.764
  263.701    0.277    0.403   53.313    0.667
  264.001    0.282    0.423   51.965    0.653
  264.301    0.276    0.431   47.531    0.664
  264.601    0.265    0.425   45.570    0.637
  264.901    0.264    0.401   48.580    0.635
  265.201    0.264    0.404   54.688    0.633
  265.501    0.256    0.400   65.130    0.656
  265.801    0.249    0.385   76.814    0.680
  266.101    0.238    0.370   80.444    0.718
  266.401    0.218    0.359   76.629    0.757
  266.701    0.191    0.360   67.227    0.770
  267.001    0.192    0.370   49.127    0.768
  267.301    0.215    0.377   40.352    0.766
  267.601    0.241    0.381   32.190    0.736
  267.901    0.268    0.398   27.115    0.693
  268.201    0.274    0.413   25.161    0.665
  268.501    0.289    0.409   26.938    0.651
  268.801    0.284    0.396   32.418    0.637
  269.101    0.277    0.414   33.565    0.623
  269.401    0.274    0.403   34.079    0.610
  269.701    0.281    0.392   34.610    0.609
  270.001    0.286    0.384   33.864    0.596
  270.301    0.286    0.386   33.772    0.583
  270.601    0.283    0.391   33.687    0.570
  270.901    0.277    0.393   33.579    0.580
  271.201    0.271    0.397   33.463    0.578
  271.501    0.263    0.402   33.404    0.599
  271.801    0.251    0.405   32.652    0.657
  272.101    0.037    0.407   32.581    0.734
  272.401    0.065    0.409   31.857    0.885
  272.701    0.085    0.410   31.741    1.418
  273.001    0.101    0.410   31.633    2.147
  273.301    0.103    0.411   31.560    3.188
  273.600    0.069    0.411   31.478    3.366
  273.900    0.083    0.411   31.987    3.553
  274.200    0.092    0.410   32.485    3.545
  274.500    0.107    0.410   32.392    3.468
  274.800    0.092    0.409   32.932    3.267
  275.100    0.102    0.410   32.800    3.198
