~VERSION INFORMATION
 VERS.                 2.0:   CWLS LOG ASCII STANDARD -VERSION 2.0
 WRAP.                  NO:   ONE LINE PER DEPTH STEP
~WELL INFORMATION BLOCK
#MNEM.UNIT           DATA                    DESCRIPTION OF MNEMONIC
#---------    -------------------            -------------------------------
# Generated from Intellog Unique Number	CW_73_75/WELL/1029
WELL.         PACIFIC AMADOU 10-32           : Well_name    - WELL
LOC .         00/10-32-075-20W4/0            : Location     - LOCATION
UWI .         00/10-32-075-20W4/0            : Uwi          - UNIQUE WELL ID
ENTR.         JAYE                           : Entered      - ENTERED BY
SRVC.         SCHLUMBERGER                   : Scn          - SERVICE COMPANY
DATE.         20 MAR 74                      : Date         - LOG DATE
STRT.M        301.752                        : top_depth    - START DEPTH
STOP.M        475.502                        : bot_depth    - STOP DEPTH
STEP.M        0.25                           : increment    - STEP LENGTH
 NULL. -999.2500:NULL Value
~CURVE INFORMATION BLOCK
#MNEM UNIT       ERCB CURVE CODE    CURVE DESCRIPTION
#-----------   ------------------   ----------------------------------
DEPT.M        00 001 00 00         : DEPTH        - DEPTH
CALI.MM       00 280 01 00         : CAL          - CALIPER
GR  .API      00 310 00 00         : GR           - GAMMA RAY
NPHI.V/V      00 330 00 00         : PHIN         - NEUTRON POROSITY (SANDSTONE)
DPHI.V/V      00 890 00 00         : PHID         - DENSITY POROSITY (SANDSTONE)
ILD .OHMM     00 120 00 00         : RESD         - DEEP RESISTIVITY (DIL)
~PARAMETER INFORMATION
#MNEM.UNIT           DATA             DESCRIPTION OF MNEMONIC
#---------         -----------     ------------------------------
GL  .M        619.049              : gl           - GROUND LEVEL ELEVATION
EREF.M        623.103              : kb           - ELEVATION OF DEPTH REFERENCE
DATM.M        619.049              : datum        - DATUM ELEVATION
TDD .M        478.536              : tdd          - TOTAL DEPTH DRILLER
RUN .         ONE                  : Run          - RUN NUMBER
ENG .         BROWN                : Engineer     - RECORDING ENGINEER
WIT .         WADDELL              : Witness      - WITNESSED BY
BASE.         EDM                  : Branch       - HOME BASE OF LOGGING UNIT
MUD .         GEL CHEM             : Mud_type     - MUD TYPE
MATR.         SANDSTONE            : Logunit      - NEUTRON MATRIX
TMAX.C        18.3333              : BHT          - MAXIMUM RECORDED TEMPERATURE
BHTD.M        479.755              : BHTDEP       - MAXIMUM RECORDED TEMPERATURE
RMT .C        15.5556              : MDTP         - TEMPERATURE OF MUD
MUDD.KG/M     1044                 : MWT          - MUD DENSITY
NEUT.         1                    : NEUTRON      - NEUTRON TYPE
RESI.         0                    : RESIST       - RESISTIVITY TYPE
RM  .OHMM     9.59                 : RM           - RESISTIVITY OF MUD
RMC .OHMM     0                    : RMC          - RESISTIVITY OF MUD CAKE
RMF .OHMM     5.7                  : RMF          - RESISTIVITY OF MUD FILTRATE
SUFT.C        -17.7778             : SUFT         - SURFACE TEMPERATURE
~A  DEPTH      CAL       GR     PHIN     PHID     RESD
# ...
  447.752  158.000   92.228    0.405    0.159    6.895
  448.002  158.550   97.229    0.415    0.171    6.741
  448.252  159.808  101.499    0.401    0.147    6.665
  448.502  166.777  104.317    0.403    0.129    6.787
  448.752  171.191  104.157    0.426    0.172    7.226
  449.002  167.364   97.451    0.444    0.184    7.765
  449.252  162.214   93.774    0.416    0.182    8.562
  449.502  160.425   91.677    0.400    0.160    8.817
  449.752  159.249   89.094    0.377    0.119    8.798
  450.002  158.573   88.273    0.365    0.132    8.650
  450.252  157.801   87.691    0.389    0.144    8.664
  450.502  157.636   86.865    0.378    0.159    9.088
  450.752  157.176   84.647    0.383    0.116   10.361
  451.002  157.015   81.094    0.398    0.113   11.769
  451.252  156.855   76.751    0.352    0.094   13.618
  451.502  156.690   70.044    0.325    0.046   14.633
  451.752  156.735   67.400    0.225    0.031   13.286
  452.002  156.462   78.831    0.235    0.026   12.153
  452.252  156.507   82.557    0.264    0.046   10.712
  452.502  156.559   84.766    0.301    0.053    9.442
  452.752  156.587   85.700    0.343    0.068    8.401
  453.002  157.347   86.999    0.363    0.082    7.886
  453.252  158.107   86.418    0.371    0.097    7.555
  453.502  158.546   85.593    0.377    0.128    7.305
  453.752  159.710   92.837    0.371    0.113    7.142
  454.002  160.978   96.200    0.394    0.127    7.260
  454.252  161.934   98.408    0.424    0.142    7.380
  454.502  161.871   92.369    0.454    0.132    7.585
  454.752  159.775   90.269    0.445    0.133    7.541
  455.002  158.397   93.510    0.443    0.143    7.387
  455.252  157.823   97.601    0.437    0.153    7.249
  455.502  157.456   99.992    0.438    0.153    7.153
  455.752  157.802  102.019    0.449    0.144    7.151
  456.002  158.155  104.772    0.431    0.134    7.229
  456.252  158.597  109.043    0.407    0.132    7.376
  456.502  159.051  114.467    0.421    0.150    7.497
  456.752  159.403  123.105    0.422    0.139    7.607
  457.002  159.441  118.097    0.411    0.143    7.633
  457.252  159.179  118.243    0.397    0.134    7.659
  457.502  159.217  120.695    0.398    0.146    7.713
  457.752  159.257  119.751    0.387    0.145    7.739
  458.002  159.304  117.959    0.376    0.140    7.722
  458.252  158.940  117.436    0.371    0.152    7.706
  458.502  158.671  116.187    0.374    0.143    7.704
  458.752  159.020  114.940    0.381    0.128    7.560
  459.002  159.058  116.480    0.369    0.124    6.212
  459.252  158.590  115.840    0.352    0.121    4.739
  459.502  158.431  113.498    0.392    0.111    3.766
  459.752  158.978  110.127    0.419    0.155    3.181
  460.002  164.313   99.659    0.472    0.176    2.477
  460.252  183.597  101.382    0.547    0.225    1.936
  460.502  197.687  107.049    0.547    0.265    1.879
  460.752  192.333  103.859    0.531    0.296    1.960
  461.002  190.137   99.641    0.532    0.296    2.177
  461.252  188.752   96.085    0.513    0.292    2.501
  461.502  188.795   89.319    0.491    0.271    3.042
  461.752  191.178   89.039    0.471    0.249    4.428
  462.002  196.309   87.124    0.450    0.223    5.694
  462.252  174.564   86.423    0.378    0.208    6.965
  462.502  169.012   89.966    0.367    0.181    7.897
  462.752  169.866   89.508    0.396    0.107    7.537
  463.002  174.282   87.106    0.416    0.152    7.089
  463.252  176.157   84.281    0.390    0.230    6.617
  463.502  158.686   83.272    0.414    0.225    6.316
  463.752  155.167   84.390    0.453    0.086    5.940
  464.002  160.607   85.992    0.481    0.003    5.649
  464.252  173.065   86.262    0.511    0.013    5.482
  464.502  183.086   86.227    0.548    0.312    5.666
  464.752  174.879   85.707    0.572    0.314    6.077
  465.002  169.430   85.310    0.548    0.319    6.579
  465.252  173.843   84.664    0.524    0.297    6.851
  465.502  165.944   83.114    0.510    0.258    6.611
  465.752  158.451   82.531    0.501    0.237    6.346
  466.002  157.884   82.375    0.521    0.284    6.170
  466.252  158.129   82.339    0.522    0.273    6.022
  466.502  158.485   85.094    0.521    0.273    5.920
  466.752  158.721   89.306    0.539    0.282    5.885
  467.002  158.965   87.573    0.545    0.299    5.895
  467.252  159.724   85.111    0.532    0.327    6.014
  467.502  160.071   85.682    0.539    0.313    6.309
  467.752  160.212   87.892    0.543    0.320    6.996
  468.002  160.972   89.188    0.529    0.328    7.531
  468.252  161.414   89.457    0.534    0.344    8.259
  468.502  162.181   90.760    0.506    0.314    9.057
  468.752  162.833   92.479    0.474    0.275    9.122
  469.002  163.284   96.207    0.453    0.241    8.594
  469.252  163.623  101.204    0.438    0.270    8.173
  469.502  164.073  104.324    0.467    0.294    7.532
  469.752  164.524  104.593    0.487    0.302    6.864
  470.002  164.355  105.526    0.487    0.296    6.396
  470.252  164.196  108.890    0.488    0.300    6.207
  470.502  163.624  107.038    0.566    0.313    6.321
  470.752  158.197  105.301    0.556    0.333    6.729
  471.002  155.256  102.657    0.528    0.313    7.258
  471.252  153.063   99.045    0.519    0.307    7.842
  471.502  153.521   96.095    0.502    0.310    8.553
  471.752  153.868   90.904    0.474    0.299    9.643
  472.002  154.722   81.710    0.474    0.287   10.713
  472.252  155.058   65.358    0.469    0.273   13.104
  472.502  154.908   47.125    0.406    0.262   16.695
  472.752  154.232   28.590    0.364    0.198   22.031
  473.002  153.046   25.219    0.323    0.202   30.002
  473.252  151.355   16.509    0.242    0.170   35.958
  473.502  150.889    9.560    0.255    0.172   36.615
  473.752  151.037    7.037    0.270    0.206   36.880
  474.002  151.279    9.612    0.285    0.233   30.751
  474.252  151.625   13.699    0.303    0.261   29.570
  474.502  151.567   18.154    0.325    0.247   30.789
  474.752  151.410   23.035    0.342    0.349   32.418
  475.002  151.147   27.302    0.369    0.402   33.943
  475.252  150.877   32.545    0.423    0.451   33.994
  475.502  151.121   37.121    0.405    0.449   33.116
