~VERSION INFORMATION
 VERS.                 2.0:   CWLS LOG ASCII STANDARD -VERSION 2.0
 WRAP.                  NO:   ONE LINE PER DEPTH STEP
~WELL INFORMATION BLOCK
#MNEM.UNIT           DATA                    DESCRIPTION OF MNEMONIC
#---------    -------------------            -------------------------------
# Generated from Intellog Unique Number	CW_79_81/WELL/702
WELL.         ATCOR ET AL PELICAN            : Well_name    - WELL
LOC .         00/10-06-079-24W4/0            : Location     - LOCATION
UWI .         00/10-06-079-24W4/0            : Uwi          - UNIQUE WELL ID
ENTR.         MAX                            : Entered      - ENTERED BY
SRVC.         COMPUTALOG                     : Scn          - SERVICE COMPANY
STRT.M        275                            : top_depth    - START DEPTH
STOP.M        515                            : bot_depth    - STOP DEPTH
STEP.M        0.25                           : increment    - STEP LENGTH
 NULL. -999.2500:NULL Value
~CURVE INFORMATION BLOCK
#MNEM UNIT       ERCB CURVE CODE    CURVE DESCRIPTION
#-----------   ------------------   ----------------------------------
DEPT.M        00 001 00 00         : DEPTH        - DEPTH
ILD .OHMM     00 120 00 00         : RESD         - DEEP RESISTIVITY (DIL)
NPHI.V/V      00 330 00 00         : PHIN         - NEUTRON POROSITY (SANDSTONE)
DPHI.V/V      00 890 00 00         : PHID         - DENSITY POROSITY (SANDSTONE)
CALI.MM       00 280 01 00         : CAL          - CALIPER
GR  .API      00 310 00 00         : GR           - GAMMA RAY
~PARAMETER INFORMATION
#MNEM.UNIT           DATA             DESCRIPTION OF MNEMONIC
#---------         -----------     ------------------------------
GL  .M        594.9                : gl           - GROUND LEVEL ELEVATION
EREF.M        598.6                : kb           - ELEVATION OF DEPTH REFERENCE
DATM.M        594.9                : datum        - DATUM ELEVATION
TDD .M        520                  : tdd          - TOTAL DEPTH DRILLER
RUN .         ONE                  : Run          - RUN NUMBER
ENG .         BILL                 : Engineer     - RECORDING ENGINEER
WIT .         JIM                  : Witness      - WITNESSED BY
MUD .         GEL                  : Mud_type     - MUD TYPE
MATR.         SANDSTONE            : Logunit      - NEUTRON MATRIX
TMAX.C        32                   : BHT          - MAXIMUM RECORDED TEMPERATURE
BHTD.M        520                  : BHTDEP       - MAXIMUM RECORDED TEMPERATURE
RMT .C        16.7                 : MDTP         - TEMPERATURE OF MUD
MUDD.KG/M     1150                 : MWT          - MUD DENSITY
NEUT.         1                    : NEUTRON      - NEUTRON TYPE
RESI.         0                    : RESIST       - RESISTIVITY TYPE
RM  .OHMM     5.1                  : RM           - RESISTIVITY OF MUD
RMC .OHMM     0                    : RMC          - RESISTIVITY OF MUD CAKE
RMF .OHMM     4.7                  : RMF          - RESISTIVITY OF MUD FILTRATE
SUFT.C        -20                  : SUFT         - SURFACE TEMPERATURE
~A  DEPTH     RESD     PHIN     PHID      CAL       GR
# ...
  494.000    9.810    0.503    0.242  206.672   81.621
  494.250   11.494    0.458    0.269  203.668   65.489
  494.500   12.163    0.367    0.285  202.187   58.809
  494.750   13.356    0.356    0.284  202.231   62.192
  495.000   14.670    0.369    0.282  202.231   74.105
  495.250   15.377    0.383    0.289  202.323   75.656
  495.500   15.536    0.389    0.290  202.367   74.462
  495.750   14.852    0.375    0.291  202.416   65.957
  496.000   13.935    0.357    0.291  202.464   63.541
  496.250   12.953    0.349    0.286  202.497   63.882
  496.500   11.606    0.373    0.277  202.541   72.135
  496.750   10.397    0.382    0.261  203.092   76.730
  497.000    9.315    0.379    0.245  203.136   77.061
  497.250    8.658    0.355    0.243  203.179   82.885
  497.500    7.977    0.350    0.230  203.228   87.483
  497.750    7.693    0.363    0.218  203.780   89.335
  498.000    7.286    0.386    0.214  204.337   95.460
  498.250    7.029    0.414    0.233  205.391  103.716
  498.500    6.781    0.438    0.234  205.942  110.143
  498.750    6.726    0.430    0.210  206.494  112.614
  499.000    6.734    0.388    0.194  206.543  110.808
  499.250    6.618    0.340    0.180  205.570  103.211
  499.500    6.266    0.341    0.143  205.106   96.836
  499.750    5.879    0.337    0.113  204.652   95.948
  500.000    5.726    0.330    0.132  204.690   96.590
  500.250    5.783    0.332    0.140  205.242   99.058
  500.500    5.783    0.346    0.135  205.793   98.170
  500.750    5.905    0.345    0.125  206.345   97.278
  501.000    6.021    0.343    0.132  206.388   98.520
  501.250    5.754    0.366    0.153  206.940  102.814
  501.500    5.552    0.375    0.150  206.989  107.415
  501.750    5.507    0.402    0.145  207.540  110.188
  502.000    5.564    0.403    0.149  207.584  109.906
  502.250    5.888    0.388    0.164  208.130  102.616
  502.500    6.648    0.376    0.176  208.173  101.122
  502.750    6.970    0.374    0.177  208.222  102.062
  503.000    6.663    0.398    0.179  207.758  103.304
  503.250    6.368    0.420    0.168  207.293  104.248
  503.500    6.262    0.469    0.157  206.834  102.141
  503.750    5.871    0.470    0.153  205.867  100.947
  504.000    5.358    0.471    0.172  205.867  104.631
  504.250    4.981    0.502    0.176  205.451  106.486
  504.500    4.717    0.512    0.164  204.463  105.903
  504.750    4.427    0.499    0.141  204.463  103.185
  505.000    4.191    0.483    0.106  204.047   96.512
  505.250    3.755    0.459    0.096  202.577   96.837
  505.500    3.459    0.461    0.113  202.102  105.096
  505.750    2.986    0.448    0.143  201.648  109.085
  506.000    3.045    0.442    0.102  201.681  110.638
  506.250    3.344    0.459    0.111  201.216  114.627
  506.500    3.639    0.481    0.154  201.260  116.790
  506.750    3.290    0.500    0.140  201.314  114.984
  507.000    2.814    0.493    0.112  201.358  113.794
  507.250    2.792    0.447    0.071  200.893  102.539
  507.500    2.668    0.425   -0.010  200.931   94.640
  507.750    2.573    0.426    0.060  201.008   92.535
  508.000    2.905    0.424    0.078  201.526   96.829
  508.250    3.839    0.412    0.106  201.570  105.082
  508.500    4.456    0.398    0.117  201.619  108.772
  508.750    4.940    0.384    0.121  201.662  104.527
  509.000    4.854    0.334    0.108  201.717   83.518
  509.250    4.726    0.312    0.121  201.241   66.472
  509.500    4.733    0.406    0.091  200.788   72.296
  509.750    4.871    0.426    0.056  200.820   76.891
  510.000    5.013    0.365    0.030  200.869   69.297
  510.250    5.505    0.314    0.085  200.410   24.208
  510.500    6.214    0.300    0.096  200.443   18.754
  510.750    8.137    0.291    0.081  200.492   18.472
  511.000    8.610    0.287    0.076  200.573   18.498
  511.250    9.112    0.284    0.070  200.584   20.654
  511.500    7.510    0.284    0.083  200.622   27.082
  511.750    6.728    0.285    0.102  200.666   28.940
  512.000    5.809    0.287    0.115  200.715   28.055
  512.250    5.156    0.295    0.124  200.753   26.858
  512.500    5.156    0.316    0.133  201.321   25.970
  512.750    4.758    0.356    0.165  200.856   26.910
  513.000    4.629    0.377    0.168  200.894   28.159
  513.250    4.592    0.381    0.160  200.435   26.664
  513.500    4.769    0.377    0.149  200.473   25.465
  513.750    5.001    0.375    0.137  200.517   23.970
  514.000    5.147    0.387    0.133  200.555   23.691
  514.250    4.965    0.395    0.125  200.604   24.327
  514.500    4.746    0.393    0.111  200.647   24.966
  514.750    4.494    0.384    0.098  200.696   24.989
  515.000    4.499    0.379    0.101  201.253   25.015
