~VERSION INFORMATION
 VERS.                 2.0:   CWLS LOG ASCII STANDARD -VERSION 2.0
 WRAP.                  NO:   ONE LINE PER DEPTH STEP
~WELL INFORMATION BLOCK
#MNEM.UNIT           DATA                    DESCRIPTION OF MNEMONIC
#---------    -------------------            -------------------------------
# Generated from Intellog Unique Number	CC_80_83/WELL/2341
NULL.         -999.25                        : NULL_VALUE
WELL.         HOMESTEAD ET AL COWPAR         : WELL_NAME
LOC .         10-09-080-04W4                 : Location     - LOCATION          
UWI .         00/10-09-080-04W400            : Uwi          - UNIQUE WELL ID    
ENTR.         DW                             : Entered      - ENTERED BY        
SRVC.         SCHLUMBERGER                   : Scn          - SERVICE COMPANY   
DATE.         23 JAN 72                      : Date         - LOG DATE
STRT.M        94.488                         : top_depth    - START DEPTH       
STOP.M        320.04                         : bot_depth    - STOP DEPTH        
STEP.M        0.3048                         : increment    - STEP LENGTH       
~CURVE INFORMATION BLOCK
#MNEM UNIT       ERCB CURVE CODE    CURVE DESCRIPTION
#-----------   ------------------   ----------------------------------
DEPT.M        00 001 00 00         : DEPTH        - DEPTH                       
NPHI.V/V      00 330 00 00         : PHIN         - NEUTRON POROSITY (LIMESTONE)
GR  .API      00 310 00 00         : GR           - GAMMA RAY                   
DPHI.V/V      00 890 00 00         : PHID         - DENSITY POROSITY (LIMESTONE)
ILD .OHMM     00 120 00 00         : RESD         - DEEP RESISTIVITY (DIL)      
~PARAMETER INFORMATION       
#MNEM.UNIT           DATA             DESCRIPTION OF MNEMONIC
#---------         -----------     ------------------------------
GL  .M        479.45               : gl           - GROUND LEVEL ELEVATION      
EREF.M        483.108              : kb           - ELEVATION OF DEPTH REFERENCE
DATM.M        483.108              : datum        - DATUM ELEVATION             
TDD .M        331.622              : tdd          - TOTAL DEPTH DRILLER         
RUN .         ONE                  : Run          - RUN NUMBER                  
ENG .         BILL                 : Engineer     - RECORDING ENGINEER          
WIT .         JIM                  : Witness      - WITNESSED BY                
MUD .         GEL                  : Mud_type     - MUD TYPE                    
MATR.         LIMESTONE            : Logunit      - NEUTRON MATRIX              
TMAX.C        21.1111              : BHT          - MAXIMUM RECORDED TEMPERATURE
BHTD.M        331.622              : BHTDEP       - MAXIMUM RECORDED TEMPERATURE
MATR.         1                    : LOGUNIT      - NEUTRON MATRIX              
RMT .C        25                   : MDTP         - TEMPERATURE OF MUD          
NEUT.         0                    : NEUTRON      - NEUTRON TYPE                
RESI.         0                    : RESIST       - RESISTIVITY TYPE            
RMC .OHMM     0.25                 : RMC          - RESISTIVITY OF MUD CAKE     
RMF .OHMM     0.25                 : RMF          - RESISTIVITY OF MUD FILTRATE 
SUFT.C        15                   : SUFT         - SURFACE TEMPERATURE         
~A  DEPTH     PHIN       GR     PHID     RESD
# ...
  200.557    0.427   87.704    0.293    3.441
  200.862    0.432   91.762    0.300    4.141
  201.167    0.486   95.819    0.309    5.078
  201.472    0.476   95.417    0.300    5.782
  201.776    0.430   83.662    0.267    6.580
  202.081    0.404   74.746    0.120    7.212
  202.386    0.384   68.262    0.174    7.343
  202.691    0.357   73.941    0.252    7.335
  202.996    0.306   83.675    0.271    7.193
  203.300    0.390   84.489    0.266    7.051
  203.605    0.396   81.654    0.288    7.448
  203.910    0.414   80.440    0.299    7.441
  204.215    0.424   78.822    0.313    6.900
  204.520    0.418   72.338    0.306    5.510
  204.824    0.396   71.936    0.283    4.742
  205.129    0.382   86.129    0.281    4.080
  205.434    0.410   86.538    0.292    3.855
  205.739    0.425   86.136    0.297    3.923
  206.044    0.445   82.895    0.282    4.221
  206.348    0.450   78.438    0.268    4.378
  206.653    0.441   74.388    0.276    4.712
  206.958    0.447   73.175    0.292    4.885
  207.263    0.447   74.799    0.291    5.065
  207.568    0.445   83.722    0.304    5.554
  207.872    0.461   82.508    0.311    5.977
  208.177    0.457   80.079    0.314    6.315
  208.482    0.411   76.433    0.325    6.429
  208.787    0.404   71.976    0.331    6.422
  209.091    0.416   69.141    0.335    5.735
  209.396    0.421   67.118    0.323    5.125
  209.701    0.439   70.364    0.290    4.169
  210.006    0.412   81.719    0.269    3.795
  210.311    0.432   78.074    0.288    2.974
  210.615    0.420   77.265    0.302    2.608
  210.920    0.405   78.891    0.330    2.372
  211.225    0.440   75.244    0.321    2.283
  211.530    0.455   70.382    0.318    2.239
  211.835    0.489   70.792    0.328    2.279
  212.139    0.511   70.794    0.335    2.363
  212.444    0.483   69.987    0.333    2.405
  212.749    0.501   72.017    0.321    2.637
  213.054    0.500   75.263    0.305    3.002
  213.359    0.512   78.104    0.301    3.481
  213.663    0.552   80.839    0.287    3.963
  213.968    0.511   82.862    0.256    4.594
  214.273    0.460   80.825    0.251    4.945
  214.578    0.443   77.971    0.260    5.225
  214.883    0.466   77.559    0.289    5.219
  215.187    0.445   75.519    0.283    4.749
  215.492    0.394   78.761    0.282    4.087
  215.797    0.377   82.004    0.294    3.788
  216.102    0.377   82.809    0.287    3.579
  216.407    0.405   85.644    0.291    3.443
  216.711    0.437   90.106    0.298    3.440
  217.016    0.461   88.471    0.254    3.438
  217.321    0.430   86.431    0.271    3.432
  217.626    0.424   83.582    0.271    3.429
  217.931    0.453   80.323    0.268    3.425
  218.235    0.459   82.347    0.266    3.487
  218.540    0.455   88.025    0.270    3.548
  218.845    0.438   90.862    0.284    3.612
  219.150    0.425   86.385    0.295    3.888
  219.454    0.447   82.316    0.286    4.591
  219.759    0.441   83.525    0.297    5.035
  220.064    0.452   82.299    0.301    5.030
  220.369    0.423   87.165    0.297    4.840
  220.674    0.365   84.721    0.291    4.748
  220.978    0.351   79.838    0.274    4.921
  221.283    0.373   78.205    0.256    5.104
  221.588    0.386   80.228    0.255    5.494
  221.893    0.380   68.438    0.207    6.251
  222.198    0.366   59.898    0.099    6.362
  222.502    0.358   66.797    0.123    6.240
  222.807    0.300   80.603    0.227    5.892
  223.112    0.261   74.907    0.266    5.779
  223.417    0.352   67.992    0.279    5.160
  223.722    0.370   65.546    0.303    4.696
  224.026    0.339   65.945    0.322    4.118
  224.331    0.317   75.688    0.327    3.544
  224.636    0.362   78.116    0.328    3.107
  224.941    0.413   78.110    0.325    2.990
  225.246    0.424   81.352    0.314    3.159
  225.550    0.420   83.780    0.293    3.662
  225.855    0.427   83.367    0.265    4.169
  226.160    0.399   76.045    0.255    5.019
  226.465    0.366   72.381    0.277    5.819
  226.770    0.315   80.905    0.255    5.923
  227.074    0.289   84.960    0.238    5.699
  227.379    0.295   69.919    0.244    5.588
  227.684    0.312   66.662    0.261    5.685
  227.989    0.309   73.154    0.258    5.787
  228.294    0.288   68.676    0.257    5.891
  228.598    0.290   69.888    0.257    6.108
  228.903    0.305   67.849    0.271    6.452
  229.208    0.317   64.591    0.275    6.693
  229.513    0.334   68.645    0.279    7.065
  229.818    0.338   74.326    0.291    6.930
  230.122    0.299   80.817    0.297    6.545
  230.427    0.283   80.810    0.298    6.070
  230.732    0.275   75.520    0.312    5.732
  231.037    0.278   66.573    0.309    5.519
  231.341    0.263   59.254    0.317    4.247
  231.646    0.253   51.120    0.335    3.207
  231.951    0.244   48.268    0.394    2.561
  232.256    0.229   50.292    0.354    2.204
  232.561    0.255   56.377    0.332    2.043
  232.865    0.342   44.995    0.324    2.003
  233.170    0.363   48.642    0.327    2.077
  233.475    0.331   56.354    0.302    2.154
  233.780    0.337   52.284    0.318    2.276
  234.085    0.336   49.838    0.306    2.404
  234.389    0.332   59.175    0.295    2.493
  234.694    0.353   61.602    0.298    2.634
  234.999    0.346   59.971    0.294    2.680
  235.304    0.354   61.994    0.303    2.532
  235.609    0.355   64.421    0.287    2.482
  235.913    0.329   63.197    0.327    2.526
  236.218    0.329   58.314    0.319    2.669
  236.523    0.368   55.868    0.303    2.768
  236.828    0.363   59.110    0.321    2.764
  237.133    0.334   59.914    0.294    2.660
  237.437    0.317   58.281    0.289    2.513
  237.742    0.308   56.241    0.342    2.330
  238.047    0.308   52.577    0.349    2.201
  238.352    0.334   49.727    0.345    2.118
  238.657    0.379   47.686    0.336    2.116
  238.961    0.388   48.491    0.321    2.194
  239.266    0.357   53.766    0.291    2.275
  239.571    0.345   51.726    0.296    2.315
  239.876    0.356   49.686    0.301    2.400
  240.181    0.368   54.148    0.317    2.444
  240.485    0.341   72.016    0.317    2.395
  240.790    0.358   53.726    0.293    2.263
  241.095    0.361   39.092    0.292    2.097
  241.400    0.342   40.708    0.308    2.019
  241.704    0.339   59.797    0.323    1.944
  242.009    0.356   53.288    0.314    1.835
  242.314    0.342   34.998    0.306    1.800
  242.619    0.335   39.863    0.333    1.765
  242.924    0.347   36.605    0.358    1.730
  243.228    0.352   35.785    0.351    1.696
  243.533    0.346   37.403    0.357    1.664
  243.838    0.369   49.989    0.360    1.661
  244.143    0.368   44.294    0.351    1.660
  244.448    0.366   28.034    0.312    1.689
  244.752    0.372   30.870    0.348    1.687
  245.057    0.374   30.863    0.378    1.685
  245.362    0.367   37.355    0.369    1.716
  245.667    0.368   46.691    0.340    1.779
  245.972    0.371   49.121    0.334    1.950
  246.276    0.365   44.239    0.347    2.061
  246.581    0.361   43.823    0.332    2.058
  246.886    0.366   47.879    0.348    1.981
  247.191    0.372   50.715    0.337    1.871
  247.496    0.383   47.457    0.331    1.702
  247.800    0.419   32.823    0.339    1.670
  248.105    0.401   29.159    0.368    1.606
  248.410    0.370   29.149    0.379    1.636
  248.715    0.411   35.642    0.369    1.761
  249.020    0.433   44.979    0.349    2.119
  249.324    0.410   55.535    0.325    2.504
  249.629    0.374   55.120    0.294    2.746
  249.934    0.336   57.956    0.279    2.691
  250.239    0.361   64.042    0.297    2.496
  250.544    0.365   55.096    0.296    2.069
  250.848    0.338   37.212    0.318    1.848
  251.153    0.334   32.735    0.342    1.713
  251.458    0.349   31.508    0.361    1.589
  251.763    0.366   34.749    0.348    1.500
  252.067    0.390   39.212    0.340    1.676
  252.372    0.392   50.580    0.319    1.908
  252.677    0.366   68.448    0.298    2.296
  252.982    0.390   59.908    0.297    2.426
  253.287    0.390   52.181    0.317    2.335
