~VERSION INFORMATION
 VERS.                 2.0:   CWLS LOG ASCII STANDARD -VERSION 2.0
 WRAP.                  NO:   ONE LINE PER DEPTH STEP
~WELL INFORMATION BLOCK
#MNEM.UNIT           DATA                    DESCRIPTION OF MNEMONIC
#---------    -------------------            -------------------------------
# Generated from Intellog Unique Number	CC_80_83/WELL/2384
NULL.         -999.25                        : NULL_VALUE
WELL.         BVX ET AL WATCHUSK             : Well_name    - WELL
LOC .         10-29-081-02W4                 : Location     - LOCATION          
UWI .         00/10-29-081-02W400            : Uwi          - UNIQUE WELL ID    
ENTR.         DW                             : Entered      - ENTERED BY        
SRVC.         SCHLUMBERGER                   : Scn          - SERVICE COMPANY   
DATE.         14 FEB 79                      : Date         - LOG DATE
STRT.M        125                            : top_depth    - START DEPTH       
STOP.M        265.101                        : bot_depth    - STOP DEPTH        
STEP.M        0.3                            : increment    - STEP LENGTH       
~CURVE INFORMATION BLOCK
#MNEM UNIT       ERCB CURVE CODE    CURVE DESCRIPTION
#-----------   ------------------   ----------------------------------
DEPT.M        00 001 00 00         : DEPTH        - DEPTH                       
DPHI.V/V      00 890 00 00         : PHID         - DENSITY POROSITY (LIMESTONE)
NPHI.V/V      00 330 00 00         : PHIN         - NEUTRON POROSITY (LIMESTONE)
GR  .API      00 310 00 00         : GR           - GAMMA RAY                   
ILD .OHMM     00 120 00 00         : RESD         - DEEP RESISTIVITY (DIL)      
~PARAMETER INFORMATION       
#MNEM.UNIT           DATA             DESCRIPTION OF MNEMONIC
#---------         -----------     ------------------------------
GL  .M        474                  : gl           - GROUND LEVEL ELEVATION      
EREF.M        477                  : kb           - ELEVATION OF DEPTH REFERENCE
DATM.M        477                  : datum        - DATUM ELEVATION             
TDD .M        276                  : tdd          - TOTAL DEPTH DRILLER         
RUN .         ONE                  : Run          - RUN NUMBER                  
ENG .         BILL                 : Engineer     - RECORDING ENGINEER          
WIT .         JIM                  : Witness      - WITNESSED BY                
MUD .         GEL                  : Mud_type     - MUD TYPE                    
MATR.         LIMESTONE            : Logunit      - NEUTRON MATRIX              
TMAX.C        24.4                 : BHT          - MAXIMUM RECORDED TEMPERATURE
BHTD.M        276                  : BHTDEP       - MAXIMUM RECORDED TEMPERATURE
MATR.         1                    : LOGUNIT      - NEUTRON MATRIX              
RMT .C        25                   : MDTP         - TEMPERATURE OF MUD          
NEUT.         1                    : NEUTRON      - NEUTRON TYPE                
RESI.         0                    : RESIST       - RESISTIVITY TYPE            
RMC .OHMM     0.25                 : RMC          - RESISTIVITY OF MUD CAKE     
RMF .OHMM     0.25                 : RMF          - RESISTIVITY OF MUD FILTRATE 
SUFT.C        15                   : SUFT         - SURFACE TEMPERATURE         
~A  DEPTH     PHID     PHIN       GR     RESD
# ...
  177.201    0.289    0.467   87.044    6.194
  177.501    0.250    0.470   90.743    6.429
  177.801    0.243    0.495   90.135    6.076
  178.101    0.265    0.536   88.303    5.131
  178.401    0.288    0.589   90.769    4.095
  178.701    0.319    0.624   92.009    3.090
  179.001    0.311    0.645   88.327    2.658
  179.301    0.314    0.651   84.031    2.331
  179.601    0.314    0.652   84.040    2.121
  179.901    0.306    0.641   88.971    2.121
  180.201    0.282    0.620   88.364    2.201
  180.501    0.270    0.587   86.528    2.464
  180.801    0.260    0.529   85.923    2.705
  181.101    0.250    0.491   85.933    3.203
  181.401    0.252    0.477   89.631    3.652
  181.701    0.239    0.493   94.560    4.086
  182.001    0.234    0.503   97.029    4.487
  182.301    0.244    0.501   89.657    4.928
  182.601    0.257    0.497   89.667    5.311
  182.901    0.250    0.500   93.983    5.411
  183.201    0.251    0.514   98.296    5.512
  183.501    0.250    0.540   98.307    5.112
  183.801    0.244    0.549   99.545    4.923
  184.101    0.239    0.557  100.784    4.157
  184.401    0.241    0.563   92.797    3.510
  184.701    0.242    0.559   93.421    3.317
  185.001    0.240    0.558   98.352    3.077
  185.301    0.241    0.553   95.902    3.134
  185.601    0.251    0.537   97.139    3.254
  185.901    0.261    0.525  101.453    3.315
  186.201    0.245    0.525  103.927    3.377
  186.501    0.255    0.528  102.704    3.376
  186.801    0.257    0.531  102.097    3.191
  187.101    0.263    0.534   99.650    3.072
  187.401    0.256    0.549   99.038    3.015
  187.701    0.247    0.553   99.663    3.014
  188.001    0.236    0.537   95.981    3.071
  188.301    0.239    0.494   89.225    3.501
  188.601    0.240    0.493   89.236    3.773
  188.901    0.235    0.527   92.321    4.067
  189.201    0.240    0.533   93.557    4.466
  189.501    0.232    0.500   94.182    4.465
  189.801    0.220    0.451   91.730    4.549
  190.101    0.203    0.423   83.743    4.995
  190.401    0.169    0.410   79.446    5.185
  190.701    0.111    0.389   68.999    5.802
  191.001    0.150    0.377   66.548    6.372
  191.301    0.248    0.406   65.327    6.136
  191.601    0.290    0.440   61.029    5.799
  191.901    0.302    0.422   50.581    4.629
  192.201    0.309    0.421   41.979    4.135
  192.501    0.320    0.417   42.606    3.694
  192.801    0.325    0.414   45.690    3.362
  193.101    0.319    0.436   50.619    3.178
  193.401    0.314    0.457   54.317    3.060
  193.701    0.318    0.477   56.172    3.002
  194.001    0.325    0.463   56.181    3.002
  194.301    0.329    0.473   56.805    3.116
  194.601    0.328    0.485   59.277    3.115
  194.901    0.314    0.484   61.744    3.115
  195.201    0.304    0.466   69.136    3.114
  195.501    0.291    0.472   75.295    3.113
  195.801    0.277    0.495   83.300    3.113
  196.101    0.282    0.540   85.156    3.171
  196.401    0.288    0.550   77.171    3.231
  196.701    0.297    0.506   72.257    3.354
  197.001    0.299    0.447   71.036    3.353
  197.301    0.292    0.434   71.659    3.480
  197.601    0.280    0.445   66.748    3.681
  197.901    0.283    0.440   59.989    3.821
  198.201    0.278    0.439   59.384    3.821
  198.501    0.292    0.451   62.468    3.749
  198.801    0.315    0.474   60.019    3.678
  199.101    0.318    0.483   54.490    3.542
  199.401    0.319    0.472   53.269    3.541
  199.701    0.305    0.452   60.044    3.540
  200.001    0.299    0.456   60.054    3.540
  200.301    0.322    0.451   56.372    3.606
  200.601    0.310    0.413   63.762    3.814
  200.901    0.292    0.399   77.922    3.959
  201.201    0.261    0.383   81.006    4.110
  201.501    0.232    0.365   82.860    4.430
  201.801    0.220    0.359   84.101    4.865
  202.101    0.229    0.364   85.953    5.342
  202.401    0.224    0.387   90.882    5.866
  202.701    0.212    0.408   93.352    6.090
  203.001    0.207    0.420   89.057    6.089
  203.301    0.210    0.420   90.295    5.974
  203.601    0.211    0.413   95.839    5.862
  203.901    0.210    0.415  100.155    5.752
  204.201    0.216    0.437   95.245    5.970
  204.501    0.235    0.430   87.255    6.082
  204.801    0.246    0.402   74.347    6.082
  205.101    0.249    0.380   77.437    5.967
  205.401    0.228    0.388   77.442    5.639
  205.701    0.233    0.394   75.606    5.230
  206.001    0.241    0.402   75.000    4.943
  206.301    0.223    0.405   77.470    4.850
  206.601    0.244    0.408   78.095    4.849
  206.901    0.250    0.406   76.257    4.848
  207.201    0.244    0.397   70.729    4.847
  207.501    0.256    0.393   64.588    4.668
  207.801    0.260    0.399   66.442    4.580
  208.101    0.246    0.384   72.601    4.329
  208.401    0.234    0.385   77.532    4.168
  208.701    0.257    0.392   78.773    4.090
  209.001    0.239    0.395   80.013    4.089
  209.301    0.230    0.394   80.025    4.166
  209.601    0.249    0.388   75.108    4.243
  209.901    0.255    0.385   67.736    4.243
  210.201    0.249    0.390   70.206    4.163
  210.501    0.257    0.401   69.599    4.085
  210.801    0.258    0.395   67.149    4.084
  211.101    0.261    0.395   65.313    4.083
  211.401    0.269    0.411   65.937    4.007
  211.701    0.290    0.417   61.639    3.931
  212.001    0.305    0.421   53.652    3.646
  212.301    0.311    0.421   52.431    3.257
  212.601    0.316    0.411   51.824    2.965
  212.901    0.305    0.404   54.295    2.802
  213.201    0.306    0.406   60.456    2.698
  213.501    0.316    0.423   68.460    2.749
  213.801    0.285    0.433   81.386    3.076
  214.101    0.232    0.485   90.007    3.507
  214.401    0.241    0.496   83.250    3.924
  214.701    0.276    0.473   65.421    4.074
  215.001    0.287    0.438   56.203    3.850
  215.301    0.291    0.418   58.058    3.439
  215.601    0.301    0.389   53.145    3.072
  215.901    0.298    0.385   43.313    2.904
  216.201    0.300    0.385   37.785    2.796
  216.501    0.311    0.386   39.641    2.692
  216.801    0.318    0.389   48.876    2.692
  217.101    0.317    0.396   59.957    2.742
  217.401    0.279    0.408   73.499    2.955
  217.701    0.242    0.466   86.426    3.068
  218.001    0.253    0.526   77.209    3.185
  218.301    0.308    0.502   51.382    3.125
  218.601    0.325    0.424   43.396    2.898
  218.901    0.310    0.390   48.326    2.739
  219.201    0.308    0.400   59.407    2.638
  219.501    0.304    0.413   67.412    2.637
  219.801    0.294    0.417   68.651    2.738
  220.101    0.293    0.429   60.664    2.895
  220.401    0.312    0.440   57.598    2.950
  220.701    0.310    0.431   61.298    2.841
  221.001    0.305    0.425   72.993    2.840
  221.301    0.285    0.426   84.075    2.893
  221.601    0.255    0.470   81.009    3.003
  221.901    0.258    0.441   74.252    3.489
  222.201    0.266    0.447   71.802    3.760
  222.501    0.285    0.454   65.043    3.978
  222.801    0.305    0.450   58.901    3.830
  223.101    0.330    0.446   59.525    3.295
  223.401    0.325    0.456   66.301    3.234
  223.701    0.333    0.457   73.076    3.233
  224.001    0.330    0.441   78.621    3.232
  224.301    0.275    0.482   81.707    3.232
  224.601    0.291    0.479   76.178    3.418
  224.901    0.297    0.443   63.885    3.548
  225.201    0.305    0.430   56.513    3.683
  225.501    0.336    0.438   50.985    3.481
  225.801    0.345    0.435   49.765    3.052
  226.101    0.331    0.430   55.310    2.675
  226.401    0.303    0.426   68.236    2.390
  226.701    0.281    0.447   71.322    2.345
  227.001    0.305    0.436   63.334    2.434
  227.301    0.309    0.415   57.806    2.575
  227.601    0.289    0.411   59.046    2.723
  227.901    0.311    0.413   52.906    2.880
  228.201    0.339    0.430   52.299    2.880
  228.501    0.342    0.435   59.689    2.773
  228.801    0.322    0.432   68.311    2.671
  229.101    0.303    0.428   68.936    2.670
