~VERSION INFORMATION
 VERS.                 2.0:   CWLS LOG ASCII STANDARD -VERSION 2.0
 WRAP.                  NO:   ONE LINE PER DEPTH STEP
~WELL INFORMATION BLOCK
#MNEM.UNIT           DATA                    DESCRIPTION OF MNEMONIC
#---------    -------------------            -------------------------------
# Generated from Intellog Unique Number	CW_70_72/WELL/1055
NULL.         -999.25                        : NULL_VALUE
WELL.         NORCEN VICTOR 11-08            : Well_name    - WELL              
LOC .         11-08-072-01W5                 : Location     - LOCATION          
UWI .         00/11-08-072-01W5/0            : Uwi          - UNIQUE WELL ID    
ENTR.         JAYE                           : Entered      - ENTERED BY        
SRVC.         WESTERN ATLAS                  : Scn          - SERVICE COMPANY   
DATE.         11 MAR 81                      : Date         - LOG DATE          
STRT.M        424                            : top_depth    - START DEPTH       
STOP.M        673                            : bot_depth    - STOP DEPTH        
STEP.M        0.25                           : increment    - STEP LENGTH       
~CURVE INFORMATION BLOCK
#MNEM UNIT       ERCB CURVE CODE    CURVE DESCRIPTION
#-----------   ------------------   ----------------------------------
DEPT.M        00 001 00 00         : DEPTH        - DEPTH                       
DPHI.V/V      00 890 00 00         : PHID         - DENSITY POROSITY (SANDSTONE)
NPHI.V/V      00 330 00 00         : PHIN         - NEUTRON POROSITY (SANDSTONE)
GR  .API      00 310 00 00         : GR           - GAMMA RAY                   
CALI.MM       00 280 01 00         : CAL          - CALIPER                     
ILD .OHMM     00 120 00 00         : RESD         - DEEP RESISTIVITY (DIL)      
~PARAMETER INFORMATION       
#MNEM.UNIT           DATA             DESCRIPTION OF MNEMONIC
#---------         -----------     ------------------------------
GL  .M        610.84               : gl           - GROUND LEVEL ELEVATION      
EREF.M        615.4                : kb           - ELEVATION OF DEPTH REFERENCE
DATM.M        610.84               : datum        - DATUM ELEVATION             
TDD .M        685                  : tdd          - TOTAL DEPTH DRILLER         
RUN .         ONE                  : Run          - RUN NUMBER                  
BASE.         R.D.                 : Branch       - HOME BASE OF LOGGING UNIT   
MUD .         GEL CHEM             : Mud_type     - MUD TYPE                    
MATR.         SANDSTONE            : Logunit      - NEUTRON MATRIX              
TMAX.C        30                   : BHT          - MAXIMUM RECORDED TEMPERATURE
BHTD.M        685.4                : BHTDEP       - MAXIMUM RECORDED TEMPERATURE
RMT .C        5                    : MDTP         - TEMPERATURE OF MUD          
MUDD.KG/M     1110                 : MWT          - MUD DENSITY                 
NEUT.         1                    : NEUTRON      - NEUTRON TYPE                
RESI.         0                    : RESIST       - RESISTIVITY TYPE            
RM  .OHMM     7                    : RM           - RESISTIVITY OF MUD          
RMC .OHMM     3.5                  : RMC          - RESISTIVITY OF MUD CAKE     
RMF .OHMM     4.5                  : RMF          - RESISTIVITY OF MUD FILTRATE 
SUFT.C        0                    : SUFT         - SURFACE TEMPERATURE         
~A  DEPTH     PHID     PHIN       GR      CAL     RESD
# ...
  497.000    0.236    0.343   72.756  198.008    2.136
  497.250    0.241    0.338   74.922  197.932    2.159
  497.500    0.234    0.335   80.504  197.641    2.138
  497.750    0.213    0.345   78.938  197.882    2.032
  498.000    0.199    0.356   73.516  197.907    1.912
  498.250    0.218    0.366   68.599  198.035    1.807
  498.500    0.248    0.357   63.936  198.385    1.703
  498.750    0.286    0.352   61.357  198.515    1.636
  499.000    0.279    0.348   60.172  198.540    1.591
  499.250    0.265    0.343   64.047  198.563    1.566
  499.500    0.261    0.339   66.653  198.484    1.563
  499.750    0.266    0.344   67.111  198.196    1.569
  500.000    0.269    0.354   67.127  197.906    1.583
  500.250    0.270    0.354   68.282  197.506    1.601
  500.500    0.269    0.345   70.321  197.221    1.634
  500.750    0.270    0.349   72.362  197.141    1.671
  501.000    0.268    0.355   73.198  197.064    1.696
  501.250    0.265    0.360   73.530  197.089    1.735
  501.500    0.262    0.355   74.114  197.115    1.757
  501.750    0.255    0.352   73.182  197.243    1.790
  502.000    0.251    0.354   67.697  197.376    1.810
  502.250    0.256    0.358   67.270  197.617    1.820
  502.500    0.256    0.354   70.196  197.637    1.813
  502.750    0.250    0.346   73.246  197.978    1.792
  503.000    0.241    0.362   77.814  198.430    1.738
  503.250    0.230    0.374   75.109  198.664    1.683
  503.500    0.215    0.369   80.565  199.013    1.629
  503.750    0.177    0.355   81.087  199.245    1.602
  504.000    0.229    0.343   75.473  199.484    1.583
  504.250    0.258    0.338   71.759  199.718    1.580
  504.500    0.271    0.347   73.041  199.748    1.585
  504.750    0.274    0.359   75.456  199.771    1.594
  505.000    0.274    0.368   77.561  199.586    1.637
  505.250    0.272    0.378   73.655  199.612    1.686
  505.500    0.269    0.382   72.278  199.539    1.791
  505.750    0.267    0.371   75.456  199.667    1.870
  506.000    0.261    0.364   80.341  199.901    1.986
  506.250    0.246    0.361   84.912  200.032    2.097
  506.500    0.225    0.365   88.151  200.268    2.211
  506.750    0.191    0.373   89.370  200.718    2.317
  507.000    0.171    0.379   89.829  201.271    2.361
  507.250    0.179    0.386   87.820  201.930    2.410
  507.500    0.201    0.366   83.407  202.797    2.455
  507.750    0.205    0.349   87.472  204.299    2.487
  508.000    0.187    0.335   89.700  205.698    2.539
  508.250    0.160    0.326   84.342  206.568    2.578
  508.500    0.164    0.360   83.914  207.122    2.621
  508.750    0.167    0.362   87.217  207.460    2.656
  509.000    0.146    0.357   90.016  208.014    2.664
  509.250    0.135    0.348   89.842  208.355    2.663
  509.500    0.147    0.374   90.493  208.699    2.639
  509.750    0.147    0.390   90.380  208.830    2.613
  510.000    0.145    0.377   87.362  208.965    2.558
  510.250    0.140    0.367   83.644  209.098    2.510
  510.500    0.136    0.361   80.879  209.119    2.490
  510.750    0.129    0.365   80.387  209.145    2.499
  511.000    0.135    0.365   81.353  209.174    2.532
  511.250    0.148    0.361   85.730  208.991    2.589
  511.500    0.160    0.352   91.184  208.911    2.628
  511.750    0.172    0.339   84.562  208.623    2.623
  512.000    0.165    0.344   78.948  208.537    2.568
  512.250    0.167    0.354   77.635  208.462    2.473
  512.500    0.178    0.358   81.002  208.170    2.358
  512.750    0.203    0.368   85.571  207.669    2.227
  513.000    0.232    0.383   77.303  207.061    2.124
  513.250    0.273    0.380   71.122  206.035    2.037
  513.500    0.264    0.360   68.923  205.113    1.987
  513.750    0.244    0.353   68.497  203.978    1.928
  514.000    0.261    0.354   69.841  202.741    1.906
  514.250    0.276    0.360   70.999  201.606    1.877
  514.500    0.282    0.363   71.452  201.631    1.849
  514.750    0.285    0.368   71.405  201.237    1.847
  515.000    0.285    0.374   69.398  201.369    1.872
  515.250    0.283    0.384   69.669  201.713    1.929
  515.500    0.267    0.395   70.567  201.947    1.980
  515.750    0.251    0.385   73.746  202.505    2.006
  516.000    0.248    0.378   77.303  202.534    2.020
  516.250    0.220    0.383   83.452  202.557    2.025
  516.500    0.185    0.386   79.167  202.369    2.027
  516.750    0.209    0.385   79.309  202.293    2.016
  517.000    0.247    0.380   81.603  202.425    2.004
  517.250    0.233    0.374   83.767  202.342    1.984
  517.500    0.230    0.362   75.562  202.372    1.965
  517.750    0.231    0.353   68.685  201.972    1.932
  518.000    0.236    0.342   70.093  201.368    1.902
  518.250    0.241    0.349   72.573  200.871    1.884
  518.500    0.248    0.357   74.617  200.261    1.866
  518.750    0.255    0.356   75.008  200.074    1.831
  519.000    0.258    0.350   74.201  199.790    1.786
  519.250    0.261    0.346   74.600  199.813    1.722
  519.500    0.267    0.343   75.120  199.421    1.680
  519.750    0.274    0.348   75.197  199.128    1.648
  520.000    0.278    0.353   75.594  199.051    1.638
  520.250    0.277    0.348   76.872  199.285    1.660
  520.500    0.271    0.342   74.109  199.949    1.717
  520.750    0.264    0.348   73.110  200.392    1.793
  521.000    0.258    0.355   75.657  200.627    1.868
  521.250    0.255    0.365   78.833  201.390    1.947
  521.500    0.247    0.383   76.762  202.154    2.010
  521.750    0.231    0.381   75.704  202.812    2.056
  522.000    0.210    0.376   78.437  202.842    2.087
  522.250    0.191    0.370   81.362  202.656    2.083
  522.500    0.221    0.367   80.304  202.470    2.031
  522.750    0.243    0.363   76.083  202.184    1.937
  523.000    0.258    0.359   71.038  201.894    1.820
  523.250    0.269    0.352   69.916  201.706    1.762
  523.500    0.285    0.333   71.071  201.415    1.775
  523.750    0.290    0.341   72.856  201.336    1.829
  524.000    0.277    0.343   76.287  201.258    1.910
  524.250    0.271    0.343   79.591  201.390    2.010
  524.500    0.266    0.342   79.732  201.414    2.114
  524.750    0.261    0.342   72.729  201.335    2.224
  525.000    0.252    0.345   73.632  201.470    2.318
  525.250    0.246    0.343   77.314  201.919    2.421
  525.500    0.257    0.330   81.376  202.260    2.465
  525.750    0.258    0.332   76.650  202.498    2.498
  526.000    0.256    0.339   75.273  202.631    2.432
  526.250    0.254    0.353   75.798  202.865    2.332
  526.500    0.253    0.350   76.380  202.888    2.289
  526.750    0.253    0.344   77.853  202.814    2.267
  527.000    0.249    0.342   77.108  202.521    2.257
  527.250    0.239    0.349   78.642  202.124    2.248
  527.500    0.233    0.359   81.061  201.623    2.231
  527.750    0.241    0.353   80.507  201.543    2.218
  528.000    0.244    0.342   78.498  201.466    2.196
  528.250    0.257    0.333   79.147  201.600    2.196
  528.500    0.243    0.343   80.997  201.413    2.216
  528.750    0.235    0.350   81.139  201.227    2.380
  529.000    0.230    0.337   79.762  201.256    2.696
  529.250    0.202    0.320   74.718  201.387    3.099
  529.500    0.183    0.301   67.462  201.312    3.571
  529.750    0.157    0.289   67.036  201.440    4.021
  530.000    0.118    0.277   70.150  201.676    4.642
  530.250    0.105    0.264   71.747  201.805    5.177
  530.500    0.086    0.255   68.600  202.574    5.898
  530.750    0.054    0.224   62.734  203.442    6.393
  531.000    0.005    0.197   63.889  205.257    7.145
  531.250   -0.011    0.183   66.118  208.553    7.838
  531.500   -0.008    0.173   67.144  210.474    8.434
  531.750   -0.011    0.165   65.391  211.772    9.234
  532.000   -0.014    0.159   62.749  212.218   10.052
  532.250   -0.012    0.149   60.109  212.346   10.653
  532.500   -0.012    0.150   58.734  212.058   11.251
  532.750   -0.007    0.157   61.280  211.869   11.376
  533.000   -0.006    0.162   62.941  211.376   10.789
  533.250   -0.006    0.168   63.525  210.978    9.852
