~VERSION INFORMATION
 VERS.                 2.0:   CWLS LOG ASCII STANDARD -VERSION 2.0
 WRAP.                  NO:   ONE LINE PER DEPTH STEP
~WELL INFORMATION BLOCK
#MNEM.UNIT           DATA                    DESCRIPTION OF MNEMONIC
#---------    -------------------            -------------------------------
# Generated from Intellog Unique Number	CW_70_72/WELL/3033
NULL.         -999.25                        : NULL_VALUE
WELL.         PANTHER FOW HUNDO 11-32        : Well_name    - WELL              
LOC .         11-32-070-01W5                 : Location     - LOCATION          
UWI .         00/11-32-070-01W5/0            : Uwi          - UNIQUE WELL ID    
ENTR.         JAYE                           : Entered      - ENTERED BY        
SRVC.         SCHLUMBERGER                   : Scn          - SERVICE COMPANY   
DATE.         18 FEB 79                      : Date         - LOG DATE          
STRT.M        410                            : top_depth    - START DEPTH       
STOP.M        655                            : bot_depth    - STOP DEPTH        
STEP.M        0.25                           : increment    - STEP LENGTH       
~CURVE INFORMATION BLOCK
#MNEM UNIT       ERCB CURVE CODE    CURVE DESCRIPTION
#-----------   ------------------   ----------------------------------
DEPT.M        00 001 00 00         : DEPTH        - DEPTH                       
ILD .OHMM     00 120 00 00         : RESD         - DEEP RESISTIVITY (DIL)      
CALI.MM       00 280 01 00         : CAL          - CALIPER                     
GR  .API      00 310 00 00         : GR           - GAMMA RAY                   
NPHI.V/V      00 330 00 00         : PHIN         - NEUTRON POROSITY (SANDSTONE)
DPHI.V/V      00 890 00 00         : PHID         - DENSITY POROSITY (SANDSTONE)
~PARAMETER INFORMATION       
#MNEM.UNIT           DATA             DESCRIPTION OF MNEMONIC
#---------         -----------     ------------------------------
GL  .M        591.1                : gl           - GROUND LEVEL ELEVATION      
EREF.M        595                  : kb           - ELEVATION OF DEPTH REFERENCE
DATM.M        591.1                : datum        - DATUM ELEVATION             
TDD .M        1533                 : tdd          - TOTAL DEPTH DRILLER         
RUN .         ONE                  : Run          - RUN NUMBER                  
ENG .         GILLIS               : Engineer     - RECORDING ENGINEER          
WIT .         WETHERLEY            : Witness      - WITNESSED BY                
BASE.         EDM                  : Branch       - HOME BASE OF LOGGING UNIT   
MUD .         GEL MUD              : Mud_type     - MUD TYPE                    
MATR.         SANDSTONE            : Logunit      - NEUTRON MATRIX              
TMAX.C        42                   : BHT          - MAXIMUM RECORDED TEMPERATURE
BHTD.M        1532.5               : BHTDEP       - MAXIMUM RECORDED TEMPERATURE
RMT .C        17                   : MDTP         - TEMPERATURE OF MUD          
MUDD.KG/M     1090                 : MWT          - MUD DENSITY                 
NEUT.         1                    : NEUTRON      - NEUTRON TYPE                
RESI.         0                    : RESIST       - RESISTIVITY TYPE            
RM  .OHMM     1.41                 : RM           - RESISTIVITY OF MUD          
RMC .OHMM     0.25                 : RMC          - RESISTIVITY OF MUD CAKE     
RMF .OHMM     1.13                 : RMF          - RESISTIVITY OF MUD FILTRATE 
SUFT.C        0                    : SUFT         - SURFACE TEMPERATURE         
~A  DEPTH     RESD      CAL       GR     PHIN     PHID
# ...
  592.500    1.963  334.851   85.401    0.506    0.288
  592.750    1.908  355.037   88.313    0.529    0.317
  593.000    1.875  336.268   91.229    0.535    0.365
  593.250    1.857  334.929   92.378    0.558    0.390
  593.500    1.887  319.940   90.187    0.588    0.341
  593.750    1.939  314.294   86.297    0.513    0.281
  594.000    2.099  325.766   83.666    0.486    0.219
  594.250    2.760  257.749   84.061    0.455    0.182
  594.500    3.880  266.597   86.406    0.396    0.182
  594.750    4.712  285.417   89.508    0.400    0.208
  595.000    5.245  271.690   89.839    0.416    0.210
  595.250    5.449  273.815   90.612    0.401    0.202
  595.500    5.558  289.588   97.305    0.398    0.170
  595.750    5.535  272.393   96.062    0.423    0.226
  596.000    5.471  256.253   94.059    0.395    0.147
  596.250    5.319  271.400   94.956    0.373    0.147
  596.500    5.218  285.807   97.306    0.396    0.176
  596.750    5.167  282.578   97.510    0.419    0.202
  597.000    5.211  290.167   94.880    0.421    0.205
  597.250    5.405  269.190   90.924    0.403    0.132
  597.500    5.850  255.985   86.719    0.374    0.148
  597.750    6.403  244.986   81.190    0.347    0.105
  598.000    7.022  236.612   75.472    0.326    0.114
  598.250    7.448  240.844   80.086    0.307    0.069
  598.500    7.682  248.640   85.141    0.334    0.131
  598.750    7.923  254.118   85.159    0.387    0.128
  599.000    8.249  238.919   76.038    0.356    0.078
  599.250    7.960  235.270   78.575    0.310    0.168
  599.500    6.858  243.489   83.125    0.361    0.256
  599.750    5.611  254.327   88.876    0.457    0.314
  600.000    4.871  274.248   96.680    0.414    0.115
  600.250    5.332  246.504   96.991    0.367    0.099
  600.500    5.822  245.845   94.799    0.376    0.090
  600.750    6.368  251.293   90.872    0.386    0.085
  601.000    6.953  250.958   86.303    0.375    0.070
  601.250    7.315  245.912   80.897    0.351    0.046
  601.500    7.554  241.294   78.062    0.347    0.073
  601.750    7.600  244.278   83.577    0.363    0.101
  602.000    7.548  247.046   89.031    0.376    0.117
  602.250    7.413  246.282   93.968    0.361    0.090
  602.500    7.334  243.376   92.033    0.346    0.059
  602.750    7.150  242.720   89.584    0.335    0.043
  603.000    7.008  243.780   90.796    0.338    0.091
  603.250    6.743  247.298   96.055    0.373    0.138
  603.500    6.416  259.595   99.259    0.403    0.160
  603.750    5.937  270.181   98.608    0.412    0.180
  604.000    5.556  285.478   96.286    0.404    0.170
  604.250    5.170  257.305   98.784    0.426    0.192
  604.500    5.012  272.603   97.040    0.444    0.198
  604.750    5.061  285.436   94.141    0.456    0.183
  605.000    5.188  279.641   90.599    0.473    0.179
  605.250    5.327  259.819   85.195    0.480    0.097
  605.500    5.370  243.853   76.193    0.401    0.079
  605.750    5.263  231.098   65.328    0.345    0.203
  606.000    4.953  221.983   52.601    0.360    0.245
  606.250    4.541  218.864   40.387    0.367    0.252
  606.500    4.056  217.774   34.276    0.369    0.246
  606.750    3.616  217.764   34.268    0.368    0.242
  607.000    3.243  218.284   37.084    0.363    0.227
  607.250    3.045  218.910   37.783    0.353    0.206
  607.500    2.909  219.115   37.004    0.345    0.229
  607.750    2.872  219.529   35.968    0.337    0.238
  608.000    2.879  219.513   36.602    0.330    0.237
  608.250    2.913  219.605   39.097    0.327    0.234
  608.500    2.953  219.590   39.732    0.338    0.223
  608.750    2.955  219.792   38.953    0.343    0.225
  609.000    2.950  219.991   38.046    0.342    0.242
  609.250    2.919  220.296   40.028    0.341    0.253
  609.500    2.878  220.605   41.883    0.347    0.241
  609.750    2.858  221.020   42.196    0.351    0.228
  610.000    2.843  221.540   41.095    0.361    0.240
  610.250    2.818  221.636   39.030    0.354    0.241
  610.500    2.794  221.835   40.563    0.361    0.240
  610.750    2.806  222.033   43.447    0.373    0.239
  611.000    2.844  222.017   43.823    0.367    0.230
  611.250    2.872  222.007   42.788    0.363    0.227
  611.500    2.905  221.775   43.292    0.363    0.225
  611.750    2.940  221.976   44.310    0.364    0.226
  612.000    2.963  222.284   44.367    0.361    0.244
  612.250    2.976  221.950   44.296    0.358    0.243
  612.500    2.994  222.150   45.185    0.363    0.220
  612.750    2.995  222.351   45.691    0.368    0.203
  613.000    3.019  222.653   45.491    0.364    0.217
  613.250    3.049  222.642   46.574    0.358    0.226
  613.500    3.062  222.629   43.738    0.356    0.235
  613.750    3.092  222.617   43.089    0.359    0.215
  614.000    3.175  222.599   46.804    0.365    0.210
  614.250    3.249  222.375   48.917    0.371    0.217
  614.500    3.324  221.930   52.121    0.373    0.224
  614.750    3.432  221.379   52.818    0.374    0.214
  615.000    3.557  221.261   52.296    0.371    0.191
  615.250    3.673  220.712   54.086    0.365    0.201
  615.500    3.857  220.484   54.849    0.355    0.197
  615.750    3.968  220.789   53.877    0.357    0.192
  616.000    4.121  220.880   52.519    0.369    0.206
  616.250    4.303  220.976   54.566    0.378    0.215
  616.500    4.561  221.712   57.319    0.371    0.216
  616.750    4.807  223.626   59.368    0.339    0.212
  617.000    5.066  225.858   61.607    0.334    0.194
  617.250    5.410  226.914   63.719    0.342    0.184
  617.500    5.776  227.437   64.994    0.348    0.178
  617.750    6.272  227.956   63.124    0.349    0.168
  618.000    6.684  228.372   58.876    0.343    0.153
  618.250    7.491  228.573   54.755    0.321    0.112
  618.500    7.954  228.879   53.849    0.303    0.074
  618.750    8.557  229.294   56.345    0.294    0.073
  619.000    8.325  230.454   60.447    0.310    0.113
  619.250    7.506  231.297   64.228    0.326    0.148
  619.500    6.743  231.928   67.623    0.336    0.143
  619.750    6.356  232.343   69.737    0.330    0.154
  620.000    6.139  233.399   69.793    0.329    0.168
  620.250    6.131  236.062   68.564    0.337    0.163
  620.500    6.237  239.473   69.584    0.343    0.113
  620.750    6.477  242.242   69.124    0.346    0.114
  621.000    6.764  244.154   67.318    0.338    0.089
  621.250    6.984  245.853   71.870    0.330    0.086
  621.500    7.172  247.444   78.735    0.326    0.100
  621.750    7.269  247.967   82.709    0.342    0.112
  622.000    7.410  248.916   84.950    0.367    0.114
  622.250    7.484  249.225   83.271    0.380    0.103
  622.500    7.418  250.067   77.737    0.388    0.114
  622.750    7.285  250.695   72.527    0.359    0.120
  623.000    7.062  250.896   70.976    0.340    0.111
  623.250    6.846  251.096   72.892    0.341    0.124
  623.500    6.723  251.080   74.169    0.344    0.138
  623.750    6.714  250.316   74.996    0.333    0.150
  624.000    7.050  248.911   74.732    0.326    0.143
  624.250    8.034  246.112   71.769    0.337    0.136
  624.500    9.224  239.782   64.630    0.347    0.121
  624.750   10.452  234.523   57.490    0.342    0.093
  625.000   11.016  233.007   57.932    0.329    0.072
  625.250   10.779  232.780   63.062    0.316    0.089
  625.500   10.218  233.303   67.999    0.349    0.108
  625.750    9.561  233.824   71.847    0.361    0.157
  626.000    8.620  232.630   71.003    0.385    0.167
  626.250    8.173  231.120   63.285    0.401    0.155
  626.500    8.471  227.251   58.330    0.390    0.173
  626.750    8.747  223.703   63.526    0.378    0.205
  627.000    8.982  222.833   71.996    0.362    0.221
  627.250    8.805  223.031   76.292    0.348    0.169
  627.500    8.285  224.086   77.441    0.360    0.158
  627.750    7.739  224.825   76.853    0.370    0.164
  628.000    7.350  227.164   79.028    0.368    0.177
  628.250    7.045  228.437   79.984    0.365    0.188
  628.500    6.907  231.313   83.829    0.360    0.185
  628.750    6.910  234.405   87.420    0.356    0.154
