~VERSION INFORMATION
 VERS.                 2.0:   CWLS LOG ASCII STANDARD -VERSION 2.0
 WRAP.                  NO:   ONE LINE PER DEPTH STEP
~WELL INFORMATION BLOCK
#MNEM.UNIT           DATA                    DESCRIPTION OF MNEMONIC
#---------    -------------------            -------------------------------
# Generated from Intellog Unique Number	CW_73_75/WELL/992
WELL.         CDN-SUP ET AL FRANCIS 10-26    : Well_name    - WELL
LOC .         00/10-26-074-20W4/0            : Location     - LOCATION
UWI .         00/10-26-074-20W4/0            : Uwi          - UNIQUE WELL ID
ENTR.         JAYE                           : Entered      - ENTERED BY
SRVC.         SCHLUMBERGER                   : Scn          - SERVICE COMPANY
DATE.         16 M1R 76                      : Date         - LOG DATE
STRT.M        362.712                        : top_depth    - START DEPTH
STOP.M        542.462                        : bot_depth    - STOP DEPTH
STEP.M        0.25                           : increment    - STEP LENGTH
 NULL. -999.2500:NULL Value
~CURVE INFORMATION BLOCK
#MNEM UNIT       ERCB CURVE CODE    CURVE DESCRIPTION
#-----------   ------------------   ----------------------------------
DEPT.M        00 001 00 00         : DEPTH        - DEPTH
GR  .API      00 310 00 00         : GR           - GAMMA RAY
CALI.MM       00 280 01 00         : CAL          - CALIPER
NPHI.V/V      00 330 00 00         : PHIN         - NEUTRON POROSITY (SANDSTONE)
DPHI.V/V      00 890 00 00         : PHID         - DENSITY POROSITY (SANDSTONE)
ILD .OHMM     00 120 00 00         : RESD         - DEEP RESISTIVITY (DLL)
~PARAMETER INFORMATION
#MNEM.UNIT           DATA             DESCRIPTION OF MNEMONIC
#---------         -----------     ------------------------------
GL  .M        683.057              : gl           - GROUND LEVEL ELEVATION
EREF.M        686.714              : kb           - ELEVATION OF DEPTH REFERENCE
DATM.M        683.057              : datum        - DATUM ELEVATION
TDD .M        619.354              : tdd          - TOTAL DEPTH DRILLER
RUN .         ONE                  : Run          - RUN NUMBER
ENG .         WILTSHIRE            : Engineer     - RECORDING ENGINEER
WIT .         BRAND                : Witness      - WITNESSED BY
BASE.         EDMONTON             : Branch       - HOME BASE OF LOGGING UNIT
MUD .         GEL CHEM             : Mud_type     - MUD TYPE
MATR.         SANDSTONE            : Logunit      - NEUTRON MATRIX
TMAX.C        28.3333              : BHT          - MAXIMUM RECORDED TEMPERATURE
BHTD.M        619.963              : BHTDEP       - MAXIMUM RECORDED TEMPERATURE
RMT .C        11.6667              : MDTP         - TEMPERATURE OF MUD
MUDD.KG/M     1080                 : MWT          - MUD DENSITY
NEUT.         1                    : NEUTRON      - NEUTRON TYPE
RESI.         1                    : RESIST       - RESISTIVITY TYPE
RM  .OHMM     1.4                  : RM           - RESISTIVITY OF MUD
RMC .OHMM     3.95                 : RMC          - RESISTIVITY OF MUD CAKE
RMF .OHMM     2.45                 : RMF          - RESISTIVITY OF MUD FILTRATE
SUFT.C        -17.7778             : SUFT         - SURFACE TEMPERATURE
~A  DEPTH       GR      CAL     PHIN     PHID     RESD
# ...
  399.212   91.034  217.295    0.472    0.267    6.836
  399.462   92.315  218.728    0.450    0.267    6.846
  399.712   90.684  222.045    0.460    0.256    7.495
  399.962   84.967  229.351    0.472    0.271    8.115
  400.212   75.285  216.526    0.459    0.318    8.885
  400.462   69.754  211.352    0.395    0.330    9.461
  400.712   73.509  213.100    0.382    0.355    8.796
  400.962   79.249  215.581    0.392    0.324    8.441
  401.212   79.599  216.067    0.424    0.293    9.106
  401.462   77.597  211.945    0.457    0.315   10.960
  401.712   73.489  210.963    0.450    0.347   12.021
  401.962   69.134  210.513    0.431    0.356   12.084
  402.212   65.335  210.478    0.439    0.314   11.531
  402.462   65.499  212.226    0.454    0.280   10.862
  402.712   66.037  213.762    0.457    0.273   10.175
  402.962   67.316  214.672    0.458    0.277    9.496
  403.212   69.588  214.532    0.464    0.325    8.683
  403.462   74.273  214.392    0.451    0.324    7.925
  403.712   78.711  215.192    0.458    0.320    7.207
  403.962   84.264  218.936    0.448    0.319    6.801
  404.212   88.391  229.071    0.451    0.347    6.430
  404.462   90.104  229.142    0.477    0.391    5.968
  404.712   90.084  232.147    0.489    0.335    5.600
  404.962   90.372  226.765    0.488    0.353    5.121
  405.212   90.721  227.568    0.504    0.322    4.735
  405.462   90.950  240.325    0.519    0.375    4.477
  405.712   92.043  263.569    0.528    0.369    4.653
  405.962   93.634  283.560    0.544    0.373    4.900
  406.212   95.842  226.378    0.511    0.246    5.169
  406.462   97.555  232.634    0.492    0.265    5.483
  406.712   98.525  236.584    0.484    0.198    5.699
  406.962   99.310  236.022    0.485    0.235    5.869
  407.212   95.945  250.880    0.476    0.252    6.169
  407.462   90.846  247.385    0.463    0.278    6.728
  407.712   84.386  234.348    0.458    0.301    7.285
  407.962   73.281  219.318    0.438    0.297    7.932
  408.212   67.811  214.981    0.375    0.332    8.864
  408.462   64.444  215.262    0.366    0.309    9.813
  408.712   62.689  217.112    0.369    0.301   10.605
  408.962   61.990  216.975    0.389    0.290   11.461
  409.212   62.527  216.729    0.410    0.285   12.571
  409.462   62.752  217.009    0.406    0.280   13.738
  409.712   61.679  218.440    0.396    0.299   15.266
  409.962   58.624  221.551    0.391    0.297   16.932
  410.212   55.879  225.082    0.394    0.295   18.991
  410.462   53.444  227.772    0.403    0.296   21.143
  410.712   51.872  228.998    0.399    0.285   24.159
  410.962   50.488  230.427    0.394    0.282   27.349
  411.212   49.417  231.442    0.406    0.294   31.134
  411.462   47.664  232.142    0.423    0.286   34.661
  411.712   44.113  233.049    0.419    0.288   37.529
  411.962   41.801  233.332    0.390    0.283   40.406
  412.212   40.481  233.611    0.370    0.289   43.344
  412.462   38.849  233.678    0.362    0.288   44.635
  412.712   37.340  234.065    0.370    0.287   43.554
  412.962   37.136  235.077    0.353    0.256   41.487
  413.212   37.980  235.147    0.355    0.276   38.646
  413.462   38.829  235.006    0.379    0.278   36.404
  413.712   40.045  234.655    0.406    0.292   33.974
  413.962   40.397  234.098    0.426    0.310   30.893
  414.212   39.942  233.431    0.432    0.328   27.885
  414.462   39.303  231.931    0.407    0.324   25.168
  414.712   38.725  228.646    0.385    0.282   22.886
  414.962   38.952  225.780    0.367    0.286   21.161
  415.212   38.931  225.114    0.398    0.297   19.602
  415.462   37.855  225.290    0.391    0.303   18.777
  415.712   37.094  225.460    0.376    0.273   17.785
  415.962   36.823  225.006    0.356    0.283   16.941
  416.212   36.928  224.867    0.348    0.276   16.137
  416.462   38.085  225.041    0.350    0.291   15.314
  416.712   39.550  225.110    0.353    0.303   14.505
  416.962   40.395  225.602    0.343    0.278   13.946
  417.212   40.435  226.198    0.359    0.293   13.308
  417.462   40.479  227.313    0.390    0.308   12.818
  417.712   40.456  228.540    0.406    0.329   12.438
  417.962   40.066  230.284    0.421    0.313   12.003
  418.212   39.055  231.719    0.412    0.301   11.626
  418.462   38.353  232.836    0.405    0.306   11.136
  418.712   41.052  232.802    0.399    0.329   10.646
  418.962   42.212  232.554    0.410    0.362   10.236
  419.212   42.934  234.827    0.482    0.395    9.877
  419.462   42.600  245.804    0.491    0.386    9.584
  419.712   42.519  251.642    0.466    0.356    9.353
  419.962   43.118  244.055    0.449    0.355    9.211
  420.212   44.276  242.973    0.442    0.338    9.072
  420.462   47.165  236.332    0.428    0.353    8.836
  420.712   48.629  222.558    0.427    0.342    8.654
  420.962   49.104  219.065    0.439    0.340    8.382
  421.212   49.270  216.929    0.431    0.322    8.195
  421.462   49.063  216.164    0.426    0.320    7.981
  421.712   46.997  215.389    0.435    0.308    7.875
  421.962   46.977  215.569    0.432    0.326    7.714
  422.212   47.144  216.369    0.432    0.316    7.471
  422.462   46.689  218.431    0.443    0.316    7.304
  422.712   46.235  219.657    0.459    0.319    7.167
  422.962   45.224  219.724    0.469    0.327    7.071
  423.212   43.343  219.272    0.468    0.333    7.003
  423.462   42.767  218.501    0.459    0.336    6.975
  423.712   42.808  218.045    0.456    0.339    6.947
  423.962   43.961  217.805    0.461    0.339    6.893
  424.212   45.180  217.138    0.465    0.343    6.878
  424.462   46.773  216.789    0.453    0.353    6.875
  424.712   46.937  216.440    0.437    0.346    6.834
  424.962   46.417  216.404    0.432    0.335    6.819
  425.212   45.843  216.581    0.438    0.334    6.779
  425.462   45.573  216.652    0.442    0.330    6.726
  425.712   45.986  216.716    0.454    0.329    6.687
  425.962   47.329  216.684    0.471    0.337    6.622
  426.212   49.475  216.754    0.466    0.333    6.607
  426.462   50.322  216.721    0.468    0.329    6.617
  426.712   50.484  216.790    0.469    0.327    6.602
  426.962   50.091  216.648    0.466    0.319    6.612
  427.212   49.390  216.717    0.460    0.327    6.610
  427.462   48.752  218.257    0.474    0.333    6.632
  427.712   47.555  221.262    0.480    0.319    6.655
  427.962   44.745  224.898    0.485    0.325    6.702
  428.212   42.746  217.209    0.500    0.337    6.662
  428.462   40.741  212.766    0.483    0.347    6.635
  428.712   40.226  212.208    0.459    0.323    6.595
  428.962   40.763  212.695    0.458    0.332    6.581
  429.212   41.795  212.559    0.452    0.336    6.579
  429.462   42.332  210.004    0.449    0.332    6.552
  429.712   41.692  207.769    0.452    0.326    6.501
  429.962   40.865  207.626    0.454    0.332    6.499
  430.212   40.475  207.280    0.450    0.326    6.460
  430.462   40.267  207.351    0.446    0.330    6.422
  430.712   40.307  207.210    0.445    0.340    6.407
  430.962   40.843  206.755    0.454    0.336    6.405
  431.212   41.690  206.824    0.458    0.332    6.451
  431.462   42.477  207.105    0.453    0.341    6.496
  431.712   43.074  207.486    0.441    0.341    6.554
  431.962   43.300  207.769    0.435    0.335    6.589
  432.212   43.281  207.732    0.428    0.334    6.611
  432.462   43.444  207.480    0.432    0.348    6.657
  432.712   43.240  207.348    0.443    0.336    6.655
  432.962   43.280  207.310    0.457    0.329    6.665
  433.212   44.870  207.280    0.459    0.326    6.663
  433.462   46.893  207.553    0.455    0.320    6.660
  433.712   49.534  207.837    0.440    0.313    6.707
  433.962   51.061  208.008    0.422    0.304    6.768
  434.212   49.121  207.974    0.417    0.313    6.815
  434.462   48.791  207.936    0.423    0.333    6.801
  434.712   50.194  207.694    0.439    0.326    6.760
  434.962   51.661  207.347    0.452    0.323    6.758
  435.212   51.513  206.999    0.458    0.315    6.718
  435.462   50.689  207.276    0.458    0.308    6.715
