~VERSION INFORMATION
 VERS.                 2.0:   CWLS LOG ASCII STANDARD -VERSION 2.0
 WRAP.                  NO:   ONE LINE PER DEPTH STEP
~WELL INFORMATION BLOCK
#MNEM.UNIT           DATA                    DESCRIPTION OF MNEMONIC
#---------    -------------------            -------------------------------
# Generated from Intellog Unique Number	CW_82_90/WELL/3076
WELL.         PARA ET AL LIVOCK 11-16        : Well_name    - WELL
LOC .         00/11-16-085-20W4/0            : Location     - LOCATION
UWI .         00/11-16-085-20W4/0            : Uwi          - UNIQUE WELL ID
ENTR.         JAYE                           : Entered      - ENTERED BY
SRVC.         COMPUTALOG                     : Scn          - SERVICE COMPANY
DATE.         24 JAN 78                      : Date         - LOG DATE
STRT.M        198.12                         : top_depth    - START DEPTH
STOP.M        374.87                         : bot_depth    - STOP DEPTH
STEP.M        0.25                           : increment    - STEP LENGTH
 NULL. -999.2500:NULL Value
~CURVE INFORMATION BLOCK
#MNEM UNIT       ERCB CURVE CODE    CURVE DESCRIPTION
#-----------   ------------------   ----------------------------------
DEPT.M        00 001 00 00         : DEPTH        - DEPTH
ILD .OHMM     00 120 00 00         : RESD         - DEEP RESISTIVITY (DIL)
CALI.MM       00 280 01 00         : CAL          - CALIPER
GR  .API      00 310 00 00         : GR           - GAMMA RAY
NPHI.V/V      00 330 00 00         : PHIN         - NEUTRON POROSITY (SANDSTONE)
DPHI.V/V      00 890 00 00         : PHID         - DENSITY POROSITY (SANDSTONE)
COND.MMHO                          : COND         - DEEP CONDUCTIVITY (DIL)
~PARAMETER INFORMATION
#MNEM.UNIT           DATA             DESCRIPTION OF MNEMONIC
#---------         -----------     ------------------------------
GL  .M        623.621              : gl           - GROUND LEVEL ELEVATION
EREF.M        626.669              : kb           - ELEVATION OF DEPTH REFERENCE
DATM.M        623.621              : datum        - DATUM ELEVATION
TDD .M        377.952              : tdd          - TOTAL DEPTH DRILLER
RUN .         ONE                  : Run          - RUN NUMBER
ENG .         KING                 : Engineer     - RECORDING ENGINEER
MUD .         GEL CHEM SAWDUST     : Mud_type     - MUD TYPE
MATR.         SANDSTONE            : Logunit      - NEUTRON MATRIX
TMAX.C        16.1111              : BHT          - MAXIMUM RECORDED TEMPERATURE
BHTD.M        377.952              : BHTDEP       - MAXIMUM RECORDED TEMPERATURE
RMT .C        14.4444              : MDTP         - TEMPERATURE OF MUD
MUDD.KG/M     9400                 : MWT          - MUD DENSITY
NEUT.         1                    : NEUTRON      - NEUTRON TYPE
RESI.         0                    : RESIST       - RESISTIVITY TYPE
RM  .OHMM     4.35                 : RM           - RESISTIVITY OF MUD
RMC .OHMM     0                    : RMC          - RESISTIVITY OF MUD CAKE
RMF .OHMM     4.1                  : RMF          - RESISTIVITY OF MUD FILTRATE
SUFT.C        -17.7778             : SUFT         - SURFACE TEMPERATURE
~A  DEPTH     RESD      CAL       GR     PHIN     PHID     COND
  198.120   33.984  164.069   82.592    0.426    0.390   29.425
  198.370   34.408  165.480   82.125    0.437    0.392   29.063
  198.620   33.203  164.382   81.973    0.447    0.389   30.118
  198.870   30.482  163.288   81.324    0.459    0.377   32.806
  199.120   28.831  162.618   77.841    0.454    0.372   34.685
  199.370   28.468  162.983   70.783    0.440    0.368   35.127
  199.620   31.331  162.834   65.518    0.412    0.372   31.918
  199.870   36.638  162.472   63.637    0.427    0.370   27.294
  200.120   44.134  162.091   60.771    0.416    0.361   22.658
  200.370   51.940  160.896   59.258    0.406    0.362   19.253
  200.620   57.944  160.215   59.228    0.405    0.359   17.258
  200.870   58.498  159.541   61.975    0.396    0.358   17.095
  201.120   59.710  159.489   64.039    0.415    0.356   16.748
  201.370   57.482  158.905   63.018    0.422    0.355   17.397
  201.620   54.809  157.808   62.065    0.420    0.359   18.245
  201.870   52.883  155.562   63.392    0.421    0.364   18.910
  202.120   51.665  153.847   60.403    0.412    0.359   19.355
  202.370   49.969  153.274   60.865    0.402    0.358   20.012
  202.620   49.880  153.966   59.106    0.415    0.356   20.048
  202.870   48.859  154.846   60.248    0.424    0.344   20.467
  203.120   48.681  155.411   65.641    0.413    0.339   20.542
  203.370   48.596  155.577   63.517    0.377    0.344   20.578
  203.620   48.448  156.042   61.021    0.368    0.360   20.641
  203.870   50.332  156.526   61.919    0.380    0.366   19.868
  204.120   51.807  156.152   61.081    0.388    0.363   19.302
  204.370   54.577  155.478   61.672    0.377    0.364   18.323
  204.620   56.303  155.314   61.020    0.372    0.361   17.761
  204.870   56.202  154.841   62.296    0.392    0.362   17.793
  205.120   57.396  154.581   62.074    0.374    0.361   17.423
  205.370   56.545  154.242   62.909    0.363    0.360   17.685
  205.620   54.508  154.395   61.704    0.385    0.358   18.346
  205.870   52.678  153.731   65.121    0.383    0.358   18.983
  206.120   50.886  153.540   63.550    0.390    0.360   19.652
  206.370   48.329  153.078   59.578    0.354    0.361   20.691
  206.620   45.943  153.017   62.997    0.382    0.356   21.766
  206.870   43.417  153.017   62.414    0.392    0.350   23.032
  207.120   43.742  153.017   61.520    0.384    0.337   22.861
  207.370   41.127  154.051   59.947    0.387    0.336   24.315
  207.620   39.056  154.485   60.104    0.410    0.342   25.604
  207.870   37.532  156.418   63.277    0.428    0.343   26.644
  208.120   38.038  156.418   64.605    0.386    0.347   26.289
  208.370   38.553  157.787   66.237    0.415    0.352   25.938
  208.620   38.809  157.841   65.593    0.423    0.343   25.767
  208.870   38.424  157.983   66.432    0.407    0.324   26.026
  209.120   35.582  157.983   68.549    0.411    0.304   28.104
  209.370   30.318  155.929   68.706    0.438    0.282   32.983
  209.620   26.642  155.852   65.222    0.442    0.269   37.534
  209.870   24.616  156.117   63.218    0.339    0.296   40.624
  210.120   23.768  156.386   66.887    0.330    0.342   42.074
  210.370   22.337  157.472   70.382    0.336    0.343   44.770
  210.620   22.118  159.296   71.699    0.351    0.337   45.212
  210.870   22.395  165.296   74.932    0.350    0.324   44.654
  211.120   21.031  173.813   76.630    0.406    0.309   47.549
  211.370   18.215  180.026   83.626    0.441    0.282   54.900
  211.620   15.265  179.807   86.739    0.444    0.270   65.509
  211.870   12.598  179.513   88.438    0.448    0.267   79.379
  212.120   10.543  179.031   88.777    0.456    0.277   94.855
  212.370    9.131  175.216   88.501    0.464    0.293  109.521
  212.620    8.600  169.531   87.301    0.488    0.308  116.279
  212.870    8.925  168.544   90.286    0.473    0.336  112.050
  213.120    9.507  171.202   91.247    0.451    0.344  105.188
  213.370    9.576  176.687   95.280    0.450    0.336  104.427
  213.620    8.040  179.349  102.775    0.487    0.311  124.378
  213.870    6.804  179.197  108.784    0.533    0.298  146.978
  214.120    5.647  174.864  117.323    0.527    0.314  177.092
  214.370    4.988  168.442  117.168    0.509    0.333  200.500
  214.620    4.540  161.293  113.132    0.500    0.346  220.249
  214.870    4.378  159.567  111.064    0.491    0.357  228.416
  215.120    4.481  159.723  106.226    0.479    0.369  223.171
  215.370    4.739  158.958   98.058    0.469    0.359  211.029
  215.620    4.918  156.188   97.046    0.453    0.374  203.351
  215.870    5.153  153.201   92.823    0.425    0.325  194.056
  216.120    5.449  150.442   88.969    0.396    0.302  183.530
  216.370    6.171  149.442   86.100    0.381    0.314  162.042
  216.620    8.276  149.932   79.601    0.375    0.349  120.836
  216.870   10.654  150.392   75.005    0.361    0.360   93.860
  217.120   14.554  150.139   72.881    0.356    0.362   68.711
  217.370   19.425  150.179   75.194    0.371    0.366   51.480
  217.620   24.782  150.864   80.215    0.395    0.368   40.353
  217.870   30.226  150.804   82.469    0.433    0.367   33.085
  218.120   33.477  150.758   78.735    0.445    0.366   29.871
  218.370   35.594  150.914   83.577    0.452    0.363   28.094
  218.620   35.559  150.976   87.245    0.452    0.363   28.122
  218.870   35.747  151.137   80.000    0.417    0.370   27.975
  219.120   36.489  151.803   83.423    0.403    0.369   27.405
  219.370   38.130  151.855   88.206    0.396    0.366   26.226
  219.620   38.363  151.182   83.055    0.414    0.364   26.067
  219.870   38.299  150.730   78.646    0.439    0.369   26.111
  220.120   38.844  150.136   76.706    0.417    0.375   25.744
  220.370   37.594  150.081   73.354    0.441    0.376   26.600
  220.620   36.953  150.689   69.992    0.431    0.375   27.062
  220.870   35.556  150.719   71.879    0.434    0.373   28.125
  221.120   35.266  150.878   72.760    0.403    0.368   28.356
  221.370   35.974  151.128   76.442    0.357    0.368   27.798
  221.620   36.186  151.495   74.489    0.405    0.363   27.635
  221.870   36.397  151.756   76.125    0.385    0.372   27.475
  222.120   36.899  152.539   73.565    0.365    0.364   27.101
  222.370   37.117  153.341   75.260    0.392    0.375   26.942
  222.620   35.713  153.172   70.300    0.384    0.384   28.001
  222.870   35.633  153.329   72.860    0.376    0.381   28.064
  223.120   34.342  153.585   73.812    0.349    0.380   29.119
  223.370   33.357  154.694   71.636    0.361    0.378   29.979
  223.620   33.080  155.371   70.793    0.381    0.375   30.230
  223.870   33.715  156.259   73.475    0.413    0.372   29.660
  224.120   33.675  155.470   72.826    0.421    0.370   29.696
  224.370   33.852  153.328   70.269    0.429    0.377   29.540
  224.620   32.672  152.240   71.658    0.435    0.380   30.607
  224.870   32.851  153.024   73.797    0.444    0.378   30.440
  225.120   32.373  154.843   75.732    0.444    0.378   30.890
  225.370   32.331  156.579   75.760    0.419    0.374   30.930
  225.620   31.856  156.837   72.953    0.417    0.368   31.391
  225.870   31.608  156.672   74.900    0.408    0.369   31.638
  226.120   31.378  157.047   74.988    0.408    0.375   31.869
  226.370   31.532  157.103   70.026    0.433    0.368   31.714
  226.620   31.688  156.424   69.813    0.437    0.360   31.558
  226.870   31.430  155.737   68.300    0.417    0.355   31.817
  227.120   32.027  154.955   70.003    0.412    0.368   31.224
  227.370   32.375  153.758   71.200    0.409    0.369   30.888
  227.620   32.567  152.877   72.406    0.404    0.356   30.706
  227.870   32.712  152.194   74.161    0.397    0.349   30.569
  228.120   32.703  151.723   77.210    0.386    0.341   30.578
  228.370   32.217  150.624   78.536    0.360    0.333   31.040
  228.620   31.757  149.639   70.985    0.310    0.275   31.489
  228.870   31.089  150.013   73.977    0.057    0.231   32.166
  229.120   30.678  151.109   76.972    0.108    0.297   32.596
