~VERSION INFORMATION
 VERS.                 2.0:   CWLS LOG ASCII STANDARD -VERSION 2.0
 WRAP.                  NO:   ONE LINE PER DEPTH STEP
~WELL INFORMATION BLOCK
#MNEM.UNIT           DATA                    DESCRIPTION OF MNEMONIC
#---------    -------------------            -------------------------------
# Generated from Intellog Unique Number	CS_67_68/WELL/2211
WELL.         12-08-067-01W4                 : Well_name    - WELL
LOC .         00/12-08-067-01W4/0            : Location     - LOCATION
UWI .         00/12-08-067-01W4/0            : Uwi          - UNIQUE WELL ID
ENTR.         SP                             : Entered      - ENTERED BY
SRVC.         SCHLUMBERGER                   : Scn          - SERVICE COMPANY
STRT.M        315                            : top_depth    - START DEPTH
STOP.M        570                            : bot_depth    - STOP DEPTH
STEP.M        0.25                           : increment    - STEP LENGTH
 NULL. -999.2500:NULL Value
~CURVE INFORMATION BLOCK
#MNEM UNIT       ERCB CURVE CODE    CURVE DESCRIPTION
#-----------   ------------------   ----------------------------------
DEPT.M        00 001 00 00         : DEPTH        - DEPTH
ILD .OHMM     00 120 00 00         : RESD         - DEEP RESISTIVITY (DIL)
DPHI.V/V      00 890 00 00         : PHID         - DENSITY POROSITY (LIMESTONE)
NPHI.V/V      00 330 00 00         : PHIN         - NEUTRON POROSITY (LIMESTONE)
GR  .API      00 310 00 00         : GR           - GAMMA RAY
CALI.MM       00 280 01 00         : CAL          - CALIPER
~PARAMETER INFORMATION
#MNEM.UNIT           DATA             DESCRIPTION OF MNEMONIC
#---------         -----------     ------------------------------
GL  .M        609.53               : gl           - GROUND LEVEL ELEVATION
EREF.M        613.4                : kb           - ELEVATION OF DEPTH REFERENCE
DATM.M        613.4                : datum        - DATUM ELEVATION
TDD .M        576                  : tdd          - TOTAL DEPTH DRILLER
RUN .         ONE                  : Run          - RUN NUMBER
ENG .         BILL                 : Engineer     - RECORDING ENGINEER
WIT .         JIM                  : Witness      - WITNESSED BY
MUD .         GEL                  : Mud_type     - MUD TYPE
MATR.         LIMESTONE            : Logunit      - NEUTRON MATRIX
TMAX.C        25                   : BHT          - MAXIMUM RECORDED TEMPERATURE
BHTD.M        575                  : BHTDEP       - MAXIMUM RECORDED TEMPERATURE
MATR.         1                    : LOGUNIT      - NEUTRON MATRIX
RMT .C        25                   : MDTP         - TEMPERATURE OF MUD
NEUT.         1                    : NEUTRON      - NEUTRON TYPE
RESI.         0                    : RESIST       - RESISTIVITY TYPE
RMC .OHMM     0.25                 : RMC          - RESISTIVITY OF MUD CAKE
RMF .OHMM     0.25                 : RMF          - RESISTIVITY OF MUD FILTRATE
SUFT.C        15                   : SUFT         - SURFACE TEMPERATURE
~A  DEPTH     RESD     PHID     PHIN       GR      CAL
# ...
  534.000    9.129    0.336    0.348   38.550  157.758
  534.250    8.832    0.341    0.367   37.432  157.426
  534.500    8.464    0.345    0.369   35.153  157.386
  534.750    8.314    0.340    0.369   32.810  157.569
  535.000    8.180    0.332    0.355   30.835  157.838
  535.250    8.231    0.324    0.338   29.841  157.919
  535.500    8.358    0.317    0.349   32.085  158.088
  535.750    8.473    0.312    0.365   34.634  158.471
  536.000    8.572    0.319    0.371   35.044  159.664
  536.250    8.592    0.329    0.369   35.210  160.445
  536.500    8.501    0.332    0.365   36.354  160.620
  536.750    8.411    0.318    0.361   36.763  160.589
  537.000    8.352    0.308    0.364   35.708  160.357
  537.250    8.340    0.318    0.356   35.018  160.328
  537.500    8.376    0.332    0.341   35.916  160.199
  537.750    8.346    0.322    0.332   36.999  159.851
  538.000    8.338    0.309    0.332   37.591  159.827
  538.250    8.296    0.313    0.346   36.901  159.698
  538.500    8.208    0.322    0.357   33.641  159.260
  538.750    8.136    0.326    0.367   31.974  159.027
  539.000    7.990    0.327    0.371   31.345  158.899
  539.250    7.816    0.331    0.377   32.855  158.563
  539.500    7.647    0.334    0.371   34.366  158.423
  539.750    7.523    0.332    0.364   34.472  158.092
  540.000    7.459    0.327    0.363   33.415  157.964
  540.250    7.365    0.328    0.362   31.436  157.424
  540.500    7.300    0.337    0.354   31.116  156.983
  540.750    7.237    0.343    0.357   33.114  156.755
  541.000    7.184    0.347    0.360   33.525  156.622
  541.250    7.137    0.345    0.358   32.772  156.592
  541.500    7.034    0.346    0.369   32.388  156.663
  541.750    6.932    0.349    0.375   32.433  156.934
  542.000    6.874    0.346    0.365   32.660  157.213
  542.250    6.788    0.337    0.356   32.641  157.592
  542.500    6.691    0.329    0.351   32.620  157.868
  542.750    6.656    0.333    0.363   32.667  158.551
  543.000    6.648    0.340    0.376   32.650  159.847
  543.250    6.662    0.329    0.371   34.038  161.038
  543.500    6.729    0.313    0.357   35.119  161.927
  543.750    6.819    0.302    0.349   34.186  163.526
  544.000    6.940    0.303    0.340   31.537  164.614
  544.250    7.112    0.308    0.331   30.724  165.504
  544.500    7.224    0.309    0.320   30.279  165.988
  544.750    7.253    0.304    0.314   29.588  166.469
  545.000    7.189    0.291    0.320   28.471  167.357
  545.250    7.074    0.290    0.327   27.716  168.445
  545.500    6.908    0.302    0.336   27.639  169.837
  545.750    6.797    0.311    0.343   27.744  170.730
  546.000    6.687    0.322    0.347   27.906  171.824
  546.250    6.640    0.319    0.342   28.076  172.812
  546.500    6.632    0.311    0.333   28.670  174.107
  546.750    6.611    0.306    0.325   30.118  175.301
  547.000    6.602    0.300    0.317   31.567  176.795
  547.250    6.567    0.307    0.323   32.468  177.992
  547.500    6.559    0.313    0.346   32.879  178.881
  547.750    6.550    0.317    0.359   32.554  179.462
  548.000    6.553    0.317    0.361   30.945  179.841
  548.250    6.567    0.307    0.362   29.156  179.301
  548.500    6.584    0.306    0.374   28.220  176.723
  548.750    6.587    0.313    0.352   24.779  168.847
  549.000    6.590    0.311    0.331   26.596  158.930
  549.250    6.607    0.305    0.322   27.678  156.963
  549.500    6.659    0.302    0.339   28.087  156.217
  549.750    6.712    0.308    0.335   28.437  155.884
  550.000    6.728    0.313    0.327   28.297  155.551
  550.250    6.744    0.316    0.329   27.913  155.519
  550.500    6.758    0.315    0.338   27.221  155.891
  550.750    6.788    0.303    0.343   27.204  156.583
  551.000    6.818    0.292    0.336   28.408  157.877
  551.250    6.898    0.283    0.326   29.431  160.294
  551.500    7.018    0.275    0.319   30.452  163.117
  551.750    7.060    0.285    0.317   30.434  167.062
  552.000    7.115    0.294    0.317   31.273  168.457
  552.250    7.094    0.287    0.317   35.778  166.184
  552.500    6.902    0.280    0.316   40.409  164.322
  552.750    6.615    0.283    0.337   44.548  163.479
  553.000    6.200    0.291    0.360   43.003  166.404
  553.250    6.011    0.311    0.378   35.587  171.266
  553.500    5.792    0.330    0.371   30.309  176.526
  553.750    5.658    0.341    0.355   27.235  179.458
  554.000    5.504    0.340    0.372   26.786  182.895
  554.250    5.457    0.340    0.387   27.442  185.618
  554.500    5.398    0.336    0.397   29.321  186.200
  554.750    5.420    0.329    0.400   30.832  185.659
  555.000    5.475    0.334    0.400   30.630  183.688
  555.250    5.560    0.343    0.393   30.365  180.402
  555.500    5.676    0.343    0.388   30.717  176.393
  555.750    5.734    0.327    0.384   31.188  174.636
  556.000    5.768    0.330    0.382   32.026  174.807
  556.250    5.815    0.344    0.376   32.375  175.087
  556.500    5.861    0.342    0.372   30.952  174.949
  556.750    5.886    0.335    0.368   30.322  175.231
  557.000    5.900    0.330    0.367   30.916  175.505
  557.250    5.947    0.325    0.368   30.530  175.372
  557.500    5.959    0.334    0.372   28.556  170.759
  557.750    5.986    0.342    0.376   27.558  162.985
  558.000    6.012    0.340    0.363   27.359  159.286
  558.250    6.026    0.336    0.355   30.089  158.947
  558.500    6.018    0.334    0.364   30.197  159.121
  558.750    5.998    0.338    0.377   30.358  159.296
  559.000    5.979    0.341    0.375   30.342  160.279
  559.250    5.970    0.342    0.366   30.205  160.968
  559.500    5.952    0.343    0.360   29.941  162.160
  559.750    5.944    0.339    0.359   29.373  163.153
  560.000    5.980    0.325    0.356   29.479  163.226
  560.250    6.096    0.311    0.345   31.538  162.074
  560.500    6.364    0.297    0.337   43.812  157.459
  560.750    6.684    0.267    0.332   65.134  153.557
  561.000    7.189    0.240    0.330   80.219  153.833
  561.250    7.622    0.198    0.326   92.676  155.737
  561.500    8.199    0.182    0.353   86.359  157.135
  561.750    8.677    0.199    0.364   77.292  156.902
  562.000    9.231    0.216    0.334   80.576  154.935
  562.250    9.640    0.194    0.326   93.092  153.377
  562.500    9.918    0.163    0.349  100.291  154.062
  562.750   10.165    0.160    0.359  104.675  154.339
  563.000   10.342    0.167    0.361  107.591  155.019
  563.250   10.309    0.157    0.381  107.634  155.702
  563.500   10.068    0.150    0.400  102.237  156.082
  563.750    9.868    0.145    0.400   94.515  156.052
  564.000    9.672    0.178    0.392   83.123  155.303
  564.250    9.272    0.205    0.383   70.999  154.462
  564.500    8.374    0.250    0.387   42.059  153.205
  564.750    7.562    0.293    0.374   24.125  152.265
  565.000    6.958    0.326    0.371   24.106  151.621
  565.250    6.571    0.324    0.365   31.485  151.391
  565.500    7.029    0.289    0.354   36.298  151.664
  565.750    7.591    0.214    0.340   43.193  152.552
  566.000    8.213    0.123    0.338   52.223  153.033
  566.250    9.018    0.109    0.348   62.173  153.922
  566.500    9.919    0.118    0.385   77.687  154.808
  566.750   10.537    0.114    0.435   84.271  156.410
  567.000   11.356    0.101    0.363   78.262  158.215
  567.250   11.972    0.089    0.330   69.623  159.708
  567.500   12.953    0.067    0.304   62.021  160.699
  567.750   14.326    0.025    0.291   60.721  161.079
  568.000   15.586    0.000    0.279   62.232  161.151
  568.250   16.710    0.000    0.262   63.985  161.121
  568.500   18.040    0.033    0.249   63.905  161.085
  568.750   18.843    0.040    0.242   64.013  160.756
  569.000   19.567    0.046    0.250   65.154  160.115
  569.250   20.016    0.043    0.253   66.849  159.573
  569.500   20.290    0.038    0.254   68.971  159.036
  569.750   20.454    0.032    0.253   70.483  158.595
  570.000   20.537    0.028    0.249   63.373  158.571
