~VERSION INFORMATION
 VERS.                 2.0:   CWLS LOG ASCII STANDARD -VERSION 2.0
 WRAP.                  NO:   ONE LINE PER DEPTH STEP
~WELL INFORMATION BLOCK
#MNEM.UNIT           DATA                    DESCRIPTION OF MNEMONIC
#---------    -------------------            -------------------------------
# Generated from Intellog Unique Number	CW_79_81/WELL/2471
WELL.         GULF AMOCO HOOLE               : Well_name    - WELL
LOC .         00/10-21-081-24W4/0            : Location     - LOCATION
UWI .         00/10-21-081-24W4/0            : Uwi          - UNIQUE WELL ID
ENTR.         MAX                            : Entered      - ENTERED BY
SRVC.         COMPUTALOG                     : Scn          - SERVICE COMPANY
STRT.M        245                            : top_depth    - START DEPTH
STOP.M        482                            : bot_depth    - STOP DEPTH
STEP.M        0.25                           : increment    - STEP LENGTH
 NULL. -999.2500:NULL Value
~CURVE INFORMATION BLOCK
#MNEM UNIT       ERCB CURVE CODE    CURVE DESCRIPTION
#-----------   ------------------   ----------------------------------
DEPT.M        00 001 00 00         : DEPTH        - DEPTH
ILD .OHMM     00 120 00 00         : RESD         - DEEP RESISTIVITY (DIL)
NPHI.V/V      00 330 00 00         : PHIN         - NEUTRON POROSITY (SANDSTONE)
DPHI.V/V      00 890 00 00         : PHID         - DENSITY POROSITY (SANDSTONE)
GR  .API      00 310 00 00         : GR           - GAMMA RAY
CALI.MM       00 280 01 00         : CAL          - CALIPER
~PARAMETER INFORMATION
#MNEM.UNIT           DATA             DESCRIPTION OF MNEMONIC
#---------         -----------     ------------------------------
GL  .M        596.1                : gl           - GROUND LEVEL ELEVATION
EREF.M        600.35               : kb           - ELEVATION OF DEPTH REFERENCE
DATM.M        596.1                : datum        - DATUM ELEVATION
TDD .M        502                  : tdd          - TOTAL DEPTH DRILLER
RUN .         ONE                  : Run          - RUN NUMBER
ENG .         BILL                 : Engineer     - RECORDING ENGINEER
WIT .         JIM                  : Witness      - WITNESSED BY
MUD .         GEL                  : Mud_type     - MUD TYPE
MATR.         SANDSTONE            : Logunit      - NEUTRON MATRIX
TMAX.C        16                   : BHT          - MAXIMUM RECORDED TEMPERATURE
BHTD.M        502                  : BHTDEP       - MAXIMUM RECORDED TEMPERATURE
MATR.         1                    : LOGUNIT      - NEUTRON MATRIX
RMT .C        14                   : MDTP         - TEMPERATURE OF MUD
NEUT.         1                    : NEUTRON      - NEUTRON TYPE
RESI.         0                    : RESIST       - RESISTIVITY TYPE
RMC .OHMM     4.2                  : RMC          - RESISTIVITY OF MUD CAKE
RMF .OHMM     5.2                  : RMF          - RESISTIVITY OF MUD FILTRATE
SUFT.C        -15                  : SUFT         - SURFACE TEMPERATURE
~A  DEPTH     RESD     PHIN     PHID       GR      CAL
# ...
  391.000   15.100    0.390    0.189   61.886  224.042
  391.250   15.312    0.382    0.198   65.111  224.013
  391.500   15.269    0.382    0.217   69.296  223.983
  391.750   14.276    0.402    0.230   72.125  223.943
  392.000   13.233    0.429    0.232   74.355  223.914
  392.250   11.063    0.425    0.231   75.295  223.883
  392.500    9.375    0.418    0.228   74.258  223.552
  392.750    8.338    0.403    0.220   71.600  222.917
  393.000    7.927    0.374    0.199   67.859  222.282
  393.250    8.493    0.317    0.145   62.504  222.248
  393.500   10.213    0.282    0.091   56.230  222.219
  393.750   10.813    0.253    0.070   52.610  222.588
  394.000   11.029    0.263    0.106   53.132  222.659
  394.250   10.532    0.289    0.144   56.477  222.630
  394.500    9.600    0.316    0.164   61.741  222.499
  394.750    8.633    0.341    0.183   69.443  221.976
  395.000    7.883    0.360    0.193   74.424  221.520
  395.250    7.594    0.378    0.196   74.409  221.092
  395.500    7.276    0.382    0.197   74.752  220.959
  395.750    7.117    0.384    0.196   76.653  220.930
  396.000    7.151    0.385    0.197   78.915  220.903
  396.250    7.358    0.383    0.198   77.284  220.866
  396.500    7.638    0.380    0.177   74.012  220.837
  396.750    7.858    0.371    0.163   71.592  220.803
  397.000    8.040    0.371    0.156   71.150  220.769
  397.250    8.154    0.375    0.160   72.573  220.938
  397.500    8.164    0.381    0.174   75.018  221.210
  397.750    8.015    0.386    0.187   76.817  221.258
  398.000    7.889    0.392    0.191   76.299  221.636
  398.250    7.825    0.391    0.187   77.481  221.608
  398.500    7.934    0.387    0.187   78.841  221.575
  398.750    8.161    0.382    0.190   78.821  221.546
  399.000    8.444    0.379    0.193   77.784  221.519
  399.250    8.727    0.377    0.191   78.503  221.566
  399.500    8.923    0.373    0.191   80.986  221.953
  399.750    9.112    0.372    0.185   77.365  222.322
  400.000    9.207    0.389    0.187   76.087  222.687
  400.250    9.335    0.400    0.195   76.790  222.854
  400.500    9.517    0.397    0.202   78.932  222.926
  400.750    9.722    0.386    0.196   82.041  223.289
  401.000   10.092    0.380    0.183   83.270  223.260
  401.250   10.381    0.370    0.170   76.770  222.832
  401.500   10.509    0.362    0.156   72.609  222.101
  401.750   10.502    0.371    0.157   72.469  221.668
  402.000   10.381    0.395    0.176   75.692  221.635
  402.250   10.055    0.410    0.204   80.024  222.016
  402.500    9.602    0.413    0.211   83.759  224.062
  402.750    9.320    0.421    0.198   85.661  224.438
  403.000    9.146    0.420    0.189   84.862  223.007
  403.250    9.107    0.417    0.188   82.560  221.173
  403.500    9.201    0.418    0.194   80.078  220.239
  403.750    9.424    0.426    0.204   79.359  222.071
  404.000    9.562    0.426    0.207   81.839  225.380
  404.250    9.696    0.421    0.203   82.300  220.144
  404.500    9.832    0.414    0.207   82.043  220.614
  404.750    9.969    0.404    0.207   81.785  222.184
  405.000   10.145    0.393    0.200   81.706  222.851
  405.250   10.515    0.397    0.188   81.194  223.217
  405.500   10.914    0.404    0.184   79.926  223.185
  405.750   11.067    0.411    0.196   80.387  223.548
  406.000   11.221    0.411    0.207   81.208  223.617
  406.250   11.337    0.409    0.212   80.587  223.591
  406.500   11.371    0.408    0.210   78.586  223.665
  406.750   11.296    0.416    0.207   77.322  224.110
  407.000   11.375    0.426    0.209   78.303  224.491
  407.250   11.451    0.426    0.217   80.210  224.460
  407.500   11.464    0.416    0.217   82.835  224.431
  407.750   11.414    0.410    0.215   85.698  224.399
  408.000   11.325    0.411    0.211   87.719  224.365
  408.250   11.199    0.410    0.203   87.416  224.333
  408.500   11.023    0.409    0.199   88.395  224.297
  408.750   10.935    0.411    0.199   89.581  224.272
  409.000   10.849    0.417    0.197   89.503  223.940
  409.250   10.802    0.418    0.198   89.005  223.709
  409.500   10.794    0.412    0.203   88.448  223.880
  409.750   10.786    0.406    0.202   87.454  224.808
  410.000   10.778    0.404    0.196   86.182  225.600
  410.250   10.770    0.413    0.193   85.205  225.575
  410.500   10.762    0.419    0.196   84.585  224.945
  410.750   10.755    0.420    0.198   85.166  224.712
  411.000   10.749    0.417    0.196   86.468  224.979
  411.250   10.740    0.415    0.193   86.838  224.859
  411.500   10.733    0.414    0.191   87.569  224.416
  411.750   10.725    0.418    0.190   88.752  224.385
  412.000   10.776    0.423    0.188   90.474  224.654
  412.250   10.809    0.424    0.184   90.936  225.224
  412.500   10.822    0.421    0.184   89.778  225.993
  412.750   10.908    0.413    0.192   88.074  226.839
  413.000   10.984    0.404    0.195   88.052  227.224
  413.250   10.977    0.402    0.190   86.833  226.789
  413.500   11.030    0.402    0.185   86.334  226.064
  413.750   11.062    0.398    0.182   85.596  225.434
  414.000   11.095    0.392    0.182   84.558  225.300
  414.250   11.249    0.395    0.184   84.255  227.151
  414.500   11.239    0.421    0.201   85.237  232.533
  414.750   11.151    0.449    0.262   88.822  235.303
  415.000   11.003    0.428    0.283   89.703  235.677
  415.250   10.876    0.405    0.275   89.684  233.648
  415.500   10.770    0.403    0.250   89.966  230.114
  415.750   10.573    0.422    0.212   91.493  226.871
  416.000   10.407    0.443    0.181   93.227  226.839
  416.250   10.250    0.448    0.202   94.407  227.214
  416.500   10.318    0.444    0.256   93.971  230.884
  416.750   10.538    0.417    0.304   91.793  233.053
  417.000   10.955    0.383    0.314   88.652  231.422
  417.250   12.069    0.377    0.247   85.627  225.767
  417.500   13.742    0.369    0.190   82.604  223.647
  417.750   17.329    0.349    0.187   81.625  223.612
  418.000   21.108    0.327    0.171   78.486  223.285
  418.250   25.785    0.295    0.139   72.344  222.855
  418.500   31.964    0.259    0.094   63.801  222.522
  418.750   38.206    0.245    0.043   54.490  222.569
  419.000   41.531    0.249    0.003   52.467  222.960
  419.250   42.110    0.290    0.043   52.212  223.329
  419.500   41.775    0.325    0.107   53.936  223.698
  419.750   39.922    0.353    0.157   56.559  223.867
  420.000   37.032    0.368    0.174   58.581  223.836
  420.250   33.703    0.360    0.154   57.426  223.798
  420.500   31.475    0.349    0.116   54.157  223.762
  420.750   29.662    0.334    0.087   52.697  222.530
  421.000   28.275    0.315    0.077   55.201  220.703
  421.250   27.150    0.308    0.097   60.707  219.474
  421.500   26.263    0.318    0.150   67.292  219.643
  421.750   25.597    0.343    0.231   72.122  221.940
  422.000   25.193    0.366    0.241   72.351  223.575
  422.250   24.812    0.397    0.239   71.372  223.945
  422.500   24.437    0.408    0.241   72.735  224.014
  422.750   24.067    0.408    0.242   74.519  223.981
  423.000   23.746    0.403    0.235   74.921  224.048
  423.250   23.484    0.394    0.211   70.407  224.414
  423.500   23.117    0.387    0.186   61.132  224.382
  423.750   22.766    0.408    0.174   60.153  224.351
  424.000   22.422    0.405    0.209   64.397  224.622
  424.250   21.837    0.393    0.242   68.820  224.793
  424.500   20.883    0.385    0.247   70.661  224.761
  424.750   19.463    0.389    0.225   69.688  224.723
  425.000   19.011    0.397    0.214   70.919  224.688
  425.250   19.138    0.397    0.214   71.381  224.656
  425.500   19.477    0.394    0.215   70.943  224.628
  425.750   20.178    0.389    0.211   69.845  224.598
  426.000   21.366    0.380    0.201   68.205  224.367
  426.250   23.520    0.352    0.182   65.372  223.612
  426.500   25.566    0.301    0.159   62.102  223.997
  426.750   28.252    0.267    0.122   55.360  223.569
  427.000   30.276    0.266    0.081   52.219  222.836
  427.250   30.599    0.291    0.095   53.281  222.401
