~VERSION INFORMATION
 VERS.                 2.0:   CWLS LOG ASCII STANDARD -VERSION 2.0
 WRAP.                  NO:   ONE LINE PER DEPTH STEP
~WELL INFORMATION BLOCK
#MNEM.UNIT           DATA                    DESCRIPTION OF MNEMONIC
#---------    -------------------            -------------------------------
# Generated from Intellog Unique Number	CC_80_83/WELL/2341
NULL.         -999.25                        : NULL_VALUE
WELL.         HOMESTEAD ET AL COWPAR         : WELL_NAME
LOC .         10-09-080-04W4                 : Location     - LOCATION          
UWI .         00/10-09-080-04W400            : Uwi          - UNIQUE WELL ID    
ENTR.         DW                             : Entered      - ENTERED BY        
SRVC.         SCHLUMBERGER                   : Scn          - SERVICE COMPANY   
DATE.         23 JAN 72                      : Date         - LOG DATE
STRT.M        94.488                         : top_depth    - START DEPTH       
STOP.M        320.04                         : bot_depth    - STOP DEPTH        
STEP.M        0.3048                         : increment    - STEP LENGTH       
~CURVE INFORMATION BLOCK
#MNEM UNIT       ERCB CURVE CODE    CURVE DESCRIPTION
#-----------   ------------------   ----------------------------------
DEPT.M        00 001 00 00         : DEPTH        - DEPTH                       
NPHI.V/V      00 330 00 00         : PHIN         - NEUTRON POROSITY (LIMESTONE)
GR  .API      00 310 00 00         : GR           - GAMMA RAY                   
DPHI.V/V      00 890 00 00         : PHID         - DENSITY POROSITY (LIMESTONE)
ILD .OHMM     00 120 00 00         : RESD         - DEEP RESISTIVITY (DIL)      
~PARAMETER INFORMATION       
#MNEM.UNIT           DATA             DESCRIPTION OF MNEMONIC
#---------         -----------     ------------------------------
GL  .M        479.45               : gl           - GROUND LEVEL ELEVATION      
EREF.M        483.108              : kb           - ELEVATION OF DEPTH REFERENCE
DATM.M        483.108              : datum        - DATUM ELEVATION             
TDD .M        331.622              : tdd          - TOTAL DEPTH DRILLER         
RUN .         ONE                  : Run          - RUN NUMBER                  
ENG .         BILL                 : Engineer     - RECORDING ENGINEER          
WIT .         JIM                  : Witness      - WITNESSED BY                
MUD .         GEL                  : Mud_type     - MUD TYPE                    
MATR.         LIMESTONE            : Logunit      - NEUTRON MATRIX              
TMAX.C        21.1111              : BHT          - MAXIMUM RECORDED TEMPERATURE
BHTD.M        331.622              : BHTDEP       - MAXIMUM RECORDED TEMPERATURE
MATR.         1                    : LOGUNIT      - NEUTRON MATRIX              
RMT .C        25                   : MDTP         - TEMPERATURE OF MUD          
NEUT.         0                    : NEUTRON      - NEUTRON TYPE                
RESI.         0                    : RESIST       - RESISTIVITY TYPE            
RMC .OHMM     0.25                 : RMC          - RESISTIVITY OF MUD CAKE     
RMF .OHMM     0.25                 : RMF          - RESISTIVITY OF MUD FILTRATE 
SUFT.C        15                   : SUFT         - SURFACE TEMPERATURE         
~A  DEPTH     PHIN       GR     PHID     RESD
   94.488    0.403  799.368    0.366   24.227
   94.793    0.409   26.220    0.353   24.659
   95.098    0.410   29.872    0.375   25.100
   95.402    0.398   36.362    0.387   25.065
   95.707    0.409   33.122    0.391   25.050
   96.012    0.408   32.720    0.365   24.562
   96.317    0.387   42.453    0.379   23.196
   96.622    0.420   47.727    0.367   21.110
   96.926    0.413   46.514    0.369   19.210
   97.231    0.396   50.976    0.329   18.483
   97.536    0.380   46.520    0.345   18.819
   97.841    0.378   31.927    0.373   19.872
   98.146    0.403   28.282    0.390   20.611
   98.450    0.415   30.312    0.377   21.371
   98.755    0.401   36.802    0.368   20.953
   99.060    0.412   38.832    0.368   20.163
   99.365    0.402   36.809    0.367   19.051
   99.670    0.421   37.622    0.352   18.334
   99.974    0.409   39.653    0.344   18.304
  100.279    0.430   42.088    0.349   18.984
  100.584    0.445   51.011    0.351   19.326
  100.889    0.401   53.446    0.355   20.410
  101.194    0.392   50.205    0.365   20.784
  101.498    0.384   47.371    0.366   21.152
  101.803    0.409   45.753    0.359   21.525
  102.108    0.401   44.539    0.335   21.093
  102.413    0.383   41.704    0.347   20.689
  102.718    0.385   37.653    0.345   20.280
  103.022    0.375   35.629    0.344   19.896
  103.327    0.377   43.741    0.352   19.508
  103.632    0.394   49.014    0.353   19.122
  103.937    0.399   50.639    0.355   19.106
  104.242    0.407   45.371    0.354   18.385
  104.546    0.404   46.185    0.325   17.690
  104.851    0.408   58.352    0.311   17.032
  105.156    0.390   62.409    0.322   17.010
  105.461    0.382   66.061    0.320   17.634
  105.766    0.376   68.496    0.325   17.954
  106.070    0.396   68.499    0.335   18.270
  106.375    0.412   76.206    0.342   18.247
  106.680    0.406   79.453    0.338   17.236
  106.985    0.412   79.861    0.331   17.215
  107.290    0.413   72.566    0.336   17.526
  107.594    0.384   67.704    0.332   18.172
  107.899    0.385   76.221    0.306   19.557
  108.204    0.368   68.521    0.274   21.444
  108.509    0.367   51.902    0.269   22.241
  108.814    0.375   46.229    0.290   22.629
  109.118    0.394   44.205    0.323   22.610
  109.423    0.390   46.236    0.323   22.581
  109.728    0.395   49.482    0.340   21.331
  110.033    0.410   51.918    0.361   20.154
  110.338    0.409   54.353    0.336   18.001
  110.643    0.393   57.194    0.336   16.379
  110.947    0.384   62.063    0.317   15.182
  111.252    0.421   65.309    0.316   14.890
  111.557    0.440   60.447    0.334   14.872
  111.862    0.451   61.666    0.337   14.584
  112.167    0.412   67.345    0.310   14.037
  112.471    0.412   73.835    0.323   13.261
  112.776    0.388   80.731    0.318   12.525
  113.081    0.385   84.382    0.300   12.278
  113.386    0.383   66.547    0.312   12.267
  113.691    0.368   66.550    0.316   12.026
  113.995    0.365   82.770    0.290   11.362
  114.300    0.381   85.206    0.295   10.148
  114.605    0.387   88.452    0.286   10.524
  114.910    0.405   91.699    0.271   11.539
  115.215    0.375   93.324    0.270   12.891
  115.519    0.387   92.516    0.287   13.879
  115.824    0.401   89.275    0.311   14.660
  116.129    0.391   69.007    0.336   14.641
  116.434    0.399   74.282    0.342   14.354
  116.739    0.393   75.095    0.333   13.820
  117.043    0.397   74.287    0.325   12.812
  117.348    0.407   70.641    0.307   11.877
  117.653    0.388   73.482    0.280   11.011
  117.958    0.399   87.675    0.264   10.796
  118.263    0.393   97.409    0.246   10.991
  118.567    0.395  102.682    0.252   11.181
  118.872    0.406   99.037    0.271   10.967
  119.177    0.386  103.094    0.275   11.155
  119.482    0.378  103.097    0.281   11.570
  119.787    0.380   97.830    0.293   12.000
  120.091    0.381   95.806    0.304   13.152
  120.396    0.404   90.538    0.330   13.643
  120.701    0.400   85.271    0.347   14.142
  121.006    0.401   82.031    0.314   14.396
  121.311    0.384   79.196    0.314   14.656
  121.615    0.394   76.361    0.314   14.360
  121.920    0.407   75.553    0.297   14.083
  122.225    0.375   74.340    0.301   13.812
  122.530    0.378   85.290    0.277   13.545
  122.835    0.381   96.644    0.258   12.794
  123.139    0.391   94.216    0.274   11.858
  123.444    0.406   96.245    0.277   11.632
  123.749    0.402   97.871    0.272   10.983
  124.054    0.397   97.062    0.276   10.773
  124.359    0.402   83.686    0.284   10.362
  124.663    0.399   74.364    0.289   10.354
  124.968    0.405   91.801    0.276   10.935
  125.273    0.442   63.830    0.317   11.558
  125.578    0.397   56.129    0.309   13.905
  125.883    0.401   63.836    0.342   14.159
  126.187    0.436   73.569    0.301   14.141
  126.492    0.428   82.491    0.233   13.858
  126.797    0.406   87.765    0.235   13.843
  127.102    0.445   70.335    0.292   14.092
  127.407    0.422   65.067    0.309   14.617
  127.711    0.390   75.613    0.305   15.152
  128.016    0.359   76.832    0.289   14.859
  128.321    0.356   76.023    0.281   15.996
  128.626    0.378   67.918    0.255   20.360
  128.931    0.409   53.325    0.258   26.407
  129.235    0.412   44.004    0.254   29.486
  129.540    0.376   32.655    0.193   29.465
  129.845    0.140   29.009    0.114   27.822
  130.150    0.162   29.418    0.191   26.292
  130.455    0.286   33.070    0.271   22.200
  130.759    0.387   41.993    0.325   20.590
  131.064    0.401   40.780    0.339   18.384
  131.369    0.399   37.540    0.350   18.033
  131.674    0.404   37.947    0.344   18.006
  131.979    0.394   42.410    0.335   17.989
  132.283    0.382   39.170    0.338   17.975
  132.588    0.370   42.011    0.354   18.298
  132.893    0.412   42.014    0.332   17.940
  133.198    0.400   37.963    0.343   18.259
  133.503    0.389   42.020    0.357   18.259
  133.807    0.398   42.834    0.359   17.545
  134.112    0.414   44.864    0.343   17.208
  134.417    0.427   42.841    0.345   16.248
  134.722    0.421   40.411    0.342   15.642
  135.026    0.397   44.063    0.339   15.342
  135.331    0.388   52.174    0.333   15.896
  135.636    0.400   52.177    0.334   15.882
  135.941    0.410   47.316    0.373   16.470
  136.246    0.422   50.968    0.366   16.761
  136.550    0.404   48.943    0.349   17.063
  136.855    0.426   48.136    0.348   17.043
  137.160    0.391   50.572    0.333   16.406
  137.465    0.386   49.358    0.325   14.385
  137.770    0.386   51.794    0.317   11.273
  138.074    0.379   59.095    0.321   10.259
  138.379    0.384   67.206    0.314    9.876
  138.684    0.399   73.696    0.289    9.326
  138.989    0.406   74.510    0.280    9.140
  139.294    0.406   81.406    0.278    8.964
  139.598    0.401   83.030    0.268    8.958
  139.903    0.395   83.439    0.269    9.118
  140.208    0.389   87.901    0.266    9.102
  140.513    0.396   83.039    0.259    8.924
  140.818    0.375   86.286    0.253    8.590
  141.122    0.387   84.262    0.251    8.269
  141.427    0.403   85.482    0.253    7.956
  141.732    0.391   87.512    0.252    8.100
  142.037    0.405   88.326    0.253    9.219
  142.342    0.395   79.409    0.271   10.690
  142.646    0.405   71.710    0.291   12.397
  142.951    0.391   72.524    0.324   13.592
  143.256    0.406   72.932    0.346   14.093
  143.561    0.430   70.908    0.355   14.341
  143.866    0.428   65.235    0.354   14.600
  144.170    0.406   53.481    0.341   14.580
  144.475    0.365   61.187    0.261   14.300
  144.780    0.346   68.893    0.233   14.018
  145.085    0.371   69.707    0.253   13.748
  145.389    0.371   62.007    0.271   14.253
  145.694    0.379   56.334    0.287   15.341
  145.999    0.406   55.932    0.313   15.043
  146.304    0.429   56.340    0.340   14.476
  146.609    0.435   60.803    0.348   13.673
  146.913    0.430   66.077    0.343   12.445
  147.218    0.421   61.215    0.344   11.119
