~VERSION INFORMATION
 VERS.                 2.0:   CWLS LOG ASCII STANDARD -VERSION 2.0
 WRAP.                  NO:   ONE LINE PER DEPTH STEP
~WELL INFORMATION BLOCK
#MNEM.UNIT           DATA                    DESCRIPTION OF MNEMONIC
#---------    -------------------            -------------------------------
# Generated from Intellog Unique Number	CN_91_93/WELL/2707
WELL.         10-14-091-20W4                 : Well_name    - WELL
LOC .         00/10-14-091-20W4/0            : Location     - LOCATION
UWI .         00/10-14-091-20W4/0            : Uwi          - UNIQUE WELL ID
ENTR.         JOETTE                         : Entered      - ENTERED BY
SRVC.         SCHLUMBERGER                   : Scn          - SERVICE COMPANY
DATE.         02/09/92                       : Date         - LOG DATE
STRT.F        230                            : top_depth    - START DEPTH
STOP.F        759.856                        : bot_depth    - STOP DEPTH
STEP.F        0.82                           : increment    - STEP LENGTH
 NULL. -999.2500:NULL Value
~CURVE INFORMATION BLOCK
#MNEM UNIT       ERCB CURVE CODE    CURVE DESCRIPTION
#-----------   ------------------   ----------------------------------
DEPT.F        00 001 00 00         : DEPTH        - DEPTH
GR  .API      00 310 00 00         : GR           - GAMMA RAY
CALI.IN       00 280 01 00         : CAL          - CALIPER
NPHI.V/V      00 330 00 00         : PHIN         - NEUTRON POROSITY (SANDSTONE)
DPHI.V/V      00 890 00 00         : PHID         - DENSITY POROSITY (SANDSTONE)
ILD .OHMM     00 120 00 00         : RESD         - DEEP RESISTIVITY (DIL)
~PARAMETER INFORMATION
#MNEM.UNIT           DATA             DESCRIPTION OF MNEMONIC
#---------         -----------     ------------------------------
GL  .M        508.102              : gl           - GROUND LEVEL ELEVATION
EREF.M        508.559              : kb           - ELEVATION OF DEPTH REFERENCE
DATM.M        508.559              : datum        - DATUM ELEVATION
TDD .M        234.696              : tdd          - TOTAL DEPTH DRILLER
RUN .         ONE                  : Run          - RUN NUMBER
ENG .         BILL                 : Engineer     - RECORDING ENGINEER
WIT .         JIM                  : Witness      - WITNESSED BY
MUD .         GEL                  : Mud_type     - MUD TYPE
MATR.         SANDSTONE            : Logunit      - NEUTRON MATRIX
TMAX.F        60                   : BHT          - MAXIMUM RECORDED TEMPERATURE
BHTD.F        770                  : BHTDEP       - MAXIMUM RECORDED TEMPERATURE
RMT .F        77                   : MDTP         - TEMPERATURE OF MUD
MUDD.LB/G     9.66666              : MWT          - MUD DENSITY
NEUT.         1                    : NEUTRON      - NEUTRON TYPE
RESI.         0                    : RESIST       - RESISTIVITY TYPE
RM  .OHMM     4.5                  : RM           - RESISTIVITY OF MUD
RMC .OHMM     4.5                  : RMC          - RESISTIVITY OF MUD CAKE
RMF .OHMM     4.5                  : RMF          - RESISTIVITY OF MUD FILTRATE
SUFT.F        39.2                 : SUFT         - SURFACE TEMPERATURE
~A  DEPTH       GR      CAL     PHIN     PHID     RESD
# ...
  469.501   91.016    8.703    0.498    0.111    7.851
  470.322  101.914    8.683    0.484    0.129    8.742
  471.142  105.654    8.704    0.466    0.156    8.511
  471.962  100.060    8.767    0.447    0.152    7.781
  472.782   99.758    8.788    0.424    0.162    7.308
  473.602  102.253    8.788    0.441    0.181    7.114
  474.423  103.192    8.789    0.468    0.192    7.051
  475.243  103.512    8.685    0.501    0.187    6.864
  476.063  105.073    8.561    0.519    0.191    7.507
  476.883   94.812    8.520    0.510    0.207    9.562
  477.703   74.594    8.520    0.416    0.183   13.201
  478.524   63.399    8.521    0.348    0.067   16.078
  479.344   60.916    8.521    0.291    0.027   21.609
  480.164   64.035    8.605    0.368    0.046   24.497
  480.984   79.602    8.647    0.385    0.134   15.934
  481.804   86.141    8.668    0.432    0.210   13.440
  482.625   88.638    8.690    0.433    0.211   11.963
  483.445   87.712    8.711    0.454    0.170   12.737
  484.265   84.295    8.690    0.466    0.125   13.320
  485.085   73.723    8.629    0.441    0.097   14.439
  485.906   65.951    8.629    0.401    0.075   16.814
  486.726   64.713    8.567    0.358    0.055   17.273
  487.546   71.566    8.485    0.428    0.083   17.118
  488.366   77.173    8.465    0.424    0.134   16.369
  489.186   80.915    8.465    0.416    0.183   15.373
  490.007   82.478    8.445    0.413    0.217   13.084
  490.827   85.596    8.445    0.408    0.209   11.750
  491.647   93.693    8.445    0.428    0.220   10.937
  492.467   90.588    8.446    0.427    0.204   10.365
  493.287   91.528    8.467    0.458    0.183   10.272
  494.108   92.781    8.467    0.410    0.175   10.272
  494.928   86.874    8.469    0.393    0.145    9.392
  495.748   88.127    8.490    0.394    0.163    7.440
  496.568   96.223    8.511    0.431    0.182    6.447
  497.388  105.565    8.553    0.457    0.214    5.894
  498.209  108.995    8.615    0.504    0.221    5.947
  499.029  104.956    8.637    0.511    0.210    7.781
  499.849   97.495    8.637    0.464    0.188    9.822
  500.669   79.766    8.555    0.336    0.169   11.336
  501.490   71.683    8.514    0.347    0.220   13.806
  502.310   71.070    8.494    0.384    0.257   14.056
  503.130   72.630    8.494    0.439    0.256   14.056
  503.950   79.172    8.494    0.422    0.226   13.440
  504.770   80.112    8.495    0.390    0.201   12.288
  505.591   79.186    8.516    0.375    0.139    9.308
  506.411   86.972    8.558    0.424    0.181    7.781
  507.231   96.936    8.600    0.456    0.196    7.575
  508.051   99.744    8.662    0.468    0.214    7.712
  508.871  100.994    8.725    0.466    0.227    8.285
  509.692   96.645    8.809    0.454    0.227    9.308
  510.512   89.186    8.871    0.458    0.200   10.458
  511.332   88.258    8.872    0.502    0.193   12.179
  512.152   86.086    8.831    0.468    0.182   13.320
  512.972   83.293    8.686    0.449    0.195   14.966
  513.793   83.300    8.583    0.436    0.193   16.664
  514.613   75.839    8.583    0.370    0.152   20.295
  515.433   66.511    8.522    0.314    0.095   21.803
  516.253   60.918    8.480    0.315    0.056   25.619
  517.073   60.613    8.480    0.344    0.087   31.201
  517.894   61.865    8.461    0.370    0.128   35.370
  518.714   59.071    8.440    0.349    0.091   38.685
  519.534   59.390    8.441    0.336    0.053   38.685
  520.354   56.597    8.441    0.300    0.018   35.055
  521.175   59.403    8.442    0.259    0.004   25.849
  521.995   66.878    8.463    0.282    0.033   20.662
  522.815   72.797    8.463    0.283    0.050   15.792
  523.635   89.295    8.485    0.320    0.111   14.439
  524.455  101.750    8.610    0.430    0.184   12.851
  525.276  106.112    8.714    0.444    0.178   10.840
  526.096  105.186    8.714    0.428    0.194    9.562
  526.916  100.525    8.673    0.430    0.199    9.392
  527.736   96.176    8.611    0.434    0.218    9.392
  528.556   96.183    8.550    0.429    0.199    9.225
  529.377   99.612    8.550    0.432    0.167    8.587
  530.197   98.376    8.530    0.430    0.174    7.374
  531.017   91.536    8.530    0.433    0.181    7.243
  531.837   89.987    8.510    0.410    0.181    7.308
  532.657   89.060    8.510    0.416    0.179    7.507
  533.478   99.024    8.510    0.438    0.200    6.988
  534.298  100.277    8.511    0.445    0.195    6.682
  535.118  104.951    8.511    0.477    0.197    6.742
  535.938  107.136    8.512    0.473    0.192    7.643
  536.759   97.496    8.512    0.465    0.176    9.392
  537.579   81.945    8.555    0.458    0.121   10.937
  538.399   72.307    8.597    0.446    0.053   12.737
  539.219   77.914    8.597    0.376    0.083   13.084
  540.039   91.923    8.618    0.400    0.161   12.851
  540.860   97.842    8.681    0.390    0.205   11.856
  541.680  104.072    8.681    0.406    0.206   11.541
  542.500  106.568    8.723    0.421    0.215   11.336
  543.320  101.908    8.745    0.426    0.233   11.336
  544.140  103.161    8.766    0.412    0.208   11.336
  544.961  102.857    8.766    0.412    0.197   11.438
  545.781  102.864    8.808    0.414    0.198   11.235
  546.601  104.427    8.912    0.407    0.202   10.458
  547.421  106.922    8.954    0.454    0.172    9.822
  548.241  101.639    8.934    0.481    0.104   10.272
  549.062   92.311    8.851    0.488    0.031   10.937
  549.882   89.828    8.748    0.374    0.027   11.336
  550.702   93.569    8.707    0.391    0.079   10.840
  551.522  100.421    8.770    0.423    0.123   10.000
  552.343  101.361    8.750    0.409    0.180    9.392
  553.163   97.325    8.729    0.403    0.168    8.981
  553.983   94.531    8.709    0.419    0.184    8.821
  554.803  101.383    8.689    0.436    0.177    8.821
  555.623  106.369    8.689    0.444    0.175    8.821
  556.444  108.553    8.690    0.467    0.187    8.511
  557.264  118.829    8.711    0.450    0.199    7.922
  558.084  118.524    8.711    0.437    0.204    8.587
  558.904  112.619    8.670    0.456    0.192   10.647
  559.724  107.959    8.588    0.423    0.171   12.070
  560.545   93.342    8.568    0.393    0.147   12.851
  561.365   94.281    8.506    0.387    0.162   13.561
  562.185   94.911    8.465    0.408    0.177   14.310
  563.005   93.674    8.465    0.385    0.108   14.700
  563.825   95.859    8.445    0.369    0.094   13.683
  564.646  102.400    8.445    0.404    0.123   12.967
  565.466  103.651    8.467    0.428    0.160   12.737
  566.286  100.857    8.488    0.427    0.197   12.851
  567.106   96.820    8.488    0.417    0.222   13.084
  567.927   99.626    8.510    0.395    0.230   13.683
  568.747  106.480    8.531    0.410    0.210   13.806
  569.567  109.598    8.552    0.395    0.202   12.511
  570.387  119.872    8.594    0.404    0.188   11.438
  571.207  112.101    8.636    0.424    0.190   11.438
  572.028  104.330    8.636    0.429    0.190   11.750
  572.848  104.647    8.575    0.425    0.215   12.179
  573.668  106.210    8.575    0.412    0.235   12.851
  574.488  105.595    8.555    0.396    0.213   12.737
  575.308  103.423    8.493    0.391    0.201   12.179
  576.129   99.074    8.514    0.391    0.194   10.090
  576.949  102.503    8.639    0.427    0.188    9.911
  577.769  106.556    8.785    0.463    0.175   10.090
  578.589  102.517    8.827    0.489    0.151   11.036
  579.409   99.413    8.661    0.423    0.096   11.541
  580.230  100.664    8.558    0.358    0.097   11.963
  581.050  100.672    8.621    0.379    0.179   11.135
  581.870   98.500    8.642    0.407    0.185   11.036
  582.690   93.839    8.601    0.420    0.157   12.179
  583.510   87.313    8.580    0.352    0.121   12.511
  584.331   85.141    8.581    0.290    0.066   11.438
  585.151   93.237    8.581    0.342    0.068    9.477
  585.971  107.869    8.603    0.466    0.124    6.864
  586.791  116.278    8.624    0.491    0.178    6.055
  587.612  123.441    8.666    0.554    0.198    5.293
  588.432  116.914    8.687    0.538    0.194    5.293
