~VERSION INFORMATION
 VERS.                 2.0:   CWLS LOG ASCII STANDARD -VERSION 2.0
 WRAP.                  NO:   ONE LINE PER DEPTH STEP
~WELL INFORMATION BLOCK
#MNEM.UNIT           DATA                    DESCRIPTION OF MNEMONIC
#---------    -------------------            -------------------------------
# Generated from Intellog Unique Number	CW_73_75/WELL/1035
WELL.         ANADARKO ER AL FRANCIS 11-08   : Well_name    - WELL
LOC .         00/11-08-074-21W4/0            : Location     - LOCATION
UWI .         00/11-08-074-21W4/0            : Uwi          - UNIQUE WELL ID
ENTR.         JAYE                           : Entered      - ENTERED BY
SRVC.         SCHLUMBERGER                   : Scn          - SERVICE COMPANY
DATE.         9 FEB 79                       : Date         - LOG DATE
STRT.M        380                            : top_depth    - START DEPTH
STOP.M        595                            : bot_depth    - STOP DEPTH
STEP.M        0.25                           : increment    - STEP LENGTH
 NULL. -999.2500:NULL Value
~CURVE INFORMATION BLOCK
#MNEM UNIT       ERCB CURVE CODE    CURVE DESCRIPTION
#-----------   ------------------   ----------------------------------
DEPT.M        00 001 00 00         : DEPTH        - DEPTH
DPHI.V/V      00 890 00 00         : PHID         - DENSITY POROSITY (SANDSTONE)
NPHI.V/V      00 330 00 00         : PHIN         - NEUTRON POROSITY (SANDSTONE)
GR  .API      00 310 00 00         : GR           - GAMMA RAY
CALI.MM       00 280 01 00         : CAL          - CALIPER
ILD .OHMM     00 120 00 00         : RESD         - DEEP RESISTIVITY (DIL)
~PARAMETER INFORMATION
#MNEM.UNIT           DATA             DESCRIPTION OF MNEMONIC
#---------         -----------     ------------------------------
GL  .M        689                  : gl           - GROUND LEVEL ELEVATION
EREF.M        692.8                : kb           - ELEVATION OF DEPTH REFERENCE
DATM.M        689                  : datum        - DATUM ELEVATION
TDD .M        633                  : tdd          - TOTAL DEPTH DRILLER
RUN .         ONE                  : Run          - RUN NUMBER
ENG .         GRSY                 : Engineer     - RECORDING ENGINEER
WIT .         ROGERS               : Witness      - WITNESSED BY
BASE.         EDMONTON             : Branch       - HOME BASE OF LOGGING UNIT
MUD .         GEL CHEM             : Mud_type     - MUD TYPE
MATR.         SANDSTONE            : Logunit      - NEUTRON MATRIX
TMAX.C        32                   : BHT          - MAXIMUM RECORDED TEMPERATURE
BHTD.M        632                  : BHTDEP       - MAXIMUM RECORDED TEMPERATURE
RMT .C        16.11                : MDTP         - TEMPERATURE OF MUD
MUDD.KG/M     1090                 : MWT          - MUD DENSITY
NEUT.         1                    : NEUTRON      - NEUTRON TYPE
RESI.         0                    : RESIST       - RESISTIVITY TYPE
RM  .OHMM     4.11                 : RM           - RESISTIVITY OF MUD
RMC .OHMM     0                    : RMC          - RESISTIVITY OF MUD CAKE
RMF .OHMM     3.86                 : RMF          - RESISTIVITY OF MUD FILTRATE
SUFT.C        0                    : SUFT         - SURFACE TEMPERATURE
~A  DEPTH     PHID     PHIN       GR      CAL     RESD
# ...
  453.000    0.309    0.457   46.423  158.799    6.110
  453.250    0.300    0.441   45.736  158.893    6.077
  453.500    0.285    0.446   44.926  158.985    5.999
  453.750    0.277    0.456   43.684  159.386    5.999
  454.000    0.293    0.452   42.688  159.787    5.966
  454.250    0.299    0.442   42.436  160.292    5.956
  454.500    0.293    0.453   42.490  161.207    5.956
  454.750    0.289    0.466   42.608  162.123    5.957
  455.000    0.300    0.471   43.035  162.321    5.957
  455.250    0.292    0.460   44.944  162.618    5.924
  455.500    0.286    0.447   45.989  162.402    5.925
  455.750    0.282    0.450   46.044  162.289    5.925
  456.000    0.300    0.452   43.998  161.764    5.937
  456.250    0.291    0.448   43.559  161.135    5.959
  456.500    0.279    0.455   44.171  161.124    5.982
  456.750    0.299    0.445   43.608  160.599    6.004
  457.000    0.292    0.439   42.551  159.969    5.994
  457.250    0.293    0.433   43.533  159.651    5.972
  457.500    0.289    0.427   44.640  159.639    5.961
  457.750    0.296    0.436   43.892  159.733    5.928
  458.000    0.301    0.447   42.650  159.620    5.918
  458.250    0.293    0.455   45.054  159.299    5.896
  458.500    0.278    0.466   45.233  159.185    5.875
  458.750    0.301    0.466   46.092  159.484    5.864
  459.000    0.312    0.461   49.670  159.783    5.843
  459.250    0.306    0.453   47.748  160.082    5.833
  459.500    0.291    0.445   45.208  160.276    5.790
  459.750    0.298    0.438   45.263  160.369    5.758
  460.000    0.297    0.433   46.555  160.770    5.716
  460.250    0.294    0.445   47.661  160.967    5.695
  460.500    0.315    0.461   48.210  160.956    5.674
  460.750    0.320    0.450   48.328  160.945    5.643
  461.000    0.311    0.446   48.383  160.831    5.623
  461.250    0.303    0.458   48.624  160.821    5.582
  461.500    0.300    0.471   49.112  160.809    5.561
  461.750    0.312    0.468   50.157  161.005    5.531
  462.000    0.302    0.451   52.994  160.790    5.541
  462.250    0.290    0.454   51.751  160.676    5.562
  462.500    0.286    0.461   52.177  160.768    5.615
  462.750    0.268    0.454   56.312  160.552    5.710
  463.000    0.234    0.447   60.818  160.439    5.850
  463.250    0.245    0.456   65.879  160.428    6.083
  463.500    0.260    0.467   68.159  159.697    6.337
  463.750    0.264    0.482   67.782  159.582    6.565
  464.000    0.267    0.430   64.685  159.882    6.814
  464.250    0.215    0.400   61.713  161.106    7.047
  464.500    0.118    0.342   58.987  162.023    6.982
  464.750    0.095    0.357   61.082  162.630    6.728
  465.000    0.218    0.421   68.492  162.930    6.507
  465.250    0.280    0.478   75.964  163.021    6.189
  465.500    0.252    0.475   77.132  163.321    5.800
  465.750    0.260    0.486   84.789  164.133    5.486
  466.000    0.253    0.474   81.940  165.565    5.056
  466.250    0.210    0.463   85.642  168.233    4.844
  466.500    0.194    0.479   86.933  170.283    4.694
  466.750    0.215    0.480   87.298  171.714    4.660
  467.000    0.199    0.468   86.735  172.218    4.643
  467.250    0.192    0.474   86.543  171.795    4.669
  467.500    0.203    0.485   87.402  172.094    4.730
  467.750    0.204    0.467   85.109  172.394    4.748
  468.000    0.183    0.464   85.412  172.486    4.679
  468.250    0.189    0.471   86.703  172.785    4.320
  468.500    0.189    0.480   84.843  173.494    3.922
  468.750    0.189    0.483   83.168  175.132    3.588
  469.000    0.198    0.492   85.757  176.976    3.368
  469.250    0.216    0.517   91.190  179.334    3.451
  469.500    0.260    0.553   81.913  181.590    3.731
  469.750    0.325    0.488   71.153  182.919    4.072
  470.000    0.313    0.464   65.399  180.230    4.419
  470.250    0.313    0.462   58.842  169.507    4.708
  470.500    0.321    0.462   53.891  161.255    4.805
  470.750    0.321    0.449   54.935  160.213    4.878
  471.000    0.340    0.451   57.525  160.306    4.869
  471.250    0.342    0.454   61.597  160.605    4.806
  471.500    0.340    0.461   65.856  160.904    4.753
  471.750    0.346    0.469   65.602  161.203    4.710
  472.000    0.340    0.460   65.102  161.190    4.675
  472.250    0.319    0.448   64.291  161.181    4.772
  472.500    0.322    0.463   63.297  161.171    4.853
  472.750    0.319    0.454   59.520  161.160    4.917
  473.000    0.307    0.481   58.896  160.842    4.936
  473.250    0.334    0.464   59.260  159.698    4.936
  473.500    0.330    0.436   57.956  158.554    4.909
  473.750    0.335    0.429   57.208  157.926    4.873
  474.000    0.339    0.438   56.707  157.709    4.828
  474.250    0.324    0.443   56.207  157.698    4.793
  474.500    0.315    0.434   56.076  157.893    4.784
  474.750    0.312    0.437   56.380  158.192    4.847
  475.000    0.316    0.425   57.856  159.108    4.966
  475.250    0.318    0.420   60.693  160.437    5.013
  475.500    0.322    0.439   62.478  161.973    4.957
  475.750    0.330    0.434   63.338  162.270    4.894
  476.000    0.328    0.420   61.663  161.848    4.840
  476.250    0.325    0.432   60.544  161.425    4.822
  476.500    0.325    0.446   59.549  161.002    4.805
  476.750    0.319    0.444   59.047  160.475    4.805
  477.000    0.320    0.438   58.918  160.157    4.823
  477.250    0.297    0.443   58.788  160.146    4.905
  477.500    0.279    0.449   58.905  160.135    4.988
  477.750    0.298    0.447   59.145  160.126    4.988
  478.000    0.313    0.439   59.325  159.908    4.888
  478.250    0.303    0.439   59.813  159.795    4.807
  478.500    0.310    0.456   60.487  159.579    4.745
  478.750    0.309    0.453   61.716  159.671    4.719
  479.000    0.325    0.449   63.009  159.763    4.728
  479.250    0.294    0.452   63.435  159.960    4.791
  479.500    0.305    0.452   61.574  160.052    4.854
  479.750    0.297    0.443   59.961  160.142    4.881
  480.000    0.285    0.431   59.646  160.236    4.909
  480.250    0.298    0.438   60.134  160.329    4.882
  480.500    0.315    0.459   61.426  160.525    4.810
  480.750    0.321    0.470   62.594  160.514    4.722
  481.000    0.320    0.465   63.514  160.401    4.635
  481.250    0.335    0.453   64.002  160.494    4.593
  481.500    0.295    0.458   62.760  160.483    4.568
  481.750    0.290    0.469   61.270  160.164    4.576
  482.000    0.308    0.459   60.337  159.843    4.585
  482.250    0.317    0.471   60.083  159.317    4.663
  482.500    0.273    0.490   60.757  159.102    4.921
  482.750    0.240    0.469   61.307  158.886    5.282
  483.000    0.204    0.447   61.795  158.772    5.595
  483.250    0.185    0.375   61.974  158.761    5.680
  483.500    0.252    0.369   61.968  158.853    5.422
  483.750    0.305    0.447   61.590  159.254    4.997
  484.000    0.313    0.490   62.017  159.760    4.579
  484.250    0.310    0.471   62.752  160.367    4.372
  484.500    0.293    0.452   63.796  161.076    4.356
  484.750    0.291    0.478   64.655  161.479    4.372
  485.000    0.278    0.463   64.773  161.879    4.564
  485.250    0.306    0.452   63.963  162.075    4.862
  485.500    0.314    0.451   62.906  162.169    5.237
  485.750    0.183    0.439   61.293  162.056    6.077
  486.000    0.134    0.404   56.466  162.043    6.908
  486.250    0.110    0.302   56.150  162.034    7.346
  486.500    0.126    0.299   57.071  161.816    7.360
  486.750    0.195    0.376   60.217  161.704    6.658
  487.000    0.238    0.440   66.700  161.178    6.079
  487.250    0.282    0.463   71.947  160.858    5.468
  487.500    0.297    0.449   81.644  160.436    4.947
  487.750    0.301    0.469   77.806  159.910    4.731
  488.000    0.296    0.509   68.776  159.488    4.645
  488.250    0.292    0.496   68.275  159.169    4.559
  488.500    0.318    0.478   67.774  158.642    4.534
  488.750    0.302    0.478   66.965  158.323    4.518
  489.000    0.295    0.482   65.413  157.900    4.510
  489.250    0.282    0.474   62.625  157.581    4.510
