~VERSION INFORMATION
 VERS.                 2.0:   CWLS LOG ASCII STANDARD -VERSION 2.0
 WRAP.                  NO:   ONE LINE PER DEPTH STEP
~WELL INFORMATION BLOCK
#MNEM.UNIT           DATA                    DESCRIPTION OF MNEMONIC
#---------    -------------------            -------------------------------
# Generated from Intellog Unique Number	CS_77_79/WELL/956
WELL.         CWWE SOUTH CHRISTINA           : Well_name    - WELL
LOC .         00/10-16-079-09W4/0            : Location     - LOCATION
UWI .         00/10-16-079-09W4/0            : Uwi          - UNIQUE WELL ID
ENTR.         JHS                            : Entered      - ENTERED BY
SRVC.         SCHLUMBERGER                   : Scn          - SERVICE COMPANY
STRT.M        243.84                         : top_depth    - START DEPTH
STOP.M        475.34                         : bot_depth    - STOP DEPTH
STEP.M        0.25                           : increment    - STEP LENGTH
 NULL. -999.2500:NULL Value
~CURVE INFORMATION BLOCK
#MNEM UNIT       ERCB CURVE CODE    CURVE DESCRIPTION
#-----------   ------------------   ----------------------------------
DEPT.M        00 001 00 00         : DEPTH        - DEPTH
RHOB.KG/M3    00 350 00 00         : DENS         - BULK DENSITY
GR  .API      00 310 00 00         : GR           - GAMMA RAY
DPHI.V/V      00 890 00 00         : PHID         - DENSITY POROSITY (SANDSTONE)
NPHI.V/V      00 330 00 00         : PHIN         - NEUTRON POROSITY (SANDSTONE)
ILD .OHMM     00 120 00 00         : RESD         - DEEP RESISTIVITY (DIL)
~PARAMETER INFORMATION
#MNEM.UNIT           DATA             DESCRIPTION OF MNEMONIC
#---------         -----------     ------------------------------
GL  .M        677.601              : gl           - GROUND LEVEL ELEVATION
EREF.M        680.253              : kb           - ELEVATION OF DEPTH REFERENCE
DATM.M        680.253              : datum        - DATUM ELEVATION
TDD .M        478.536              : tdd          - TOTAL DEPTH DRILLER
RUN .         ONE                  : Run          - RUN NUMBER
ENG .         BILL                 : Engineer     - RECORDING ENGINEER
WIT .         JIM                  : Witness      - WITNESSED BY
MUD .         GEL                  : Mud_type     - MUD TYPE
MATR.         SANDSTONE            : Logunit      - NEUTRON MATRIX
TMAX.C        27.2222              : BHT          - MAXIMUM RECORDED TEMPERATURE
BHTD.M        478.536              : BHTDEP       - MAXIMUM RECORDED TEMPERATURE
MATR.         1                    : LOGUNIT      - NEUTRON MATRIX
RMT .C        25                   : MDTP         - TEMPERATURE OF MUD
NEUT.         1                    : NEUTRON      - NEUTRON TYPE
RESI.         0                    : RESIST       - RESISTIVITY TYPE
RMC .OHMM     0.25                 : RMC          - RESISTIVITY OF MUD CAKE
RMF .OHMM     0.25                 : RMF          - RESISTIVITY OF MUD FILTRATE
SUFT.C        15                   : SUFT         - SURFACE TEMPERATURE
~A  DEPTH     DENS       GR     PHID     PHIN     RESD
# ...
  316.840   -0.000   73.091    0.365    0.471   17.310
  317.090   -0.000   72.980    0.364    0.479   17.176
  317.340   -0.000   74.587    0.355    0.489   16.306
  317.590    0.000   74.436    0.349    0.505   15.310
  317.840    0.000   71.485    0.343    0.500   14.557
  318.090    0.000   69.383    0.350    0.497   13.857
  318.340   -0.000   68.862    0.359    0.523   13.909
  318.590   -0.000   70.823    0.369    0.513   14.002
  318.840   -0.000   71.310    0.360    0.480   14.449
  319.090    0.000   70.276    0.357    0.466   15.120
  319.340    0.000   70.248    0.365    0.462   15.658
  319.590    0.000   68.920    0.354    0.475   15.825
  319.840   -0.000   64.957    0.365    0.492   15.649
  320.090   -0.000   62.242    0.351    0.512   15.155
  320.340    0.000   62.962    0.346    0.524   14.987
  320.590    0.000   64.433    0.341    0.504   14.519
  320.840    0.000   62.882    0.337    0.504   14.406
  321.090   -0.000   60.824    0.358    0.517   14.165
  321.340   -0.000   59.788    0.375    0.516   14.453
  321.590   -0.000   62.655    0.365    0.506   14.750
  321.840    0.000   61.531    0.363    0.505   14.700
  322.090    0.000   59.917    0.362    0.516   14.276
  322.340    0.000   60.709    0.357    0.511   14.312
  322.590   -0.000   59.881    0.352    0.511   16.964
  322.840   -0.000   57.996    0.339    0.525   19.716
  323.090    0.000   54.096    0.314    0.423   22.497
  323.340    0.000   51.162    0.238    0.269   26.129
  323.590    0.000   49.255    0.050    0.207   28.485
  323.840   -0.000   49.257    0.043    0.207   32.373
  324.090   -0.000   52.346    0.037    0.215   33.194
  324.340   -0.000   56.748    0.029    0.208   32.482
  324.590    0.000   56.514    0.041    0.199   29.512
  324.840    0.000   56.469    0.044    0.197   26.857
  325.090    0.000   61.758    0.044    0.204   22.244
  325.340   -0.000   66.017    0.070    0.241   18.804
  325.590   -0.000   69.867    0.171    0.384   16.129
  325.840   -0.000   69.762    0.350    0.493   14.752
  326.090    0.000   69.835    0.350    0.508   13.600
  326.340    0.000   70.106    0.342    0.513   13.166
  326.590   -0.000   71.601    0.329    0.518   12.772
  326.840   -0.000   71.975    0.333    0.519   12.166
  327.090   -0.000   72.179    0.347    0.515   11.145
  327.340    0.000   72.749    0.358    0.521   11.009
  327.590    0.000   73.799    0.367    0.545   11.150
  327.840    0.000   74.041    0.373    0.505   10.747
  328.090   -0.000   73.998    0.366    0.489   10.102
  328.340   -0.000   74.688    0.356    0.502    9.621
  328.590   -0.000   75.343    0.335    0.493    9.168
  328.840    0.000   77.901    0.333    0.493    9.317
  329.090    0.000   78.259    0.335    0.508    9.292
  329.340    0.000   81.301    0.336    0.493    8.226
  329.590   -0.000   80.593    0.331    0.474    6.799
  329.840   -0.000   81.421    0.331    0.468    5.064
  330.090    0.000   87.727    0.329    0.473    4.426
  330.340    0.000   92.362    0.311    0.499    4.116
  330.590    0.000   93.852    0.291    0.526    4.123
  330.840   -0.000   91.783    0.280    0.510    4.428
  331.090   -0.000   88.334    0.269    0.496    5.779
  331.340   -0.000   87.917    0.284    0.484    6.266
  331.590    0.000   89.684    0.305    0.502    6.384
  331.840    0.000   94.746    0.307    0.482    6.405
  332.090    0.000   96.983    0.292    0.477    6.894
  332.340   -0.000   96.590    0.288    0.482    7.456
  332.590   -0.000   95.439    0.279    0.494    8.150
  332.840    0.000   93.445    0.270    0.504    8.253
  333.090    0.000   93.644    0.275    0.508    8.026
  333.340    0.000  100.253    0.275    0.506    7.638
  333.590   -0.000  101.863    0.261    0.501    7.165
  333.840   -0.000  100.091    0.248    0.491    6.877
  334.090   -0.000   97.961    0.231    0.481    6.628
  334.340    0.000  102.130    0.250    0.472    6.530
  334.590    0.000  105.619    0.234    0.484    6.568
  334.840    0.000  106.069    0.254    0.514    6.631
  335.090   -0.000  105.584    0.252    0.505    6.624
  335.340   -0.000  105.084    0.243    0.516    6.801
  335.590   -0.000  104.295    0.229    0.522    7.146
  335.840    0.000  103.278    0.243    0.511    7.420
  336.090    0.000  106.380    0.237    0.516    7.358
  336.340   -0.000  108.012    0.258    0.513    6.797
  336.590   -0.000  104.726    0.254    0.507    6.006
  336.840   -0.000  102.964    0.238    0.508    5.837
  337.090    0.000  101.544    0.241    0.500    5.755
  337.340    0.000  100.141    0.240    0.492    5.592
  337.590    0.000  103.437    0.228    0.538    5.309
  337.840   -0.000  103.971    0.234    0.535    4.840
  338.090   -0.000  103.390    0.241    0.527    4.594
  338.340   -0.000  103.808    0.253    0.523    4.355
  338.590    0.000  105.825    0.237    0.535    4.273
  338.840    0.000  107.594    0.234    0.570    4.437
  339.090   -0.000  105.640    0.228    0.582    4.861
  339.340   -0.000  101.265    0.243    0.582    5.666
  339.590   -0.000   97.859    0.271    0.573    6.790
  339.840    0.000   90.579    0.260    0.553    7.523
  340.090    0.000   83.546    0.284    0.552    7.885
  340.340    0.000   82.753    0.291    0.541    7.693
  340.590   -0.000   85.763    0.307    0.523    7.359
  340.840   -0.000   89.669    0.280    0.522    6.978
  341.090   -0.000   92.588    0.280    0.541    6.627
  341.340    0.000   92.815    0.277    0.564    6.215
  341.590    0.000   89.322    0.297    0.547    6.073
  341.840    0.000   85.809    0.300    0.547    6.086
  342.090   -0.000   81.535    0.292    0.530    5.877
  342.340   -0.000   88.633    0.298    0.535    5.483
  342.590    0.000  100.026    0.288    0.578    4.818
  342.840    0.000  106.951    0.287    0.568    4.328
  343.090    0.000  112.881    0.269    0.574    3.800
  343.340   -0.000  114.682    0.264    0.623    3.537
  343.590   -0.000  114.140    0.266    0.631    3.352
  343.840   -0.000  112.747    0.260    0.636    3.259
  344.090    0.000  110.534    0.249    0.635    3.266
  344.340    0.000  111.259    0.253    0.631    3.291
  344.590    0.000  110.500    0.266    0.639    3.327
  344.840   -0.000  108.920    0.254    0.638    3.429
  345.090   -0.000  109.424    0.264    0.624    3.632
  345.340    0.000  112.990    0.267    0.607    3.784
  345.590    0.000  108.149    0.270    0.572    3.952
  345.840    0.000  102.663    0.279    0.547    4.128
  346.090   -0.000  100.976    0.246    0.554    4.385
  346.340   -0.000  102.529    0.232    0.544    4.394
  346.590   -0.000  105.543    0.231    0.541    4.294
  346.840    0.000  106.389    0.254    0.557    4.101
  347.090    0.000  109.785    0.266    0.583    3.967
  347.340    0.000  111.840    0.259    0.600    3.937
  347.590   -0.000  109.867    0.273    0.582    4.114
  347.840   -0.000  107.170    0.288    0.565    4.362
  348.090   -0.000  104.079    0.289    0.566    4.826
  348.340    0.000  102.894    0.287    0.547    5.288
  348.590    0.000   96.101    0.296    0.538    5.636
  348.840   -0.000   92.781    0.290    0.544    6.104
  349.090   -0.000   91.361    0.270    0.544    6.410
  349.340   -0.000   90.827    0.251    0.540    6.743
  349.590    0.000   90.332    0.254    0.543    6.494
  349.840    0.000   90.916    0.278    0.537    6.197
  350.090    0.000   92.268    0.288    0.515    5.643
  350.340   -0.000   94.767    0.267    0.507    5.149
  350.590   -0.000   97.670    0.250    0.523    4.834
  350.840   -0.000  101.292    0.236    0.532    4.651
  351.090    0.000  101.504    0.241    0.520    4.627
  351.340    0.000   99.088    0.257    0.521    4.954
  351.590    0.000   97.592    0.251    0.527    5.392
  351.840   -0.000   96.747    0.253    0.532    6.088
  352.090   -0.000   94.206    0.249    0.508    6.673
  352.340    0.000   92.287    0.275    0.494    7.203
  352.590    0.000   91.152    0.259    0.486    7.747
  352.840    0.000   92.514    0.244    0.478    7.957
  353.090   -0.000   94.412    0.240    0.485    7.808
