~VERSION INFORMATION
 VERS.                 2.0:   CWLS LOG ASCII STANDARD -VERSION 2.0
 WRAP.                  NO:   ONE LINE PER DEPTH STEP
~WELL INFORMATION BLOCK
#MNEM.UNIT           DATA                    DESCRIPTION OF MNEMONIC
#---------    -------------------            -------------------------------
# Generated from Intellog Unique Number	CW_73_75/WELL/222
WELL.         PAN AM H W-1 10-23             : Well_name    - WELL
LOC .         00/10-23-075-02W5/0            : Location     - LOCATION
UWI .         00/10-23-075-02W5/0            : Uwi          - UNIQUE WELL ID
ENTR.         JJ                             : Entered      - ENTERED BY
SRVC.         SCHLUMBERGER                   : Scn          - SERVICE COMPANY
DATE.         24 MAR 68                      : Date         - LOG DATE
STRT.M        615.696                        : top_depth    - START DEPTH
STOP.M        743.696                        : bot_depth    - STOP DEPTH
STEP.M        0.25                           : increment    - STEP LENGTH
 NULL. -999.2500:NULL Value
~CURVE INFORMATION BLOCK
#MNEM UNIT       ERCB CURVE CODE    CURVE DESCRIPTION
#-----------   ------------------   ----------------------------------
DEPT.M        00 001 00 00         : DEPTH        - DEPTH
DELT.US/F     00 520 00 00         : DELT         - SONIC TRAVEL TIME
GR  .API      00 310 00 00         : GR           - GAMMA RAY
ILD .OHMM     00 120 00 00         : RESD         - DEEP RESISTIVITY (DIL)
~PARAMETER INFORMATION
#MNEM.UNIT           DATA             DESCRIPTION OF MNEMONIC
#---------         -----------     ------------------------------
GL  .M        833.628              : gl           - GROUND LEVEL ELEVATION
EREF.M        837.743              : kb           - ELEVATION OF DEPTH REFERENCE
DATM.M        833.628              : datum        - DATUM ELEVATION
TDD .M        757.428              : tdd          - TOTAL DEPTH DRILLER
RUN .         ONE                  : Run          - RUN NUMBER
ENG .         EDGSON               : Engineer     - RECORDING ENGINEER
WIT .         SANDERSON            : Witness      - WITNESSED BY
BASE.         EDM                  : Branch       - HOME BASE OF LOGGING UNIT
MUD .         FRESH WATER          : Mud_type     - MUD TYPE
MATR.         SANDSTONE            : Logunit      - NEUTRON MATRIX
TMAX.C        23.3333              : BHT          - MAXIMUM RECORDED TEMPERATURE
BHTD.M        756.209              : BHTDEP       - MAXIMUM RECORDED TEMPERATURE
RMT .C        15.5556              : MDTP         - TEMPERATURE OF MUD
MUDD.KG/M     0                    : MWT          - MUD DENSITY
NEUT.         1                    : NEUTRON      - NEUTRON TYPE
RESI.         0                    : RESIST       - RESISTIVITY TYPE
RM  .OHMM     0                    : RM           - RESISTIVITY OF MUD
RMC .OHMM     0                    : RMC          - RESISTIVITY OF MUD CAKE
RMF .OHMM     0                    : RMF          - RESISTIVITY OF MUD FILTRATE
SUFT.C        5                    : SUFT         - SURFACE TEMPERATURE
~A  DEPTH     DELT       GR     RESD
  615.696  417.249   31.030    6.845
  615.946  382.442   39.121    6.557
  616.196  368.468   46.963    5.969
  616.446  378.687   49.593    5.481
  616.696  367.199   50.435    4.896
  616.946  400.871   52.866    4.606
  617.196  397.581   57.829    4.422
  617.446  367.882   62.346    4.135
  617.696  376.958   62.691    3.649
  617.946  380.993   59.363    3.160
  618.196  368.430   55.936    2.977
  618.446  356.607   52.359    3.294
  618.696  386.582   45.456    3.909
  618.946  379.462   41.632    5.035
  619.196  381.281   44.460    5.953
  619.446  383.972   47.089    7.781
  619.696  383.304   48.031    8.802
  619.946  393.657   46.937    9.521
  620.196  393.862   43.510    9.739
  620.446  387.212   44.650    9.857
  620.696  354.556   46.535    9.972
  620.946  315.852   49.710    9.988
  621.196  333.193   49.063    9.599
  621.446  362.699   51.743    8.911
  621.696  372.783   54.719    8.424
  621.946  378.095   56.406    7.534
  622.196  379.376   59.780    6.645
  622.446  378.103   54.715    6.258
  622.696  377.233   50.642    6.072
  622.946  372.465   52.377    6.091
  623.196  384.901   53.915    6.000
  623.446  402.579   56.545    5.816
  623.696  395.325   58.380    5.429
  623.946  385.517   55.647    4.846
  624.196  378.868   54.702    4.654
  624.446  368.724   55.395    4.671
  624.696  362.948   53.309    4.986
  624.946  365.841   52.264    5.207
  625.196  362.485   53.802    5.224
  625.446  335.473   49.630    5.237
  625.696  354.630   52.061    5.153
  625.946  372.711   55.484    4.967
  626.196  351.478   55.781    4.878
  626.446  286.699   56.971    4.893
  626.696  323.798   60.891    4.912
  626.946  386.300   60.889    4.829
  627.196  378.038   57.809    4.542
  627.446  390.810   56.417    4.252
  627.696  377.239   58.401    4.067
  627.946  390.885   55.818    3.982
  628.196  390.015   56.958    3.895
  628.446  386.725   62.765    3.912
  628.696  377.320   67.430    3.826
  628.946  384.985   68.372    3.843
  629.196  386.333   64.647    3.760
  629.446  382.103   60.524    3.760
  629.696  381.233   60.969    3.688
  629.946  384.798   63.847    3.304
  630.196  377.074   66.129    3.118
  630.446  381.244   66.574    3.031
  630.696  388.573   63.892    2.944
  630.946  374.666   61.755    3.162
  631.196  334.617   59.817    3.984
  631.446  285.093   57.283    5.005
  631.696  328.777   59.863    5.722
  631.946  339.265   63.684    6.143
  632.196  378.246   64.179    5.654
  632.446  391.219   64.078    5.469
  632.696  396.733   62.438    5.181
  632.946  394.788   64.372    4.494
  633.196  379.671   65.215    4.107
  633.446  376.248   65.759    3.818
  633.696  383.039   70.623    3.532
  633.946  376.994   66.897    3.452
  634.196  375.588   65.406    3.366
  634.446  374.179   65.653    3.378
  634.696  381.374   66.743    3.292
  634.946  391.457   68.926    3.209
  635.196  396.568   70.364    3.224
  635.446  387.836   68.525    3.243
  635.696  370.703   65.296    3.157
  635.946  393.018   67.579    3.171
  636.196  394.903   68.719    2.987
  636.446  391.547   66.632    2.899
  636.696  391.752   64.644    2.914
  636.946  374.888   63.103    3.032
  637.196  363.736   61.413    3.247
  637.446  376.979   60.816    3.664
  637.696  374.765   63.346    4.083
  637.946  375.911   65.082    4.400
  638.196  379.745   68.357    4.617
  638.446  383.915   67.958    4.734
  638.696  381.096   68.453    4.649
  638.946  375.051   68.253    4.563
  639.196  376.467   68.797    4.480
  639.446  374.252   65.121    4.296
  639.696  373.248   67.205    4.106
  639.946  378.158   73.012    3.924
  640.196  378.296   71.719    3.834
  640.446  380.383   67.199    3.648
  640.696  383.276   71.120    3.666
  640.946  386.035   73.948    3.683
  641.196  374.547   66.301    3.696
  641.446  359.229   60.937    3.812
  641.696  344.717   54.779    4.028
  641.946  332.019   50.011    4.349
  642.196  342.037   45.640    4.764
  642.446  346.811   48.022    5.282
  642.696  356.223   54.027    5.903
  642.946  369.465   52.238    6.626
  643.196  346.284   48.662    6.939
  643.446  249.249   44.589    7.256
  643.696  287.691   44.686    7.577
  643.946  320.288   46.522    7.592
  644.196  357.186   47.910    7.506
  644.446  367.202   51.582    7.220
  644.696  372.649   50.488    6.730
  644.946  365.933   51.579    6.145
  645.196  298.735   48.350    5.857
  645.446  282.409   44.823    5.973
  645.696  281.135   43.729    6.893
  645.946  256.005   44.422    7.916
  646.196  282.218   45.860    9.040
  646.446  301.643   48.738    9.859
  646.696  328.527   56.233    9.573
  646.946  369.726   59.657    8.681
  647.196  348.695   55.287    7.690
  647.446  342.651   55.086    6.601
  647.696  352.533   54.042    6.111
  647.946  355.426   55.082    5.824
  648.196  371.223   57.315    5.540
  648.446  383.188   60.243    5.456
  648.696  395.153   62.475    5.170
  648.946  377.147   59.644    4.883
  649.196  350.136   60.188    4.596
  649.446  358.472   64.654    4.310
  649.696  373.597   69.071    4.023
  649.946  364.730   70.063    3.938
  650.196  372.058   71.799    3.854
  650.446  366.887   72.194    3.769
  650.696  362.926   70.008    3.681
  650.946  369.381   70.602    3.600
  651.196  364.681   66.281    3.512
  651.446  362.534   64.094    3.427
  651.696  363.882   64.639    3.345
  651.946  371.547   71.240    3.258
  652.196  377.800   80.771    3.175
  652.446  382.575   78.038    3.085
  652.696  383.452   72.178    3.100
  652.946  369.142   70.985    3.118
  653.196  385.207   70.934    3.133
  653.446  377.079   69.839    3.150
  653.696  369.892   69.043    3.165
  653.946  357.463   69.985    3.182
  654.196  359.617   69.388    3.197
  654.446  362.376   69.088    3.311
  654.696  366.143   69.036    3.527
  654.946  346.658   64.963    3.947
  655.196  334.902   60.692    4.565
  655.446  326.304   55.874    5.285
  655.696  322.544   53.291    6.406
  655.946  320.061   52.793    7.932
  656.196  318.183   56.068    9.156
  656.446  314.827   59.293   10.280
  656.696  301.054   62.518   10.293
  656.946  337.750   64.950    9.103
  657.196  360.468   64.600    8.110
  657.446  366.856   61.570    6.822
  657.696  359.937   64.944    6.229
  657.946  367.468   67.673    5.442
  658.196  369.152   70.651    4.954
  658.446  367.206   74.025    4.565
  658.696  352.425   78.442    4.278
  658.946  367.348   80.724    4.096
  659.196  382.002   80.821    4.007
  659.446  386.104   80.373    3.823
  659.696  386.242   77.293    3.637
  659.946  377.779   69.198    3.551
  660.196  355.337   64.033    3.568
  660.446  350.569   64.677    3.583
  660.696  352.253   72.172    3.697
  660.946  354.138   73.610    3.819
  661.196  363.954   73.460    3.931
  661.446  361.673   72.415    4.147
  661.696  356.098   72.264    4.267
  661.946  382.042   73.007    4.177
  662.196  397.636   74.396    3.993
  662.446  395.624   76.082    3.809
  662.696  353.089   74.641    3.824
  662.946  343.886   62.872    3.938
  663.196  354.709   55.572    4.158
  663.446  354.444   54.478    4.576
  663.696  351.088   57.108    4.993
  663.946  354.788   58.695    5.511
  664.196  361.242   56.211    5.927
  664.446  361.851   56.755    6.547
  664.696  362.594   58.292    7.065
  664.946  352.047   61.816    6.680
  665.196  370.598   66.084    6.291
  665.446  360.253   65.238    5.703
  665.696  363.146   67.222    5.118
  665.946  357.370   67.022    4.833
  666.196  350.519   63.991    4.744
  666.446  365.307   60.862    4.759
  666.696  357.852   61.208    4.981
  666.946  373.513   64.185    5.196
  667.196  382.187   60.261    5.511
  667.446  367.137   55.840    6.333
  667.696  349.668   52.264    7.152
  667.946  344.900   50.922    7.972
  668.196  363.586   52.558    8.792
  668.446  364.867   53.947    9.310
  668.696  361.645   53.498    9.526
  668.946  357.415   50.667    9.445
  669.196  353.050   48.381    9.359
  669.446  352.852   46.790    9.274
  669.696  360.853   44.505    9.189
