~VERSION INFORMATION
 VERS.                 2.0:   CWLS LOG ASCII STANDARD -VERSION 2.0
 WRAP.                  NO:   ONE LINE PER DEPTH STEP
~WELL INFORMATION BLOCK
#MNEM.UNIT           DATA                    DESCRIPTION OF MNEMONIC
#---------    -------------------            -------------------------------
# Generated from Intellog Unique Number	CW_76_78/WELL/1029
WELL.         PETROMK ET AL MARTENCK 11-32   : Well_name    - WELL
LOC .         00/11-32-077-05W5/0            : Location     - LOCATION
UWI .         00/11-32-077-05W5/0            : Uwi          - UNIQUE WELL ID
ENTR.         JAYE                           : Entered      - ENTERED BY
SRVC.         SCHLUMBERGER                   : Scn          - SERVICE COMPANY
DATE.         5 MAR 79                       : Date         - LOG DATE
STRT.M        385                            : top_depth    - START DEPTH
STOP.M        595                            : bot_depth    - STOP DEPTH
STEP.M        0.25                           : increment    - STEP LENGTH
 NULL. -999.2500:NULL Value
~CURVE INFORMATION BLOCK
#MNEM UNIT       ERCB CURVE CODE    CURVE DESCRIPTION
#-----------   ------------------   ----------------------------------
DEPT.M        00 001 00 00         : DEPTH        - DEPTH
ILD .OHMM     00 120 00 00         : RESD         - DEEP RESISTIVITY (DIL)
DPHI.V/V      00 890 00 00         : PHID         - DENSITY POROSITY (SANDSTONE)
NPHI.V/V      00 330 00 00         : PHIN         - NEUTRON POROSITY (SANDSTONE)
GR  .API      00 310 00 00         : GR           - GAMMA RAY
CALI.MM       00 280 01 00         : CAL          - CALIPER
~PARAMETER INFORMATION
#MNEM.UNIT           DATA             DESCRIPTION OF MNEMONIC
#---------         -----------     ------------------------------
GL  .M        684.5                : gl           - GROUND LEVEL ELEVATION
EREF.M        688.5                : kb           - ELEVATION OF DEPTH REFERENCE
DATM.M        684.5                : datum        - DATUM ELEVATION
TDD .M        1896                 : tdd          - TOTAL DEPTH DRILLER
RUN .         ONE                  : Run          - RUN NUMBER
BASE.         EDM                  : Branch       - HOME BASE OF LOGGING UNIT
MATR.         SANDSTONE            : Logunit      - NEUTRON MATRIX
TMAX.C        22.2                 : BHT          - MAXIMUM RECORDED TEMPERATURE
BHTD.M        1896.3               : BHTDEP       - MAXIMUM RECORDED TEMPERATURE
RMT .C        22.2                 : MDTP         - TEMPERATURE OF MUD
MUDD.KG/M     0                    : MWT          - MUD DENSITY
NEUT.         1                    : NEUTRON      - NEUTRON TYPE
RESI.         0                    : RESIST       - RESISTIVITY TYPE
RM  .OHMM     0.0791               : RM           - RESISTIVITY OF MUD
RMC .OHMM     0                    : RMC          - RESISTIVITY OF MUD CAKE
RMF .OHMM     0.0851               : RMF          - RESISTIVITY OF MUD FILTRATE
SUFT.C        4.5                  : SUFT         - SURFACE TEMPERATURE
~A  DEPTH     RESD     PHID     PHIN       GR      CAL
# ...
  531.000    4.556    0.281    1.030   71.327  278.782
  531.250    4.635    0.276    1.004   71.363  278.196
  531.500    4.663    0.272    1.012   71.026  277.405
  531.750    4.613    0.273    1.031   71.868  276.608
  532.000    4.599    0.282    1.049   73.456  275.405
  532.250    4.525    0.278    1.044   73.059  273.898
  532.500    4.149    0.271    1.021   72.164  272.690
  532.750    3.360    0.256    0.998   72.015  271.793
  533.000    2.964    0.255    0.987   75.462  270.894
  533.250    3.049    0.247    0.971   78.725  269.901
  533.500    3.328    0.235    0.987   81.243  269.411
  533.750    3.474    0.217    1.008   84.878  276.776
  534.000    3.381    0.208    1.031   85.720  288.582
  534.250    3.376    0.234    1.056   84.454  305.653
  534.500    3.384    0.226    1.067   85.979  296.293
  534.750    3.220    0.224    1.054   88.062  296.537
  535.000    3.246    0.225    1.057   85.620  299.150
  535.250    3.446    0.200    1.054   83.668  303.828
  535.500    3.679    0.225    1.057   81.410  308.094
  535.750    3.898    0.216    1.070   82.317  296.566
  536.000    3.835    0.235    1.089   83.964  298.765
  536.250    3.253    0.239    1.111   84.002  298.801
  536.500    2.655    0.246    1.139   82.115  296.979
  536.750    2.457    0.241    1.033   77.745  262.103
  537.000    2.677    0.234    1.003   75.984  261.317
  537.250    3.044    0.213    1.001   77.571  261.968
  537.500    3.532    0.194    1.008   82.633  265.613
  537.750    3.469    0.215    1.018   84.653  281.860
  538.000    3.082    0.190    1.010   84.999  287.469
  538.250    3.278    0.215    0.989   85.165  287.815
  538.500    3.074    0.208    1.027   85.320  287.745
  538.750    3.197    0.188    1.042   85.545  287.468
  539.000    3.458    0.201    1.050   85.890  296.075
  539.250    3.590    0.188    1.058   85.181  299.928
  539.500    3.645    0.172    1.023   80.689  303.059
  539.750    3.654    0.198    1.032   81.533  306.814
  540.000    3.562    0.208    1.056   81.882  308.086
  540.250    3.421    0.181    1.073   82.287  311.734
  540.500    3.166    0.211    1.092   84.619  316.517
  540.750    3.087    0.195    1.109   86.269  316.449
  541.000    3.193    0.201    1.103   86.557  310.285
  541.250    3.334    0.211    1.094   86.530  313.109
  541.500    3.436    0.221    1.083   86.814  314.585
  541.750    3.282    0.199    1.058   88.089  315.551
  542.000    3.370    0.215    1.050   88.313  314.866
  542.250    3.512    0.236    1.049   91.325  317.579
  542.500    3.520    0.188    1.039   91.610  305.120
  542.750    3.258    0.222    1.097   88.606  311.866
  543.000    3.135    0.228    1.084   87.464  322.742
  543.250    3.255    0.211    1.059   89.178  325.768
  543.500    3.742    0.226    1.064   87.786  317.647
  543.750    3.381    0.243    1.075   85.588  308.590
  544.000    3.247    0.208    1.056   84.199  296.542
  544.250    3.322    0.188    1.031   88.767  305.663
  544.500    3.694    0.219    1.035   90.600  316.335
  544.750    3.394    0.229    1.046   88.339  306.765
  545.000    3.589    0.208    1.063   86.579  303.910
  545.250    3.933    0.204    1.082   86.923  312.202
  545.500    4.030    0.216    1.084   88.636  319.360
  545.750    3.548    0.223    1.048   88.299  298.431
  546.000    3.224    0.221    1.017   85.234  278.639
  546.250    3.201    0.212    1.023   82.851  277.845
  546.500    4.008    0.184    1.021   77.862  277.569
  546.750    6.109    0.097    0.826   73.619  281.942
  547.000    9.519    0.082    0.827   71.794  286.311
  547.250   11.963    0.149    0.859   72.206  294.196
  547.500    9.906    0.199    0.936   74.600  293.917
  547.750    3.338    0.236    0.992   77.735  282.800
  548.000    3.084    0.211    0.984   77.895  282.007
  548.250    3.513    0.201    0.986   81.099  284.418
  548.500    3.972    0.214    1.007   84.918  286.827
  548.750    3.655    0.195    1.015   87.373  288.407
  549.000    3.371    0.171    1.009   84.555  289.268
  549.250    3.592    0.180    1.004   83.164  295.703
  549.500    4.016    0.179    1.009   85.993  298.010
  549.750    4.139    0.177    1.020   87.829  306.407
  550.000    4.042    0.183    1.028   86.996  317.597
  550.250    3.721    0.193    1.037   85.854  319.902
  550.500    3.444    0.187    1.041   88.558  320.970
  550.750    3.308    0.194    1.024   89.958  317.699
  551.000    3.315    0.203    1.001   87.947  308.021
  551.250    3.436    0.209    0.988   85.629  298.040
  551.500    3.554    0.203    0.986   84.857  296.323
  551.750    3.529    0.192    1.000   87.187  299.035
  552.000    3.551    0.182    0.974   87.597  305.888
  552.250    3.687    0.199    0.959   86.331  312.532
  552.500    4.002    0.189    0.963   85.873  322.993
  552.750    4.194    0.187    0.979   87.090  336.348
  553.000    4.196    0.202    0.964   88.240  340.305
  553.250    3.798    0.195    0.971   88.466  340.134
  553.500    3.548    0.211    1.039   87.009  339.753
  553.750    3.420    0.198    1.066   86.178  341.337
  554.000    3.322    0.225    1.092   86.214  346.018
  554.250    3.275    0.225    1.106   86.996  349.564
  554.500    3.313    0.205    1.050   88.461  354.863
  554.750    3.517    0.234    1.011   89.428  350.558
  555.000    3.896    0.231    0.979   89.836  335.103
  555.250    3.942    0.202    1.023   89.685  332.348
  555.500    3.669    0.265    1.054   87.239  336.721
  555.750    3.698    0.217    1.039   85.475  342.020
  556.000    4.044    0.203    1.004   85.451  335.652
  556.250    4.623    0.202    0.993   87.347  331.140
  556.500    4.247    0.216    1.006   85.460  320.128
  556.750    4.179    0.226    0.977   85.250  303.740
  557.000    4.554    0.223    0.972   86.279  295.512
  557.250    5.063    0.218    0.991   87.182  296.475
  557.500    5.704    0.202    1.017   85.981  309.832
  557.750    6.462    0.213    1.030   83.905  302.949
  558.000    7.402    0.225    1.009   79.972  292.858
  558.250    8.431    0.202    0.984   76.286  284.941
  558.500    9.967    0.210    0.970   76.200  283.120
  558.750   10.310    0.231    0.973   83.120  278.918
  559.000    9.161    0.236    1.002   87.623  275.235
  559.250    8.292    0.241    1.051   91.692  273.307
  559.500    8.468    0.232    1.042   93.223  272.409
  559.750    8.566    0.225    1.028   90.463  270.483
  560.000    8.444    0.245    1.011   84.296  270.928
  560.250    8.051    0.231    0.999   80.175  270.449
  560.500    7.877    0.232    0.988   78.102  270.065
  560.750    7.594    0.246    0.987   77.642  276.092
  561.000    7.294    0.265    1.011   79.914  277.878
  561.250    6.877    0.248    1.040   84.788  278.739
  561.500    6.365    0.231    1.056   87.491  278.774
  561.750    5.490    0.220    1.053   86.599  279.115
  562.000    5.100    0.231    1.044   81.360  279.255
  562.250    5.141    0.250    1.034   79.972  280.941
  562.500    5.259    0.211    1.037   85.838  287.788
  562.750    5.419    0.202    1.030   90.156  294.223
  563.000    5.007    0.187    1.026   88.826  296.840
  563.250    5.084    0.173    1.037   85.761  299.662
  563.500    5.987    0.136    0.995   81.082  295.358
  563.750    8.647    0.131    0.938   77.956  291.571
  564.000   12.305    0.104    0.945   81.095  283.448
  564.250   19.068    0.095    0.907   83.241  276.771
  564.500   22.169    0.124    0.914   67.643  269.988
  564.750   11.169    0.146    0.977   64.888  265.170
  565.000    8.034    0.260    0.379   73.113  272.843
  565.250    6.955    0.243    0.375   82.392  278.245
  565.500    6.366    0.231    0.367   81.189  280.759
  565.750    5.991    0.266    0.356   77.379  285.647
  566.000    5.649    0.252    0.361   75.306  294.148
  566.250    5.296    0.245    0.372   74.535  289.638
  566.500    4.893    0.254    0.386   77.240  294.628
  566.750    4.665    0.255    0.412   78.953  296.629
  567.000    3.019    0.238    0.389   80.103  297.276
  567.250    2.954    0.228    0.382   82.807  297.726
