~VERSION INFORMATION
 VERS.                 2.0:   CWLS LOG ASCII STANDARD -VERSION 2.0
 WRAP.                  NO:   ONE LINE PER DEPTH STEP
~WELL INFORMATION BLOCK
#MNEM.UNIT           DATA                    DESCRIPTION OF MNEMONIC
#---------    -------------------            -------------------------------
# Generated from Intellog Unique Number	CC_80_83/WELL/2496
WELL.         CAVALIER CHEVRON ALGER         : Well_name    - WELL
LOC .         00/11-25-081-17W4/0            : Location     - LOCATION
UWI .         00/11-25-081-17W400            : Uwi          - UNIQUE WELL ID
ENTR.         DW                             : Entered      - ENTERED BY
SRVC.         SCHLUMBERGER                   : Scn          - SERVICE COMPANY
STRT.M        118.872                        : top_depth    - START DEPTH
STOP.M        301.622                        : bot_depth    - STOP DEPTH
STEP.M        0.25                           : increment    - STEP LENGTH
 NULL. -999.2500:NULL Value
~CURVE INFORMATION BLOCK
#MNEM UNIT       ERCB CURVE CODE    CURVE DESCRIPTION
#-----------   ------------------   ----------------------------------
DEPT.M        00 001 00 00         : DEPTH        - DEPTH
ILD .OHMM     00 120 00 00         : RESD         - DEEP RESISTIVITY (DIL)
NPHI.V/V      00 330 00 00         : PHIN         - NEUTRON POROSITY (SANDSTONE)
DPHI.V/V      00 890 00 00         : PHID         - DENSITY POROSITY (SANDSTONE)
GR  .API      00 310 00 00         : GR           - GAMMA RAY
~PARAMETER INFORMATION
#MNEM.UNIT           DATA             DESCRIPTION OF MNEMONIC
#---------         -----------     ------------------------------
GL  .M        539.496              : gl           - GROUND LEVEL ELEVATION
EREF.M        545.3                : kb           - ELEVATION OF DEPTH REFERENCE
DATM.M        545.3                : datum        - DATUM ELEVATION
TDD .M        303.581              : tdd          - TOTAL DEPTH DRILLER
RUN .         ONE                  : Run          - RUN NUMBER
ENG .         BILL                 : Engineer     - RECORDING ENGINEER
WIT .         JIM                  : Witness      - WITNESSED BY
MUD .         GEL                  : Mud_type     - MUD TYPE
MATR.         SANDSTONE            : Logunit      - NEUTRON MATRIX
TMAX.C        25                   : BHT          - MAXIMUM RECORDED TEMPERATURE
BHTD.M        303.581              : BHTDEP       - MAXIMUM RECORDED TEMPERATURE
MATR.         1                    : LOGUNIT      - NEUTRON MATRIX
RMT .C        25                   : MDTP         - TEMPERATURE OF MUD
NEUT.         1                    : NEUTRON      - NEUTRON TYPE
RESI.         0                    : RESIST       - RESISTIVITY TYPE
RMC .OHMM     0.25                 : RMC          - RESISTIVITY OF MUD CAKE
RMF .OHMM     0.25                 : RMF          - RESISTIVITY OF MUD FILTRATE
SUFT.C        15                   : SUFT         - SURFACE TEMPERATURE
~A  DEPTH     RESD     PHIN     PHID       GR
# ...
  162.372    8.246    0.442    0.291   72.491
  162.622    8.404    0.426    0.291   71.606
  162.872    8.690    0.410    0.285   73.350
  163.122    9.004    0.398    0.274   76.080
  163.372    9.117    0.392    0.273   75.157
  163.622    9.172    0.410    0.280   72.216
  163.872    9.382    0.427    0.289   69.001
  164.122    9.741    0.421    0.292   66.596
  164.372   10.170    0.413    0.287   64.717
  164.622   10.546    0.425    0.282   64.299
  164.872   10.677    0.438    0.288   66.961
  165.122   10.571    0.444    0.293   68.280
  165.372   10.356    0.450    0.292   68.618
  165.622    9.752    0.455    0.284   67.847
  165.872    8.980    0.454    0.283   67.347
  166.122    8.459    0.448    0.290   71.701
  166.372    7.649    0.441    0.273   81.184
  166.622    7.046    0.434    0.264   84.051
  166.872    6.885    0.411    0.266   83.369
  167.122    6.970    0.404    0.268   79.853
  167.372    7.125    0.426    0.262   73.936
  167.622    7.536    0.430    0.252   72.182
  167.872    8.733    0.412    0.251   69.289
  168.122   11.038    0.366    0.135   63.051
  168.372   12.577    0.289    0.053   57.624
  168.622   12.752    0.264    0.112   53.767
  168.872   12.631    0.332    0.194   52.724
  169.122   11.854    0.369    0.238   61.427
  169.372   10.696    0.430    0.268   67.846
  169.622    9.768    0.448    0.277   72.859
  169.872    8.776    0.430    0.273   75.404
  170.122    7.952    0.426    0.274   73.493
  170.372    8.234    0.422    0.276   72.071
  170.622    8.684    0.431    0.281   72.191
  170.872    9.311    0.439    0.293   66.488
  171.122    9.722    0.433    0.305   60.409
  171.372   10.850    0.421    0.309   59.205
  171.622   12.853    0.412    0.307   59.862
  171.872   13.176    0.409    0.299   59.424
  172.122   13.144    0.408    0.273   57.344
  172.372   13.178    0.420    0.278   56.538
  172.622   13.129    0.433    0.298   56.867
  172.872   13.087    0.433    0.299   57.679
  173.122   13.164    0.430    0.300   59.786
  173.372   13.215    0.433    0.302   61.364
  173.622   13.451    0.435    0.312   62.214
  173.872   13.673    0.435    0.314   59.673
  174.122   13.770    0.429    0.307   55.752
  174.372   13.825    0.417    0.304   54.987
  174.622   13.820    0.408    0.307   56.558
  174.872   13.939    0.406    0.311   57.810
  175.122   14.078    0.418    0.320   58.005
  175.372   14.233    0.425    0.329   58.085
  175.622   14.316    0.419    0.335   58.803
  175.872   14.239    0.411    0.337   59.820
  176.122   14.257    0.409    0.336   60.054
  176.372   14.051    0.410    0.333   58.051
  176.622   13.762    0.412    0.335   57.506
  176.872   13.675    0.422    0.345   59.248
  177.122   13.769    0.443    0.357   60.498
  177.372   13.834    0.462    0.364   59.948
  177.622   13.900    0.456    0.366   57.550
  177.872   13.973    0.441    0.362   55.315
  178.122   14.026    0.431    0.354   55.154
  178.372   13.978    0.433    0.346   56.457
  178.622   13.841    0.452    0.342   57.379
  178.872   13.780    0.475    0.344   57.520
  179.122   13.654    0.482    0.349   56.154
  179.372   13.560    0.477    0.353   57.582
  179.622   13.483    0.462    0.357   60.902
  179.872   13.335    0.441    0.352   62.356
  180.122   13.204    0.428    0.330   61.745
  180.372   13.149    0.429    0.328   58.824
  180.622   12.959    0.433    0.323   56.230
  180.872   12.594    0.433    0.319   55.095
  181.122   12.200    0.429    0.323   54.876
  181.372   11.975    0.431    0.326   54.894
  181.622   12.038    0.443    0.329   54.890
  181.872   12.235    0.446    0.329   54.911
  182.122   12.429    0.453    0.335   54.730
  182.372   12.669    0.467    0.335   53.745
  182.622   12.922    0.471    0.327   53.121
  182.872   13.046    0.457    0.324   54.251
  183.122   13.177    0.442    0.320   54.697
  183.372   13.326    0.457    0.319   56.033
  183.622   13.406    0.472    0.327   57.137
  183.872   13.344    0.457    0.334   58.765
  184.122   13.208    0.429    0.334   62.631
  184.372   13.144    0.413    0.333   66.653
  184.622   13.084    0.408    0.340   70.060
  184.872   13.022    0.418    0.346   71.170
  185.122   13.162    0.439    0.348   68.548
  185.372   13.435    0.471    0.346   63.593
  185.622   13.879    0.503    0.342   59.776
  185.872   15.113    0.494    0.345   58.544
  186.122   15.770    0.487    0.345   58.957
  186.372   15.883    0.489    0.337   59.396
  186.622   15.577    0.489    0.324   64.335
  186.872   14.757    0.487    0.309   75.141
  187.122   13.828    0.487    0.308   80.724
  187.372   12.682    0.489    0.321   74.158
  187.622   12.212    0.487    0.309   67.116
  187.872   12.339    0.475    0.315   58.760
  188.122   12.863    0.464    0.324   49.669
  188.372   14.448    0.398    0.225   46.191
  188.622   17.327    0.192    0.038   41.489
  188.872   19.765    0.145    0.033   39.801
  189.122   20.010    0.195    0.159   41.484
  189.372   19.225    0.250    0.254   48.659
  189.622   17.851    0.338    0.289   59.184
  189.872   14.645    0.427    0.320   63.904
  190.122   13.264    0.446    0.327   64.490
  190.372   12.768    0.432    0.318   61.780
  190.622   14.874    0.468    0.310   55.916
  190.872   16.876    0.391    0.197   49.806
  191.122   19.262    0.143   -0.004   46.101
  191.372   32.740    0.131   -0.006   42.998
  191.622   42.854    0.137    0.004   41.506
  191.872   46.531    0.128   -0.000   41.562
  192.122   47.580    0.131    0.009   42.354
  192.372   46.941    0.137    0.023   43.437
  192.622   41.185    0.151    0.054   44.981
  192.872   28.282    0.181    0.113   47.371
  193.122   20.297    0.224    0.153   50.530
  193.372   18.515    0.298    0.235   54.692
  193.622   17.913    0.359    0.327   57.944
  193.872   16.671    0.381    0.341   57.779
  194.122   15.227    0.439    0.338   55.211
  194.372   13.189    0.461    0.336   53.245
  194.622   11.771    0.458    0.337   53.316
  194.872   11.417    0.459    0.339   55.172
  195.122   11.495    0.464    0.342   56.867
  195.372   11.637    0.467    0.340   56.693
  195.622   12.207    0.470    0.332   55.786
  195.872   13.590    0.466    0.342   53.997
  196.122   14.846    0.474    0.240   51.893
  196.372   15.316    0.418    0.163   51.236
  196.622   15.315    0.324    0.259   51.773
  196.872   15.312    0.380    0.303   52.101
  197.122   15.296    0.416    0.330   56.341
  197.372   14.116    0.440    0.323   56.584
  197.622   12.635    0.460    0.302   53.796
  197.872   11.956    0.458    0.310   55.094
  198.122   11.735    0.449    0.333   60.403
  198.372   11.726    0.461    0.320   62.808
  198.622   11.796    0.475    0.310   61.838
  198.872   11.833    0.485    0.305   62.259
  199.122   11.808    0.494    0.310   63.691
  199.372   11.728    0.501    0.326   64.152
  199.622   11.592    0.503    0.332   65.239
  199.872   11.462    0.498    0.328   63.986
  200.122   11.312    0.476    0.322   62.356
  200.372   11.249    0.455    0.315   60.616
  200.622   11.402    0.449    0.310   58.719
  200.872   11.677    0.450    0.312   59.903
  201.122   11.816    0.448    0.323   66.544
  201.372   11.897    0.444    0.320   70.786
  201.622   11.923    0.445    0.313   71.495
  201.872   11.913    0.461    0.313   69.834
  202.122   11.800    0.483    0.321   67.382
  202.372   11.524    0.483    0.329   67.013
  202.622   11.394    0.462    0.313   68.575
  202.872   11.155    0.456    0.305   68.858
  203.122   10.954    0.473    0.301   67.454
  203.372   10.959    0.488    0.292   65.040
  203.622   11.033    0.488    0.292   63.410
  203.872   11.100    0.487    0.292   65.467
  204.122   11.179    0.493    0.289   67.221
  204.372   11.177    0.484    0.300   68.468
  204.622   11.048    0.468    0.310   68.825
  204.872   10.821    0.456    0.307   68.190
  205.122   10.552    0.440    0.308   68.266
  205.372   10.382    0.430    0.310   68.896
  205.622   10.517    0.430    0.309   68.073
