~VERSION INFORMATION
 VERS.                 2.0:   CWLS LOG ASCII STANDARD -VERSION 2.0
 WRAP.                  NO:   ONE LINE PER DEPTH STEP
~WELL INFORMATION BLOCK
#MNEM.UNIT           DATA                    DESCRIPTION OF MNEMONIC
#---------    -------------------            -------------------------------
# Generated from Intellog Unique Number	CS_73_76/WELL/2182
WELL.         PEX KIRBY                      : Well_name    - WELL
LOC .         00/10-01-074-08W4/0            : Location     - LOCATION
UWI .         00/10-01-074-08W4/0            : Uwi          - UNIQUE WELL ID
ENTR.         SP                             : Entered      - ENTERED BY
SRVC.         SCHLUMBERGER                   : Scn          - SERVICE COMPANY
STRT.M        340                            : top_depth    - START DEPTH
STOP.M        565                            : bot_depth    - STOP DEPTH
STEP.M        0.25                           : increment    - STEP LENGTH
 NULL. -999.2500:NULL Value
~CURVE INFORMATION BLOCK
#MNEM UNIT       ERCB CURVE CODE    CURVE DESCRIPTION
#-----------   ------------------   ----------------------------------
DEPT.M        00 001 00 00         : DEPTH        - DEPTH
DPHI.V/V      00 890 00 00         : PHID         - DENSITY POROSITY (LIMESTONE)
NPHI.V/V      00 330 00 00         : PHIN         - NEUTRON POROSITY (LIMESTONE)
GR  .API      00 310 00 00         : GR           - GAMMA RAY
ILD .OHMM     00 120 00 00         : RESD         - DEEP RESISTIVITY (DIL)
~PARAMETER INFORMATION
#MNEM.UNIT           DATA             DESCRIPTION OF MNEMONIC
#---------         -----------     ------------------------------
GL  .M        725.14               : gl           - GROUND LEVEL ELEVATION
EREF.M        728.54               : kb           - ELEVATION OF DEPTH REFERENCE
DATM.M        725.14               : datum        - DATUM ELEVATION
TDD .M        573                  : tdd          - TOTAL DEPTH DRILLER
RUN .         ONE                  : Run          - RUN NUMBER
ENG .         BILL                 : Engineer     - RECORDING ENGINEER
WIT .         JIM                  : Witness      - WITNESSED BY
MUD .         GEL                  : Mud_type     - MUD TYPE
MATR.         LIMESTONE            : Logunit      - NEUTRON MATRIX
TMAX.C        30                   : BHT          - MAXIMUM RECORDED TEMPERATURE
BHTD.M        573                  : BHTDEP       - MAXIMUM RECORDED TEMPERATURE
MATR.         1                    : LOGUNIT      - NEUTRON MATRIX
RMT .C        25                   : MDTP         - TEMPERATURE OF MUD
NEUT.         1                    : NEUTRON      - NEUTRON TYPE
RESI.         0                    : RESIST       - RESISTIVITY TYPE
RMC .OHMM     0.25                 : RMC          - RESISTIVITY OF MUD CAKE
RMF .OHMM     0.25                 : RMF          - RESISTIVITY OF MUD FILTRATE
SUFT.C        15                   : SUFT         - SURFACE TEMPERATURE
~A  DEPTH     PHID     PHIN       GR     RESD
  340.000    0.219    0.419  106.352    3.574
  340.250    0.220    0.411   98.361    3.641
  340.500    0.214    0.408   94.057    3.854
  340.750    0.204    0.404  100.205    4.156
  341.000    0.192    0.396  101.434    4.316
  341.250    0.182    0.399   98.975    4.482
  341.500    0.154    0.398   95.902    4.744
  341.750    0.111    0.408   89.754    4.926
  342.000    0.194    0.428   94.057    5.020
  342.250    0.212    0.443  102.664    4.926
  342.500    0.201    0.431  100.205    4.743
  342.750    0.199    0.437   95.902    4.314
  343.000    0.195    0.443  102.049    3.925
  343.250    0.204    0.440  105.738    3.779
  343.500    0.212    0.441   97.746    3.638
  343.750    0.220    0.459   98.975    3.778
  344.000    0.215    0.460  100.820    3.924
  344.250    0.209    0.451  101.434    4.153
  344.500    0.204    0.464  102.664    4.232
  344.750    0.205    0.459  102.049    4.232
  345.000    0.213    0.442   96.516    3.998
  345.250    0.224    0.426  103.893    3.849
  345.500    0.212    0.433  105.738    3.849
  345.750    0.209    0.432  105.123    3.777
  346.000    0.201    0.432   97.746    3.776
  346.250    0.204    0.436   93.443    3.848
  346.500    0.199    0.433  102.664    4.073
  346.750    0.199    0.447  103.279    4.562
  347.000    0.208    0.405  102.049    4.920
  347.250    0.213    0.382   95.902    6.173
  347.500    0.228    0.369   90.984    7.600
  347.750    0.254    0.376   86.680    8.353
  348.000    0.265    0.390   92.213    9.717
  348.250    0.255    0.373   87.295   11.963
  348.500    0.240    0.386   95.287   16.499
  348.750    0.229    0.383   99.590   18.134
  349.000    0.219    0.373  100.820   17.133
  349.250    0.224    0.365  101.434   16.811
  349.500    0.242    0.356   95.902   16.810
  349.750    0.252    0.355   98.975   17.130
  350.000    0.266    0.366   95.902   17.789
  350.250    0.272    0.362   73.770   19.551
  350.500    0.262    0.378   66.393   20.692
  350.750    0.214    0.372   63.934   21.898
  351.000    0.147    0.349   66.393   22.315
  351.250    0.299    0.355   63.934   22.740
  351.500    0.303    0.368   69.467   21.484
  351.750    0.283    0.380   68.853   19.544
  352.000    0.264    0.368   74.385   18.119
  352.250    0.226    0.356   81.762   16.484
  352.500    0.209    0.360   87.295   14.714
  352.750    0.206    0.372   89.139   13.641
  353.000    0.201    0.357   90.984   12.409
  353.250    0.193    0.352   97.131   11.724
  353.500    0.191    0.356  102.049   11.724
  353.750    0.217    0.358  106.352   11.947
  354.000    0.230    0.362   90.369   12.174
  354.250    0.243    0.353   84.221   14.162
  354.500    0.254    0.348   83.607   15.863
  354.750    0.260    0.374   78.689   17.767
  355.000    0.264    0.372   78.689   18.106
  355.250    0.276    0.369   82.377   18.450
  355.500    0.280    0.368   79.303   17.764
  355.750    0.280    0.378   78.689   15.857
  356.000    0.266    0.340   74.385   14.426
  356.250    0.247    0.357   79.303   13.374
  356.500    0.226    0.374   92.213   13.373
  356.750    0.224    0.373   90.369   13.628
  357.000    0.247    0.370   73.156   14.152
  357.250    0.273    0.363   68.238   14.421
  357.500    0.305    0.368   76.230   14.420
  357.750    0.330    0.382   84.221   14.419
  358.000    0.287    0.340   91.598   14.694
  358.250    0.173    0.326   82.377   15.259
  358.500    0.195    0.325   72.541   16.149
  358.750    0.219    0.334   69.467   18.089
  359.000    0.233    0.340   66.393   19.509
  359.250    0.223    0.342   62.090   20.646
  359.500    0.239    0.337   56.557   21.441
  359.750    0.254    0.346   54.098   21.849
  360.000    0.250    0.342   55.943   22.265
  360.250    0.250    0.354   49.180   23.122
  360.500    0.281    0.374   47.951   22.687
  360.750    0.295    0.385   51.639   22.686
  361.000    0.265    0.359   44.262   22.259
  361.250    0.289    0.358   40.574   20.250
  361.500    0.272    0.375   43.033   17.738
  361.750    0.271    0.390   52.869   13.355
  362.000    0.272    0.403   65.164   11.264
  362.250    0.174    0.389   84.221    9.323
  362.500    0.161    0.420  100.205    7.716
  362.750    0.169    0.407  112.500    7.019
  363.000    0.172    0.397  116.803    6.033
  363.250    0.193    0.404  122.951    5.489
  363.500    0.204    0.408  121.107    4.808
  363.750    0.193    0.388  123.566    4.542
  364.000    0.195    0.414  121.107    4.291
  364.250    0.216    0.430  124.795    4.291
  364.500    0.221    0.420  121.721    5.087
  364.750    0.218    0.403  113.115    6.504
  365.000    0.211    0.375   89.139    7.425
  365.250    0.215    0.360   84.221    8.317
  365.500    0.212    0.375   83.607   10.435
  365.750    0.238    0.368   72.541   13.597
  366.000    0.249    0.354   70.697   15.817
  366.250    0.262    0.355   62.090   16.118
  366.500    0.247    0.350   58.402   15.814
  366.750    0.247    0.357   65.164   15.517
  367.000    0.246    0.348   73.156   15.226
  367.250    0.261    0.345   84.221   14.940
  367.500    0.253    0.337   79.918   15.515
  367.750    0.250    0.349   71.926   16.419
  368.000    0.261    0.349   75.000   17.708
  368.250    0.280    0.362   71.311   18.390
  368.500    0.292    0.376   69.467   18.044
  368.750    0.290    0.390   68.238   16.415
  369.000    0.297    0.378   67.008   13.845
  369.250    0.272    0.380   70.697   12.127
  369.500    0.228    0.389   81.147   10.229
  369.750    0.189    0.397   98.361    8.627
  370.000    0.180    0.394  110.656    7.415
  370.250    0.181    0.406  117.418    6.875
  370.500    0.176    0.411  121.721    6.619
  370.750    0.182    0.394  126.639    6.495
  371.000    0.184    0.391  116.803    7.275
  371.250    0.196    0.396  110.041    8.957
  371.500    0.261    0.403  110.041   12.588
  371.750    0.291    0.410   84.836   16.096
  372.000    0.320    0.381   74.385   19.445
  372.250    0.317    0.400   76.230   20.579
  372.500    0.309    0.396   92.828   20.578
  372.750    0.311    0.377  104.508   19.813
  373.000    0.301    0.383  102.664   19.076
  373.250    0.264    0.392   94.672   17.685
  373.500    0.236    0.409   92.828   16.395
  373.750    0.241    0.398   93.443   15.490
  374.000    0.264    0.398   91.598   15.199
  374.250    0.275    0.383   95.287   15.488
  374.500    0.286    0.391   90.984   16.704
  374.750    0.269    0.386   88.525   18.710
  375.000    0.266    0.364   75.615   20.180
  375.250    0.301    0.345   59.016   21.356
  375.500    0.303    0.360   54.098   22.178
  375.750    0.308    0.347   55.328   22.599
  376.000    0.314    0.356   50.410   22.175
  376.250    0.311    0.348   55.328   22.174
  376.500    0.299    0.351   62.705   22.172
  376.750    0.304    0.360   62.090   22.171
  377.000    0.297    0.344   57.172   21.754
  377.250    0.300    0.343   51.025   20.945
  377.500    0.287    0.347   60.246   20.552
  377.750    0.280    0.361   59.631   19.416
  378.000    0.270    0.352   63.934   18.695
  378.250    0.249    0.347   73.156   17.332
  378.500    0.231    0.341   79.303   16.068
  378.750    0.216    0.357   79.303   14.896
  379.000    0.245    0.363   89.139   14.343
  379.250    0.234    0.363   86.680   13.550
  379.500    0.221    0.361   86.066   13.046
  379.750    0.218    0.354   92.828   12.802
  380.000    0.227    0.372   96.516   12.561
  380.250    0.229    0.380   98.975   12.800
  380.500    0.216    0.367   97.746   13.805
  380.750    0.234    0.360   84.221   14.610
  381.000    0.231    0.353   80.533   14.609
  381.250    0.229    0.344   78.689   14.334
  381.500    0.221    0.350   84.836   12.556
  381.750    0.218    0.360   82.992   11.641
  382.000    0.206    0.369   99.590   10.196
  382.250    0.194    0.380  116.803    9.817
  382.500    0.179    0.375  119.262    9.275
  382.750    0.188    0.388  116.189    8.931
  383.000    0.192    0.397  119.877    8.279
  383.250    0.207    0.408  108.811    7.971
