~VERSION INFORMATION
 VERS.                 2.0:   CWLS LOG ASCII STANDARD -VERSION 2.0
 WRAP.                  NO:   ONE LINE PER DEPTH STEP
~WELL INFORMATION BLOCK
#MNEM.UNIT           DATA                    DESCRIPTION OF MNEMONIC
#---------    -------------------            -------------------------------
# Generated from Intellog Unique Number	CS_71_72/WELL/851
WELL.         PEX PHILLIPS AEC KIRBY         : Well_name    - WELL
LOC .         00/10-08-072-07W4/0            : Location     - LOCATION
UWI .         00/10-08-072-07W4/0            : Uwi          - UNIQUE WELL ID
ENTR.         SP                             : Entered      - ENTERED BY
SRVC.         SCHLUMBERGER                   : Scn          - SERVICE COMPANY
STRT.M        310                            : top_depth    - START DEPTH
STOP.M        525                            : bot_depth    - STOP DEPTH
STEP.M        0.25                           : increment    - STEP LENGTH
 NULL. -999.2500:NULL Value
~CURVE INFORMATION BLOCK
#MNEM UNIT       ERCB CURVE CODE    CURVE DESCRIPTION
#-----------   ------------------   ----------------------------------
DEPT.M        00 001 00 00         : DEPTH        - DEPTH
ILD .OHMM     00 120 00 00         : RESD         - DEEP RESISTIVITY (DIL)
DPHI.V/V      00 890 00 00         : PHID         - DENSITY POROSITY (LIMESTONE)
NPHI.V/V      00 330 00 00         : PHIN         - NEUTRON POROSITY (LIMESTONE)
GR  .API      00 310 00 00         : GR           - GAMMA RAY
~PARAMETER INFORMATION
#MNEM.UNIT           DATA             DESCRIPTION OF MNEMONIC
#---------         -----------     ------------------------------
GL  .M        672.83               : gl           - GROUND LEVEL ELEVATION
EREF.M        675.83               : kb           - ELEVATION OF DEPTH REFERENCE
DATM.M        672.83               : datum        - DATUM ELEVATION
TDD .M        540                  : tdd          - TOTAL DEPTH DRILLER
RUN .         ONE                  : Run          - RUN NUMBER
ENG .         BILL                 : Engineer     - RECORDING ENGINEER
WIT .         JIM                  : Witness      - WITNESSED BY
MUD .         GEL                  : Mud_type     - MUD TYPE
MATR.         LIMESTONE            : Logunit      - NEUTRON MATRIX
TMAX.C        20                   : BHT          - MAXIMUM RECORDED TEMPERATURE
BHTD.M        540                  : BHTDEP       - MAXIMUM RECORDED TEMPERATURE
MATR.         1                    : LOGUNIT      - NEUTRON MATRIX
RMT .C        25                   : MDTP         - TEMPERATURE OF MUD
NEUT.         1                    : NEUTRON      - NEUTRON TYPE
RESI.         0                    : RESIST       - RESISTIVITY TYPE
RMC .OHMM     0.25                 : RMC          - RESISTIVITY OF MUD CAKE
RMF .OHMM     0.25                 : RMF          - RESISTIVITY OF MUD FILTRATE
SUFT.C        15                   : SUFT         - SURFACE TEMPERATURE
~A  DEPTH     RESD     PHID     PHIN       GR
# ...
  484.000   31.433    0.245    0.320   85.128
  484.250   50.178    0.274    0.318   73.499
  484.500   68.961    0.279    0.313   61.870
  484.750  102.139    0.267    0.311   60.650
  485.000  123.136    0.263    0.303   65.551
  485.250  132.669    0.262    0.303   68.003
  485.500  123.067    0.270    0.311   71.681
  485.750  105.916    0.274    0.306   69.848
  486.000   86.182    0.278    0.298   69.851
  486.250   59.249    0.262    0.290   76.590
  486.500   40.735    0.254    0.284   79.654
  486.750   28.006    0.259    0.290   76.596
  487.000   20.752    0.238    0.292   66.804
  487.250   16.885    0.220    0.293   74.766
  487.500   13.738    0.187    0.293   84.566
  487.750   12.744    0.166    0.297   91.916
  488.000   12.272    0.174    0.313  101.103
  488.250   12.735    0.207    0.323   91.312
  488.500   13.216    0.231    0.331   83.968
  488.750   15.065    0.264    0.323   77.237
  489.000   15.931    0.226    0.304   72.954
  489.250   15.927    0.183    0.299   72.346
  489.500   14.500    0.172    0.293   75.411
  489.750   12.715    0.177    0.291   79.089
  490.000   11.150    0.184    0.286   80.928
  490.250   10.151    0.227    0.302   83.380
  490.500    9.416    0.241    0.305   87.669
  490.750    9.068    0.209    0.308   93.796
  491.000    8.570    0.193    0.310   95.024
  491.250    8.252    0.184    0.312   94.415
  491.500    8.250    0.176    0.320  101.766
  491.750    8.248    0.165    0.320  107.892
  492.000    8.560    0.155    0.310  114.017
  492.250    8.720    0.147    0.312  122.593
  492.500    8.554    0.181    0.320  128.718
  492.750    8.393    0.197    0.311  133.620
  493.000    8.236    0.211    0.305  130.563
  493.250    7.931    0.227    0.296   90.770
  493.500    7.496    0.243    0.292   78.529
  493.750    7.355    0.247    0.287   74.859
  494.000    7.082    0.230    0.286   80.985
  494.250    7.080    0.215    0.291   81.601
  494.500    7.079    0.200    0.298   83.441
  494.750    6.817    0.186    0.308   90.179
  495.000    6.442    0.173    0.321  109.163
  495.250    5.975    0.165    0.340  119.574
  495.500    5.648    0.151    0.355  134.271
  495.750    5.338    0.145    0.366  134.887
  496.000    5.540    0.137    0.370  131.829
  496.250    6.082    0.137    0.368  134.894
  496.500    6.553    0.142    0.344  136.734
  496.750    7.329    0.146    0.331  124.494
  497.000    7.752    0.155    0.314  109.803
  497.250    8.670    0.162    0.315  107.971
  497.500    9.169    0.159    0.324  112.259
  497.750    9.696    0.152    0.327  118.385
  498.000   10.445    0.160    0.326  111.041
  498.250   10.640    0.185    0.302   94.515
  498.500   10.838    0.190    0.281   84.112
  498.750   11.249    0.176    0.273   78.603
  499.000   11.459    0.162    0.276   91.465
  499.250   12.578    0.148    0.293  100.651
  499.500   13.810    0.141    0.300   98.206
  499.750   16.647    0.149    0.294  100.047
  500.000   20.068    0.171    0.300  101.274
  500.250   23.305    0.189    0.311   86.584
  500.500   26.068    0.228    0.316   74.955
  500.750   27.567    0.249    0.316   60.877
  501.000   27.558    0.264    0.312   45.574
  501.250   25.561    0.250    0.316   53.537
  501.500   25.082    0.240    0.322   71.909
  501.750   27.532    0.218    0.321   85.380
  502.000   28.049    0.213    0.319   96.404
  502.250   28.570    0.207    0.314   92.735
  502.500   21.569    0.245    0.312   93.963
  502.750   14.284    0.268    0.310   90.293
  503.000   11.407    0.278    0.303   80.501
  503.250    9.282    0.285    0.293   71.934
  503.500    7.139    0.259    0.285   69.487
  503.750    6.379    0.233    0.290   71.941
  504.000    5.917    0.219    0.290   77.453
  504.250    5.592    0.219    0.301   78.682
  504.500    5.487    0.222    0.300   74.400
  504.750    5.486    0.208    0.292   65.219
  505.000    5.382    0.206    0.288   70.734
  505.250    5.087    0.221    0.279   65.227
  505.500    4.992    0.215    0.272   72.578
  505.750    4.806    0.199    0.263   76.254
  506.000    4.805    0.208    0.277   73.197
  506.250    4.714    0.221    0.284   71.365
  506.500    4.714    0.224    0.289   70.144
  506.750    4.712    0.229    0.294   68.922
  507.000    4.623    0.235    0.293   65.251
  507.250    4.536    0.230    0.290   70.154
  507.500    4.451    0.225    0.285   73.218
  507.750    4.367    0.214    0.285   77.508
  508.000    4.205    0.206    0.288   67.103
  508.250    4.050    0.235    0.300   62.208
  508.500    3.974    0.244    0.304   62.824
  508.750    3.899    0.234    0.309   64.664
  509.000    3.825    0.229    0.315   71.403
  509.250    3.824    0.242    0.317   66.508
  509.500    3.895    0.245    0.306   59.165
  509.750    3.894    0.241    0.293   56.719
  510.000    3.967    0.239    0.288   56.112
  510.250    4.040    0.244    0.288   53.665
  510.500    4.116    0.242    0.291   57.955
  510.750    4.192    0.240    0.295   64.692
  511.000    4.191    0.231    0.296   69.594
  511.250    4.113    0.230    0.296   65.924
  511.500    4.111    0.228    0.290   71.439
  511.750    4.110    0.218    0.288   76.952
  512.000    4.032    0.219    0.283   80.628
  512.250    4.032    0.246    0.279   70.837
  512.500    4.030    0.245    0.279   65.942
  512.750    4.029    0.228    0.284   70.234
  513.000    4.028    0.220    0.291   72.686
  513.250    4.102    0.217    0.302   72.075
  513.500    4.101    0.214    0.314   67.795
  513.750    4.419    0.253    0.316   69.635
  514.000    4.502    0.241    0.306   71.475
  514.250    4.500    0.236    0.302   73.315
  514.500    4.499    0.246    0.300   73.318
  514.750    4.415    0.251    0.300   72.096
  515.000    4.413    0.261    0.301   63.529
  515.250    4.330    0.246    0.306   73.942
  515.500    4.249    0.222    0.313   80.679
  515.750    4.248    0.182    0.309   89.254
  516.000    4.168    0.230    0.301   65.992
  516.250    4.013    0.259    0.295   57.424
  516.500    4.012    0.267    0.290   50.693
  516.750    4.087    0.251    0.290   56.821
  517.000    4.163    0.242    0.290   61.109
  517.250    4.321    0.221    0.280   67.234
  517.500    4.319    0.204    0.286   66.625
  517.750    4.238    0.203    0.275   72.751
  518.000    4.158    0.221    0.263   77.040
  518.250    3.930    0.258    0.253   70.921
  518.500    3.714    0.242    0.257   62.354
  518.750    3.645    0.237    0.273   70.929
  519.000    3.509    0.253    0.268   64.199
  519.250    3.508    0.258    0.268   61.752
  519.500    3.574    0.237    0.273   57.470
  519.750    3.709    0.224    0.276   53.800
  520.000    3.778    0.213    0.279   61.152
  520.250    3.921    0.209    0.280   64.828
  520.500    4.070    0.214    0.281   68.505
  520.750    4.145    0.229    0.278   65.447
  521.000    4.222    0.254    0.271   64.227
  521.250    4.221    0.257    0.267   77.088
  521.500    4.381    0.268    0.262   82.600
  521.750    4.463    0.208    0.265   88.727
  522.000    4.808    0.194    0.245   94.853
  522.250    5.279    0.191    0.231   72.815
  522.500    6.016    0.172    0.218   85.064
  522.750    6.605    0.153    0.211   63.639
  523.000    8.265    0.142    0.192   57.520
  523.250   10.942    0.136    0.165   44.666
  523.500   20.673    0.131    0.149   23.855
  523.750   34.261    0.137    0.138   22.633
  524.000   46.210    0.139    0.145   23.249
  524.250   61.171    0.138    0.145   29.376
  524.500   71.039    0.002    0.136   31.216
  524.750   73.718   -0.002    0.128   32.444
  525.000   72.333    0.005    0.128   31.222
