~VERSION INFORMATION
 VERS.                 2.0:   CWLS LOG ASCII STANDARD -VERSION 2.0
 WRAP.                  NO:   ONE LINE PER DEPTH STEP
~WELL INFORMATION BLOCK
#MNEM.UNIT           DATA                    DESCRIPTION OF MNEMONIC
#---------    -------------------            -------------------------------
# Generated from Intellog Unique Number	CS_77_79/WELL/3304
WELL.         NUMAC OIL & GAS LTD.           : Well_name    - WELL
LOC .         00/12-23-079-14W4/0            : Location     - LOCATION
UWI .         00/12-23-079-14W4/0            : Uwi          - UNIQUE WELL ID
ENTR.         JOETTE                         : Entered      - ENTERED BY
SRVC.         SCHLUMBERGER                   : Scn          - SERVICE COMPANY
DATE.         08/24/92                       : Date         - LOG DATE
STRT.M        275                            : top_depth    - START DEPTH
STOP.M        500                            : bot_depth    - STOP DEPTH
STEP.M        0.25                           : increment    - STEP LENGTH
 NULL. -999.2500:NULL Value
~CURVE INFORMATION BLOCK
#MNEM UNIT       ERCB CURVE CODE    CURVE DESCRIPTION
#-----------   ------------------   ----------------------------------
DEPT.M        00 001 00 00         : DEPTH        - DEPTH
NPHI.V/V      00 330 00 00         : PHIN         - NEUTRON POROSITY (SANDSTONE)
DPHI.V/V      00 890 00 00         : PHID         - DENSITY POROSITY (SANDSTONE)
ILD .OHMM     00 120 00 00         : RESD         - DEEP RESISTIVITY (DIL)
GR  .API      00 310 00 00         : GR           - GAMMA RAY
~PARAMETER INFORMATION
#MNEM.UNIT           DATA             DESCRIPTION OF MNEMONIC
#---------         -----------     ------------------------------
GL  .M        695.8                : gl           - GROUND LEVEL ELEVATION
EREF.M        699.2                : kb           - ELEVATION OF DEPTH REFERENCE
DATM.M        699.2                : datum        - DATUM ELEVATION
TDD .M        512                  : tdd          - TOTAL DEPTH DRILLER
RUN .         ONE                  : Run          - RUN NUMBER
ENG .         BILL                 : Engineer     - RECORDING ENGINEER
WIT .         JIM                  : Witness      - WITNESSED BY
MUD .         GEL                  : Mud_type     - MUD TYPE
MATR.         SANDSTONE            : Logunit      - NEUTRON MATRIX
TMAX.C        12                   : BHT          - MAXIMUM RECORDED TEMPERATURE
BHTD.M        512                  : BHTDEP       - MAXIMUM RECORDED TEMPERATURE
RMT .C        12                   : MDTP         - TEMPERATURE OF MUD
MUDD.KG/M     1080                 : MWT          - MUD DENSITY
NEUT.         1                    : NEUTRON      - NEUTRON TYPE
RESI.         0                    : RESIST       - RESISTIVITY TYPE
RM  .OHMM     2.3                  : RM           - RESISTIVITY OF MUD
RMC .OHMM     2.3                  : RMC          - RESISTIVITY OF MUD CAKE
RMF .OHMM     4                    : RMF          - RESISTIVITY OF MUD FILTRATE
SUFT.C        4                    : SUFT         - SURFACE TEMPERATURE
~A  DEPTH     PHIN     PHID     RESD       GR
# ...
  318.500    0.512    0.165    5.616   99.536
  318.750    0.487    0.188    5.824  100.136
  319.000    0.460    0.161    5.930   95.892
  319.250    0.454    0.147    6.038   91.646
  319.500    0.452    0.155    5.924   93.458
  319.750    0.438    0.180    5.813   95.876
  320.000    0.443    0.202    5.496   99.501
  320.250    0.466    0.172    5.293  101.918
  320.500    0.493    0.169    5.292  103.123
  320.750    0.509    0.186    6.019   95.247
  321.000    0.493    0.181    6.723   93.423
  321.250    0.484    0.182    7.507   94.025
  321.500    0.475    0.184    7.786   90.993
  321.750    0.452    0.178    7.499   88.566
  322.000    0.449    0.166    7.496   89.771
  322.250    0.453    0.145    8.068   86.133
  322.500    0.445    0.157    9.178   77.046
  322.750    0.411    0.189   12.560   67.354
  323.000    0.391    0.220   16.565   57.662
  323.250    0.371    0.302   17.828   44.942
  323.500    0.361    0.313   23.519   35.855
  323.750    0.352    0.307   25.775   29.190
  324.000    0.346    0.317   26.250   37.054
  324.250    0.356    0.288   22.215   55.213
  324.500    0.369    0.256   19.873   69.132
  324.750    0.381    0.218   16.511   70.941
  325.000    0.396    0.200   13.718   70.934
  325.250    0.392    0.196   11.608   72.140
  325.500    0.421    0.204    8.957   73.952
  325.750    0.425    0.193    8.313   80.001
  326.000    0.464    0.192    7.863   88.470
  326.250    0.475    0.194    6.904   92.704
  326.500    0.470    0.186    6.530   94.513
  326.750    0.477    0.171    5.628   93.297
  327.000    0.495    0.206    6.057   89.055
  327.250    0.497    0.224    6.168   84.204
  327.500    0.488    0.204    6.515   87.833
  327.750    0.483    0.206    6.757   89.038
  328.000    0.477    0.198    6.880   87.217
  328.250    0.470    0.185    6.878   85.395
  328.500    0.453    0.188    7.002   83.572
  328.750    0.453    0.174    6.870   83.568
  329.000    0.462    0.169    6.741   83.561
  329.250    0.474    0.177    6.493   85.977
  329.500    0.471    0.186    6.372   88.393
  329.750    0.474    0.195    6.252   87.175
  330.000    0.485    0.201    6.483   80.512
  330.250    0.493    0.214    6.725   72.636
  330.500    0.467    0.241    7.374   70.813
  330.750    0.459    0.243   10.666   67.176
  331.000    0.465    0.256   11.693   38.110
  331.250    0.467    0.313   13.303   21.758
  331.500    0.456    0.343   20.717   15.699
  331.750    0.447    0.342   30.529   16.297
  332.000    0.445    0.342   39.537   18.109
  332.250    0.435    0.340   44.148   16.892
  332.500    0.449    0.330   50.229   15.070
  332.750    0.455    0.331   60.399   15.064
  333.000    0.450    0.336   72.620   17.481
  333.250    0.440    0.327   82.622   19.291
  333.500    0.445    0.329   97.531   19.283
  333.750    0.455    0.334  110.937   18.070
  334.000    0.469    0.331  119.379   19.272
  334.250    0.474    0.335  123.846   18.056
  334.500    0.467    0.346  135.773   17.448
  334.750    0.459    0.353  151.626   16.230
  335.000    0.450    0.344  172.469   16.226
  335.250    0.440    0.338  182.194   16.221
  335.500    0.433    0.331  182.128   16.214
  335.750    0.445    0.354  178.727   16.814
  336.000    0.484    0.350  175.348   17.414
  336.250    0.504    0.333  159.770   19.830
  336.500    0.498    0.333  153.934   24.064
  336.750    0.466    0.332  130.277   31.929
  337.000    0.455    0.332   89.968   45.848
  337.250    0.475    0.323   60.986   51.290
  337.500    0.480    0.301   51.614   49.467
  337.750    0.476    0.297   43.681   48.253
  338.000    0.479    0.304   37.658   47.642
  338.250    0.477    0.313   34.949   47.637
  338.500    0.490    0.321   35.588   47.631
  338.750    0.516    0.349   36.239   47.018
  339.000    0.518    0.345   38.282   47.014
  339.250    0.491    0.322   38.982   47.007
  339.500    0.493    0.316   38.963   48.212
  339.750    0.497    0.315   38.935   50.023
  340.000    0.486    0.310   38.926   50.623
  340.250    0.478    0.309   36.799   49.407
  340.500    0.478    0.311   35.451   51.218
  340.750    0.477    0.315   32.904   51.817
  341.000    0.469    0.305   31.117   49.996
  341.250    0.462    0.294   28.353   49.383
  341.500    0.465    0.301   26.319   49.982
  341.750    0.479    0.315   24.884   49.979
  342.000    0.478    0.327   23.975   49.972
  342.250    0.468    0.326   22.253   49.364
  342.500    0.462    0.314   21.438   48.147
  342.750    0.457    0.312   20.269   48.748
  343.000    0.469    0.315   19.166   51.770
  343.250    0.484    0.320   18.464   55.397
  343.500    0.496    0.335   17.785   51.757
  343.750    0.490    0.341   16.817   53.568
  344.000    0.472    0.332   16.199   49.930
  344.250    0.444    0.318   15.602   46.292
  344.500    0.450    0.322   15.307   48.103
  344.750    0.460    0.329   15.023   49.914
  345.000    0.469    0.337   14.202   47.486
  345.250    0.465    0.337   14.197   46.270
  345.500    0.460    0.329   13.930   46.870
  345.750    0.462    0.328   13.668   49.892
  346.000    0.470    0.332   13.410   50.492
  346.250    0.479    0.335   13.402   48.065
  346.500    0.489    0.333   13.398   46.848
  346.750    0.483    0.331   13.390   47.447
  347.000    0.484    0.329   13.386   48.048
  347.250    0.494    0.332   13.377   49.253
  347.500    0.494    0.334   13.619   49.853
  347.750    0.494    0.336   13.616   48.032
  348.000    0.496    0.332   13.607   43.787
  348.250    0.499    0.329   13.853   43.779
  348.500    0.503    0.327   13.849   44.381
  348.750    0.505    0.328   13.839   46.192
  349.000    0.508    0.328   13.836   46.185
  349.250    0.512    0.325   14.084   45.574
  349.500    0.512    0.328   14.079   43.147
  349.750    0.514    0.331   14.074   42.536
  350.000    0.513    0.339   14.326   45.558
  350.250    0.510    0.330   14.322   47.975
  350.500    0.511    0.327   14.581   49.785
  350.750    0.508    0.331   14.574   50.386
  351.000    0.507    0.332   14.567   50.381
  351.250    0.506    0.325   14.832   49.163
  351.500    0.496    0.321   14.821   51.579
  351.750    0.489    0.321   14.815   52.178
  352.000    0.481    0.316   14.806   52.175
  352.250    0.483    0.312   15.077   52.170
  352.500    0.482    0.316   15.068   52.164
  352.750    0.485    0.321   15.063   52.764
  353.000    0.477    0.314   15.336   52.757
  353.250    0.463    0.306   15.331   52.752
  353.500    0.459    0.295   15.322   55.167
  353.750    0.464    0.298   15.314   57.583
  354.000    0.464    0.303   15.305   58.184
  354.250    0.458    0.308   15.301   56.965
  354.500    0.460    0.310   15.294   56.357
  354.750    0.466    0.307   15.286   55.746
  355.000    0.466    0.307   15.277   55.741
  355.250    0.467    0.309   15.270   55.735
  355.500    0.472    0.312   15.262   55.728
  355.750    0.478    0.316   15.255   56.934
  356.000    0.480    0.315   14.970   59.351
  356.250    0.478    0.292   14.959   60.557
  356.500    0.476    0.289   14.680   58.735
  356.750    0.471    0.290   14.673   59.940
  357.000    0.470    0.281   14.394   61.146
  357.250    0.465    0.288   14.388   61.140
  357.500    0.457    0.286   14.383   61.135
  357.750    0.469    0.279   14.374   61.128
  358.000    0.475    0.282   14.369   61.123
  358.250    0.474    0.279   14.359   61.117
  358.500    0.486    0.275   14.354   61.110
  358.750    0.493    0.279   14.616   60.499
  359.000    0.498    0.284   15.158   58.678
  359.250    0.494    0.289   16.617   57.461
  359.500    0.482    0.290   18.220   56.245
  359.750    0.464    0.284   20.727   56.241
  360.000    0.423    0.273   24.467   58.050
  360.250    0.370    0.256   29.421   58.650
  360.500    0.324    0.157   33.469   56.224
  360.750    0.253    0.090   36.020   50.770
  361.000    0.219    0.000   40.217   46.527
  361.250    0.184    0.050   41.721   51.364
  361.500    0.227    0.105   41.701   59.835
  361.750    0.256    0.189   39.432   65.882
