~VERSION INFORMATION
 VERS.                 2.0:   CWLS LOG ASCII STANDARD -VERSION 2.0
 WRAP.                  NO:   ONE LINE PER DEPTH STEP
~WELL INFORMATION BLOCK
#MNEM.UNIT           DATA                    DESCRIPTION OF MNEMONIC
#---------    -------------------            -------------------------------
# Generated from Intellog Unique Number	CW_79_81/WELL/773
WELL.         PACIFIC STONY RAPIDS           : Well_name    - WELL
LOC .         00/10-13-080-19W4/0            : Location     - LOCATION
UWI .         00/10-13-080-19W4/0            : Uwi          - UNIQUE WELL ID
ENTR.         MAX                            : Entered      - ENTERED BY
SRVC.         SCHLUMBERGER                   : Scn          - SERVICE COMPANY
STRT.M        182.88                         : top_depth    - START DEPTH
STOP.M        365.88                         : bot_depth    - STOP DEPTH
STEP.M        0.25                           : increment    - STEP LENGTH
 NULL. -999.2500:NULL Value
~CURVE INFORMATION BLOCK
#MNEM UNIT       ERCB CURVE CODE    CURVE DESCRIPTION
#-----------   ------------------   ----------------------------------
DEPT.M        00 001 00 00         : DEPTH        - DEPTH
ILD .OHMM     00 120 00 00         : RESD         - DEEP RESISTIVITY (DIL)
NPHI.V/V      00 330 00 00         : PHIN         - NEUTRON POROSITY (SANDSTONE)
DPHI.V/V      00 890 00 00         : PHID         - DENSITY POROSITY (SANDSTONE)
CALI.MM       00 280 01 00         : CAL          - CALIPER
GR  .API      00 310 00 00         : GR           - GAMMA RAY
~PARAMETER INFORMATION
#MNEM.UNIT           DATA             DESCRIPTION OF MNEMONIC
#---------         -----------     ------------------------------
GL  .M        565.526              : gl           - GROUND LEVEL ELEVATION
EREF.M        568.879              : kb           - ELEVATION OF DEPTH REFERENCE
DATM.M        565.526              : datum        - DATUM ELEVATION
TDD .M        407.213              : tdd          - TOTAL DEPTH DRILLER
RUN .         ONE                  : Run          - RUN NUMBER
ENG .         BILL                 : Engineer     - RECORDING ENGINEER
WIT .         JIM                  : Witness      - WITNESSED BY
MUD .         GEL                  : Mud_type     - MUD TYPE
MATR.         SANDSTONE            : Logunit      - NEUTRON MATRIX
TMAX.C        25.5556              : BHT          - MAXIMUM RECORDED TEMPERATURE
BHTD.M        407.213              : BHTDEP       - MAXIMUM RECORDED TEMPERATURE
RMT .C        23.3333              : MDTP         - TEMPERATURE OF MUD
MUDD.KG/M     1100                 : MWT          - MUD DENSITY
NEUT.         1                    : NEUTRON      - NEUTRON TYPE
RESI.         0                    : RESIST       - RESISTIVITY TYPE
RM  .OHMM     2.45                 : RM           - RESISTIVITY OF MUD
RMC .OHMM     0                    : RMC          - RESISTIVITY OF MUD CAKE
RMF .OHMM     2.45                 : RMF          - RESISTIVITY OF MUD FILTRATE
SUFT.C        -20.5556             : SUFT         - SURFACE TEMPERATURE
~A  DEPTH     RESD     PHIN     PHID      CAL       GR
# ...
  328.880    9.984    0.449    0.165  195.321   71.362
  329.130    9.735    0.450    0.199  195.406   69.907
  329.380    9.580    0.443    0.274  195.492   69.067
  329.630    9.518    0.437    0.263  195.599   69.726
  329.880    9.534    0.437    0.245  195.663   70.968
  330.130    9.557    0.414    0.225  195.759   70.718
  330.380    9.842    0.404    0.211  195.845   68.968
  330.630   11.205    0.409    0.186  195.920   67.808
  330.880   12.764    0.383    0.152  195.506   65.456
  331.130   14.136    0.318    0.099  195.592   60.376
  331.380   16.101    0.255    0.059  196.187   55.309
  331.630   16.284    0.280    0.120  197.281   55.667
  331.880   15.034    0.324    0.168  198.896   63.852
  332.130   13.626    0.364    0.187  202.062   67.509
  332.380   12.463    0.401    0.199  204.686   71.492
  332.630   11.405    0.395    0.219  207.320   71.536
  332.880   10.917    0.405    0.231  209.955   70.985
  333.130   10.549    0.417    0.239  212.589   70.433
  333.380   10.193    0.421    0.239  215.234   70.778
  333.630   10.031    0.422    0.228  216.849   73.846
  333.880    9.873    0.422    0.226  219.494   75.100
  334.130    9.985    0.417    0.223  221.098   73.639
  334.380   10.378    0.414    0.204  223.223   73.395
  334.630   10.786    0.406    0.195  224.838   75.258
  334.880   11.114    0.415    0.191  226.464   75.604
  335.130   11.031    0.436    0.197  227.059   76.564
  335.380   10.757    0.446    0.214  228.175   78.721
  335.630   10.495    0.450    0.218  229.290   80.873
  335.880   10.141    0.448    0.212  230.374   83.037
  336.130    9.799    0.445    0.203  231.989   85.803
  336.380    9.464    0.440    0.188  232.595   87.961
  336.630    9.062    0.436    0.190  232.670   89.812
  336.880    8.368    0.454    0.213  232.777   91.976
  337.130    7.940    0.468    0.196  233.372   94.140
  337.380    7.672    0.452    0.184  234.477   95.991
  337.630    7.619    0.444    0.188  236.081   98.456
  337.880    7.782    0.443    0.192  238.217  100.313
  338.130    8.082    0.433    0.191  238.812   98.262
  338.380    8.716    0.425    0.187  238.377   98.608
  338.630    9.223    0.424    0.173  236.944   97.460
  338.880    9.851    0.420    0.164  235.490   95.096
  339.130   10.522    0.424    0.167  233.547   90.932
  339.380   11.449    0.426    0.139  231.593   85.858
  339.630   12.568    0.397    0.125  230.160   82.603
  339.880   14.057    0.375    0.146  228.185   84.159
  340.130   14.614    0.393    0.191  225.732   86.010
  340.380   14.381    0.410    0.211  222.759   84.254
  340.630   14.277    0.419    0.200  220.795   80.704
  340.880   14.843    0.383    0.188  217.843   79.538
  341.130   15.283    0.363    0.138  216.378   78.083
  341.380   15.740    0.352    0.132  214.424   75.424
  341.630   15.777    0.374    0.158  213.002   75.776
  341.880   15.522    0.403    0.180  212.642   79.445
  342.130   15.139    0.418    0.185  212.164   84.620
  342.380   15.168    0.403    0.182  212.250   83.473
  342.630   16.054    0.390    0.167  212.314   81.710
  342.880   17.153    0.361    0.118  212.930   80.249
  343.130   18.321    0.312    0.063  213.526   80.607
  343.380   19.042    0.295    0.097  214.110   81.260
  343.630   18.920    0.310    0.122  214.706   81.612
  343.880   18.613    0.383    0.155  215.290   83.468
  344.130   18.145    0.400    0.176  215.376   82.308
  344.380   17.533    0.376    0.162  216.502   80.258
  344.630   16.344    0.365    0.138  217.597   80.904
  344.880   15.363    0.361    0.133  218.702   84.272
  345.130   14.445    0.375    0.167  219.297   88.544
  345.380   13.459    0.400    0.179  220.413   91.304
  345.630   12.422    0.413    0.177  221.518   93.462
  345.880   11.262    0.430    0.175  222.623   95.921
  346.130   10.300    0.447    0.175  223.718   96.875
  346.380    8.373    0.460    0.174  224.334   96.035
  346.630    7.659    0.444    0.176  223.889   94.875
  346.880    6.632    0.445    0.182  220.926   92.510
  347.130    5.341    0.463    0.198  216.923   88.954
  347.380    4.713    0.495    0.245  215.479   85.988
  347.630    4.636    0.503    0.262  216.085   75.195
  347.880    5.043    0.484    0.261  219.240   67.117
  348.130    6.177    0.467    0.246  222.395   57.226
  348.380    7.364    0.448    0.240  222.979   53.369
  348.630    8.308    0.416    0.241  222.555   52.517
  348.880   10.745    0.407    0.246  222.120   53.771
  349.130   14.952    0.408    0.239  221.696   56.224
  349.380   18.482    0.419    0.241  221.782   58.996
  349.630   18.192    0.424    0.237  221.379   60.853
  349.880   14.642    0.422    0.243  220.423   63.306
  350.130   10.963    0.394    0.250  218.979   71.190
  350.380    8.907    0.354    0.275  216.017   77.262
  350.630    7.046    0.357    0.265  213.543   79.432
  350.880    6.501    0.370    0.241  204.452   79.470
  351.130    6.006    0.390    0.229  204.028   78.925
  351.380    5.910    0.390    0.216  204.028   78.380
  351.630    5.975    0.379    0.203  203.700   80.838
  351.880    6.152    0.371    0.192  204.285   82.689
  352.130    6.757    0.381    0.199  204.891   80.638
  352.380    7.554    0.383    0.193  206.527   76.167
  352.630    8.217    0.367    0.174  207.611   72.611
  352.880    8.943    0.348    0.160  207.707   76.569
  353.130    8.957    0.332    0.175  206.762   90.775
  353.380    8.579    0.366    0.211  205.329   95.643
  353.630    6.912    0.379    0.226  204.395   99.914
  353.880    6.494    0.365    0.229  203.450  102.982
  354.130    6.106    0.365    0.240  202.516  102.731
  354.380    6.175    0.380    0.244  202.092  101.885
  354.630    6.175    0.403    0.241  201.158  100.123
  354.880    7.254    0.413    0.227  200.734   96.554
  355.130    7.667    0.386    0.214  200.841   90.584
  355.380    9.562    0.359    0.188  200.916   84.005
  355.630   12.033    0.326    0.170  201.532   79.245
  355.880   13.959    0.310    0.143  202.117   79.596
  356.130   16.784    0.307    0.147  202.701   82.068
  356.380   16.071    0.307    0.170  202.299   82.407
  356.630   12.709    0.308    0.193  201.864   83.367
  356.880   11.521    0.306    0.207  201.439   85.832
  357.130    9.884    0.321    0.213  199.985   87.977
  357.380    8.722    0.337    0.196  198.053   91.948
  357.630    8.050    0.350    0.196  196.078   92.901
  357.880    7.640    0.367    0.205  193.115   91.459
  358.130    7.587    0.372    0.203  190.641   90.306
  358.380    7.883    0.386    0.211  187.158   89.447
  358.630    8.896    0.400    0.224  183.166   88.588
  358.880    9.768    0.402    0.232  180.724   85.333
  359.130   11.121    0.365    0.222  180.809   82.969
  359.380   13.872    0.346    0.216  179.344   80.002
  359.630   17.299    0.345    0.194  175.351   74.032
  359.880   24.971    0.317    0.176  171.868   64.449
  360.130   28.178    0.236    0.153  170.424   51.547
  360.380   32.080    0.167    0.111  169.501   38.646
  360.630   37.877    0.157    0.048  169.587   36.295
  360.880   52.270    0.178    0.010  171.191   39.657
  361.130   54.326    0.236    0.062  174.845   41.514
  361.380   55.428    0.229    0.067  181.568   40.360
  361.630   59.747    0.190    0.014  180.146   37.695
  361.880   65.008    0.128    0.001  168.995   29.623
  362.130   67.547    0.155   -0.003  163.473   27.861
  362.380   70.204    0.165    0.005  164.057   31.223
  362.630   74.366    0.163   -0.002  166.193   35.187
  362.880   75.896    0.143   -0.005  167.308   34.040
  363.130   72.652    0.134   -0.003  168.413   32.585
  363.380   65.268    0.148   -0.009  172.567   32.034
  363.630   59.139    0.163   -0.016  175.711   37.810
  363.880   50.302    0.193   -0.002  176.816   41.467
  364.130   47.321    0.210    0.010  176.392   46.648
  364.380   47.321    0.223    0.017  174.969   50.907
  364.630   45.835    0.255    0.023  172.495   52.770
  364.880   43.478    0.244    0.100  174.131   49.503
  365.130   42.001    0.231    0.074  175.215   47.158
