~VERSION INFORMATION
 VERS.                 2.0:   CWLS LOG ASCII STANDARD -VERSION 2.0
 WRAP.                  NO:   ONE LINE PER DEPTH STEP
~WELL INFORMATION BLOCK
#MNEM.UNIT           DATA                    DESCRIPTION OF MNEMONIC
#---------    -------------------            -------------------------------
# Generated from Intellog Unique Number	CW_73_75/WELL/1050
WELL.         TRICENT ET AL MITSUE 12-08     : Well_name    - WELL
LOC .         00/12-08-074-05W5/0            : Location     - LOCATION
UWI .         00/12-08-074-05W5/0            : Uwi          - UNIQUE WELL ID
ENTR.         JAYE                           : Entered      - ENTERED BY
SRVC.         SCHLUMBERGER                   : Scn          - SERVICE COMPANY
DATE.         11 JAN 84                      : Date         - LOG DATE
STRT.M        360                            : top_depth    - START DEPTH
STOP.M        590                            : bot_depth    - STOP DEPTH
STEP.M        0.25                           : increment    - STEP LENGTH
 NULL. -999.2500:NULL Value
~CURVE INFORMATION BLOCK
#MNEM UNIT       ERCB CURVE CODE    CURVE DESCRIPTION
#-----------   ------------------   ----------------------------------
DEPT.M        00 001 00 00         : DEPTH        - DEPTH
CALI.MM       00 280 01 00         : CAL          - CALIPER
GR  .API      00 310 00 00         : GR           - GAMMA RAY
NPHI.V/V      00 330 00 00         : PHIN         - NEUTRON POROSITY (SANDSTONE)
DPHI.V/V      00 890 00 00         : PHID         - DENSITY POROSITY (SANDSTONE)
ILD .OHMM     00 120 00 00         : RESD         - DEEP RESISTIVITY (DIL)
~PARAMETER INFORMATION
#MNEM.UNIT           DATA             DESCRIPTION OF MNEMONIC
#---------         -----------     ------------------------------
GL  .M        596.5                : gl           - GROUND LEVEL ELEVATION
EREF.M        600.65               : kb           - ELEVATION OF DEPTH REFERENCE
DATM.M        596.5                : datum        - DATUM ELEVATION
TDD .M        1689                 : tdd          - TOTAL DEPTH DRILLER
RUN .         ONE                  : Run          - RUN NUMBER
ENG .         GAGGINO              : Engineer     - RECORDING ENGINEER
WIT .         EARLE                : Witness      - WITNESSED BY
BASE.         EDM                  : Branch       - HOME BASE OF LOGGING UNIT
MUD .         GEL CHEM             : Mud_type     - MUD TYPE
MATR.         SANDSTONE            : Logunit      - NEUTRON MATRIX
TMAX.C        53                   : BHT          - MAXIMUM RECORDED TEMPERATURE
BHTD.M        1689.5               : BHTDEP       - MAXIMUM RECORDED TEMPERATURE
RMT .C        15                   : MDTP         - TEMPERATURE OF MUD
MUDD.KG/M     1130                 : MWT          - MUD DENSITY
NEUT.         1                    : NEUTRON      - NEUTRON TYPE
RESI.         0                    : RESIST       - RESISTIVITY TYPE
RM  .OHMM     0.618                : RM           - RESISTIVITY OF MUD
RMC .OHMM     0                    : RMC          - RESISTIVITY OF MUD CAKE
RMF .OHMM     1.15                 : RMF          - RESISTIVITY OF MUD FILTRATE
SUFT.C        0                    : SUFT         - SURFACE TEMPERATURE
~A  DEPTH      CAL       GR     PHIN     PHID     RESD
# ...
  433.000  283.193   67.281    0.477    0.268    5.542
  433.250  278.715   61.102    0.483    0.268    6.189
  433.500  268.220   51.775    0.466    0.275    6.533
  433.750  255.969   44.547    0.353    0.280    6.337
  434.000  248.174   37.011    0.296    0.269    5.854
  434.250  245.663   30.277    0.321    0.272    5.459
  434.500  245.844   31.258    0.351    0.281    5.187
  434.750  246.128   34.895    0.378    0.293    5.079
  435.000  246.318   35.814    0.398    0.313    5.020
  435.250  247.019   36.240    0.417    0.328    5.027
  435.500  247.100   38.209    0.423    0.331    5.063
  435.750  246.966   40.797    0.405    0.326    5.177
  436.000  247.155   43.321    0.413    0.317    5.273
  436.250  247.545   43.995    0.409    0.313    5.411
  436.500  248.148   36.890    0.390    0.314    5.543
  436.750  248.745   37.316    0.387    0.319    5.709
  437.000  249.034   39.964    0.389    0.324    5.591
  437.250  249.114   42.304    0.365    0.327    5.078
  437.500  249.714   40.817    0.367    0.311    4.484
  437.750  251.452   38.342    0.384    0.276    4.058
  438.000  254.331   46.731    0.333    0.252    3.755
  438.250  261.975   57.958    0.387    0.234    3.761
  438.500  270.243   62.336    0.414    0.230    3.888
  438.750  282.243   63.873    0.448    0.237    4.021
  439.000  292.584   61.459    0.577    0.266    4.134
  439.250  298.055   58.244    0.631    0.319    4.187
  439.500  300.208   53.670    0.585    0.354    4.193
  439.750  304.434   50.763    0.457    0.335    4.168
  440.000  293.424   58.967    0.469    0.317    4.104
  440.250  277.958   60.071    0.481    0.306    4.041
  440.500  266.639   59.263    0.454    0.308    4.002
  440.750  258.737   58.949    0.470    0.311    3.978
  441.000  256.849   59.252    0.475    0.306    3.999
  441.250  257.551   57.332    0.464    0.302    4.066
  441.500  258.668   53.376    0.460    0.307    4.164
  441.750  259.992   51.271    0.458    0.314    4.282
  442.000  262.351   53.919    0.458    0.322    4.486
  442.250  264.920   56.938    0.455    0.324    4.700
  442.500  268.835   54.587    0.447    0.297    4.841
  442.750  275.962   52.605    0.433    0.255    4.696
  443.000  281.847   51.242    0.412    0.155    4.289
  443.250  284.415   50.062    0.359    0.150    3.845
  443.500  281.491   49.687    0.335    0.187    3.539
  443.750  280.224   56.100    0.370    0.250    3.433
  444.000  283.205   60.415    0.430    0.285    3.424
  444.250  289.712   60.038    0.482    0.270    3.410
  444.500  298.393   61.823    0.475    0.254    3.339
  444.750  308.528   65.336    0.465    0.246    3.155
  445.000  315.138   67.614    0.460    0.249    2.998
  445.250  312.416   66.188    0.454    0.247    2.997
  445.500  310.530   61.984    0.447    0.238    3.116
  445.750  310.090   58.831    0.439    0.225    3.204
  446.000  310.378   59.133    0.437    0.233    3.251
  446.250  311.911   61.905    0.447    0.227    3.238
  446.500  312.511   63.566    0.466    0.219    3.188
  446.750  312.485   62.695    0.502    0.220    3.169
  447.000  312.153   63.307    0.479    0.213    3.138
  447.250  311.404   63.486    0.468    0.204    3.090
  447.500  311.585   61.320    0.457    0.203    3.014
  447.750  311.877   59.956    0.451    0.207    2.891
  448.000  312.164   58.468    0.448    0.214    2.815
  448.250  312.658   60.870    0.446    0.226    2.883
  448.500  314.705   65.740    0.448    0.250    3.078
  448.750  316.136   63.513    0.455    0.297    3.348
  449.000  313.418   59.062    0.481    0.318    3.677
  449.250  305.518   59.982    0.477    0.308    4.090
  449.500  288.912   59.050    0.462    0.291    4.222
  449.750  267.849   59.600    0.508    0.278    4.244
  450.000  269.691   57.681    0.474    0.274    4.109
  450.250  274.021   55.144    0.434    0.292    3.985
  450.500  277.105   53.039    0.432    0.298    3.823
  450.750  282.577   56.181    0.425    0.252    3.666
  451.000  290.118   60.743    0.411    0.215    3.563
  451.250  302.325   61.478    0.416    0.195    3.636
  451.500  307.999   63.262    0.468    0.200    3.767
  451.750  310.777   64.552    0.478    0.225    3.887
  452.000  306.401   67.324    0.457    0.257    3.975
  452.250  284.716   70.651    0.439    0.286    4.018
  452.500  274.330   66.325    0.414    0.293    4.062
  452.750  273.369   58.418    0.405    0.288    4.068
  453.000  275.422   56.128    0.420    0.291    4.066
  453.250  274.259   55.628    0.441    0.294    4.080
  453.500  270.918   55.684    0.456    0.294    4.094
  453.750  269.339   53.333    0.458    0.291    4.115
  454.000  269.109   52.523    0.432    0.295    4.200
  454.250  268.569   53.259    0.406    0.298    4.302
  454.500  268.958   54.858    0.394    0.301    4.373
  454.750  269.869   55.222    0.399    0.301    4.488
  455.000  271.816   54.722    0.416    0.298    4.615
  455.250  275.006   55.211    0.432    0.288    4.709
  455.500  278.194   57.426    0.440    0.284    4.491
  455.750  282.422   59.520    0.436    0.284    4.332
  456.000  292.140   60.995    0.426    0.289    4.298
  456.250  309.218   59.014    0.408    0.288    4.378
  456.500  316.553   57.465    0.420    0.288    4.459
  456.750  316.840   58.632    0.451    0.293    4.525
  457.000  316.505   59.922    0.475    0.295    4.565
  457.250  316.587   59.299    0.466    0.291    4.547
  457.500  318.222   60.281    0.450    0.287    4.469
  457.750  318.818   62.003    0.434    0.276    4.458
  458.000  315.689   61.750    0.422    0.267    4.260
  458.250  311.726   60.139    0.445    0.274    4.283
  458.500  309.317   59.640    0.458    0.287    4.445
  458.750  307.015   60.621    0.457    0.300    4.683
  459.000  303.985   67.714    0.462    0.303    4.925
  459.250  298.469   70.547    0.478    0.290    5.092
  459.500  286.011   67.702    0.469    0.280    5.167
  459.750  264.429   62.264    0.461    0.286    5.194
  460.000  255.907   52.382    0.452    0.297    5.163
  460.250  256.608   50.833    0.446    0.304    5.190
  460.500  255.859   54.407    0.438    0.291    5.237
  460.750  255.524   55.698    0.433    0.285    5.374
  461.000  255.192   54.951    0.425    0.297    5.485
  461.250  254.649   48.032    0.415    0.308    5.649
  461.500  254.420   44.692    0.403    0.310    5.711
  461.750  254.189   46.044    0.387    0.311    5.774
  462.000  254.682   49.434    0.388    0.313    5.717
  462.250  255.490   48.378    0.392    0.306    5.484
  462.500  256.916   51.026    0.387    0.301    5.221
  462.750  258.138   52.749    0.374    0.296    4.841
  463.000  258.115   51.879    0.361    0.295    4.438
  463.250  258.087   53.972    0.392    0.304    4.162
  463.500  257.965   57.361    0.423    0.312    4.106
  463.750  258.460   61.676    0.447    0.310    4.182
  464.000  259.472   68.830    0.460    0.303    4.276
  464.250  258.930   66.725    0.470    0.306    4.429
  464.500  256.315   59.744    0.469    0.312    4.520
  464.750  254.739   54.245    0.458    0.312    4.527
  465.000  253.573   50.473    0.440    0.313    4.391
  465.250  252.927   51.085    0.416    0.317    4.212
  465.500  252.906   56.449    0.414    0.317    4.093
  465.750  253.602   55.147    0.441    0.324    4.038
  466.000  254.312   51.931    0.431    0.326    4.036
  466.250  255.322   53.345    0.432    0.321    4.035
  466.500  256.337   55.314    0.433    0.318    4.033
  466.750  256.729   53.704    0.419    0.316    4.100
  467.000  257.016   52.463    0.425    0.315    4.176
  467.250  256.993   50.544    0.448    0.315    4.310
  467.500  256.970   52.636    0.432    0.317    4.390
  467.750  256.635   52.445    0.411    0.318    4.438
  468.000  256.301   50.464    0.448    0.327    4.478
  468.250  256.175   52.866    0.464    0.329    4.402
  468.500  257.186   55.514    0.475    0.317    4.230
  468.750  259.133   57.051    0.462    0.301    3.813
  469.000  261.181   58.959    0.450    0.283    3.516
  469.250  264.062   58.458    0.440    0.268    3.347
