~VERSION INFORMATION
 VERS.                 2.0:   CWLS LOG ASCII STANDARD -VERSION 2.0
 WRAP.                  NO:   ONE LINE PER DEPTH STEP
~WELL INFORMATION BLOCK
#MNEM.UNIT           DATA                    DESCRIPTION OF MNEMONIC
#---------    -------------------            -------------------------------
# Generated from Intellog Unique Number	CW_82_90/WELL/3076
WELL.         PARA ET AL LIVOCK 11-16        : Well_name    - WELL
LOC .         00/11-16-085-20W4/0            : Location     - LOCATION
UWI .         00/11-16-085-20W4/0            : Uwi          - UNIQUE WELL ID
ENTR.         JAYE                           : Entered      - ENTERED BY
SRVC.         COMPUTALOG                     : Scn          - SERVICE COMPANY
DATE.         24 JAN 78                      : Date         - LOG DATE
STRT.M        198.12                         : top_depth    - START DEPTH
STOP.M        374.87                         : bot_depth    - STOP DEPTH
STEP.M        0.25                           : increment    - STEP LENGTH
 NULL. -999.2500:NULL Value
~CURVE INFORMATION BLOCK
#MNEM UNIT       ERCB CURVE CODE    CURVE DESCRIPTION
#-----------   ------------------   ----------------------------------
DEPT.M        00 001 00 00         : DEPTH        - DEPTH
ILD .OHMM     00 120 00 00         : RESD         - DEEP RESISTIVITY (DIL)
CALI.MM       00 280 01 00         : CAL          - CALIPER
GR  .API      00 310 00 00         : GR           - GAMMA RAY
NPHI.V/V      00 330 00 00         : PHIN         - NEUTRON POROSITY (SANDSTONE)
DPHI.V/V      00 890 00 00         : PHID         - DENSITY POROSITY (SANDSTONE)
COND.MMHO                          : COND         - DEEP CONDUCTIVITY (DIL)
~PARAMETER INFORMATION
#MNEM.UNIT           DATA             DESCRIPTION OF MNEMONIC
#---------         -----------     ------------------------------
GL  .M        623.621              : gl           - GROUND LEVEL ELEVATION
EREF.M        626.669              : kb           - ELEVATION OF DEPTH REFERENCE
DATM.M        623.621              : datum        - DATUM ELEVATION
TDD .M        377.952              : tdd          - TOTAL DEPTH DRILLER
RUN .         ONE                  : Run          - RUN NUMBER
ENG .         KING                 : Engineer     - RECORDING ENGINEER
MUD .         GEL CHEM SAWDUST     : Mud_type     - MUD TYPE
MATR.         SANDSTONE            : Logunit      - NEUTRON MATRIX
TMAX.C        16.1111              : BHT          - MAXIMUM RECORDED TEMPERATURE
BHTD.M        377.952              : BHTDEP       - MAXIMUM RECORDED TEMPERATURE
RMT .C        14.4444              : MDTP         - TEMPERATURE OF MUD
MUDD.KG/M     9400                 : MWT          - MUD DENSITY
NEUT.         1                    : NEUTRON      - NEUTRON TYPE
RESI.         0                    : RESIST       - RESISTIVITY TYPE
RM  .OHMM     4.35                 : RM           - RESISTIVITY OF MUD
RMC .OHMM     0                    : RMC          - RESISTIVITY OF MUD CAKE
RMF .OHMM     4.1                  : RMF          - RESISTIVITY OF MUD FILTRATE
SUFT.C        -17.7778             : SUFT         - SURFACE TEMPERATURE
~A  DEPTH     RESD      CAL       GR     PHIN     PHID     COND
# ...
  260.620   12.537  156.508   87.806    0.377    0.297   79.763
  260.870   12.467  156.993   85.188    0.353    0.278   80.213
  261.120   12.652  157.344   78.867    0.365    0.260   79.042
  261.370   13.293  158.131   74.280    0.358    0.253   75.230
  261.620   13.847  158.401   73.565    0.298    0.229   72.219
  261.870   13.103  158.232   70.705    0.275    0.199   76.317
  262.120   11.863  157.869   69.621    0.335    0.253   84.294
  262.370   11.182  157.409   75.449    0.385    0.278   89.427
  262.620   11.052  156.842   81.828    0.349    0.260   90.486
  262.870   11.352  156.367   79.332    0.194    0.237   88.092
  263.120   12.499  156.749   69.938    0.098    0.151   80.008
  263.370   14.562  156.791   65.709   -0.024    0.080   68.670
  263.620   18.560  156.942   59.821   -0.048    0.071   53.880
  263.870   27.284  157.206   53.752   -0.070    0.072   36.652
  264.120   37.667  157.148   48.047   -0.081    0.071   26.548
  264.370   51.877  155.432   46.784   -0.066    0.089   19.276
  264.620   60.079  153.909   46.631   -0.040    0.113   16.645
  264.870   61.344  152.189   48.017   -0.024    0.149   16.302
  265.120   64.364  151.516   48.854    0.005    0.183   15.537
  265.370   64.135  151.351   49.810    0.050    0.218   15.592
  265.620   52.984  153.180   51.811    0.132    0.260   18.874
  265.870   42.379  154.485   54.067    0.201    0.311   23.596
  266.120   34.345  153.201   54.155    0.362    0.371   29.116
  266.370   29.734  151.889   56.411    0.330    0.371   33.632
  266.620   26.206  151.103   59.276    0.330    0.373   38.159
  266.870   23.332  151.257   60.539    0.340    0.373   42.859
  267.120   22.665  152.043   60.012    0.351    0.371   44.121
  267.370   23.059  153.864   58.873    0.340    0.369   43.368
  267.620   22.824  155.078   58.905    0.358    0.369   43.814
  267.870   22.085  155.123   59.429    0.380    0.368   45.279
  268.120   21.770  154.778   60.877    0.422    0.368   45.936
  268.370   21.008  154.299   62.943    0.432    0.370   47.600
  268.620   20.464  153.397   66.302    0.428    0.377   48.867
  268.870   19.949  151.990   61.224    0.407    0.376   50.129
  269.120   19.779  151.628   61.564    0.381    0.372   50.559
  269.370   19.834  152.522   62.215    0.379    0.369   50.419
  269.620   19.579  153.413   62.670    0.381    0.367   51.076
  269.870   19.331  153.146   63.503    0.395    0.366   51.729
  270.120   18.802  151.836   63.595    0.433    0.367   53.187
  270.370   18.366  151.158   65.796    0.462    0.366   54.449
  270.620   15.420  150.487   68.278    0.494    0.364   64.851
  270.870   13.005  150.541   76.697    0.514    0.352   76.897
  271.120    9.970  150.178   80.428    0.482    0.347  100.301
  271.370    8.359  150.231   90.505    0.424    0.335  119.635
  271.620    7.887  150.486   95.345    0.378    0.318  126.787
  271.870    7.846  151.579   95.013    0.326    0.263  127.460
  272.120    8.435  153.730   90.228    0.302    0.224  118.551
  272.370    8.856  156.396   89.955    0.389    0.247  112.916
  272.620    9.925  157.597   95.103    0.458    0.281  100.758
  272.870   10.380  158.472  103.146    0.457    0.308   96.337
  273.120   10.100  159.258  106.514    0.454    0.306   99.010
  273.370    9.583  159.829  108.017    0.458    0.297  104.353
  273.620    9.069  160.407  109.711    0.479    0.294  110.268
  273.870    8.868  161.202  116.894    0.478    0.287  112.764
  274.120    8.632  161.872  123.959    0.479    0.272  115.846
  274.370    8.351  162.141  127.440    0.474    0.244  119.749
  274.620    8.113  162.297  129.875    0.445    0.248  123.261
  274.870    7.967  161.925  127.068    0.443    0.232  125.515
  275.120    7.899  161.452  125.804    0.438    0.236  126.605
  275.370    7.883  161.206  129.352    0.436    0.244  126.852
  275.620    7.882  161.467  135.792    0.436    0.240  126.873
  275.870    7.828  161.735  139.153    0.437    0.236  127.740
  276.120    7.703  162.082  144.425    0.437    0.235  129.815
  276.370    7.605  162.876  141.806    0.424    0.231  131.491
  276.620    7.591  162.929  134.561    0.432    0.234  131.734
  276.870    7.507  162.349  128.427    0.438    0.245  133.203
  277.120    7.338  161.886  123.653    0.463    0.251  136.286
  277.370    7.248  161.209  128.736    0.460    0.258  137.962
  277.620    7.257  160.213  126.426    0.493    0.265  137.806
  277.870    7.222  159.237  123.867    0.483    0.270  138.459
  278.120    7.178  158.756  120.754    0.407    0.268  139.308
  278.370    7.197  158.708  122.332    0.418    0.258  138.937
  278.620    7.226  158.854  122.666    0.458    0.253  138.387
  278.870    7.224  158.917  122.144    0.472    0.246  138.423
  279.120    7.212  158.854  120.204    0.456    0.255  138.666
  279.370    7.147  158.705  117.644    0.466    0.245  139.928
  279.620    7.042  159.209  115.026    0.474    0.252  142.014
  279.870    7.141  159.117  119.003    0.466    0.256  140.027
  280.120    7.532  159.699  120.028    0.431    0.258  132.759
  280.370    8.208  159.699  116.167    0.398    0.246  121.828
  280.620    8.519  158.566  103.745    0.394    0.263  117.380
  280.870    8.574  158.077  110.679    0.470    0.264  116.630
  281.120    8.526  156.055  109.233    0.464    0.264  117.291
  281.370    8.597  152.796  103.223    0.432    0.270  116.315
  281.620    8.731  151.972   98.196    0.425    0.272  114.535
  281.870    8.853  150.147   97.620    0.418    0.272  112.954
  282.120    9.233  149.058   98.999    0.392    0.263  108.307
  282.370    9.759  148.791  101.255    0.382    0.247  102.464
  282.620   10.221  147.809   97.462    0.394    0.272   97.841
  282.870   10.411  147.436   95.148    0.403    0.272   96.052
  283.120   10.702  146.785   94.314    0.402    0.296   93.444
  283.370   11.494  146.808   94.472    0.363    0.307   87.004
  283.620   12.478  146.660   95.364    0.351    0.295   80.138
  283.870   14.751  146.706   93.730    0.369    0.304   67.793
  284.120   17.098  146.458   94.698    0.411    0.300   58.486
  284.370   18.637  146.502   97.063    0.385    0.293   53.655
  284.620   18.768  146.352   93.454    0.394    0.305   53.281
  284.870   18.334  145.980   92.254    0.384    0.305   54.543
  285.120   18.667  145.717   91.299    0.361    0.306   53.572
  285.370   18.793  144.312   89.296    0.351    0.299   53.213
  285.620   19.068  143.317   89.891    0.381    0.292   52.444
  285.870   19.355  142.337   91.331    0.379    0.303   51.668
  286.120   19.414  141.553   93.579    0.346    0.298   51.508
  286.370   19.703  140.972   92.326    0.370    0.288   50.755
  286.620   19.774  140.193   93.032    0.367    0.281   50.572
  286.870   19.832  140.038   93.435    0.382    0.282   50.424
  287.120   19.427  142.592   92.782    0.326    0.272   51.476
  287.370   19.566  147.863   90.534    0.310    0.264   51.109
  287.620   20.439  150.113   83.723    0.290    0.245   48.927
  287.870   21.679  149.542   82.213    0.271    0.212   46.127
  288.120   22.766  148.547   82.301    0.301    0.190   43.925
  288.370   23.159  149.330   84.433    0.330    0.230   43.179
  288.620   23.368  149.593   91.919    0.328    0.243   42.793
  288.870   22.908  149.956   98.305    0.343    0.251   43.653
  289.120   22.252  149.495  100.367    0.376    0.254   44.939
  289.370   19.579  149.442  103.914    0.403    0.257   51.076
  289.620   17.729  153.253  109.186    0.413    0.274   56.404
  289.870   15.537  157.892  116.932    0.451    0.284   64.361
  290.120   13.414  160.139  117.758    0.454    0.275   74.548
  290.370   12.776  159.789  120.436    0.423    0.260   78.270
  290.620   11.024  159.942  124.535    0.438    0.264   90.711
  290.870   10.135  159.576  121.681    0.430    0.281   98.668
  291.120    9.986  158.898  122.136    0.415    0.300  100.141
  291.370    9.823  158.940  124.567    0.426    0.323  101.798
  291.620    9.760  158.993  117.509    0.440    0.343  102.455
