~VERSION INFORMATION
 VERS.                 2.0:   CWLS LOG ASCII STANDARD -VERSION 2.0
 WRAP.                  NO:   ONE LINE PER DEPTH STEP
~WELL INFORMATION BLOCK
#MNEM.UNIT           DATA                    DESCRIPTION OF MNEMONIC
#---------    -------------------            -------------------------------
# Generated from Intellog Unique Number	CC_80_83/WELL/2357
NULL.         -999.25                        : NULL_VALUE
WELL.         PEX HOUSE                      : Well_name    - WELL
LOC .         10-18-080-16W4                 : Location     - LOCATION          
UWI .         00/10-18-080-16W4/0            : Uwi          - UNIQUE WELL ID    
ENTR.         DW                             : Entered      - ENTERED BY        
SRVC.         SCHLUMBERGER                   : Scn          - SERVICE COMPANY   
DATE.         30 JAN 82                      : Date         - LOG DATE
STRT.M        145                            : top_depth    - START DEPTH       
STOP.M        369.996                        : bot_depth    - STOP DEPTH        
STEP.M        0.3                            : increment    - STEP LENGTH       
~CURVE INFORMATION BLOCK
#MNEM UNIT       ERCB CURVE CODE    CURVE DESCRIPTION
#-----------   ------------------   ----------------------------------
DEPT.M        00 001 00 00         : DEPTH        - DEPTH                       
DPHI.V/V      00 890 00 00         : PHID         - DENSITY POROSITY (LIMESTONE)
NPHI.V/V      00 330 00 00         : PHIN         - NEUTRON POROSITY (LIMESTONE)
GR  .API      00 310 00 00         : GR           - GAMMA RAY                   
ILD .OHMM     00 120 00 00         : RESD         - DEEP RESISTIVITY (DIL)      
~PARAMETER INFORMATION       
#MNEM.UNIT           DATA             DESCRIPTION OF MNEMONIC
#---------         -----------     ------------------------------
GL  .M        556                  : gl           - GROUND LEVEL ELEVATION      
EREF.M        559.8                : kb           - ELEVATION OF DEPTH REFERENCE
DATM.M        559.8                : datum        - DATUM ELEVATION             
TDD .M        370                  : tdd          - TOTAL DEPTH DRILLER         
RUN .         ONE                  : Run          - RUN NUMBER                  
ENG .         BILL                 : Engineer     - RECORDING ENGINEER          
WIT .         JIM                  : Witness      - WITNESSED BY                
MUD .         GEL                  : Mud_type     - MUD TYPE                    
MATR.         LIMESTONE            : Logunit      - NEUTRON MATRIX              
TMAX.C        18.3                 : BHT          - MAXIMUM RECORDED TEMPERATURE
BHTD.M        370                  : BHTDEP       - MAXIMUM RECORDED TEMPERATURE
MATR.         1                    : LOGUNIT      - NEUTRON MATRIX              
RMT .C        25                   : MDTP         - TEMPERATURE OF MUD          
NEUT.         1                    : NEUTRON      - NEUTRON TYPE                
RESI.         0                    : RESIST       - RESISTIVITY TYPE            
RMC .OHMM     0.25                 : RMC          - RESISTIVITY OF MUD CAKE     
RMF .OHMM     0.25                 : RMF          - RESISTIVITY OF MUD FILTRATE 
SUFT.C        15                   : SUFT         - SURFACE TEMPERATURE         
~A  DEPTH     PHID     PHIN       GR     RESD
# ...
  301.599    0.308    0.493   84.439    7.243
  301.899    0.324    0.466   79.428    7.244
  302.199    0.308    0.477   76.294    7.244
  302.499    0.288    0.506   73.158    7.244
  302.799    0.316    0.523   80.016    7.384
  303.099    0.325    0.486   75.631    7.526
  303.399    0.311    0.472   75.623    7.672
  303.699    0.304    0.461   71.234    7.672
  303.999    0.295    0.429   69.350    7.970
  304.299    0.292    0.435   69.963    7.971
  304.599    0.303    0.481   74.326    8.124
  304.899    0.303    0.485   73.689    8.938
  305.199    0.093    0.471   63.683   10.412
  305.499    0.098    0.408   57.425   10.613
  305.799    0.163    0.277   61.158    9.286
  306.099    0.231    0.426   66.147    8.125
  306.399    0.320    0.470   70.507    7.821
  306.699    0.298    0.483   76.117    7.822
  306.999    0.294    0.466   81.103    7.674
  307.299    0.288    0.436   81.714    7.674
  307.599    0.287    0.434   78.582    7.675
  307.899    0.294    0.438   72.321    7.675
  308.199    0.299    0.444   71.061    7.675
  308.499    0.304    0.453   71.674    7.823
  308.799    0.311    0.465   74.786    7.823
  309.099    0.311    0.471   71.650    7.823
  309.399    0.298    0.458   72.263    7.676
  309.699    0.291    0.447   71.626    7.531
  309.999    0.284    0.443   70.991    7.531
  310.299    0.274    0.449   79.100    7.249
  310.599    0.281    0.459   87.834    7.112
  310.899    0.296    0.468   84.073    6.978
  311.199    0.290    0.448   77.816    6.343
  311.499    0.276    0.443   80.302    6.106
  311.799    0.256    0.469   82.790    6.224
  312.099    0.233    0.455   83.401    6.224
  312.399    0.223    0.427   81.515    6.107
  312.699    0.227    0.417   82.130    5.878
  312.999    0.225    0.438   87.114    4.951
  313.299    0.215    0.467   94.600    4.250
  313.599    0.212    0.477  105.833    4.170
  313.899    0.232    0.474  102.072    4.250
  314.199    0.232    0.468  100.187    4.951
  314.499    0.220    0.449  103.921    5.879
  314.799    0.197    0.437  100.161    6.981
  315.099    0.212    0.427   97.027    8.289
  315.399    0.212    0.411   91.393    8.612
  315.699    0.194    0.417   89.507    8.778
  315.999    0.191    0.457   87.618    8.778
  316.299    0.272    0.466   71.368    8.612
  316.599    0.275    0.452   70.731    8.779
  316.899    0.251    0.408   80.090    9.120
  317.199    0.219    0.412   86.950    9.121
  317.499    0.203    0.435   90.687    8.948
  317.799    0.198    0.428   84.428    8.949
  318.099    0.206    0.433   83.792    9.121
  318.399    0.218    0.432   90.650    9.476
  318.699    0.226    0.435   90.639   10.831
  318.999    0.221    0.441   90.004   11.690
  319.299    0.214    0.442   88.740   11.916
  319.599    0.221    0.422   88.731   11.691
  319.899    0.208    0.396   96.213   11.254
  320.199    0.194    0.367   98.077   10.628
  320.499    0.199    0.429   89.319   10.230
  320.798    0.203    0.422   86.809    9.847
  321.098    0.209    0.410   89.292    9.662
  321.398    0.213    0.397   90.531    9.662
  321.698    0.207    0.400   85.523    9.662
  321.998    0.197    0.420   86.761    9.125
  322.298    0.175    0.417   94.247    8.617
  322.598    0.183    0.422  102.981    7.833
  322.898    0.190    0.436  106.092    7.258
  323.198    0.198    0.474  105.455    6.351
  323.498    0.215    0.472  102.321    5.557
  323.798    0.233    0.441   94.187    5.148
  324.098    0.207    0.410   90.426    4.505
  324.398    0.263    0.411   86.668    3.942
  324.698    0.299    0.592   80.407    2.743
  324.998    0.302    0.600   74.150    2.267
  325.298    0.284    0.578   66.018    2.267
  325.598    0.242    0.501   63.508    2.850
  325.898    0.227    0.428   66.618    4.592
  326.198    0.218    0.411   70.980    6.352
  326.498    0.232    0.436   71.593    7.836
  326.798    0.262    0.423   67.833    9.484
  327.098    0.264    0.380   67.821   10.434
  327.398    0.232    0.364   72.807    9.667
  327.698    0.238    0.375   81.541    7.124
  327.998    0.248    0.421   89.025    4.864
  328.298    0.219    0.483   92.761    3.795
  328.598    0.221    0.481   92.749    3.724
  328.898    0.221    0.490   88.989    4.338
  329.198    0.210    0.481   85.855    4.594
  329.498    0.205    0.455   85.218    4.682
  329.798    0.210    0.464   88.954    4.683
  330.098    0.200    0.464   94.566    4.422
  330.398    0.200    0.464  102.049    3.944
  330.698    0.226    0.500   93.916    3.796
  330.998    0.210    0.499   86.409    3.725
  331.298    0.223    0.495   92.020    3.654
  331.598    0.222    0.475   99.503    3.725
  331.898    0.231    0.457  103.240    3.944
  332.198    0.238    0.460  106.349    4.177
  332.498    0.227    0.467  106.340    4.774
  332.798    0.212    0.475  105.078    5.153
  333.098    0.176    0.464   91.324    5.778
  333.398    0.172    0.446   71.947    6.604
  333.698    0.209    0.423   61.940    8.303
  333.998    0.251    0.376   61.304   10.847
  334.298    0.265    0.379   66.286   13.638
  334.598    0.255    0.392   68.153   15.293
  334.898    0.251    0.393   70.635   15.588
  335.198    0.251    0.387   71.252   15.588
  335.498    0.247    0.375   67.491   13.902
  335.798    0.247    0.357   66.225   12.881
  336.098    0.235    0.366   66.216   12.165
  336.398    0.242    0.380   67.457   12.638
  336.698    0.254    0.397   69.318   13.641
  336.998    0.257    0.400   65.560   15.007
  337.298    0.261    0.378   59.926   15.892
  337.598    0.198    0.382   55.538   17.152
  337.898    0.155    0.346   55.528   18.163
  338.198    0.201    0.322   62.387   19.605
  338.498    0.223    0.360   63.627   20.368
  338.798    0.230    0.383   64.239   19.983
  339.098    0.206    0.390   82.344   19.606
  339.398    0.255    0.421   90.452   19.985
  339.698    0.266    0.430   90.441   19.985
  339.998    0.215    0.411   79.185   19.608
  340.298    0.099    0.386   82.296   17.157
  340.598    0.144    0.360   89.156   14.450
  340.898    0.160    0.349   97.890   13.388
  341.198    0.169    0.386  102.251   13.136
  341.498    0.178    0.400  100.989   13.389
  341.798    0.197    0.372   94.105   13.910
  342.098    0.203    0.359   90.972   14.179
  342.398    0.204    0.356   92.209   13.911
  342.698    0.195    0.343   94.694   13.912
  342.998    0.177    0.365   95.308   13.912
  343.298    0.169    0.364   88.425   14.732
  343.598    0.157    0.346   72.172   17.493
  343.898    0.116    0.333   68.413   18.881
  344.198    0.193    0.323   76.521   19.616
  344.498    0.203    0.324   92.127   16.521
  344.798    0.204    0.375  102.110   14.456
  345.098    0.188    0.394   94.603   13.652
  345.397    0.177    0.384   87.093   13.915
  345.697    0.173    0.371   90.205   15.904
  345.997    0.201    0.359   89.569   18.177
  346.297    0.198    0.347   76.439   19.249
  346.597    0.202    0.345   72.677   19.620
  346.897    0.164    0.348   75.164   18.886
  347.197    0.102    0.388   82.026   17.168
  347.497    0.162    0.362   98.257   14.738
  347.797    0.181    0.365  100.740   11.283
  348.097    0.178    0.400   91.986   10.454
  348.397    0.278    0.429   52.618   13.145
  348.697    0.307    0.458   41.362   17.170
  348.997    0.302    0.382   46.348   22.861
  349.297    0.253    0.352   63.203   26.129
  349.597    0.208    0.353   78.183   27.146
  349.897    0.224    0.380   76.531   23.961
  350.197    0.210    0.386   77.124   23.061
  350.497    0.143    0.391   74.608   22.624
  350.797    0.182    0.395   80.798   21.362
  351.097    0.193    0.389   86.373   20.560
  351.397    0.177    0.384   91.950   16.979
  351.697    0.153    0.380  100.014   13.496
  351.997    0.153    0.345   93.137   11.804
  352.297    0.177    0.336   98.715   12.032
  352.597    0.184    0.349  104.912   12.264
  352.897    0.196    0.367  100.530   13.496
  353.197    0.225    0.397   79.346   16.032
  353.497    0.291    0.423   75.586   20.560
