~VERSION INFORMATION
 VERS.                 2.0:   CWLS LOG ASCII STANDARD -VERSION 2.0
 WRAP.                  NO:   ONE LINE PER DEPTH STEP
~WELL INFORMATION BLOCK
#MNEM.UNIT           DATA                    DESCRIPTION OF MNEMONIC
#---------    -------------------            -------------------------------
# Generated from Intellog Unique Number	CW_79_81/WELL/2473
WELL.         HB GODIN                       : Well_name    - WELL
LOC .         00/10-23-081-02W5/0            : Location     - LOCATION
UWI .         00/10-23-081-02W5/0            : Uwi          - UNIQUE WELL ID
ENTR.         MAX                            : Entered      - ENTERED BY
SRVC.         SCHLUMBERGER                   : Scn          - SERVICE COMPANY
STRT.M        243.84                         : top_depth    - START DEPTH
STOP.M        460.09                         : bot_depth    - STOP DEPTH
STEP.M        0.25                           : increment    - STEP LENGTH
 NULL. -999.2500:NULL Value
~CURVE INFORMATION BLOCK
#MNEM UNIT       ERCB CURVE CODE    CURVE DESCRIPTION
#-----------   ------------------   ----------------------------------
DEPT.M        00 001 00 00         : DEPTH        - DEPTH
ILD .OHMM     00 120 00 00         : RESD         - DEEP RESISTIVITY (DIL)
NPHI.V/V      00 330 00 00         : PHIN         - NEUTRON POROSITY (SANDSTONE)
DPHI.V/V      00 890 00 00         : PHID         - DENSITY POROSITY (SANDSTONE)
GR  .API      00 310 00 00         : GR           - GAMMA RAY
CALI.MM       00 280 01 00         : CAL          - CALIPER
~PARAMETER INFORMATION
#MNEM.UNIT           DATA             DESCRIPTION OF MNEMONIC
#---------         -----------     ------------------------------
GL  .M        586.435              : gl           - GROUND LEVEL ELEVATION
EREF.M        590.093              : kb           - ELEVATION OF DEPTH REFERENCE
DATM.M        586.435              : datum        - DATUM ELEVATION
TDD .M        445.008              : tdd          - TOTAL DEPTH DRILLER
RUN .         ONE                  : Run          - RUN NUMBER
ENG .         BILL                 : Engineer     - RECORDING ENGINEER
WIT .         JIM                  : Witness      - WITNESSED BY
MUD .         GEL                  : Mud_type     - MUD TYPE
MATR.         SANDSTONE            : Logunit      - NEUTRON MATRIX
TMAX.C        23.8889              : BHT          - MAXIMUM RECORDED TEMPERATURE
BHTD.M        445.008              : BHTDEP       - MAXIMUM RECORDED TEMPERATURE
MATR.         1                    : LOGUNIT      - NEUTRON MATRIX
RMT .C        18.8889              : MDTP         - TEMPERATURE OF MUD
NEUT.         1                    : NEUTRON      - NEUTRON TYPE
RESI.         0                    : RESIST       - RESISTIVITY TYPE
RMC .OHMM     3.22                 : RMC          - RESISTIVITY OF MUD CAKE
RMF .OHMM     3.22                 : RMF          - RESISTIVITY OF MUD FILTRATE
SUFT.C        -20.5556             : SUFT         - SURFACE TEMPERATURE
~A  DEPTH     RESD     PHIN     PHID       GR      CAL
# ...
  426.340    9.576    0.389    0.135   90.644  200.997
  426.590    9.569    0.392    0.145   94.904  200.615
  426.840    9.563    0.383    0.139   95.154  200.626
  427.090    9.627    0.387    0.147   92.358  199.449
  427.340    9.743    0.388    0.156   91.662  200.349
  427.590    9.879    0.387    0.162   91.668  200.953
  427.840   10.053    0.387    0.167   91.558  200.370
  428.090   10.419    0.390    0.170   90.709  198.703
  428.340   10.816    0.388    0.153   88.770  196.241
  428.590   11.950    0.385    0.140   86.906  196.648
  428.840   12.803    0.362    0.107   80.664  198.239
  429.090   13.036    0.332    0.077   75.999  199.434
  429.340   12.454    0.313    0.078   75.947  199.841
  429.590   10.914    0.346    0.145   81.695  199.920
  429.840    9.750    0.384    0.168   87.054  198.281
  430.090    9.532    0.389    0.152   90.564  197.897
  430.340    9.578    0.398    0.166   94.598  198.401
  430.590    9.713    0.409    0.183   95.539  199.401
  430.840    9.832    0.422    0.187   92.334  200.401
  431.090    9.881    0.429    0.171   85.433  200.972
  431.340    9.800    0.408    0.160   80.086  201.808
  431.590    9.583    0.391    0.143   81.026  201.817
  431.840    9.012    0.395    0.142   81.266  202.419
  432.090    8.407    0.399    0.145   81.389  203.220
  432.340    7.978    0.398    0.147   82.096  203.824
  432.590    7.892    0.407    0.144   84.545  203.836
  432.840    8.068    0.416    0.138   86.255  203.847
  433.090    8.063    0.427    0.136   87.429  203.857
  433.340    7.709    0.427    0.145   89.479  203.572
  433.590    7.187    0.419    0.154   91.002  202.791
  433.840    6.711    0.406    0.157   91.475  201.120
  434.090    6.458    0.393    0.155   91.443  197.721
  434.340    6.404    0.406    0.155   92.422  196.495
  434.590    6.354    0.432    0.156   93.597  196.507
  434.840    6.408    0.439    0.162   95.296  198.000
  435.090    6.683    0.432    0.161   95.535  199.790
  435.340    7.159    0.416    0.155   94.023  200.294
  435.590    7.596    0.398    0.150   91.675  197.703
  435.840    7.648    0.397    0.154   89.249  198.538
  436.090    7.644    0.391    0.152   87.386  200.525
  436.340    7.557    0.387    0.153   84.649  201.326
  436.590    7.443    0.386    0.156   82.436  200.941
  436.840    7.358    0.387    0.160   81.566  200.259
  437.090    7.364    0.388    0.164   82.226  201.226
  437.340    7.415    0.389    0.166   81.988  202.060
  437.590    7.963    0.399    0.173   76.856  200.489
  437.840    8.644    0.422    0.191   72.775  199.807
  438.090    9.679    0.430    0.205   72.431  199.421
  438.340   11.165    0.416    0.206   76.173  199.037
  438.590   12.681    0.395    0.196   81.096  198.903
  438.840   12.388    0.387    0.199   76.479  200.150
  439.090   11.936    0.408    0.211   70.647  200.555
  439.340   11.889    0.403    0.234   70.244  200.665
  439.590   12.354    0.395    0.261   72.235  200.872
  439.840   13.324    0.396    0.280   73.876  201.276
  440.090   14.792    0.413    0.276   72.034  201.768
  440.340   16.201    0.421    0.264   68.634  202.190
  440.590   18.028    0.408    0.236   65.137  202.990
  440.840   20.490    0.403    0.224   61.290  203.495
  441.090   24.039    0.401    0.233   58.026  203.704
  441.340   29.211    0.401    0.257   55.580  203.715
  441.590   37.099    0.402    0.276   53.241  203.643
  441.840   42.228    0.404    0.280   52.031  203.241
  442.090   42.820    0.409    0.274   52.504  203.648
  442.340   42.251    0.415    0.278   54.729  203.164
  442.590   40.855    0.423    0.287   58.004  202.778
  442.840   39.092    0.433    0.297   62.623  202.689
  443.090   36.763    0.441    0.303   71.477  202.306
  443.340   33.831    0.436    0.301   79.512  202.317
  443.590   28.950    0.435    0.308   82.788  202.328
  443.840   24.081    0.438    0.310   80.458  202.042
  444.090   18.509    0.437    0.321   77.312  201.855
  444.340   13.512    0.432    0.337   75.041  201.865
  444.590    8.939    0.424    0.338   72.147  201.795
  444.840    6.175    0.429    0.315   71.667  201.393
  445.090    4.787    0.425    0.253   90.822  201.008
  445.340    4.778    0.438    0.298  104.901  200.919
  445.590    5.028    0.478    0.351  113.315  201.127
  445.840    4.940    0.518    0.367  116.943  201.434
  446.090    4.275    0.492    0.345  118.216  201.446
  446.340    4.240    0.460    0.325  118.708  201.457
  446.590    4.392    0.437    0.186  121.750  201.862
  446.840    4.674    0.426    0.164  124.617  201.972
  447.090    5.074    0.415    0.173  125.791  202.576
  447.340    5.666    0.402    0.181  125.797  203.674
  447.590    6.811    0.393    0.200  128.519  204.640
  447.840    7.346    0.364    0.196  135.094  205.474
  448.090    7.777    0.379    0.204  132.765  206.670
  448.340    7.975    0.374    0.204  124.130  207.570
  448.590    7.882    0.366    0.202  113.160  208.174
  448.840    7.582    0.362    0.204  103.530  208.679
  449.090    7.244    0.362    0.219   98.974  209.649
  449.340    7.182    0.368    0.238  100.683  210.485
  449.590    6.575    0.387    0.230  107.461  210.889
  449.840    6.158    0.392    0.219  112.314  211.294
  450.090    5.894    0.382    0.204  114.305  211.501
  450.340    5.732    0.376    0.184  114.662  211.117
  450.590    5.579    0.400    0.169  116.625  209.384
  450.840    5.451    0.390    0.195  115.901  208.570
  451.090    5.252    0.378    0.169  117.776  208.580
  451.340    5.090    0.378    0.163  121.927  208.589
  451.590    4.978    0.394    0.157  125.553  208.204
  451.840    4.939    0.423    0.155  127.311  207.225
  452.090    5.052    0.467    0.182  125.958  205.409
  452.340    5.283    0.498    0.187  119.152  204.183
  452.590    5.674    0.463    0.207  104.445  203.008
  452.840    6.127    0.405    0.230   92.540  202.127
  453.090    6.768    0.368    0.251   87.289  201.347
  453.340    7.610    0.363    0.263   88.579  200.764
  453.590    8.379    0.362    0.251   93.150  200.778
  453.840    8.436    0.358    0.237   97.292  200.787
  454.090    8.070    0.354    0.224  101.502  201.194
  454.340    7.806    0.363    0.209  106.937  202.192
  454.590    7.718    0.381    0.199  111.848  202.796
  454.840    7.839    0.404    0.195  115.884  202.709
  455.090    8.244    0.429    0.201  120.728  202.407
  455.340    8.558    0.441    0.220  123.896  202.828
  455.590    8.676    0.441    0.216  120.634  205.213
  455.840    8.608    0.451    0.234  116.319  207.002
  456.090    8.478    0.424    0.243  112.120  208.593
  456.340    8.366    0.364    0.231  108.156  209.494
  456.590    8.337    0.329    0.197  103.103  207.908
  456.840    8.523    0.327    0.186  101.163  205.858
  457.090    9.153    0.313    0.176   92.761  203.496
  457.340   10.092    0.309    0.164   85.061  202.023
  457.590   11.618    0.315    0.160   75.374  200.451
  457.840   14.116    0.305    0.164   60.783  198.385
  458.090   18.652    0.219    0.167   36.675  195.531
  458.340   22.421    0.181    0.153   29.383  193.071
  458.590   30.218    0.174    0.097   28.922  191.102
  458.840   39.350    0.171    0.052   28.461  189.135
  459.090   48.680    0.162    0.045   26.715  187.167
  459.340   58.448    0.142    0.073   23.043  185.101
  459.590   78.621    0.112    0.089   16.812  182.328
  459.840  106.367    0.095    0.071   13.656  180.279
  460.090  126.291    0.121    0.043   10.744  177.820
