~VERSION INFORMATION
 VERS.                 2.0:   CWLS LOG ASCII STANDARD -VERSION 2.0
 WRAP.                  NO:   ONE LINE PER DEPTH STEP
~WELL INFORMATION BLOCK
#MNEM.UNIT           DATA                    DESCRIPTION OF MNEMONIC
#---------    -------------------            -------------------------------
# Generated from Intellog Unique Number	CS_73_76/WELL/812
WELL.         ARGO PETROLEUM CORPORATION     : Well_name    - WELL
LOC .         00/10-06-073-10W4/0            : Location     - LOCATION
UWI .         00/10-06-073-10W4/0            : Uwi          - UNIQUE WELL ID
ENTR.         SP                             : Entered      - ENTERED BY
SRVC.         SCHLUMBERGER                   : Scn          - SERVICE COMPANY
STRT.M        310.896                        : top_depth    - START DEPTH
STOP.M        527.646                        : bot_depth    - STOP DEPTH
STEP.M        0.25                           : increment    - STEP LENGTH
 NULL. -999.2500:NULL Value
~CURVE INFORMATION BLOCK
#MNEM UNIT       ERCB CURVE CODE    CURVE DESCRIPTION
#-----------   ------------------   ----------------------------------
DEPT.M        00 001 00 00         : DEPTH        - DEPTH
GR  .API      00 310 00 00         : GR           - GAMMA RAY
DPHI.V/V      00 890 00 00         : PHID         - DENSITY POROSITY (SANDSTONE)
NPHI.V/V      00 330 00 00         : PHIN         - NEUTRON POROSITY (SANDSTONE)
ILD .OHMM     00 120 00 00         : RESD         - DEEP RESISTIVITY (DIL)
~PARAMETER INFORMATION
#MNEM.UNIT           DATA             DESCRIPTION OF MNEMONIC
#---------         -----------     ------------------------------
GL  .M        661.721              : gl           - GROUND LEVEL ELEVATION
EREF.M        665.074              : kb           - ELEVATION OF DEPTH REFERENCE
DATM.M        661.721              : datum        - DATUM ELEVATION
TDD .M        530.657              : tdd          - TOTAL DEPTH DRILLER
RUN .         ONE                  : Run          - RUN NUMBER
ENG .         BILL                 : Engineer     - RECORDING ENGINEER
WIT .         JIM                  : Witness      - WITNESSED BY
MUD .         GEL                  : Mud_type     - MUD TYPE
MATR.         SANDSTONE            : Logunit      - NEUTRON MATRIX
TMAX.C        12.2222              : BHT          - MAXIMUM RECORDED TEMPERATURE
BHTD.M        530.657              : BHTDEP       - MAXIMUM RECORDED TEMPERATURE
MATR.         1                    : LOGUNIT      - NEUTRON MATRIX
RMT .C        25                   : MDTP         - TEMPERATURE OF MUD
NEUT.         1                    : NEUTRON      - NEUTRON TYPE
RESI.         0                    : RESIST       - RESISTIVITY TYPE
RMC .OHMM     0.25                 : RMC          - RESISTIVITY OF MUD CAKE
RMF .OHMM     0.25                 : RMF          - RESISTIVITY OF MUD FILTRATE
SUFT.C        15                   : SUFT         - SURFACE TEMPERATURE
~A  DEPTH       GR     PHID     PHIN     RESD
# ...
  397.896   90.349    0.291    0.502    4.172
  398.146   94.523    0.265    0.552    3.377
  398.396  100.275    0.248    0.594    2.473
  398.646  101.017    0.264    0.591    2.834
  398.896   96.709    0.276    0.562    3.276
  399.146   90.580    0.291    0.508    3.870
  399.396   85.752    0.289    0.491    4.539
  399.646   82.792    0.285    0.485    5.252
  399.896   80.451    0.301    0.481    6.520
  400.146   76.543    0.316    0.475    8.143
  400.396   72.059    0.309    0.466    9.807
  400.646   69.088    0.245    0.448   10.830
  400.896   65.113    0.216    0.341   11.900
  401.146   62.264    0.140    0.270   13.723
  401.396   66.116    0.069    0.333   14.957
  401.646   69.460    0.290    0.460   15.756
  401.896   71.408    0.307    0.474   13.716
  402.146   71.599    0.310    0.490   12.594
  402.396   72.077    0.313    0.503   11.089
  402.646   71.316    0.315    0.495   10.317
  402.896   72.591    0.314    0.485    9.212
  403.146   78.721    0.326    0.497    8.621
  403.396   79.919    0.321    0.503    8.008
  403.646   79.285    0.312    0.515    7.615
  403.896   78.455    0.322    0.523    7.421
  404.146   76.969    0.335    0.523    7.307
  404.396   76.223    0.340    0.502    7.295
  404.646   76.268    0.302    0.489    7.294
  404.896   77.195    0.309    0.487    7.180
  405.146   80.662    0.310    0.497    7.118
  405.396   84.409    0.302    0.510    6.893
  405.646   87.642    0.285    0.516    6.691
  405.896   89.292    0.271    0.513    6.522
  406.146   89.214    0.267    0.500    6.530
  406.396   86.969    0.281    0.493    6.806
  406.646   83.451    0.296    0.479    7.032
  406.896   81.484    0.307    0.464    7.024
  407.146   78.761    0.312    0.470    7.024
  407.396   81.711    0.302    0.478    7.023
  407.646   84.676    0.282    0.491    7.026
  407.896   86.775    0.281    0.489    7.085
  408.146   88.015    0.263    0.496    7.160
  408.396   85.368    0.268    0.504    7.281
  408.646   83.939    0.292    0.508    7.486
  408.896   83.199    0.314    0.498    7.555
  409.146   84.144    0.293    0.496    7.698
  409.396   85.865    0.271    0.502    7.650
  409.646   87.444    0.265    0.506    7.558
  409.896   88.462    0.272    0.499    7.173
  410.146   89.482    0.269    0.499    7.126
  410.396   90.527    0.262    0.501    7.012
  410.646   90.256    0.255    0.499    6.952
  410.896   89.933    0.248    0.486    6.892
  411.146   89.369    0.244    0.481    6.900
  411.396   89.576    0.249    0.491    6.751
  411.646   90.618    0.249    0.501    6.762
  411.896   90.005    0.257    0.505    6.856
  412.146   88.868    0.254    0.494    6.875
  412.396   89.422    0.267    0.494    7.014
  412.646   89.064    0.264    0.487    7.011
  412.896   88.095    0.253    0.487    7.011
  413.146   89.892    0.244    0.497    7.020
  413.396   91.368    0.236    0.506    6.888
  413.646   91.267    0.248    0.512    6.755
  413.896   89.685    0.253    0.519    6.656
  414.146   88.865    0.246    0.488    6.653
  414.396   88.935    0.231    0.476    6.509
  414.646   89.986    0.224    0.473    6.530
  414.896   90.987    0.231    0.480    6.386
  415.146   91.997    0.232    0.483    6.398
  415.396   93.876    0.234    0.487    6.397
  415.646   95.215    0.230    0.496    6.397
  415.896   96.285    0.223    0.501    6.397
  416.146   96.315    0.219    0.506    6.408
  416.396   96.447    0.220    0.494    6.267
  416.646   96.910    0.226    0.491    6.287
  416.896   97.576    0.228    0.495    6.151
  417.146   98.289    0.222    0.494    6.151
  417.396   99.272    0.220    0.494    6.046
  417.646  100.034    0.226    0.500    6.005
  417.896  100.695    0.220    0.506    5.944
  418.146  100.183    0.224    0.496    5.941
  418.396   99.924    0.222    0.502    5.933
  418.646   98.849    0.229    0.508    6.051
  418.896   98.509    0.234    0.494    6.014
  419.146   97.450    0.235    0.496    5.421
  419.396   97.491    0.241    0.547    4.488
  419.646  101.845    0.246    0.570    3.390
  419.896  104.603    0.257    0.579    2.629
  420.146  105.637    0.266    0.591    2.114
  420.396  103.866    0.269    0.595    1.893
  420.646  105.112    0.258    0.597    1.813
  420.896  105.177    0.249    0.581    1.951
  421.146  101.031    0.259    0.530    2.081
  421.396   97.699    0.265    0.493    2.353
  421.646   96.634    0.251    0.473    2.766
  421.896   96.341    0.238    0.470    4.484
  422.146   95.923    0.234    0.465    4.846
  422.396   95.302    0.239    0.468    5.315
  422.646   94.510    0.246    0.483    5.519
  422.896   94.131    0.250    0.487    5.523
  423.146   93.444    0.258    0.474    5.410
  423.396   93.532    0.258    0.473    5.429
  423.646   92.998    0.258    0.480    5.515
  423.896   92.716    0.250    0.484    5.423
  424.146   91.663    0.246    0.493    5.429
  424.396   90.184    0.252    0.499    5.511
  424.646   88.950    0.261    0.508    5.665
  424.896   86.213    0.285    0.509    5.719
  425.146   84.792    0.301    0.499    5.908
  425.396   84.562    0.300    0.487    5.957
  425.646   85.593    0.285    0.486    6.043
  425.896   86.594    0.272    0.482    6.105
  426.146   87.537    0.256    0.474    6.149
  426.396   87.487    0.250    0.463    6.149
  426.646   87.224    0.267    0.455    6.095
  426.896   85.204    0.291    0.472    6.038
  427.146   80.323    0.306    0.485    5.669
  427.396   78.632    0.317    0.475    5.374
  427.646   77.709    0.312    0.489    4.836
  427.896   74.867    0.303    0.489    4.718
  428.146   71.913    0.306    0.490    4.849
  428.396   72.236    0.309    0.492    4.934
  428.646   73.800    0.314    0.496    5.084
  428.896   76.315    0.314    0.494    5.239
  429.146   78.850    0.308    0.487    5.398
  429.396   80.849    0.295    0.485    5.561
  429.646   78.850    0.277    0.483    5.726
  429.896   80.081    0.284    0.490    5.485
  430.146   82.887    0.276    0.507    4.769
  430.396   85.910    0.266    0.523    4.247
  430.646   87.584    0.259    0.519    4.075
  430.896   87.727    0.251    0.501    3.933
  431.146   86.416    0.246    0.497    3.890
  431.396   85.475    0.240    0.499    3.933
  431.646   87.348    0.267    0.484    4.056
  431.896   87.699    0.282    0.478    4.181
  432.146   87.048    0.286    0.490    4.356
  432.396   81.082    0.295    0.503    4.528
  432.646   82.136    0.289    0.499    4.825
  432.896   81.349    0.296    0.489    5.013
  433.146   79.748    0.297    0.481    5.330
  433.396   78.809    0.291    0.480    5.679
  433.646   78.620    0.293    0.465    5.735
  433.896   78.595    0.296    0.462    5.921
  434.146   78.258    0.291    0.475    5.928
  434.396   76.463    0.290    0.493    5.799
  434.646   76.172    0.287    0.510    5.811
  434.896   76.544    0.293    0.496    5.810
  435.146   77.748    0.297    0.484    5.810
  435.396   78.627    0.291    0.489    5.809
  435.646   78.984    0.286    0.479    5.809
  435.896   78.606    0.282    0.483    5.809
  436.146   77.566    0.278    0.489    5.808
  436.396   76.850    0.279    0.483    5.811
  436.646   76.202    0.283    0.478    5.816
  436.896   76.389    0.285    0.472    5.923
  437.146   74.981    0.285    0.475    5.955
  437.396   74.442    0.280    0.477    6.022
  437.646   76.146    0.268    0.470    6.023
  437.896   77.109    0.247    0.474    6.022
  438.146   78.087    0.258    0.477    6.021
  438.396   80.019    0.261    0.467    6.024
  438.646   82.684    0.257    0.460    6.042
  438.896   83.593    0.251    0.457    6.134
  439.146   84.903    0.244    0.451    6.129
  439.396   86.162    0.247    0.461    6.117
  439.646   86.167    0.247    0.471    6.015
  439.896   86.586    0.252    0.481    6.027
  440.146   88.709    0.250    0.490    5.902
  440.396   90.239    0.246    0.475    5.645
  440.646   91.820    0.246    0.477    5.388
  440.896   91.703    0.245    0.501    4.662
  441.146   91.579    0.244    0.521    3.967
