~VERSION INFORMATION
 VERS.                 2.0:   CWLS LOG ASCII STANDARD -VERSION 2.0
 WRAP.                  NO:   ONE LINE PER DEPTH STEP
~WELL INFORMATION BLOCK
#MNEM.UNIT           DATA                    DESCRIPTION OF MNEMONIC
#---------    -------------------            -------------------------------
# Generated from Intellog Unique Number	CS_67_68/WELL/2198
WELL.         10-29-067-08W4                 : Well_name    - WELL
LOC .         00/10-29-067-08W4/0            : Location     - LOCATION
UWI .         00/10-29-067-08W4/0            : Uwi          - UNIQUE WELL ID
ENTR.         SP                             : Entered      - ENTERED BY
SRVC.         SCHLUMBERGER                   : Scn          - SERVICE COMPANY
STRT.M        330                            : top_depth    - START DEPTH
STOP.M        555                            : bot_depth    - STOP DEPTH
STEP.M        0.25                           : increment    - STEP LENGTH
 NULL. -999.2500:NULL Value
~CURVE INFORMATION BLOCK
#MNEM UNIT       ERCB CURVE CODE    CURVE DESCRIPTION
#-----------   ------------------   ----------------------------------
DEPT.M        00 001 00 00         : DEPTH        - DEPTH
ILD .OHMM     00 120 00 00         : RESD         - DEEP RESISTIVITY (DIL)
DPHI.V/V      00 890 00 00         : PHID         - DENSITY POROSITY (LIMESTONE)
NPHI.V/V      00 330 00 00         : PHIN         - NEUTRON POROSITY (LIMESTONE)
GR  .API      00 310 00 00         : GR           - GAMMA RAY
CALI.MM       00 280 01 00         : CAL          - CALIPER
~PARAMETER INFORMATION
#MNEM.UNIT           DATA             DESCRIPTION OF MNEMONIC
#---------         -----------     ------------------------------
GL  .M        639.4                : gl           - GROUND LEVEL ELEVATION
EREF.M        643.6                : kb           - ELEVATION OF DEPTH REFERENCE
DATM.M        643.6                : datum        - DATUM ELEVATION
TDD .M        560                  : tdd          - TOTAL DEPTH DRILLER
RUN .         ONE                  : Run          - RUN NUMBER
ENG .         BILL                 : Engineer     - RECORDING ENGINEER
WIT .         JIM                  : Witness      - WITNESSED BY
MUD .         GEL                  : Mud_type     - MUD TYPE
MATR.         LIMESTONE            : Logunit      - NEUTRON MATRIX
TMAX.C        23                   : BHT          - MAXIMUM RECORDED TEMPERATURE
BHTD.M        560.2                : BHTDEP       - MAXIMUM RECORDED TEMPERATURE
MATR.         1                    : LOGUNIT      - NEUTRON MATRIX
RMT .C        25                   : MDTP         - TEMPERATURE OF MUD
NEUT.         1                    : NEUTRON      - NEUTRON TYPE
RESI.         0                    : RESIST       - RESISTIVITY TYPE
RMC .OHMM     0.25                 : RMC          - RESISTIVITY OF MUD CAKE
RMF .OHMM     0.25                 : RMF          - RESISTIVITY OF MUD FILTRATE
SUFT.C        15                   : SUFT         - SURFACE TEMPERATURE
~A  DEPTH     RESD     PHID     PHIN       GR      CAL
# ...
  476.000    1.577    0.256    0.324  101.161  179.027
  476.250    1.402    0.258    0.344  103.229  180.526
  476.500    1.310    0.251    0.366  103.947  181.315
  476.750    1.247    0.246    0.371  104.112  180.664
  477.000    1.205    0.245    0.369  103.785  181.046
  477.250    1.254    0.250    0.354  103.090  184.181
  477.500    1.353    0.252    0.354  100.493  185.378
  477.750    1.454    0.254    0.349   98.694  185.756
  478.000    1.530    0.255    0.338   98.241  183.575
  478.250    1.566    0.251    0.323   98.654  181.288
  478.500    1.596    0.247    0.305  100.166  179.005
  478.750    1.629    0.245    0.289  101.008  177.545
  479.000    1.673    0.242    0.296  100.807  175.566
  479.250    1.751    0.232    0.305   95.140  173.176
  479.500    1.861    0.218    0.312   90.762  172.231
  479.750    2.053    0.202    0.316   89.391  173.118
  480.000    2.198    0.212    0.331   89.987  175.641
  480.250    2.288    0.230    0.345   90.274  177.044
  480.500    2.345    0.233    0.357   90.562  177.421
  480.750    2.385    0.221    0.343   92.260  175.546
  481.000    2.468    0.198    0.348   94.633  175.408
  481.250    2.588    0.209    0.359   96.762  177.219
  481.500    2.698    0.232    0.372   97.726  177.189
  481.750    2.714    0.234    0.375   97.707  173.883
  482.000    2.683    0.235    0.371   96.827  175.181
  482.250    2.658    0.236    0.382   95.335  176.886
  482.500    2.663    0.245    0.393   97.218  177.571
  482.750    2.730    0.229    0.400   98.119  174.570
  483.000    2.873    0.199    0.370   89.998  173.926
  483.250    2.995    0.173    0.347   85.314  174.602
  483.500    3.117    0.197    0.360   89.958  176.520
  483.750    3.300    0.229    0.391   89.877  180.171
  484.000    3.414    0.247    0.410   83.538  180.851
  484.250    3.434    0.139    0.379   78.361  178.571
  484.500    3.402    0.132    0.373   83.007  174.957
  484.750    3.389    0.171    0.350   87.897  174.615
  485.000    3.357    0.208    0.385   90.702  174.993
  485.250    3.338    0.234    0.438   91.296  175.062
  485.500    3.383    0.121    0.341   89.190  175.749
  485.750    3.615    0.059    0.301   89.295  178.684
  486.000    3.805    0.126    0.310   95.657  182.232
  486.250    4.066    0.211    0.337   97.786  179.029
  486.500    4.386    0.233    0.347   97.154  171.528
  486.750    4.634    0.245    0.328   97.441  166.277
  487.000    4.980    0.255    0.303   98.834  163.690
  487.250    5.272    0.266    0.290   97.770  165.600
  487.500    5.591    0.282    0.328   91.552  166.998
  487.750    5.818    0.274    0.325   88.155  169.728
  488.000    5.818    0.252    0.306   93.723  174.710
  488.250    5.753    0.226    0.284  105.918  180.099
  488.500    5.797    0.209    0.278  117.131  179.553
  488.750    6.032    0.224    0.238  117.542  173.894
  489.000    6.242    0.263    0.197   73.452  169.359
  489.250    6.337    0.300    0.155   42.435  167.279
  489.500    6.090    0.343    0.144   31.366  166.636
  489.750    5.809    0.319    0.249   30.300  166.706
  490.000    4.575    0.304    0.289   32.248  166.874
  490.250    3.939    0.292    0.316   32.842  166.847
  490.500    3.617    0.286    0.309   30.367  167.123
  490.750    3.469    0.279    0.291   36.300  167.193
  491.000    3.347    0.272    0.282   43.956  167.263
  491.250    3.638    0.278    0.320   51.546  167.632
  491.500    4.139    0.266    0.348   58.587  167.910
  491.750    5.040    0.271    0.354   61.207  168.592
  492.000    5.944    0.289    0.342   61.370  169.691
  492.250    6.983    0.287    0.329   67.731  172.522
  492.500    8.142    0.272    0.337   74.526  173.407
  492.750    9.368    0.254    0.338   79.543  172.862
  493.000   10.280    0.242    0.325   85.478  172.934
  493.250   10.438    0.230    0.339   89.141  172.695
  493.500   10.557    0.265    0.360   69.600  171.236
  493.750   11.325    0.298    0.369   58.105  166.494
  494.000   12.010    0.297    0.379   48.327  164.930
  494.250   12.451    0.299    0.383   53.830  164.285
  494.500   11.564    0.301    0.371   43.252  163.532
  494.750    7.931    0.306    0.357   37.034  163.805
  495.000    5.969    0.308    0.344   40.140  164.180
  495.250    5.169    0.306    0.333   43.254  164.356
  495.500    4.501    0.304    0.327   45.816  164.525
  495.750    4.079    0.302    0.333   46.349  164.395
  496.000    3.788    0.302    0.327   44.668  164.158
  496.250    3.472    0.309    0.323   43.424  163.924
  496.500    3.262    0.304    0.322   41.559  163.482
  496.750    3.111    0.306    0.328   40.563  163.447
  497.000    3.007    0.310    0.328   39.007  163.515
  497.250    2.939    0.311    0.317   38.376  163.383
  497.500    2.890    0.311    0.325   37.556  163.352
  497.750    2.835    0.315    0.327   34.469  163.421
  498.000    2.798    0.319    0.320   33.097  163.283
  498.250    2.735    0.319    0.320   33.449  163.246
  498.500    2.669    0.308    0.321   33.980  163.320
  498.750    2.629    0.301    0.307   36.602  163.292
  499.000    2.594    0.300    0.324   37.684  163.564
  499.250    2.589    0.301    0.321   36.746  163.525
  499.500    2.575    0.302    0.310   38.813  163.501
  499.750    2.560    0.304    0.342   40.145  163.674
  500.000    2.508    0.306    0.334   40.002  163.847
  500.250    2.465    0.309    0.322   36.300  163.912
  500.500    2.461    0.308    0.316   34.929  163.982
  500.750    2.465    0.306    0.312   35.523  164.155
  501.000    2.479    0.301    0.306   35.871  164.224
  501.250    2.489    0.305    0.298   35.487  164.399
  501.500    2.494    0.308    0.291   33.872  164.264
  501.750    2.503    0.300    0.290   32.194  164.130
  502.000    2.522    0.282    0.300   32.604  164.095
  502.250    2.523    0.263    0.296   33.506  163.955
  502.500    2.561    0.242    0.287   34.160  163.932
  502.750    2.595    0.233    0.303   33.037  163.691
  503.000    2.691    0.268    0.310   31.607  163.560
  503.250    2.779    0.291    0.313   30.973  163.321
  503.500    2.805    0.301    0.307   31.013  163.289
  503.750    2.832    0.296    0.321   31.364  163.356
  504.000    2.854    0.291    0.337   31.528  163.318
  504.250    2.854    0.293    0.334   31.509  163.294
  504.500    2.843    0.298    0.323   31.060  163.261
  504.750    2.833    0.293    0.322   31.162  163.125
  505.000    2.827    0.264    0.340   33.231  162.991
  505.250    2.806    0.240    0.351   35.851  162.959
  505.500    2.775    0.227    0.367   38.714  163.028
  505.750    2.723    0.257    0.348   39.740  163.102
  506.000    2.666    0.286    0.315   30.083  163.375
  506.250    2.646    0.301    0.307   23.191  163.446
  506.500    2.657    0.311    0.312   19.120  163.618
  506.750    2.667    0.304    0.311   26.097  164.094
  507.000    2.682    0.294    0.302   31.295  164.370
  507.250    2.703    0.285    0.292   33.730  165.250
  507.500    2.744    0.300    0.277   30.520  165.533
  507.750    2.818    0.313    0.270   31.053  166.114
  508.000    2.877    0.295    0.284   44.968  166.283
  508.250    2.971    0.275    0.278   61.459  166.047
  508.500    3.134    0.264    0.267   78.810  165.404
  508.750    3.498    0.244    0.263   92.110  164.860
  509.000    3.987    0.229    0.267   99.763  165.647
  509.250    4.458    0.223    0.271  103.243  166.327
  509.500    4.710    0.216    0.271  105.249  166.906
  509.750    4.874    0.207    0.267  102.099  167.487
  510.000    5.053    0.198    0.265   99.684  167.457
  510.250    5.268    0.191    0.263   99.789  167.632
  510.500    5.513    0.186    0.274  101.607  168.105
  510.750    5.737    0.186    0.279  103.800  168.590
  511.000    5.959    0.184    0.271  105.316  168.969
  511.250    6.039    0.181    0.286  105.297  169.339
  511.500    5.994    0.183    0.293  100.613  169.313
  511.750    5.859    0.189    0.283   99.365  168.668
  512.000    5.893    0.197    0.277  102.721  167.203
  512.250    5.926    0.202    0.270  105.218  165.530
