~VERSION INFORMATION
 VERS.                 2.0:   CWLS LOG ASCII STANDARD -VERSION 2.0
 WRAP.                  NO:   ONE LINE PER DEPTH STEP
~WELL INFORMATION BLOCK
#MNEM.UNIT           DATA                    DESCRIPTION OF MNEMONIC
#---------    -------------------            -------------------------------
# Generated from Intellog Unique Number	CW_82_90/WELL/924
WELL.         PARAMOUNT ET AL LIVOCK 10-25   : Well_name    - WELL
LOC .         00/10-25-084-19W4/0            : Location     - LOCATION
UWI .         00/10-25-084-19W400            : Uwi          - UNIQUE WELL ID
ENTR.         JAYE                           : Entered      - ENTERED BY
SRVC.         COMPUTALOG                     : Scn          - SERVICE COMPANY
DATE.         31 JAN 77                      : Date         - LOG DATE
STRT.M        213.36                         : top_depth    - START DEPTH
STOP.M        341.36                         : bot_depth    - STOP DEPTH
STEP.M        0.25                           : increment    - STEP LENGTH
 NULL. -999.2500:NULL Value
~CURVE INFORMATION BLOCK
#MNEM UNIT       ERCB CURVE CODE    CURVE DESCRIPTION
#-----------   ------------------   ----------------------------------
DEPT.M        00 001 00 00         : DEPTH        - DEPTH
CALI.MM       00 280 01 00         : CAL          - CALIPER
GR  .API      00 310 00 00         : GR           - GAMMA RAY
NPHI.V/V      00 330 00 00         : PHIN         - NEUTRON POROSITY (SANDSTONE)
DPHI.V/V      00 890 00 00         : PHID         - DENSITY POROSITY (SANDSTONE)
ILD .OHMM     00 120 00 00         : RESD         - DEEP RESISTIVITY (DIL)
~PARAMETER INFORMATION
#MNEM.UNIT           DATA             DESCRIPTION OF MNEMONIC
#---------         -----------     ------------------------------
GL  .M        582.168              : gl           - GROUND LEVEL ELEVATION
EREF.M        585.521              : kb           - ELEVATION OF DEPTH REFERENCE
DATM.M        582.168              : datum        - DATUM ELEVATION
TDD .M        370.942              : tdd          - TOTAL DEPTH DRILLER
RUN .         ONE                  : Run          - RUN NUMBER
ENG .         KING                 : Engineer     - RECORDING ENGINEER
WIT .         KNIGHT               : Witness      - WITNESSED BY
BASE.         MEDICINE HAT         : Branch       - HOME BASE OF LOGGING UNIT
MUD .         GEL CHEM             : Mud_type     - MUD TYPE
MATR.         SANDSTONE            : Logunit      - NEUTRON MATRIX
TMAX.C        0                    : BHT          - MAXIMUM RECORDED TEMPERATURE
BHTD.M        61                   : BHTDEP       - MAXIMUM RECORDED TEMPERATURE
RMT .C        1217                 : MDTP         - TEMPERATURE OF MUD
MUDD.KG/M     47                   : MWT          - MUD DENSITY
NEUT.         9.3                  : NEUTRON      - NEUTRON TYPE
RM  .OHMM     0                    : RM           - RESISTIVITY OF MUD
RMC .OHMM     5.5                  : RMC          - RESISTIVITY OF MUD CAKE
RMF .OHMM     0                    : RMF          - RESISTIVITY OF MUD FILTRATE
SUFT.C        3.8                  : SUFT         - SURFACE TEMPERATURE
SUFT.C        0                    : SUFT         - SURFACE TEMPERATURE
~A  DEPTH      CAL       GR     PHIN     PHID     RESD
# ...
  286.360  162.344  120.597    0.353    0.230    9.069
  286.610  164.816  117.134    0.378    0.228    8.912
  286.860  164.819  114.400    0.374    0.232    8.843
  287.110  163.278  115.314    0.391    0.238    8.766
  287.360  165.751  114.039    0.402    0.229    8.760
  287.610  168.120  112.339    0.396    0.230    8.748
  287.860  166.991  112.887    0.392    0.242    8.766
  288.110  165.449  115.928    0.403    0.240    8.833
  288.360  161.748  121.095    0.396    0.230    8.851
  288.610  159.383  120.246    0.383    0.232    8.862
  288.860  158.253  114.717    0.370    0.234    8.825
  289.110  157.948  112.652    0.360    0.228    8.731
  289.360  158.155  113.869    0.359    0.218    8.606
  289.610  159.188  125.114    0.373    0.211    8.424
  289.860  160.219  126.149    0.358    0.206    8.251
  290.110  161.560  122.322    0.353    0.208    8.110
  290.360  162.077  114.179    0.406    0.207    8.096
  290.610  162.079  110.656    0.418    0.203    8.171
  290.860  161.876  110.778    0.403    0.199    8.310
  291.110  161.467  110.172    0.387    0.195    8.416
  291.360  160.750  108.046    0.355    0.194    8.419
  291.610  160.444  112.789    0.350    0.206    8.398
  291.860  160.858  118.261    0.395    0.224    8.072
  292.110  161.684  120.936    0.407    0.218    7.811
  292.360  162.818  125.313    0.401    0.209    7.678
  292.610  163.027  121.730    0.397    0.232    7.649
  292.860  162.206  109.576    0.387    0.250    7.683
  293.110  160.048  109.820    0.386    0.251    7.958
  293.360  158.197  102.953    0.387    0.249    8.368
  293.610  156.862  100.341    0.400    0.242    8.963
  293.860  156.556  101.924    0.429    0.241    9.646
  294.110  156.764   99.433    0.409    0.247   10.601
  294.360  156.973   96.456    0.374    0.246   11.428
  294.610  156.976   95.060    0.352    0.233   12.720
  294.860  157.596   92.326    0.257    0.196   13.434
  295.110  158.319   73.973    0.183    0.156   13.589
  295.360  159.041   76.406    0.090    0.054   12.912
  295.610  159.970   83.397    0.003    0.070   12.826
  295.860  160.282   98.593   -0.005    0.109   12.349
  296.110  160.593  106.435    0.193    0.230   11.872
  296.360  160.596  103.884    0.326    0.255   11.418
  296.610  160.496  101.515    0.327    0.254   10.724
  296.860  160.499  101.760    0.313    0.251   10.351
  297.110  159.781  102.490    0.336    0.251   10.330
  297.360  158.754  108.630    0.340    0.234   10.373
  297.610  157.933  113.312    0.329    0.219   10.359
  297.860  157.421  113.496    0.332    0.237   10.114
  298.110  157.012  112.889    0.364    0.241   10.005
  298.360  157.426  110.278    0.341    0.233   10.007
  298.610  157.532  106.997    0.303    0.224   10.258
  298.860  156.917  102.502    0.325    0.218   10.604
  299.110  155.788  102.928    0.331    0.206   10.751
  299.360  154.658  105.361    0.310    0.184   10.722
  299.610  154.661  107.064    0.202    0.165   10.557
  299.860  158.060  112.718    0.265    0.194   10.295
  300.110  160.635  119.466    0.306    0.233    9.682
  300.360  163.108  123.175    0.333    0.221    9.076
  300.610  164.757  127.917    0.356    0.213    8.078
  300.860  165.171  128.648    0.384    0.217    6.937
  301.110  164.248  130.108    0.407    0.225    6.451
  301.360  163.839  136.005    0.392    0.222    6.278
  301.610  161.680  144.151    0.387    0.214    6.361
  301.860  158.698  142.025    0.395    0.212    6.700
  302.110  156.951  135.706    0.424    0.208    7.334
  302.360  156.953  111.457    0.408    0.229    8.850
  302.610  157.986  103.861    0.377    0.245    9.413
  302.860  158.914  100.155    0.313    0.223    9.351
  303.110  160.563   99.002    0.293    0.218    8.330
  303.360  162.521  108.120    0.300    0.217    7.732
  303.610  164.378  110.371    0.312    0.211    7.375
  303.860  165.718  109.400    0.390    0.205    7.217
  304.110  166.749  115.479    0.403    0.206    7.213
  304.360  168.398  118.885    0.384    0.209    7.239
  304.610  169.430  119.737    0.376    0.211    7.305
  304.860  169.124  119.313    0.395    0.215    7.397
  305.110  169.024  119.922    0.389    0.224    7.431
  305.360  168.924  121.443    0.378    0.212    7.441
  305.610  168.514  121.020    0.398    0.195    7.389
  305.860  168.003  122.236    0.387    0.195    7.327
  306.110  167.593  124.912    0.374    0.197    7.226
  306.360  166.772  126.312    0.366    0.206    7.108
  306.610  165.746  123.639    0.376    0.211    6.919
  306.860  165.440  131.481    0.421    0.209    6.730
  307.110  165.340  130.632    0.447    0.202    6.612
  307.360  165.548  129.721    0.387    0.187    6.591
  307.610  166.168  128.690    0.386    0.187    6.553
  307.860  166.479  133.554    0.386    0.192    6.468
  308.110  165.865  142.125    0.382    0.197    6.351
  308.360  165.044  141.276    0.376    0.197    6.330
  308.610  164.326  140.426    0.353    0.186    6.332
  308.860  163.506  139.212    0.305    0.171    6.623
  309.110  162.581  131.191    0.219    0.161    7.514
  309.360  161.761  126.026    0.128    0.137    8.613
  309.610  160.117  100.501    0.095    0.083   10.104
  309.860  159.502  102.995    0.072    0.059   11.491
  310.110  159.505  108.223    0.154    0.079   13.214
  310.360  160.330  105.551    0.204    0.161   13.801
  310.610  161.774  106.403    0.247    0.168   13.676
  310.860  162.600  112.421    0.246    0.164   11.806
  311.110  163.529  113.456    0.257    0.177   10.681
  311.360  163.635  113.275    0.290    0.189   10.283
  311.610  163.534  114.796    0.311    0.188   10.486
  311.860  159.214  112.367    0.320    0.203   10.913
  312.110  156.438  102.461    0.259    0.157   11.372
  312.360  156.132   97.844    0.209    0.140   12.054
  312.610  156.032   95.171    0.178    0.180   13.073
  312.860  157.578   96.996    0.193    0.222   13.500
  313.110  158.198  103.136    0.239    0.248   13.007
  313.360  158.509  105.994    0.264    0.269   12.386
  313.610  158.924  102.835    0.289    0.262   12.189
  313.860  159.545   96.395    0.282    0.243   12.096
  314.110  160.680   92.020    0.295    0.221   12.105
  314.360  161.608   87.038    0.181    0.143   12.388
  314.610  160.478   81.326    0.129    0.093   13.551
  314.860  159.142   80.112    0.097    0.069   14.979
  315.110  158.013   85.401    0.073    0.051   15.941
  315.360  157.090   85.403    0.058    0.117   17.273
  315.610  156.784   82.609    0.074    0.115   17.724
  315.860  155.963   78.599    0.104    0.134   17.726
  316.110  155.554   79.391    0.110    0.146   17.529
  316.360  154.733   83.525    0.075    0.171   16.843
  316.610  154.530   92.340    0.095    0.185   15.765
  316.860  154.841   93.313    0.124    0.204   14.992
  317.110  155.255   93.558    0.144    0.228   14.354
  317.360  155.876   94.350    0.164    0.217   13.885
  317.610  155.879   95.081    0.192    0.195   13.367
  317.860  156.189   96.602    0.178    0.181   12.850
  318.110  155.986   98.122    0.201    0.168   12.324
  318.360  155.577  101.528    0.244    0.225   11.687
  318.610  155.271  101.833    0.298    0.242   10.977
  318.860  155.891   97.215    0.328    0.255    9.932
  319.110  156.923   98.129    0.340    0.242    9.590
  319.360  157.131  101.898    0.343    0.241    9.385
  319.610  156.722   98.679    0.335    0.237    9.396
  319.860  156.313   94.973    0.321    0.225    9.775
  320.110  157.448   87.985    0.306    0.195   10.185
  320.360  158.480   78.384    0.282    0.174   10.269
  320.610  158.894   82.639    0.199    0.165   10.095
  320.860  158.897   93.885    0.218    0.192    9.665
  321.110  158.282  100.025    0.243    0.198    9.068
  321.360  156.638  101.607    0.332    0.218    8.358
  321.610  155.405  104.647    0.351    0.237    7.793
  321.860  154.893  107.080    0.362    0.228    7.435
  322.110  155.719  108.540    0.346    0.222    7.214
  322.360  157.163  107.691    0.330    0.201    7.161
  322.610  158.606  105.079    0.316    0.194    7.219
