~VERSION INFORMATION
 VERS.                 2.0:   CWLS LOG ASCII STANDARD -VERSION 2.0
 WRAP.                  NO:   ONE LINE PER DEPTH STEP
~WELL INFORMATION BLOCK
#MNEM.UNIT           DATA                    DESCRIPTION OF MNEMONIC
#---------    -------------------            -------------------------------
# Generated from Intellog Unique Number	CS_77_79/WELL/998
WELL.         MESA HB THORNBURY              : Well_name    - WELL
LOC .         00/11-25-078-13W4/0            : Location     - LOCATION
UWI .         00/11-25-078-13W4/0            : Uwi          - UNIQUE WELL ID
ENTR.         JHS                            : Entered      - ENTERED BY
SRVC.         SCHLUMBERGER                   : Scn          - SERVICE COMPANY
STRT.M        253.234                        : top_depth    - START DEPTH
STOP.M        475.234                        : bot_depth    - STOP DEPTH
STEP.M        0.25                           : increment    - STEP LENGTH
 NULL. -999.2500:NULL Value
~CURVE INFORMATION BLOCK
#MNEM UNIT       ERCB CURVE CODE    CURVE DESCRIPTION
#-----------   ------------------   ----------------------------------
DEPT.M        00 001 00 00         : DEPTH        - DEPTH
RHOB.KG/M3    00 350 00 00         : DENS         - BULK DENSITY
GR  .API      00 310 00 00         : GR           - GAMMA RAY
DPHI.V/V      00 890 00 00         : PHID         - DENSITY POROSITY (SANDSTONE)
NPHI.V/V      00 330 00 00         : PHIN         - NEUTRON POROSITY (SANDSTONE)
ILD .OHMM     00 120 00 00         : RESD         - DEEP RESISTIVITY (DIL)
~PARAMETER INFORMATION
#MNEM.UNIT           DATA             DESCRIPTION OF MNEMONIC
#---------         -----------     ------------------------------
GL  .M        669.127              : gl           - GROUND LEVEL ELEVATION
EREF.M        673.349              : kb           - ELEVATION OF DEPTH REFERENCE
DATM.M        673.349              : datum        - DATUM ELEVATION
TDD .M        486.156              : tdd          - TOTAL DEPTH DRILLER
RUN .         ONE                  : Run          - RUN NUMBER
ENG .         BILL                 : Engineer     - RECORDING ENGINEER
WIT .         JIM                  : Witness      - WITNESSED BY
MUD .         GEL                  : Mud_type     - MUD TYPE
MATR.         SANDSTONE            : Logunit      - NEUTRON MATRIX
TMAX.C        60                   : BHT          - MAXIMUM RECORDED TEMPERATURE
BHTD.M        486.156              : BHTDEP       - MAXIMUM RECORDED TEMPERATURE
MATR.         1                    : LOGUNIT      - NEUTRON MATRIX
RMT .C        25                   : MDTP         - TEMPERATURE OF MUD
NEUT.         1                    : NEUTRON      - NEUTRON TYPE
RESI.         0                    : RESIST       - RESISTIVITY TYPE
RMC .OHMM     0.25                 : RMC          - RESISTIVITY OF MUD CAKE
RMF .OHMM     0.25                 : RMF          - RESISTIVITY OF MUD FILTRATE
SUFT.C        15                   : SUFT         - SURFACE TEMPERATURE
~A  DEPTH     DENS       GR     PHID     PHIN     RESD
# ...
  326.234    0.000   36.701    0.327    0.462   16.928
  326.484    0.000   40.337    0.320    0.456   16.863
  326.734   -0.000   40.635    0.336    0.456   16.617
  326.984   -0.000   39.604    0.335    0.452   16.620
  327.234   -0.000   39.415    0.344    0.449   16.623
  327.484    0.000   38.913    0.343    0.448   16.624
  327.734    0.000   38.282    0.331    0.456   16.632
  327.984    0.000   40.896    0.309    0.471   16.650
  328.234   -0.000   43.705    0.311    0.464   16.957
  328.484   -0.000   42.888    0.330    0.445   16.945
  328.734   -0.000   40.549    0.327    0.435   16.943
  328.984    0.000   37.861    0.322    0.433   16.720
  329.234    0.000   39.251    0.306    0.440   16.629
  329.484   -0.000   42.479    0.311    0.452   16.634
  329.734   -0.000   41.557    0.323    0.451   16.281
  329.984   -0.000   39.901    0.330    0.440   16.254
  330.234    0.000   40.026    0.321    0.446   16.006
  330.484    0.000   40.331    0.312    0.451   16.012
  330.734    0.000   40.630    0.319    0.439   16.014
  330.984   -0.000   40.113    0.332    0.436   16.007
  331.234   -0.000   39.986    0.335    0.452   15.888
  331.484   -0.000   41.450    0.329    0.469   15.720
  331.734    0.000   45.222    0.345    0.455   15.715
  331.984    0.000   47.879    0.345    0.453   15.718
  332.234    0.000   49.810    0.316    0.457   15.717
  332.484   -0.000   50.885    0.320    0.473   15.524
  332.734   -0.000   48.302    0.322    0.471   15.433
  332.984    0.000   47.425    0.306    0.471   15.425
  333.234    0.000   46.843    0.311    0.460   15.425
  333.484    0.000   45.449    0.319    0.457   15.426
  333.734   -0.000   44.983    0.324    0.453   15.424
  333.984   -0.000   46.154    0.328    0.451   15.390
  334.234   -0.000   47.453    0.345    0.462   15.711
  334.484    0.000   47.568    0.359    0.480   15.408
  334.734    0.000   46.518    0.372    0.488   15.431
  334.984    0.000   45.509    0.372    0.485   15.435
  335.234   -0.000   44.637    0.370    0.478   15.742
  335.484   -0.000   47.751    0.374    0.472   15.724
  335.734    0.000   48.593    0.375    0.482   15.722
  335.984    0.000   47.924    0.374    0.486   15.713
  336.234    0.000   48.035    0.368    0.484   15.657
  336.484   -0.000   50.185    0.360    0.475   15.440
  336.734   -0.000   52.746    0.347    0.460   15.111
  336.984   -0.000   52.949    0.327    0.463   15.138
  337.234    0.000   53.941    0.328    0.474   15.168
  337.484    0.000   55.658    0.309    0.478   14.831
  337.734    0.000   56.576    0.306    0.457   14.860
  337.984   -0.000   54.517    0.316    0.457   14.862
  338.234   -0.000   54.234    0.321    0.477   14.862
  338.484   -0.000   52.879    0.322    0.498   14.862
  338.734    0.000   49.112    0.307    0.506   14.860
  338.984    0.000   50.880    0.330    0.488   14.845
  339.234   -0.000   53.429    0.327    0.481   15.130
  339.484   -0.000   52.110    0.325    0.481   15.108
  339.734   -0.000   51.861    0.344    0.491   15.459
  339.984    0.000   53.928    0.326    0.500   15.432
  340.234    0.000   55.686    0.318    0.509   15.434
  340.484    0.000   56.634    0.331    0.523   15.435
  340.734   -0.000   55.574    0.327    0.516   15.428
  340.984   -0.000   55.353    0.325    0.500   15.323
  341.234   -0.000   56.020    0.330    0.489   15.150
  341.484    0.000   57.250    0.322    0.485   15.145
  341.734    0.000   57.168    0.319    0.491   15.128
  341.984   -0.000   57.768    0.304    0.496   15.432
  342.234   -0.000   59.440    0.290    0.482   15.430
  342.484   -0.000   60.383    0.305    0.489   15.433
  342.734    0.000   61.921    0.314    0.495   15.453
  342.984    0.000   64.979    0.302    0.478   15.117
  343.234    0.000   67.283    0.300    0.470   15.118
  343.484   -0.000   72.397    0.304    0.467   14.640
  343.734   -0.000   78.243    0.316    0.491   14.200
  343.984   -0.000   82.466    0.295    0.504   13.773
  344.234    0.000   80.775    0.290    0.499   13.021
  344.484    0.000   76.968    0.292    0.506   11.496
  344.734    0.000   77.406    0.312    0.489    9.449
  344.984   -0.000   78.319    0.292    0.473    7.923
  345.234   -0.000   81.155    0.285    0.457    7.206
  345.484    0.000   85.206    0.284    0.461    7.143
  345.734    0.000   87.652    0.253    0.477    7.105
  345.984    0.000   86.558    0.239    0.482    7.975
  346.234   -0.000   78.930    0.262    0.473    8.907
  346.484   -0.000   79.223    0.289    0.473    8.449
  346.734   -0.000   82.197    0.275    0.484    6.899
  346.984    0.000   89.927    0.259    0.501    5.288
  347.234    0.000   93.916    0.232    0.525    3.576
  347.484    0.000   95.178    0.214    0.548    2.872
  347.734   -0.000   94.706    0.215    0.568    2.394
  347.984   -0.000   94.572    0.220    0.586    2.202
  348.234    0.000   94.543    0.229    0.611    2.140
  348.484    0.000   95.833    0.210    0.617    2.185
  348.734    0.000   98.669    0.205    0.618    2.260
  348.984   -0.000  102.320    0.204    0.614    2.524
  349.234   -0.000  102.735    0.215    0.601    2.827
  349.484   -0.000   98.381    0.229    0.557    3.673
  349.734    0.000   93.241    0.228    0.527    4.463
  349.984    0.000   90.670    0.222    0.491    5.504
  350.234    0.000   88.203    0.232    0.484    6.181
  350.484   -0.000   88.278    0.222    0.502    6.573
  350.734   -0.000   90.145    0.205    0.527    7.038
  350.984   -0.000   89.039    0.203    0.529    7.144
  351.234    0.000   91.316    0.201    0.507    7.043
  351.484    0.000   92.487    0.204    0.490    6.985
  351.734   -0.000   89.744    0.220    0.484    6.750
  351.984   -0.000   89.949    0.211    0.481    6.608
  352.234   -0.000   92.921    0.199    0.486    6.333
  352.484    0.000   91.142    0.196    0.492    6.040
  352.734    0.000   87.760    0.203    0.481    5.860
  352.984    0.000   86.103    0.206    0.493    5.685
  353.234   -0.000   90.430    0.206    0.515    5.431
  353.484   -0.000   90.774    0.207    0.538    5.088
  353.734   -0.000   91.549    0.208    0.525    4.990
  353.984    0.000   92.435    0.208    0.513    4.659
  354.234    0.000   95.022    0.199    0.512    4.549
  354.484   -0.000   93.969    0.187    0.517    4.460
  354.734   -0.000   91.204    0.175    0.526    4.625
  354.984   -0.000   89.123    0.216    0.518    5.317
  355.234    0.000   89.733    0.240    0.504    6.321
  355.484    0.000   88.024    0.225    0.500    7.088
  355.734    0.000   92.813    0.250    0.504    7.709
  355.984   -0.000   94.188    0.224    0.501    7.459
  356.234   -0.000   90.838    0.234    0.492    6.190
  356.484   -0.000   90.629    0.253    0.477    4.947
  356.734    0.000   98.201    0.246    0.475    3.870
  356.984    0.000  105.433    0.224    0.501    3.199
  357.234    0.000  106.832    0.229    0.536    2.890
  357.484   -0.000  105.983    0.218    0.540    2.631
  357.734   -0.000  105.942    0.225    0.548    2.476
  357.984    0.000  106.883    0.238    0.563    2.356
  358.234    0.000  103.097    0.233    0.575    2.328
  358.484    0.000  101.822    0.227    0.588    2.309
  358.734   -0.000  103.503    0.237    0.601    2.350
  358.984   -0.000  104.775    0.214    0.615    2.372
  359.234   -0.000  103.597    0.206    0.607    2.449
  359.484    0.000  102.025    0.228    0.608    2.569
  359.734    0.000  101.050    0.239    0.606    2.678
  359.984    0.000  100.061    0.227    0.587    2.792
  360.234   -0.000  100.528    0.230    0.564    2.844
  360.484   -0.000  100.287    0.217    0.557    2.843
  360.734    0.000   95.807    0.226    0.568    2.841
  360.984    0.000   94.382    0.221    0.572    2.895
  361.234    0.000   96.927    0.241    0.568    2.970
  361.484   -0.000   97.132    0.227    0.574    3.054
  361.734   -0.000   95.714    0.225    0.574    3.266
  361.984   -0.000   95.777    0.207    0.558    3.594
  362.234    0.000   93.226    0.184    0.530    4.004
  362.484    0.000   88.514    0.192    0.538    4.599
