~VERSION INFORMATION
 VERS.                 2.0:   CWLS LOG ASCII STANDARD -VERSION 2.0
 WRAP.                  NO:   ONE LINE PER DEPTH STEP
~WELL INFORMATION BLOCK
#MNEM.UNIT           DATA                    DESCRIPTION OF MNEMONIC
#---------    -------------------            -------------------------------
# Generated from Intellog Unique Number	CS_71_72/WELL/845
WELL.         BVX ET AL PHILOMENA            : Well_name    - WELL
LOC .         00/10-01-071-11W4/0            : Location     - LOCATION
UWI .         00/10-01-071-11W4/0            : Uwi          - UNIQUE WELL ID
ENTR.         SP                             : Entered      - ENTERED BY
SRVC.         SCHLUMBERGER                   : Scn          - SERVICE COMPANY
STRT.M        305                            : top_depth    - START DEPTH
STOP.M        525                            : bot_depth    - STOP DEPTH
STEP.M        0.25                           : increment    - STEP LENGTH
 NULL. -999.2500:NULL Value
~CURVE INFORMATION BLOCK
#MNEM UNIT       ERCB CURVE CODE    CURVE DESCRIPTION
#-----------   ------------------   ----------------------------------
DEPT.M        00 001 00 00         : DEPTH        - DEPTH
ILD .OHMM     00 120 00 00         : RESD         - DEEP RESISTIVITY (DIL)
DPHI.V/V      00 890 00 00         : PHID         - DENSITY POROSITY (LIMESTONE)
NPHI.V/V      00 330 00 00         : PHIN         - NEUTRON POROSITY (LIMESTONE)
GR  .API      00 310 00 00         : GR           - GAMMA RAY
~PARAMETER INFORMATION
#MNEM.UNIT           DATA             DESCRIPTION OF MNEMONIC
#---------         -----------     ------------------------------
GL  .M        643.55               : gl           - GROUND LEVEL ELEVATION
EREF.M        646.55               : kb           - ELEVATION OF DEPTH REFERENCE
DATM.M        643.55               : datum        - DATUM ELEVATION
TDD .M        529                  : tdd          - TOTAL DEPTH DRILLER
RUN .         ONE                  : Run          - RUN NUMBER
ENG .         BILL                 : Engineer     - RECORDING ENGINEER
WIT .         JIM                  : Witness      - WITNESSED BY
MUD .         GEL                  : Mud_type     - MUD TYPE
MATR.         LIMESTONE            : Logunit      - NEUTRON MATRIX
TMAX.C        28                   : BHT          - MAXIMUM RECORDED TEMPERATURE
BHTD.M        529                  : BHTDEP       - MAXIMUM RECORDED TEMPERATURE
MATR.         1                    : LOGUNIT      - NEUTRON MATRIX
RMT .C        25                   : MDTP         - TEMPERATURE OF MUD
NEUT.         1                    : NEUTRON      - NEUTRON TYPE
RESI.         0                    : RESIST       - RESISTIVITY TYPE
RMC .OHMM     0.25                 : RMC          - RESISTIVITY OF MUD CAKE
RMF .OHMM     0.25                 : RMF          - RESISTIVITY OF MUD FILTRATE
SUFT.C        15                   : SUFT         - SURFACE TEMPERATURE
~A  DEPTH     RESD     PHID     PHIN       GR
  305.000    2.612    0.205    0.517  105.338
  305.250    2.616    0.210    0.509  104.615
  305.500    2.644    0.226    0.508  104.741
  305.750    2.677    0.227    0.530  104.927
  306.000    2.716    0.211    0.555  104.993
  306.250    2.761    0.214    0.540  104.695
  306.500    2.811    0.195    0.521  104.397
  306.750    2.879    0.206    0.506  105.007
  307.000    2.970    0.206    0.487  106.588
  307.250    3.081    0.207    0.475  107.622
  307.500    3.226    0.202    0.463  107.809
  307.750    3.291    0.197    0.453  107.389
  308.000    3.265    0.197    0.446  106.667
  308.250    3.115    0.200    0.473  106.792
  308.500    2.934    0.198    0.490  107.827
  308.750    2.764    0.202    0.495  106.983
  309.000    2.627    0.209    0.505  106.079
  309.250    2.578    0.217    0.535  106.811
  309.500    2.625    0.217    0.559  108.270
  309.750    2.764    0.223    0.552  108.093
  310.000    2.889    0.237    0.529  106.159
  310.250    2.974    0.241    0.517  103.921
  310.500    3.023    0.237    0.517  102.046
  310.750    3.005    0.224    0.530  102.475
  311.000    2.981    0.213    0.543  106.359
  311.250    3.013    0.224    0.553  110.727
  311.500    3.131    0.223    0.553  110.914
  311.750    3.160    0.217    0.543  109.706
  312.000    3.205    0.218    0.528  108.681
  312.250    3.240    0.228    0.513  107.413
  312.500    3.287    0.215    0.505  106.266
  312.750    3.273    0.205    0.519  105.180
  313.000    3.260    0.209    0.535  104.699
  313.250    3.344    0.233    0.533  105.249
  313.500    3.547    0.249    0.522  107.254
  313.750    3.949    0.260    0.513  105.562
  314.000    4.396    0.247    0.531   95.567
  314.250    4.733    0.268    0.553   89.570
  314.500    5.086    0.205    0.533   84.544
  314.750    5.345    0.148    0.430   81.216
  315.000    5.373    0.301    0.409   80.251
  315.250    5.330    0.324    0.424   80.680
  315.500    5.388    0.332    0.422   82.684
  315.750    5.548    0.345    0.446   85.053
  316.000    5.820    0.357    0.480   87.239
  316.250    5.971    0.375    0.532   88.456
  316.500    6.001    0.245    0.444   87.855
  316.750    5.888    0.215    0.411   83.678
  317.000    5.608    0.221    0.395   79.379
  317.250    5.431    0.267    0.390   71.747
  317.500    5.250    0.257    0.402   64.600
  317.750    5.132    0.289    0.411   59.089
  318.000    5.054    0.311    0.396   53.761
  318.250    5.024    0.312    0.387   50.432
  318.500    5.003    0.306    0.384   49.709
  318.750    5.010    0.305    0.387   52.866
  319.000    5.073    0.319    0.391   55.537
  319.250    5.224    0.330    0.396   57.663
  319.500    5.439    0.322    0.403   60.456
  319.750    5.685    0.320    0.412   63.975
  320.000    5.886    0.310    0.420   67.738
  320.250    6.084    0.292    0.413   76.228
  320.500    6.300    0.279    0.405   86.535
  320.750    6.320    0.262    0.404   96.844
  321.000    6.201    0.226    0.428  105.515
  321.250    5.994    0.217    0.447  111.036
  321.500    5.751    0.232    0.438  107.222
  321.750    5.696    0.220    0.440  103.650
  322.000    5.779    0.224    0.463  102.928
  322.250    5.973    0.234    0.475  107.175
  322.500    6.093    0.219    0.475  109.483
  322.750    6.136    0.232    0.464  113.185
  323.000    5.964    0.248    0.467  115.856
  323.250    5.776    0.274    0.447  111.800
  323.500    5.731    0.253    0.440  109.865
  323.750    5.979    0.209    0.451  112.961
  324.000    6.365    0.225    0.458  113.451
  324.250    6.518    0.227    0.464  109.577
  324.500    6.527    0.224    0.456  103.824
  324.750    6.404    0.235    0.445   99.403
  325.000    6.237    0.253    0.435   90.559
  325.250    6.040    0.280    0.446   76.321
  325.500    5.850    0.284    0.422   65.477
  325.750    5.687    0.290    0.390   57.299
  326.000    5.621    0.307    0.391   52.395
  326.250    5.598    0.315    0.400   47.733
  326.500    5.669    0.309    0.405   44.889
  326.750    5.740    0.306    0.408   44.590
  327.000    5.791    0.310    0.411   46.535
  327.250    5.864    0.314    0.417   49.751
  327.500    5.971    0.318    0.419   52.786
  327.750    6.002    0.324    0.412   55.518
  328.000    5.966    0.330    0.412   58.493
  328.250    5.789    0.330    0.430   64.922
  328.500    5.090    0.282    0.445   72.382
  328.750    4.689    0.214    0.454   79.902
  329.000    4.169    0.231    0.433   89.543
  329.250    3.763    0.241    0.432   99.609
  329.500    3.447    0.222    0.460  106.644
  329.750    3.169    0.115    0.471  109.618
  330.000    2.968    0.151    0.477  111.260
  330.250    2.822    0.192    0.501  114.537
  330.500    2.911    0.187    0.523  119.088
  330.750    3.313    0.178    0.542  123.577
  331.000    3.958    0.219    0.561  127.945
  331.250    5.009    0.257    0.575  131.162
  331.500    6.029    0.273    0.512  113.166
  331.750    6.724    0.266    0.465  100.080
  332.000    7.212    0.250    0.446   94.326
  332.250    7.551    0.246    0.437   91.907
  332.500    7.805    0.259    0.442   92.093
  332.750    8.021    0.264    0.445   92.341
  333.000    8.138    0.263    0.449   92.163
  333.250    8.134    0.258    0.450   93.260
  333.500    8.085    0.254    0.451   95.385
  333.750    7.831    0.254    0.448   96.420
  334.000    7.226    0.244    0.440   93.212
  334.250    7.088    0.213    0.432   90.551
  334.500    5.963    0.188    0.435   93.464
  334.750    5.381    0.217    0.446  101.772
  335.000    4.920    0.218    0.457  110.687
  335.250    4.617    0.198    0.456  118.388
  335.500    4.389    0.185    0.462  123.848
  335.750    4.243    0.181    0.469  124.640
  336.000    4.147    0.178    0.472  124.948
  336.250    4.100    0.177    0.482  126.529
  336.500    4.182    0.198    0.497  126.533
  336.750    4.379    0.183    0.517  125.326
  337.000    4.724    0.153    0.531  123.148
  337.250    5.191    0.126    0.520  120.729
  337.500    5.811    0.121    0.504  119.582
  337.750    6.302    0.177    0.488  124.557
  338.000    6.599    0.227    0.474  127.652
  338.250    6.783    0.261    0.465  122.445
  338.500    6.932    0.286    0.461  114.631
  338.750    7.020    0.294    0.459  107.302
  339.000    7.122    0.304    0.470  100.397
  339.250    7.171    0.313    0.453   95.007
  339.500    7.168    0.318    0.433   93.497
  339.750    7.165    0.311    0.424   92.835
  340.000    7.122    0.318    0.431   91.992
  340.250    7.066    0.305    0.436   94.056
  340.500    7.011    0.283    0.435   98.304
  340.750    6.969    0.271    0.436  101.764
  341.000    6.926    0.261    0.442  104.072
  341.250    6.911    0.247    0.467  105.410
  341.500    6.895    0.264    0.465  101.959
  341.750    6.904    0.285    0.453   92.266
  342.000    6.927    0.295    0.440   85.604
  342.250    6.949    0.313    0.427   79.487
  342.500    6.947    0.328    0.424   74.279
  342.750    7.033    0.314    0.418   78.163
  343.000    7.083    0.310    0.419   79.502
  343.250    7.213    0.303    0.428   81.021
  343.500    7.386    0.290    0.416   88.603
  343.750    7.466    0.293    0.410   94.546
  344.000    7.532    0.282    0.406  101.158
  344.250    7.557    0.271    0.416  104.132
  344.500    7.567    0.262    0.431  107.228
  344.750    7.578    0.260    0.424  109.414
  345.000    7.588    0.260    0.419  110.873
  345.250    7.585    0.260    0.440  104.877
  345.500    7.581    0.265    0.460   88.760
  345.750    7.508    0.289    0.470   85.311
  346.000    7.421    0.289    0.459   87.800
  346.250    7.322    0.274    0.451   92.654
  346.500    7.131    0.250    0.444   95.749
  346.750    6.692    0.227    0.443   97.755
  347.000    6.039    0.222    0.464   98.061
  347.250    5.440    0.223    0.479   96.612
  347.500    4.784    0.244    0.489   96.010
  347.750    4.309    0.259    0.482   93.833
  348.000    4.044    0.274    0.475   93.596
  348.250    3.953    0.286    0.480   96.691
