~VERSION INFORMATION
 VERS.                 2.0:   CWLS LOG ASCII STANDARD -VERSION 2.0
 WRAP.                  NO:   ONE LINE PER DEPTH STEP
~WELL INFORMATION BLOCK
#MNEM.UNIT           DATA                    DESCRIPTION OF MNEMONIC
#---------    -------------------            -------------------------------
# Generated from Intellog Unique Number	CS_67_68/WELL/829
WELL.         SUNCOR                         : Well_name    - WELL
LOC .         00/11-10-068-18W4/0            : Location     - LOCATION
UWI .         00/11-10-068-18W4/0            : Uwi          - UNIQUE WELL ID
ENTR.         SP                             : Entered      - ENTERED BY
SRVC.         SCHLUMBERGER                   : Scn          - SERVICE COMPANY
STRT.M        275                            : top_depth    - START DEPTH
STOP.M        500                            : bot_depth    - STOP DEPTH
STEP.M        0.25                           : increment    - STEP LENGTH
 NULL. -999.2500:NULL Value
~CURVE INFORMATION BLOCK
#MNEM UNIT       ERCB CURVE CODE    CURVE DESCRIPTION
#-----------   ------------------   ----------------------------------
DEPT.M        00 001 00 00         : DEPTH        - DEPTH
ILD .OHMM     00 120 00 00         : RESD         - DEEP RESISTIVITY (DIL)
DPHI.V/V      00 890 00 00         : PHID         - DENSITY POROSITY (LIMESTONE)
NPHI.V/V      00 330 00 00         : PHIN         - NEUTRON POROSITY (LIMESTONE)
GR  .API      00 310 00 00         : GR           - GAMMA RAY
~PARAMETER INFORMATION
#MNEM.UNIT           DATA             DESCRIPTION OF MNEMONIC
#---------         -----------     ------------------------------
GL  .M        556                  : gl           - GROUND LEVEL ELEVATION
EREF.M        559.4                : kb           - ELEVATION OF DEPTH REFERENCE
DATM.M        556                  : datum        - DATUM ELEVATION
TDD .M        537                  : tdd          - TOTAL DEPTH DRILLER
RUN .         ONE                  : Run          - RUN NUMBER
ENG .         BILL                 : Engineer     - RECORDING ENGINEER
WIT .         JIM                  : Witness      - WITNESSED BY
MUD .         GEL                  : Mud_type     - MUD TYPE
MATR.         LIMESTONE            : Logunit      - NEUTRON MATRIX
TMAX.C        21                   : BHT          - MAXIMUM RECORDED TEMPERATURE
BHTD.M        527                  : BHTDEP       - MAXIMUM RECORDED TEMPERATURE
MATR.         1                    : LOGUNIT      - NEUTRON MATRIX
RMT .C        25                   : MDTP         - TEMPERATURE OF MUD
NEUT.         1                    : NEUTRON      - NEUTRON TYPE
RESI.         0                    : RESIST       - RESISTIVITY TYPE
RMC .OHMM     0.25                 : RMC          - RESISTIVITY OF MUD CAKE
RMF .OHMM     0.25                 : RMF          - RESISTIVITY OF MUD FILTRATE
SUFT.C        15                   : SUFT         - SURFACE TEMPERATURE
~A  DEPTH     RESD     PHID     PHIN       GR
  275.000    3.193    0.200    0.496  143.465
  275.250    3.224    0.190    0.480  143.849
  275.500    3.250    0.180    0.463  144.237
  275.750    3.300    0.178    0.450  145.778
  276.000    3.345    0.181    0.429  146.285
  276.250    3.391    0.186    0.416  143.553
  276.500    3.457    0.183    0.420  149.558
  276.750    3.517    0.184    0.453  145.238
  277.000    3.558    0.183    0.485  138.106
  277.250    3.553    0.175    0.474  131.038
  277.500    3.562    0.164    0.461  126.533
  277.750    3.577    0.135    0.455  127.893
  278.000    3.592    0.121    0.461  131.089
  278.250    3.614    0.122    0.450  128.540
  278.500    3.616    0.157    0.441  125.931
  278.750    3.577    0.176    0.429  127.109
  279.000    3.565    0.175    0.422  131.834
  279.250    3.554    0.170    0.428  140.036
  279.500    3.555    0.172    0.435  141.703
  279.750    3.584    0.162    0.441  139.338
  280.000    3.620    0.164    0.438  134.100
  280.250    3.696    0.168    0.420  130.756
  280.500    3.789    0.174    0.439  137.312
  280.750    3.877    0.179    0.459  140.874
  281.000    3.886    0.182    0.454  140.100
  281.250    3.845    0.177    0.438  136.815
  281.500    3.832    0.180    0.461  134.206
  281.750    3.763    0.172    0.479  135.016
  282.000    3.716    0.153    0.468  137.172
  282.250    3.676    0.149    0.435  139.700
  282.500    3.657    0.182    0.448  140.691
  282.750    3.619    0.195    0.452  142.054
  283.000    3.580    0.194    0.463  142.436
  283.250    3.555    0.193    0.469  142.638
  283.500    3.523    0.194    0.466  142.474
  283.750    3.485    0.188    0.476  141.206
  284.000    3.442    0.184    0.484  136.825
  284.250    3.399    0.188    0.459  133.303
  284.500    3.369    0.191    0.456  131.606
  284.750    3.352    0.188    0.467  130.766
  285.000    3.353    0.188    0.447  130.725
  285.250    3.374    0.192    0.427  134.528
  285.500    3.375    0.185    0.442  139.924
  285.750    3.358    0.185    0.458  142.995
  286.000    3.322    0.186    0.469  142.159
  286.250    3.281    0.194    0.478  139.853
  286.500    3.282    0.203    0.431  128.017
  286.750    3.327    0.209    0.349  102.555
  287.000    3.373    0.213    0.319   77.644
  287.250    3.393    0.217    0.289   54.749
  287.500    3.351    0.161    0.268   44.195
  287.750    3.334    0.124    0.254   37.125
  288.000    3.317    0.107    0.250   36.654
  288.250    3.306    0.132    0.265   40.400
  288.500    3.302    0.174    0.295   51.538
  288.750    3.316    0.198    0.319   62.373
  289.000    3.330    0.073    0.319   69.352
  289.250    3.362    0.103    0.325   78.901
  289.500    3.395    0.208    0.367   90.039
  289.750    3.442    0.254    0.424  100.138
  290.000    3.482    0.258    0.410   98.814
  290.250    3.523    0.243    0.399   93.329
  290.500    3.531    0.233    0.390   85.955
  290.750    3.468    0.230    0.381   90.737
  291.000    3.399    0.249    0.393   95.400
  291.250    3.294    0.277    0.408   96.149
  291.500    3.247    0.302    0.418   88.835
  291.750    3.285    0.313    0.418   83.417
  292.000    3.287    0.309    0.423   83.004
  292.250    3.257    0.288    0.407   91.698
  292.500    3.211    0.268    0.400  102.469
  292.750    3.147    0.258    0.412  109.026
  293.000    3.102    0.249    0.427  107.515
  293.250    3.069    0.265    0.439  100.872
  293.500    3.047    0.278    0.426   89.707
  293.750    3.020    0.255    0.390   81.294
  294.000    2.999    0.238    0.378   73.002
  294.250    2.957    0.234    0.393   79.803
  294.500    2.936    0.247    0.411   84.706
  294.750    2.899    0.257    0.426   87.046
  295.000    2.847    0.227    0.384   70.140
  295.250    2.827    0.215    0.377   82.377
  295.500    2.818    0.229    0.419   90.093
  295.750    2.824    0.221    0.421   85.711
  296.000    2.868    0.218    0.410   94.221
  296.250    2.962    0.232    0.428   99.372
  296.500    3.048    0.228    0.443   89.429
  296.750    3.107    0.239    0.420   80.098
  297.000    3.143    0.257    0.407   73.456
  297.250    3.110    0.241    0.391   70.115
  297.500    3.037    0.227    0.385   74.774
  297.750    2.982    0.241    0.397   82.063
  298.000    2.945    0.248    0.413   93.812
  298.250    2.941    0.232    0.406   98.044
  298.500    2.947    0.225    0.398   96.598
  298.750    2.938    0.230    0.401   97.224
  299.000    2.923    0.241    0.422  101.091
  299.250    2.908    0.251    0.435  101.597
  299.500    2.888    0.244    0.423   90.556
  299.750    2.852    0.230    0.406   97.416
  300.000    2.821    0.227    0.395   99.695
  300.250    2.807    0.243    0.402   92.564
  300.500    2.782    0.250    0.414   83.599
  300.750    2.762    0.243    0.410   78.789
  301.000    2.738    0.236    0.398   84.798
  301.250    2.719    0.219    0.394   90.191
  301.500    2.715    0.209    0.426   94.363
  301.750    2.727    0.206    0.454   95.478
  302.000    2.764    0.229    0.437   89.998
  302.250    2.796    0.245    0.414   86.409
  302.500    2.904    0.217    0.393   85.389
  302.750    3.028    0.184    0.384   85.712
  303.000    3.145    0.168    0.386   82.246
  303.250    3.217    0.160    0.372   76.092
  303.500    3.255    0.191    0.376   72.263
  303.750    3.245    0.234    0.375   72.705
  304.000    3.175    0.233    0.381   75.719
  304.250    3.135    0.220    0.397   81.356
  304.500    3.084    0.210    0.407   85.650
  304.750    3.034    0.201    0.432   89.211
  305.000    3.018    0.211    0.468   93.203
  305.250    3.037    0.230    0.473   95.052
  305.500    3.055    0.241    0.412   81.382
  305.750    3.051    0.219    0.377   71.073
  306.000    3.053    0.207    0.360   83.497
  306.250    3.060    0.196    0.432   90.661
  306.500    3.067    0.229    0.461   97.645
  306.750    3.085    0.257    0.494  102.857
  307.000    3.081    0.243    0.498  106.540
  307.250    3.089    0.224    0.494  109.065
  307.500    3.061    0.212    0.496  109.996
  307.750    3.006    0.208    0.504  109.893
  308.000    2.941    0.207    0.491  109.236
  308.250    2.872    0.205    0.484  105.955
  308.500    2.804    0.203    0.480  105.058
  308.750    2.738    0.202    0.477  105.503
  309.000    2.674    0.198    0.497  105.947
  309.250    2.660    0.200    0.524  107.123
  309.500    2.666    0.211    0.532  109.098
  309.750    2.677    0.219    0.520  109.971
  310.000    2.669    0.221    0.510  109.319
  310.250    2.666    0.217    0.500  108.478
  310.500    2.652    0.217    0.490  106.967
  310.750    2.638    0.221    0.482  105.275
  311.000    2.624    0.226    0.527  104.619
  311.250    2.616    0.234    0.564  103.964
  311.500    2.603    0.218    0.549  103.616
  311.750    2.584    0.208    0.508  103.637
  312.000    2.538    0.203    0.494  103.527
  312.250    2.511    0.221    0.519  102.692
  312.500    2.456    0.241    0.515  100.997
  312.750    2.417    0.250    0.502   98.754
  313.000    2.382    0.233    0.499   99.443
  313.250    2.357    0.225    0.498  102.150
  313.500    2.340    0.219    0.496  104.427
  313.750    2.319    0.230    0.505  107.622
  314.000    2.307    0.245    0.524  105.929
  314.250    2.309    0.249    0.539  104.176
  314.500    2.310    0.254    0.526  103.580
  314.750    2.350    0.260    0.516  103.787
  315.000    2.418    0.246    0.506  104.717
  315.250    2.451    0.237    0.515  106.445
  315.500    2.457    0.231    0.525  108.419
  315.750    2.422    0.260    0.528  110.572
  316.000    2.374    0.270    0.534  110.407
  316.250    2.352    0.249    0.545  105.173
  316.500    2.336    0.229    0.541  103.052
  316.750    2.328    0.218    0.506  103.006
  317.000    2.338    0.211    0.498  103.879
  317.250    2.348    0.220    0.500  103.530
  317.500    2.367    0.224    0.497  101.713
  317.750    2.408    0.224    0.494  100.021
  318.000    2.446    0.241    0.495  102.483
  318.250    2.489    0.234    0.501  106.104
