~VERSION INFORMATION
 VERS.                 2.0:   CWLS LOG ASCII STANDARD -VERSION 2.0
 WRAP.                  NO:   ONE LINE PER DEPTH STEP
~WELL INFORMATION BLOCK
#MNEM.UNIT           DATA                    DESCRIPTION OF MNEMONIC
#---------    -------------------            -------------------------------
# Generated from Intellog Unique Number	CW_76_78/WELL/2770
WELL.         11-10-076-25W4                 : Well_name    - WELL
LOC .         00/11-10-076-25W4/0            : Location     - LOCATION
UWI .         00/11-10-076-25W4/0            : Uwi          - UNIQUE WELL ID
ENTR.         JAYE                           : Entered      - ENTERED BY
SRVC.         SCHLUMBERGER                   : Scn          - SERVICE COMPANY
DATE.         17 FEB 75                      : Date         - LOG DATE
STRT.M        591.312                        : top_depth    - START DEPTH
STOP.M        751.062                        : bot_depth    - STOP DEPTH
STEP.M        0.25                           : increment    - STEP LENGTH
 NULL. -999.2500:NULL Value
~CURVE INFORMATION BLOCK
#MNEM UNIT       ERCB CURVE CODE    CURVE DESCRIPTION
#-----------   ------------------   ----------------------------------
DEPT.M        00 001 00 00         : DEPTH        - DEPTH
DPHI.V/V      00 890 00 00         : PHID         - DENSITY POROSITY (LIMESTONE)
ILD .OHMM     00 120 00 00         : RESD         - DEEP RESISTIVITY (DIL)
CALI.IN       00 280 01 00         : CAL          - CALIPER
GR  .API      00 310 00 00         : GR           - GAMMA RAY
NPHI.V/V      00 330 00 00         : PHIN         - NEUTRON POROSITY (LIMESTONE)
~PARAMETER INFORMATION
#MNEM.UNIT           DATA             DESCRIPTION OF MNEMONIC
#---------         -----------     ------------------------------
GL  .M        844.479              : gl           - GROUND LEVEL ELEVATION
EREF.M        848.594              : kb           - ELEVATION OF DEPTH REFERENCE
DATM.M        844.479              : datum        - DATUM ELEVATION
TDD .M        748.589              : tdd          - TOTAL DEPTH DRILLER
RUN .         ONE                  : Run          - RUN NUMBER
ENG .         FETTERLEY            : Engineer     - RECORDING ENGINEER
WIT .         WOOLSEY              : Witness      - WITNESSED BY
BASE.         EDM                  : Branch       - HOME BASE OF LOGGING UNIT
MUD .         GEL CHEM             : Mud_type     - MUD TYPE
MATR.         LIMESTONE            : Logunit      - NEUTRON MATRIX
TMAX.C        29.4444              : BHT          - MAXIMUM RECORDED TEMPERATURE
BHTD.M        748.894              : BHTDEP       - MAXIMUM RECORDED TEMPERATURE
RMT .C        18.3333              : MDTP         - TEMPERATURE OF MUD
MUDD.KG/M     1068                 : MWT          - MUD DENSITY
NEUT.         1                    : NEUTRON      - NEUTRON TYPE
RESI.         0                    : RESIST       - RESISTIVITY TYPE
RM  .OHMM     4.25                 : RM           - RESISTIVITY OF MUD
RMC .OHMM     0.25                 : RMC          - RESISTIVITY OF MUD CAKE
RMF .OHMM     3.26                 : RMF          - RESISTIVITY OF MUD FILTRATE
SUFT.C        -17.7778             : SUFT         - SURFACE TEMPERATURE
~A  DEPTH     PHID     RESD      CAL       GR     PHIN
# ...
  664.312    0.208    6.625    9.296   86.292    0.424
  664.562    0.225    6.791    9.260   91.161    0.438
  664.812    0.252    7.220    9.160   93.847    0.478
  665.062    0.260    7.676    9.072   94.587    0.456
  665.312    0.231    7.939    8.769   91.079    0.445
  665.562    0.222    8.078    8.645   81.988    0.434
  665.812    0.200    7.853    8.601   75.567    0.427
  666.062    0.219    7.441    8.606   75.278    0.420
  666.312    0.221    7.232    8.676   76.382    0.422
  666.562    0.230    7.133    8.887   78.944    0.432
  666.812    0.207    7.298    9.009   81.569    0.430
  667.062    0.231    7.830    9.095   82.980    0.430
  667.312    0.215    8.508    9.181   83.233    0.436
  667.562    0.218    9.314    9.214   82.214    0.449
  667.812    0.230   10.178    9.211   81.135    0.434
  668.062    0.222   10.663    9.046   77.203    0.390
  668.312    0.206   10.537    9.152   69.992    0.368
  668.562    0.181    9.965    9.262   66.060    0.367
  668.812    0.165    9.153    9.215   69.048    0.369
  669.062    0.176    8.656    9.074   73.917    0.377
  669.312    0.199    8.067    9.123   79.029    0.400
  669.562    0.202    7.672    9.274   85.659    0.416
  669.812    0.211    7.404    9.279   86.886    0.419
  670.062    0.217    7.209    9.239   86.900    0.427
  670.312    0.214    7.008    9.248   87.824    0.443
  670.562    0.206    6.887    9.221   86.015    0.446
  670.812    0.196    6.843    9.206   83.782    0.422
  671.062    0.200    6.837    9.150   86.407    0.424
  671.312    0.215    6.830    9.171   87.451    0.444
  671.562    0.214    6.787    9.164   86.675    0.429
  671.812    0.221    6.768    9.148   86.325    0.443
  672.062    0.216    6.774    9.133   86.944    0.456
  672.312    0.203    6.718    9.142   89.871    0.452
  672.562    0.216    6.712    9.119   86.607    0.441
  672.812    0.253    6.755    9.075   83.646    0.455
  673.062    0.275    6.798    8.963   81.291    0.452
  673.312    0.290    6.841    8.874   76.327    0.444
  673.562    0.297    7.050    8.786   69.420    0.455
  673.812    0.311    7.761    8.759   62.027    0.465
  674.062    0.324    8.559    8.780   62.831    0.444
  674.312    0.313    9.266    8.846   66.121    0.453
  674.562    0.294   10.051    8.948   69.351    0.451
  674.812    0.264   11.105    9.017   64.631    0.411
  675.062    0.179   12.002    9.059   61.669    0.386
  675.312    0.151   12.528    9.104   61.683    0.364
  675.562    0.156   12.770    9.113   63.820    0.363
  675.812    0.167   12.481    9.114   66.321    0.372
  676.062    0.157   11.978    9.099   67.549    0.378
  676.312    0.168   11.143    9.095   65.074    0.379
  676.562    0.156    9.566    9.056   63.691    0.379
  676.812    0.138    8.470    8.907   63.766    0.383
  677.062    0.170    7.445    8.762   64.325    0.392
  677.312    0.191    6.486    8.731   65.855    0.406
  677.562    0.211    6.304    8.728   70.057    0.423
  677.812    0.245    6.345    8.781   73.773    0.437
  678.062    0.262    6.479    8.802   76.942    0.449
  678.312    0.256    7.093    8.803   78.291    0.459
  678.562    0.238    7.665    8.792   77.454    0.451
  678.812    0.256    8.438    8.789   76.860    0.459
  679.062    0.235    8.775    8.798   77.299    0.483
  679.312    0.261    8.880    8.795   76.523    0.485
  679.562    0.229    8.648    8.779   72.711    0.457
  679.812    0.203    8.074    8.776   67.990    0.414
  680.062    0.184    7.580    8.825   63.026    0.395
  680.312    0.162    7.289    8.907   66.136    0.422
  680.562    0.191    7.321    8.961   71.126    0.451
  680.812    0.230    7.657    9.010   74.902    0.467
  681.062    0.236    8.305    9.043   72.063    0.451
  681.312    0.217    9.328    9.060   73.532    0.424
  681.562    0.218   10.591    9.069   75.853    0.438
  681.812    0.220   12.891    9.091   76.533    0.452
  682.062    0.199   15.576    9.091   76.182    0.427
  682.312    0.144   17.366    9.080   75.772    0.309
  682.562    0.077   15.805    9.077   75.784    0.289
  682.812    0.069   13.468    9.082   76.343    0.298
  683.062    0.112   11.414    9.079   75.932    0.343
  683.312    0.150   10.034    9.080   73.711    0.382
  683.562    0.155    9.182    9.076   74.076    0.355
  683.812    0.203    9.108    9.065   78.157    0.393
  684.062    0.226    9.402    9.054   80.901    0.425
  684.312    0.214   10.331    9.051   74.965    0.437
  684.562    0.195   11.165    9.052   70.365    0.416
  684.812    0.170   11.935    9.049   69.286    0.396
  685.062    0.147   12.278    9.041   73.184    0.401
  685.312    0.193   12.266    9.034   75.868    0.396
  685.562    0.178   11.369    9.031   75.882    0.377
  685.812    0.158   10.179    9.028   75.897    0.360
  686.062    0.136    8.997    9.025   76.576    0.366
  686.312    0.170    8.339    9.025   78.957    0.394
  686.562    0.199    8.378    9.022   82.915    0.443
  686.812    0.227    8.858    9.019   86.631    0.433
  687.062    0.213    9.130    9.020   86.159    0.427
  687.312    0.195    9.221    9.025   84.595    0.434
  687.562    0.195    9.178    9.026   82.725    0.441
  687.812    0.177    9.086    9.027   79.825    0.411
  688.062    0.157    8.947    9.028   83.176    0.413
  688.312    0.162    8.792    9.041   89.867    0.435
  688.562    0.209    8.626    9.046   89.334    0.427
  688.812    0.186    8.539    9.063   88.558    0.405
  689.062    0.167    8.468    9.076   81.712    0.380
  689.312    0.150    8.414    9.089   85.185    0.394
  689.562    0.180    8.437    9.126   89.205    0.425
  689.812    0.201    8.445    9.159   91.646    0.419
  690.062    0.177    8.467    9.188   91.477    0.413
  690.312    0.173    8.476    9.218   92.037    0.407
  690.562    0.187    8.452    9.239   93.690    0.441
  690.812    0.205    8.412    9.260   93.460    0.444
  691.062    0.200    8.358    9.265   89.587    0.432
  691.312    0.194    8.351    9.274   88.508    0.418
  691.562    0.183    8.328    9.271   88.764    0.410
  691.812    0.178    8.350    9.271   89.020    0.409
  692.062    0.168    8.543    9.268   88.548    0.409
  692.312    0.152    8.853    9.277   87.104    0.424
  692.562    0.121    9.293    9.282   86.632    0.408
  692.812    0.099    9.612    9.271   87.557    0.405
  693.062    0.173    9.978    9.264   89.937    0.420
  693.312    0.171   10.321    9.257   88.796    0.423
  693.562    0.129   10.678    9.253   82.800    0.389
  693.812    0.105   10.764    9.234   78.564    0.361
  694.062    0.094   10.676    9.219   84.162    0.418
  694.312    0.148   10.570    9.187   81.929    0.412
  694.562    0.144   10.464    9.172   78.968    0.375
  694.812    0.151   10.377    9.169   84.080    0.386
  695.062    0.177   10.217    9.174   92.652    0.411
  695.312    0.151    9.968    9.162   90.480    0.413
  695.562    0.134    9.796    9.090   86.244    0.377
  695.812    0.115    9.452    9.083   85.287    0.353
  696.062    0.158    8.891    9.169   89.852    0.385
  696.312    0.184    8.363    9.279   95.633    0.407
  696.562    0.193    8.099    9.430   99.590    0.411
  696.812    0.192    8.003    9.524   98.633    0.416
  697.062    0.187    8.323    9.545   96.399    0.424
  697.312    0.195    9.196    9.473   96.109    0.418
  697.562    0.207   10.177    9.340   93.816    0.410
  697.812    0.201   11.640    9.232   92.068    0.418
  698.062    0.188   13.609    9.144   90.687    0.422
  698.312    0.200   16.265    9.035   86.694    0.418
  698.562    0.191   19.725    8.984   82.214    0.408
  698.812    0.159   23.402    9.009   81.985    0.387
  699.062    0.129   25.618    9.087   83.454    0.327
  699.312    0.096   26.891    9.156   83.105    0.302
  699.562    0.114   26.570    9.210   82.450    0.308
  699.812    0.131   24.901    9.239   82.402    0.346
  700.062    0.162   21.180    9.252   81.991    0.380
  700.312    0.108   18.618    9.249   80.242    0.401
  700.562    0.080   16.944    9.262   72.911    0.374
