~VERSION INFORMATION
 VERS.                 2.0:   CWLS LOG ASCII STANDARD -VERSION 2.0
 WRAP.                  NO:   ONE LINE PER DEPTH STEP
~WELL INFORMATION BLOCK
#MNEM.UNIT           DATA                    DESCRIPTION OF MNEMONIC
#---------    -------------------            -------------------------------
# Generated from Intellog Unique Number	CW_73_75/WELL/2747
WELL.         GAO ET AL AMADO4 11-31         : Well_name    - WELL
LOC .         00/11-31-073-19W4/0            : Location     - LOCATION
UWI .         00/11-31-073-19W4/0            : Uwi          - UNIQUE WELL ID
ENTR.         JAYE                           : Entered      - ENTERED BY
SRVC.         SCHLUMBERGER                   : Scn          - SERVICE COMPANY
DATE.         10 JAN 74                      : Date         - LOG DATE
STRT.M        353.568                        : top_depth    - START DEPTH
STOP.M        594.318                        : bot_depth    - STOP DEPTH
STEP.M        0.25                           : increment    - STEP LENGTH
 NULL. -999.2500:NULL Value
~CURVE INFORMATION BLOCK
#MNEM UNIT       ERCB CURVE CODE    CURVE DESCRIPTION
#-----------   ------------------   ----------------------------------
DEPT.M        00 001 00 00         : DEPTH        - DEPTH
ILD .OHMM     00 120 00 00         : RESD         - DEEP RESISTIVITY (DIL)
NPHI.V/V      00 330 00 00         : PHIN         - NEUTRON POROSITY (SANDSTONE)
DPHI.V/V      00 890 00 00         : PHID         - DENSITY POROSITY (SANDSTONE)
GR  .API      00 310 00 00         : GR           - GAMMA RAY
CALI.MM       00 280 01 00         : CAL          - CALIPER
~PARAMETER INFORMATION
#MNEM.UNIT           DATA             DESCRIPTION OF MNEMONIC
#---------         -----------     ------------------------------
GL  .M        671.779              : gl           - GROUND LEVEL ELEVATION
EREF.M        674.827              : kb           - ELEVATION OF DEPTH REFERENCE
DATM.M        671.779              : datum        - DATUM ELEVATION
TDD .M        600.456              : tdd          - TOTAL DEPTH DRILLER
RUN .         ONE                  : Run          - RUN NUMBER
BASE.         EDM                  : Branch       - HOME BASE OF LOGGING UNIT
MATR.         SANDSTONE            : Logunit      - NEUTRON MATRIX
TMAX.C        29.4444              : BHT          - MAXIMUM RECORDED TEMPERATURE
BHTD.M        603.504              : BHTDEP       - MAXIMUM RECORDED TEMPERATURE
RMT .C        13.3333              : MDTP         - TEMPERATURE OF MUD
MUDD.KG/M     0                    : MWT          - MUD DENSITY
NEUT.         1                    : NEUTRON      - NEUTRON TYPE
RESI.         0                    : RESIST       - RESISTIVITY TYPE
RM  .OHMM     0.843                : RM           - RESISTIVITY OF MUD
RMC .OHMM     0                    : RMC          - RESISTIVITY OF MUD CAKE
RMF .OHMM     1.17                 : RMF          - RESISTIVITY OF MUD FILTRATE
SUFT.C        -17.7778             : SUFT         - SURFACE TEMPERATURE
~A  DEPTH     RESD     PHIN     PHID       GR      CAL
  353.568    2.475    0.561    0.233  109.812  202.117
  353.818    2.556    0.553    0.241  111.545  203.279
  354.068    2.606    0.541    0.239  111.778  204.221
  354.318    2.619    0.536    0.225  112.599  205.179
  354.568    2.655    0.537    0.215  114.004  206.118
  354.818    2.722    0.539    0.226  113.841  207.179
  355.068    2.735    0.529    0.218  109.697  208.221
  355.318    2.733    0.522    0.199  107.904  209.054
  355.568    2.726    0.525    0.189  109.051  210.454
  355.818    2.739    0.537    0.198  112.023  211.727
  356.068    2.766    0.546    0.196  111.079  212.890
  356.318    2.775    0.534    0.203  109.807  213.941
  356.568    2.758    0.525    0.210  105.076  215.545
  356.818    2.715    0.513    0.204  106.677  216.713
  357.068    2.645    0.527    0.198  109.260  217.766
  357.318    2.562    0.500    0.204  110.666  218.382
  357.568    2.495    0.466    0.201  107.374  218.885
  357.818    2.403    0.504    0.215  108.452  218.955
  358.068    2.362    0.560    0.219  108.225  218.892
  358.318    2.365    0.584    0.223  106.436  218.405
  358.568    2.492    0.567    0.225  104.050  217.131
  358.818    2.602    0.560    0.225  102.714  215.203
  359.068    2.696    0.559    0.220  104.510  213.157
  359.318    2.729    0.545    0.218  106.505  210.455
  359.568    2.788    0.519    0.228  109.286  208.076
  359.818    2.858    0.524    0.224  110.953  205.592
  360.068    2.882    0.530    0.211  107.789  201.674
  360.318    2.875    0.503    0.200  103.644  198.189
  360.568    2.851    0.499    0.210  102.243  194.932
  360.818    2.752    0.503    0.213  103.581  192.113
  361.068    2.631    0.501    0.236  107.797  193.611
  361.318    2.615    0.522    0.247  104.696  199.089
  361.568    2.817    0.553    0.268   95.327  197.273
  361.818    3.211    0.551    0.262   87.198  191.797
  362.068    3.798    0.460    0.245   81.939  172.830
  362.318    4.608    0.413    0.133   84.458  158.843
  362.568    5.055    0.427    0.136   89.850  158.019
  362.818    4.996    0.453    0.257   95.113  159.300
  363.068    4.883    0.471    0.269   96.976  160.907
  363.318    4.773    0.489    0.263   98.710  162.965
  363.568    4.683    0.510    0.238  102.467  164.560
  363.818    4.629    0.503    0.245  100.672  166.840
  364.068    4.599    0.476    0.261   99.269  169.330
  364.318    4.588    0.454    0.263   96.498  172.930
  364.568    4.618    0.458    0.253   95.093  176.758
  364.818    4.699    0.471    0.250   96.960  179.127
  365.068    4.722    0.484    0.260   99.476  181.847
  365.318    4.710    0.490    0.255  101.734  184.789
  365.568    4.655    0.483    0.256  103.402  187.165
  365.818    4.592    0.440    0.261  104.483  190.764
  366.068    4.682    0.441    0.253  103.667  196.462
  366.318    4.924    0.455    0.244  105.661  199.288
  366.568    5.160    0.464    0.248   96.552  198.241
  366.818    5.339    0.432    0.273   92.930  195.866
  367.068    5.463    0.412    0.263   90.548  196.150
  367.318    5.185    0.419    0.246   88.818  198.860
  367.568    4.996    0.417    0.234   90.361  203.677
  367.818    4.716    0.450    0.211   92.090  204.288
  368.068    4.437    0.466    0.231   95.521  207.556
  368.318    4.135    0.479    0.209   98.234  211.270
  368.568    4.020    0.479    0.227  103.365  209.998
  368.818    4.346    0.460    0.239  104.511  203.536
  369.068    4.777    0.447    0.246  101.019  198.396
  369.318    5.163    0.434    0.241   98.963  191.372
  369.568    5.481    0.426    0.234   97.496  185.348
  369.818    5.807    0.429    0.238   94.787  182.864
  370.068    6.053    0.408    0.232   95.869  186.020
  370.318    6.436    0.411    0.231  101.260  191.169
  370.568    6.870    0.420    0.207  103.254  183.816
  370.818    7.345    0.412    0.245   93.426  166.841
  371.068    7.812    0.413    0.260   76.151  160.706
  371.318    8.555    0.420    0.265   68.283  154.240
  371.568    9.878    0.403    0.277   59.236  151.426
  371.818   12.501    0.378    0.295   43.137  152.701
  372.068   17.242    0.371    0.305   33.178  154.312
  372.318   22.469    0.382    0.311   29.034  154.926
  372.568   27.063    0.387    0.314   28.157  154.870
  372.818   27.895    0.399    0.307   27.600  154.157
  373.068   27.823    0.416    0.313   28.291  153.993
  373.318   25.887    0.412    0.298   28.910  153.392
  373.568   23.048    0.394    0.307   30.388  151.790
  373.818   19.709    0.393    0.316   33.554  150.855
  374.068   17.548    0.397    0.321   39.533  152.028
  374.318   15.885    0.397    0.314   44.076  153.303
  374.568   13.937    0.401    0.294   50.318  154.904
  374.818   12.431    0.406    0.281   57.341  157.512
  375.068   11.294    0.420    0.271   67.307  160.449
  375.318    9.891    0.404    0.260   77.009  163.268
  375.568    8.855    0.402    0.234   84.491  166.103
  375.818    7.300    0.419    0.224   91.582  167.479
  376.068    6.476    0.410    0.271   87.697  169.200
  376.318    6.025    0.406    0.286   87.539  171.139
  376.568    5.879    0.403    0.276   91.624  173.306
  376.818    5.831    0.402    0.263   93.556  175.240
  377.068    5.762    0.400    0.254   95.222  177.958
  377.318    5.675    0.399    0.246   98.130  181.002
  377.568    5.397    0.410    0.240  104.894  186.042
  377.818    5.142    0.441    0.246  110.285  190.853
  378.068    4.374    0.486    0.233  115.939  195.226
  378.318    3.844    0.522    0.222  123.420  199.163
  378.568    3.505    0.534    0.205  123.325  202.317
  378.818    3.178    0.541    0.182  120.814  206.246
  379.068    2.936    0.550    0.184  118.888  213.277
  379.318    2.746    0.564    0.215  117.290  223.624
  379.568    2.602    0.555    0.206  118.110  223.681
  379.818    2.520    0.520    0.195  122.455  216.562
  380.068    2.487    0.533    0.179  130.395  229.009
  380.318    2.485    0.551    0.220  136.441  237.247
  380.568    2.599    0.525    0.236  137.062  238.300
  380.818    2.789    0.475    0.245  133.573  225.970
  381.068    3.168    0.469    0.219  128.642  220.613
  381.318    3.605    0.452    0.218  124.695  220.560
  381.568    4.043    0.461    0.225  126.493  221.066
  381.818    4.568    0.445    0.219  128.355  219.907
  382.068    4.875    0.447    0.217  128.521  219.967
  382.318    5.099    0.451    0.223  129.144  219.580
  382.568    5.161    0.459    0.222  130.293  217.758
  382.818    5.063    0.467    0.201  128.821  209.966
  383.068    4.860    0.484    0.202  125.265  209.142
  383.318    4.639    0.509    0.222  120.204  209.540
  383.568    4.260    0.518    0.212  115.013  207.715
  383.818    4.045    0.464    0.237  112.892  202.243
  384.068    4.012    0.454    0.251  104.893  194.888
  384.318    4.220    0.439    0.253   98.135  187.211
  384.568    4.802    0.437    0.243   93.139  182.177
  384.818    5.249    0.442    0.234   95.266  179.806
  385.068    5.501    0.431    0.224   97.720  179.087
  385.318    5.775    0.432    0.214   94.424  178.815
  385.568    5.921    0.458    0.239   92.301  179.869
  385.818    6.025    0.438    0.269   90.311  180.929
  386.068    6.054    0.451    0.265   91.588  181.542
  386.318    6.038    0.471    0.251   93.780  182.154
  386.568    5.989    0.468    0.268   91.007  182.767
  386.818    5.952    0.459    0.258   90.975  184.712
  387.068    5.947    0.445    0.257   94.602  186.310
  387.318    5.867    0.437    0.242  101.953  189.030
  387.568    5.725    0.448    0.228  109.829  190.970
  387.818    5.484    0.441    0.224  116.853  193.021
  388.068    5.102    0.437    0.235  119.438  195.178
  388.318    4.800    0.463    0.240  107.125  190.814
  388.568    4.822    0.475    0.275   91.940  185.565
  388.818    5.310    0.489    0.267   82.895  183.298
  389.068    5.868    0.497    0.267   82.472  181.263
  389.318    6.989    0.491    0.296   85.187  180.544
  389.568    7.767    0.481    0.309   82.477  179.611
  389.818    8.599    0.486    0.307   80.683  179.111
