~VERSION INFORMATION
 VERS.                 2.0:   CWLS LOG ASCII STANDARD -VERSION 2.0
 WRAP.                  NO:   ONE LINE PER DEPTH STEP
~WELL INFORMATION BLOCK
#MNEM.UNIT           DATA                    DESCRIPTION OF MNEMONIC
#---------    -------------------            -------------------------------
# Generated from Intellog Unique Number	CS_77_79/WELL/928
WELL.         NORCEN ENERGY RESOURCES        : Well_name    - WELL
LOC .         00/10-02-077-12W4/0            : Location     - LOCATION
UWI .         00/10-02-077-12W4/0            : Uwi          - UNIQUE WELL ID
ENTR.         SP                             : Entered      - ENTERED BY
SRVC.         SCHLUMBERGER                   : Scn          - SERVICE COMPANY
STRT.M        260                            : top_depth    - START DEPTH
STOP.M        520                            : bot_depth    - STOP DEPTH
STEP.M        0.25                           : increment    - STEP LENGTH
 NULL. -999.2500:NULL Value
~CURVE INFORMATION BLOCK
#MNEM UNIT       ERCB CURVE CODE    CURVE DESCRIPTION
#-----------   ------------------   ----------------------------------
DEPT.M        00 001 00 00         : DEPTH        - DEPTH
ILD .OHMM     00 120 00 00         : RESD         - DEEP RESISTIVITY (DIL)
DPHI.V/V      00 890 00 00         : PHID         - DENSITY POROSITY (LIMESTONE)
NPHI.V/V      00 330 00 00         : PHIN         - NEUTRON POROSITY (LIMESTONE)
GR  .API      00 310 00 00         : GR           - GAMMA RAY
~PARAMETER INFORMATION
#MNEM.UNIT           DATA             DESCRIPTION OF MNEMONIC
#---------         -----------     ------------------------------
GL  .M        662.7                : gl           - GROUND LEVEL ELEVATION
EREF.M        666                  : kb           - ELEVATION OF DEPTH REFERENCE
DATM.M        662.7                : datum        - DATUM ELEVATION
TDD .M        531                  : tdd          - TOTAL DEPTH DRILLER
RUN .         ONE                  : Run          - RUN NUMBER
ENG .         BILL                 : Engineer     - RECORDING ENGINEER
WIT .         JIM                  : Witness      - WITNESSED BY
MUD .         GEL                  : Mud_type     - MUD TYPE
MATR.         LIMESTONE            : Logunit      - NEUTRON MATRIX
TMAX.C        15.5                 : BHT          - MAXIMUM RECORDED TEMPERATURE
BHTD.M        531                  : BHTDEP       - MAXIMUM RECORDED TEMPERATURE
MATR.         1                    : LOGUNIT      - NEUTRON MATRIX
RMT .C        25                   : MDTP         - TEMPERATURE OF MUD
NEUT.         1                    : NEUTRON      - NEUTRON TYPE
RESI.         0                    : RESIST       - RESISTIVITY TYPE
RMC .OHMM     0.25                 : RMC          - RESISTIVITY OF MUD CAKE
RMF .OHMM     0.25                 : RMF          - RESISTIVITY OF MUD FILTRATE
SUFT.C        15                   : SUFT         - SURFACE TEMPERATURE
~A  DEPTH     RESD     PHID     PHIN       GR
  260.000    3.222    0.293    0.542  102.594
  260.250    3.164    0.271    0.532  105.012
  260.500    3.165    0.262    0.518  107.432
  260.750    3.167    0.263    0.510  107.412
  261.000    3.167    0.267    0.527  104.354
  261.250    3.168    0.265    0.545  102.520
  261.500    3.170    0.253    0.557  101.899
  261.750    3.231    0.263    0.557  100.662
  262.000    3.232    0.270    0.540  100.043
  262.250    3.233    0.255    0.554   98.202
  262.500    3.234    0.273    0.565  101.831
  262.750    3.235    0.280    0.562  103.631
  263.000    3.237    0.296    0.563  102.405
  263.250    3.178    0.305    0.562  102.388
  263.500    3.064    0.320    0.574  104.795
  263.750    3.008    0.331    0.588  104.177
  264.000    2.846    0.307    0.597  102.338
  264.250    2.795    0.301    0.564   99.280
  264.500    2.744    0.301    0.566   95.622
  264.750    2.745    0.284    0.557   93.180
  265.000    2.746    0.283    0.526   91.943
  265.250    2.747    0.295    0.536   93.745
  265.500    2.748    0.305    0.542   93.735
  265.750    2.749    0.298    0.550   92.499
  266.000    2.855    0.287    0.554   90.661
  266.250    2.909    0.288    0.537   87.611
  266.500    2.965    0.275    0.526   85.167
  266.750    3.021    0.273    0.518   85.152
  267.000    3.079    0.281    0.530   89.993
  267.250    3.138    0.285    0.535   97.261
  267.500    3.198    0.280    0.547   99.060
  267.750    3.259    0.273    0.552   97.224
  268.000    3.383    0.269    0.531   95.387
  268.250    3.513    0.270    0.515   95.979
  268.500    3.514    0.274    0.520   98.388
  268.750    3.515    0.275    0.520  100.192
  269.000    3.452    0.277    0.529   97.750
  269.250    3.454    0.275    0.545   97.125
  269.500    3.455    0.274    0.561  100.143
  269.750    3.520    0.271    0.552   98.305
  270.000    3.588    0.262    0.514   98.283
  270.250    3.589    0.272    0.493  100.089
  270.500    3.590    0.277    0.505   98.863
  270.750    3.526    0.251    0.518  102.489
  271.000    3.527    0.238    0.522  107.329
  271.250    3.464    0.242    0.527  107.918
  271.500    3.401    0.256    0.535  103.039
  271.750    3.340    0.273    0.529  102.421
  272.000    3.341    0.274    0.520  102.401
  272.250    3.405    0.260    0.511   98.734
  272.500    3.470    0.264    0.516   96.902
  272.750    3.536    0.249    0.497   95.061
  273.000    3.604    0.255    0.494   95.652
  273.250    3.605    0.242    0.505   98.064
  273.500    3.540    0.255    0.510   96.832
  273.750    3.541    0.270    0.498   93.180
  274.000    3.609    0.274    0.513   96.197
  274.250    3.611    0.259    0.519   93.135
  274.500    3.679    0.243    0.504   90.696
  274.750    3.680    0.247    0.527   85.212
  275.000    3.682    0.169    0.536   79.736
  275.250    3.683    0.171    0.460   75.470
  275.500    3.685    0.222    0.457   71.806
  275.750    3.686    0.277    0.492   86.362
  276.000    3.619    0.294    0.542   86.344
  276.250    3.621    0.298    0.547   87.544
  276.500    3.622    0.305    0.542   89.350
  276.750    3.760    0.298    0.535   91.149
  277.000    3.832    0.286    0.519   91.137
  277.250    4.130    0.288    0.518   91.721
  277.500    4.288    0.302    0.538   91.102
  277.750    4.451    0.298    0.515   89.254
  278.000    4.797    0.293    0.494   87.417
  278.250    4.887    0.285    0.491   86.191
  278.500    5.170    0.293    0.479   85.572
  278.750    5.468    0.294    0.471   86.154
  279.000    5.676    0.298    0.475   86.143
  279.250    6.117    0.300    0.482   85.522
  279.500    6.469    0.303    0.461   82.469
  279.750    6.842    0.315    0.447   76.980
  280.000    7.237    0.305    0.431   75.756
  280.250    7.376    0.288    0.437   74.525
  280.500    7.516    0.303    0.433   77.540
  280.750    7.519    0.306    0.425   77.525
  281.000    7.664    0.317    0.437   76.295
  281.250    7.810    0.324    0.419   76.879
  281.500    7.959    0.308    0.446   76.255
  281.750    8.263    0.314    0.456   73.206
  282.000    8.905    0.334    0.469   70.158
  282.250    9.244    0.348    0.458   65.886
  282.500    9.777    0.345    0.459   62.834
  282.750   10.535    0.330    0.421   60.992
  283.000   11.143    0.241    0.400   59.767
  283.250   11.787    0.262    0.409   58.531
  283.500   12.011    0.313    0.429   57.912
  283.750   12.469    0.359    0.445   57.894
  284.000   12.947    0.352    0.434   59.090
  284.250   13.441    0.346    0.423   57.255
  284.500   13.199    0.327    0.405   51.768
  284.750   12.032    0.256    0.401   49.933
  285.000    9.813    0.291    0.408   55.987
  285.250    8.306    0.320    0.422   67.506
  285.500    6.526    0.291    0.415   82.062
  285.750    5.841    0.291    0.422   83.868
  286.000    6.293    0.287    0.431   81.420
  286.250    6.908    0.317    0.442   77.761
  286.500    7.584    0.331    0.447   75.318
  286.750    7.728    0.325    0.450   73.472
  287.000    7.732    0.338    0.426   73.462
  287.250    7.452    0.333    0.431   77.691
  287.500    6.921    0.295    0.447   78.894
  287.750    6.428    0.292    0.455   75.838
  288.000    5.860    0.295    0.446   77.037
  288.250    5.244    0.296    0.449   83.086
  288.500    4.962    0.280    0.465   86.102
  288.750    4.523    0.266    0.482   86.701
  289.000    4.280    0.254    0.496   87.896
  289.250    4.125    0.256    0.504   87.872
  289.500    3.976    0.273    0.503   88.463
  289.750    3.978    0.273    0.487   88.452
  290.000    4.130    0.262    0.481   89.041
  290.250    4.793    0.271    0.477   84.777
  290.500    5.881    0.279    0.477   78.686
  290.750    7.217    0.284    0.482   76.245
  291.000    8.377    0.300    0.444   74.406
  291.250    8.859    0.315    0.427   75.598
  291.500    9.546    0.315    0.433   81.658
  291.750    9.911    0.302    0.434   96.214
  292.000    9.552    0.316    0.423  104.697
  292.250    7.936    0.313    0.428  107.711
  292.500    6.236    0.299    0.446  107.696
  292.750    4.992    0.229    0.469  107.075
  293.000    4.225    0.256    0.502  111.915
  293.250    4.469    0.292    0.516  110.068
  293.500    5.384    0.311    0.513  108.238
  293.750    6.484    0.320    0.479  104.578
  294.000    8.258    0.302    0.436  101.521
  294.250    9.763    0.287    0.431  100.293
  294.500   10.718    0.287    0.434   98.453
  294.750   11.336    0.290    0.430   99.045
  295.000   11.771    0.293    0.438   96.599
  295.250   11.994    0.314    0.447   92.938
  295.500   12.454    0.326    0.456   89.887
  295.750   12.691    0.333    0.456   85.619
  296.000   12.462    0.338    0.454   84.994
  296.250   11.361    0.336    0.444   86.192
  296.500    9.980    0.320    0.423   92.856
  296.750    8.930    0.294    0.420  114.696
  297.000    7.992    0.272    0.443  123.787
  297.250    6.891    0.240    0.481  122.555
  297.500    6.768    0.232    0.496  117.681
  297.750    7.025    0.238    0.452  114.023
  298.000    8.621    0.260    0.437  110.971
  298.250    9.823    0.289    0.439  108.513
  298.500   10.198    0.280    0.435  106.672
  298.750   10.586    0.281    0.433  105.446
  299.000   10.788    0.293    0.440  104.223
  299.250   11.201    0.293    0.447   96.914
  299.500   11.416    0.310    0.444   92.040
  299.750   11.209    0.317    0.436   88.385
  300.000   11.007    0.318    0.427   85.336
  300.250   10.035    0.293    0.401   91.390
  300.500    9.320    0.263    0.407  104.120
  300.750    9.151    0.271    0.441  109.571
  301.000    8.986    0.283    0.446  110.159
  301.250    8.825    0.278    0.445  111.960
  301.500    9.162    0.271    0.445  111.334
  301.750    9.690    0.280    0.445  108.286
  302.000   10.440    0.276    0.445   87.629
  302.250   11.896    0.256    0.440   80.320
  302.500   12.349    0.194    0.393   75.446
  302.750   13.061    0.178    0.397   70.578
  303.000   12.591    0.258    0.402   68.130
  303.250   12.363    0.277    0.405   76.000
