~VERSION INFORMATION
 VERS.                 2.0:   CWLS LOG ASCII STANDARD -VERSION 2.0
 WRAP.                  NO:   ONE LINE PER DEPTH STEP
~WELL INFORMATION BLOCK
#MNEM.UNIT           DATA                    DESCRIPTION OF MNEMONIC
#---------    -------------------            -------------------------------
# Generated from Intellog Unique Number	CS_77_79/WELL/3303
WELL.         ATCOR LTD.                     : Well_name    - WELL
LOC .         00/11-23-077-13W4/0            : Location     - LOCATION
UWI .         00/11-23-077-13W4/0            : Uwi          - UNIQUE WELL ID
ENTR.         JO                             : Entered      - ENTERED BY
SRVC.         SCHLUMBERGER                   : Scn          - SERVICE COMPANY
DATE.         05/22/92                       : Date         - LOG DATE
STRT.M        285                            : top_depth    - START DEPTH
STOP.M        505                            : bot_depth    - STOP DEPTH
STEP.M        0.25                           : increment    - STEP LENGTH
 NULL. -999.2500:NULL Value
~CURVE INFORMATION BLOCK
#MNEM UNIT       ERCB CURVE CODE    CURVE DESCRIPTION
#-----------   ------------------   ----------------------------------
DEPT.M        00 001 00 00         : DEPTH        - DEPTH
GR  .API      00 310 00 00         : GR           - GAMMA RAY
NPHI.V/V      00 330 00 00         : PHIN         - NEUTRON POROSITY (SANDSTONE)
DPHI.V/V      00 890 00 00         : PHID         - DENSITY POROSITY (SANDSTONE)
ILD .OHMM     00 120 00 00         : RESD         - DEEP RESISTIVITY (DIL)
~PARAMETER INFORMATION
#MNEM.UNIT           DATA             DESCRIPTION OF MNEMONIC
#---------         -----------     ------------------------------
GL  .M        683.2                : gl           - GROUND LEVEL ELEVATION
EREF.M        686.7                : kb           - ELEVATION OF DEPTH REFERENCE
DATM.M        686.7                : datum        - DATUM ELEVATION
TDD .M        511                  : tdd          - TOTAL DEPTH DRILLER
RUN .         ONE                  : Run          - RUN NUMBER
ENG .         BILL                 : Engineer     - RECORDING ENGINEER
WIT .         JIM                  : Witness      - WITNESSED BY
MUD .         GEL                  : Mud_type     - MUD TYPE
MATR.         SANDSTONE            : Logunit      - NEUTRON MATRIX
TMAX.C        21                   : BHT          - MAXIMUM RECORDED TEMPERATURE
BHTD.M        511                  : BHTDEP       - MAXIMUM RECORDED TEMPERATURE
MATR.         1                    : LOGUNIT      - NEUTRON MATRIX
RMT .C        20                   : MDTP         - TEMPERATURE OF MUD
NEUT.         1                    : NEUTRON      - NEUTRON TYPE
RESI.         0                    : RESIST       - RESISTIVITY TYPE
RMC .OHMM     0                    : RMC          - RESISTIVITY OF MUD CAKE
RMF .OHMM     5.64                 : RMF          - RESISTIVITY OF MUD FILTRATE
SUFT.C        5                    : SUFT         - SURFACE TEMPERATURE
~A  DEPTH       GR     PHIN     PHID     RESD
# ...
  459.000   94.431    0.412    0.199    5.283
  459.250   90.909    0.398    0.180    5.908
  459.500   89.833    0.384    0.146    6.861
  459.750   90.571    0.380    0.113    7.006
  460.000   90.624    0.386    0.143    7.286
  460.250   90.758    0.390    0.168    8.939
  460.500   89.023    0.395    0.164    8.477
  460.750   75.797    0.389    0.170    7.342
  461.000   68.619    0.373    0.241    8.066
  461.250   68.726    0.325    0.265    9.717
  461.500   74.303    0.333    0.243   12.133
  461.750   77.434    0.338    0.239   16.921
  462.000   74.516    0.343    0.234   22.336
  462.250   76.438    0.356    0.242   20.422
  462.500   78.359    0.355    0.254   16.742
  462.750   73.654    0.356    0.266   13.476
  463.000   71.314    0.361    0.273   14.537
  463.250   67.766    0.365    0.284   18.829
  463.500   62.429    0.382    0.248   30.436
  463.750   60.748    0.376    0.206   32.216
  464.000   59.040    0.381    0.206   36.046
  464.250   60.330    0.381    0.233   38.178
  464.500   65.275    0.377    0.248   38.276
  464.750   69.037    0.376    0.255   33.761
  465.000   76.402    0.371    0.249   23.035
  465.250   88.632    0.391    0.220   16.603
  465.500  100.863    0.401    0.193    9.785
  465.750  109.464    0.410    0.187    8.631
  466.000  113.226    0.407    0.183    8.342
  466.250  113.306    0.404    0.184    8.841
  466.500  113.413    0.394    0.185    9.892
  466.750  109.891    0.401    0.190   12.353
  467.000  102.713    0.404    0.215   18.199
  467.250   89.487    0.405    0.230   21.526
  467.500   83.572    0.404    0.255   21.567
  467.750   87.281    0.395    0.244   19.023
  468.000   90.438    0.366    0.210   16.475
  468.250   83.865    0.352    0.204   15.361
  468.500   77.924    0.344    0.211   16.581
  468.750   73.165    0.348    0.221   17.874
  469.000   62.385    0.352    0.246   20.356
  469.250   60.677    0.336    0.236   25.436
  469.500   67.437    0.312    0.207   31.762
  469.750   71.804    0.331    0.201   20.905
  470.000   64.021    0.369    0.270   17.127
  470.250   57.448    0.365    0.306   26.656
  470.500   50.324    0.378    0.324   33.307
  470.750   53.428    0.407    0.312   37.268
  471.000   59.032    0.399    0.301   43.254
  471.250   62.163    0.388    0.291   51.160
  471.500   64.662    0.388    0.282   50.362
  471.750   67.820    0.382    0.275   42.022
  472.000   63.088    0.378    0.283   32.609
  472.250   60.748    0.369    0.289   35.825
  472.500   60.250    0.361    0.282   44.793
  472.750   65.196    0.352    0.270   49.211
  473.000   74.402    0.341    0.236   39.585
  473.250   84.817    0.340    0.219   16.170
  473.500   90.972    0.355    0.201   12.540
  473.750   92.920    0.369    0.196   10.094
  474.000   89.398    0.385    0.173    9.762
  474.250   93.134    0.397    0.157    9.781
  474.500   95.660    0.399    0.167    9.806
  474.750   96.372    0.391    0.150   10.019
  475.000   97.688    0.384    0.141    9.690
  475.250   96.612    0.374    0.152    9.533
  475.500   95.482    0.381    0.156    9.378
  475.750   96.799    0.387    0.158    9.232
  476.000   98.720    0.397    0.153    9.094
  476.250  100.695    0.410    0.143    9.094
  476.500  100.748    0.411    0.142    9.135
  476.750  100.855    0.404    0.144    9.333
  477.000   97.359    0.393    0.153    9.351
  477.250   98.071    0.383    0.165    9.381
  477.500  100.597    0.378    0.183    9.411
  477.750  103.754    0.379    0.192    9.610
  478.000  100.810    0.391    0.204    9.812
  478.250   95.447    0.391    0.205    9.837
  478.500   89.505    0.386    0.198    9.502
  478.750   93.846    0.379    0.163    9.196
  479.000   89.719    0.384    0.148    9.208
  479.250   85.592    0.393    0.155    9.064
  479.500   82.648    0.387    0.157    9.261
  479.750   80.966    0.376    0.150    9.285
  480.000   88.331    0.364    0.157   10.016
  480.250   98.747    0.355    0.165   10.041
  480.500   98.854    0.363    0.157    9.357
  480.750   99.565    0.369    0.149    8.880
  481.000  101.487    0.385    0.140    8.897
  481.250  101.620    0.403    0.153    8.764
  481.500  102.910    0.413    0.163    8.780
  481.750   92.708    0.406    0.165    9.131
  482.000   80.139    0.397    0.161   10.230
  482.250   78.405    0.380    0.175   11.042
  482.500   74.251    0.369    0.204   11.695
  482.750   73.753    0.353    0.219   10.687
  483.000   76.279    0.364    0.181   10.714
  483.250   77.018    0.368    0.163   11.996
  483.500   74.678    0.360    0.152   13.179
  483.750   81.465    0.352    0.187   13.212
  484.000   88.225    0.364    0.177   12.762
  484.250   93.197    0.379    0.159   11.060
  484.500   99.957    0.377    0.158    9.935
  484.750  101.905    0.373    0.165    9.423
  485.000  102.012    0.369    0.176    9.276
  485.250  103.328    0.374    0.180    9.471
  485.500  100.411    0.381    0.169    9.496
  485.750   94.442    0.377    0.143    9.011
  486.000   86.082    0.372    0.144    9.544
  486.250   82.532    0.366    0.179   10.679
  486.500   81.456    0.359    0.206   12.865
  486.750   82.141    0.346    0.218   14.660
  487.000   79.829    0.347    0.190   14.707
  487.250   76.911    0.355    0.206   14.736
  487.500   78.832    0.352    0.220   14.252
  487.750   79.544    0.345    0.208   14.297
  488.000   77.258    0.336    0.205   14.590
  488.250   75.524    0.335    0.205   14.627
  488.500   79.260    0.364    0.196   14.926
  488.750   87.861    0.381    0.180   14.974
  489.000   81.314    0.375    0.199   13.700
  489.250   77.792    0.362    0.179   12.526
  489.500   80.318    0.343    0.171   11.049
  489.750   81.030    0.339    0.195   11.926
  490.000   78.085    0.350    0.202   12.623
  490.250   75.168    0.359    0.215   13.616
  490.500   75.906    0.353    0.220   13.912
  490.750   76.618    0.348    0.214   13.948
  491.000   76.725    0.340    0.210   15.617
  491.250   75.595    0.337    0.216   15.946
  491.500   71.495    0.348    0.229   16.282
  491.750   71.602    0.344    0.242   17.888
  492.000   72.945    0.339    0.252   18.265
  492.250   73.603    0.334    0.245   17.654
  492.500   73.710    0.343    0.243   18.359
  492.750   67.190    0.358    0.242   19.080
  493.000   66.087    0.350    0.200   19.855
  493.250   68.008    0.338    0.172   18.513
  493.500   72.322    0.318    0.174   17.558
  493.750   86.367    0.337    0.183   16.350
  494.000   88.315    0.368    0.182   13.903
  494.250   82.346    0.365    0.196   12.048
  494.500   79.429    0.354    0.218   12.522
  494.750   78.931    0.337    0.215   13.516
  495.000   76.672    0.339    0.206   13.792
  495.250   77.330    0.351    0.214   14.092
  495.500   78.041    0.345    0.226   14.119
  495.750   76.965    0.340    0.238   14.426
  496.000   72.811    0.341    0.245   14.472
  496.250   69.289    0.339    0.251   14.768
  496.500   71.842    0.335    0.252   15.098
  496.750   75.578    0.338    0.240   14.844
  497.000   74.475    0.339    0.209   13.334
  497.250   73.977    0.336    0.207   13.126
  497.500   75.293    0.333    0.205   13.912
  497.750   77.819    0.329    0.224   14.214
  498.000   80.977    0.330    0.232   14.232
  498.250   82.293    0.326    0.238   14.541
  498.500   83.005    0.321    0.235   14.046
  498.750   81.875    0.321    0.222   12.618
  499.000   77.748    0.334    0.224   11.130
  499.250   75.436    0.347    0.223   11.788
  499.500   77.384    0.356    0.212   12.493
  499.750   78.673    0.354    0.212   13.467
  500.000   73.915    0.346    0.214   16.213
  500.250   26.159    0.317    0.216   20.633
  500.500   15.352    0.206    0.204   37.198
  500.750    8.833    0.143    0.018   57.856
  501.000    7.125    0.141    0.020  190.786
  501.250    6.022    0.143    0.024  376.911
  501.500    7.338    0.145    0.026  421.728
  501.750    8.628    0.144    0.038  293.048
  502.000   11.154    0.146    0.029  141.226
  502.250   12.524    0.187    0.012  109.521
