~VERSION INFORMATION
 VERS.                 2.0:   CWLS LOG ASCII STANDARD -VERSION 2.0
 WRAP.                  NO:   ONE LINE PER DEPTH STEP
~WELL INFORMATION BLOCK
#MNEM.UNIT           DATA                    DESCRIPTION OF MNEMONIC
#---------    -------------------            -------------------------------
# Generated from Intellog Unique Number	CN_94_101/WELL/3782
WELL.         10-25-095-18W4                 : Well_name    - WELL
LOC .         00/10-25-095-18W4/0            : Location     - LOCATION
UWI .         00/10-25-095-18W400            : Uwi          - UNIQUE WELL ID
ENTR.         T                              : Entered      - ENTERED BY
SRVC.         SCHLUMBERGER                   : Scn          - SERVICE COMPANY
DATE.         04/12/92                       : Date         - LOG DATE
STRT.M        200                            : top_depth    - START DEPTH
STOP.M        394.75                         : bot_depth    - STOP DEPTH
STEP.M        0.25                           : increment    - STEP LENGTH
 NULL. -999.2500:NULL Value
~CURVE INFORMATION BLOCK
#MNEM UNIT       ERCB CURVE CODE    CURVE DESCRIPTION
#-----------   ------------------   ----------------------------------
DEPT.M        00 001 00 00         : DEPTH        - DEPTH
GR  .API      00 310 00 00         : GR           - GAMMA RAY
CALI.MM       00 280 01 00         : CAL          - CALIPER
NPHI.V/V      00 330 00 00         : PHIN         - NEUTRON POROSITY (SANDSTONE)
DPHI.V/V      00 890 00 00         : PHID         - DENSITY POROSITY (SANDSTONE)
ILD .OHMM     00 120 00 00         : RESD         - DEEP RESISTIVITY (DIL)
~PARAMETER INFORMATION
#MNEM.UNIT           DATA             DESCRIPTION OF MNEMONIC
#---------         -----------     ------------------------------
GL  .M        665                  : gl           - GROUND LEVEL ELEVATION
EREF.M        668                  : kb           - ELEVATION OF DEPTH REFERENCE
DATM.M        668                  : datum        - DATUM ELEVATION
TDD .M        399                  : tdd          - TOTAL DEPTH DRILLER
RUN .         0.000000             : Run          - RUN NUMBER
MUD .         GEL                  : Mud_type     - MUD TYPE
MATR.         SANDSTONE            : Logunit      - NEUTRON MATRIX
TMAX.C        15                   : BHT          - MAXIMUM RECORDED TEMPERATURE
BHTD.M        253.4                : BHTDEP       - MAXIMUM RECORDED TEMPERATURE
RMT .C        17.3                 : MDTP         - TEMPERATURE OF MUD
MUDD.KG/M     1130                 : MWT          - MUD DENSITY
NEUT.         1                    : NEUTRON      - NEUTRON TYPE
RESI.         0                    : RESIST       - RESISTIVITY TYPE
RM  .OHMM     8.25                 : RM           - RESISTIVITY OF MUD
RMC .OHMM     7.89                 : RMC          - RESISTIVITY OF MUD CAKE
RMF .OHMM     3.5                  : RMF          - RESISTIVITY OF MUD FILTRATE
SUFT.C        4                    : SUFT         - SURFACE TEMPERATURE
BTZC.MM       0                    : BITZC        - BIT SIZE CONSTANT
MDW .KG/M     0                    : MDW          - MUD WEIGHT
~A  DEPTH       GR      CAL     PHIN     PHID     RESD
  200.000   26.141  155.083    0.336    0.306   24.424
  200.250   29.876  157.158    0.339    0.313   24.896
  200.500   29.253  158.195    0.338    0.311   24.424
  200.750   27.386  160.270    0.350    0.314   25.867
  201.000   24.896  156.120    0.378    0.326   27.395
  201.250   23.029  157.025    0.376    0.331   27.395
  201.500   22.407  158.058    0.359    0.329   27.395
  201.750   24.274  154.959    0.354    0.324   27.395
  202.000   26.141  154.959    0.352    0.318   27.395
  202.250   28.008  154.959    0.351    0.313   27.924
  202.500   29.876  154.959    0.351    0.316   28.464
  202.750   28.631  154.959    0.348    0.324   27.924
  203.000   24.896  154.959    0.351    0.339   27.924
  203.250   24.896  155.083    0.351    0.338   26.876
  203.500   27.386  155.083    0.354    0.333   27.395
  203.750   26.763  155.083    0.373    0.326   27.395
  204.000   25.519  155.083    0.395    0.326   27.395
  204.250   28.631  155.083    0.376    0.333   27.395
  204.500   30.498  155.083    0.361    0.339   26.367
  204.750   30.498  155.083    0.344    0.336   26.367
  205.000   32.988  156.120    0.336    0.326   25.867
  205.250   32.365  156.120    0.327    0.326   27.395
  205.500   31.120  156.120    0.357    0.326   27.395
  205.750   30.498  156.120    0.354    0.326   27.395
  206.000   29.253  156.120    0.344    0.325   27.395
  206.250   29.876  156.120    0.331    0.329   26.876
  206.500   29.253  155.083    0.333    0.334   27.395
  206.750   28.008  155.083    0.361    0.338   28.464
  207.000   29.876  156.120    0.367    0.338   27.924
  207.250   31.743  154.046    0.368    0.336   27.395
  207.500   31.120  154.959    0.363    0.334   27.395
  207.750   29.876  155.992    0.363    0.338   27.924
  208.000   28.631  152.893    0.358    0.341   26.876
  208.250   28.631  151.860    0.352    0.341   26.367
  208.500   31.743  151.860    0.346    0.337   25.867
  208.750   35.477  151.860    0.351    0.336   25.377
  209.000   34.855  151.860    0.387    0.332   23.961
  209.250   34.855  153.926    0.390    0.332   23.507
  209.500   32.988  152.893    0.376    0.334   24.424
  209.750   28.008  155.992    0.357    0.337   24.424
  210.000   29.253  155.992    0.357    0.334   24.896
  210.250   31.743  155.992    0.362    0.333   25.867
  210.500   34.232  155.992    0.362    0.331   25.377
  210.750   36.722  155.992    0.352    0.328   25.377
  211.000   34.855  152.893    0.359    0.328   23.961
  211.250   32.988  152.893    0.383    0.327   23.961
  211.500   31.120  149.896    0.391    0.326   24.896
  211.750   29.876  149.896    0.387    0.325   24.896
  212.000   31.120  149.896    0.378    0.325   25.867
  212.250   31.743  149.896    0.385    0.329   25.867
  212.500   32.988  150.934    0.403    0.334   25.377
  212.750   32.365  151.971    0.408    0.334   25.377
  213.000   29.253  153.008    0.380    0.341   25.867
  213.250   26.763  156.120    0.377    0.344   25.867
  213.500   25.519  156.120    0.371    0.339   25.377
  213.750   29.876  161.157    0.351    0.331   24.896
  214.000   36.100  163.223    0.340    0.337   24.424
  214.250   32.365  163.223    0.345    0.339   24.896
  214.500   28.631  164.256    0.362    0.338   25.377
  214.750   28.631  165.289    0.362    0.338   25.377
  215.000   29.375  165.289    0.359    0.337   26.367
  215.250   26.875  164.256    0.358    0.332   26.876
  215.500   28.125  164.256    0.372    0.334   26.367
  215.750   26.875  165.289    0.388    0.338   25.377
  216.000   31.250  162.190    0.389    0.346   23.961
  216.250   30.625  162.190    0.378    0.343   23.061
  216.500   30.625  162.190    0.370    0.339   23.961
  216.750   30.000  161.157    0.377    0.338   24.424
  217.000   31.250  161.157    0.380    0.336   25.377
  217.250   28.125  161.157    0.358    0.334   25.867
  217.500   24.375  159.091    0.351    0.338   26.367
  217.750   25.000  157.025    0.343    0.342   26.367
  218.000   25.625  155.992    0.359    0.347   25.867
  218.250   26.250  154.959    0.367    0.356   25.377
  218.500   25.625  152.893    0.389    0.358   24.896
  218.750   25.625  152.893    0.393    0.361   23.507
  219.000   26.250  152.893    0.390    0.363   23.061
  219.250   26.875  152.893    0.388    0.370   23.507
  219.500   27.500  154.959    0.387    0.371   23.507
  219.750   28.125  154.959    0.387    0.371   23.961
  220.000   28.008  155.992    0.388    0.370   24.424
  220.250   27.386  158.058    0.382    0.367   24.424
  220.500   27.386  158.058    0.378    0.362   24.896
  220.750   28.008  159.091    0.393    0.353   23.507
  221.000   31.120  159.091    0.400    0.354   23.507
  221.250   32.988  159.091    0.404    0.356   22.624
  221.500   31.612  159.091    0.383    0.357   23.507
  221.750   33.471  159.091    0.384    0.354   22.195
  222.000   32.231  159.091    0.387    0.356   22.624
  222.250   29.132  161.157    0.388    0.344   21.775
  222.500   23.554  161.157    0.384    0.336   22.195
  222.750   26.033  161.157    0.388    0.331   19.788
  223.000   28.512  161.157    0.392    0.337   19.788
  223.250   30.864  160.124    0.395    0.343   20.560
  223.500   32.716  160.124    0.368    0.343   20.170
  223.750   35.185  160.124    0.365    0.344   20.170
  224.000   37.037  161.157    0.363    0.344   19.413
  224.250   33.333  161.157    0.393    0.343   20.170
  224.500   32.099  160.124    0.394    0.341   19.413
  224.750   30.864  159.091    0.387    0.336   19.413
  225.000   30.864  160.124    0.380    0.332   19.045
  225.250   36.420  160.124    0.385    0.329   19.788
  225.500   37.654  160.124    0.387    0.332   18.684
  225.750   44.444  160.124    0.385    0.317   17.307
  226.000   50.617  159.091    0.378    0.304   15.430
  226.250   53.704  159.232    0.387    0.295   13.756
  226.500   54.321  159.232    0.398    0.285   13.496
  226.750   56.173  161.307    0.415    0.281   12.501
  227.000   58.025  161.307    0.417    0.276   11.804
  227.250   60.494  161.307    0.412    0.265   11.804
  227.500   62.963  161.307    0.390    0.220   11.580
  227.750   60.494  162.344    0.402    0.153   11.804
  228.000   58.025  162.344    0.402    0.171   11.804
  228.250   59.259  161.307    0.413    0.208   10.128
  228.500   66.667  161.307    0.426    0.217    8.206
  228.750   77.778  163.382    0.438    0.228    7.601
  229.000   87.037  168.568    0.422    0.235    6.522
  229.250   86.420  163.382    0.413    0.241    6.042
  229.500   84.568  160.270    0.492    0.246    5.184
  229.750   87.037  165.456    0.496    0.243    4.895
  230.000   91.736  173.755    0.499    0.241    4.364
  230.250   93.595  178.942    0.468    0.237    4.895
  230.500   93.595  177.905    0.456    0.237    4.990
  230.750   94.215  175.830    0.478    0.241    4.802
  231.000   95.455  174.793    0.485    0.246    4.711
  231.250   92.116  174.793    0.499    0.246    4.622
  231.500   92.116  173.755    0.509    0.251    4.281
  231.750   93.361  173.755    0.507    0.256    4.042
  232.000   90.249  172.718    0.487    0.252    4.042
  232.250   87.759  160.270    0.481    0.242    4.448
  232.500   85.625  162.344    0.448    0.225    5.184
  232.750   80.625  162.344    0.415    0.194    5.927
  233.000   76.875  162.344    0.416    0.185    6.777
  233.250   77.500  162.344    0.417    0.244    8.050
  233.500   82.500  160.270    0.421    0.279    8.859
  233.750   87.238  160.270    0.416    0.285    8.526
  234.000   83.473  160.270    0.407    0.294    8.206
  234.250   74.686  160.270    0.411    0.295    6.648
  234.500   79.707  160.270    0.461    0.288    6.158
  234.750   84.100  168.568    0.501    0.284    5.927
  235.000   90.756  177.905    0.450    0.279    5.597
  235.250   87.605  182.054    0.455    0.279    5.284
  235.500   84.454  179.979    0.461    0.271    4.802
  235.750   88.235  178.942    0.456    0.270    4.895
  236.000   90.126  160.270    0.433    0.270    5.086
  236.250   85.714  178.942    0.428    0.308    5.705
