~VERSION INFORMATION
 VERS.                 2.0:   CWLS LOG ASCII STANDARD -VERSION 2.0
 WRAP.                  NO:   ONE LINE PER DEPTH STEP
~WELL INFORMATION BLOCK
#MNEM.UNIT           DATA                    DESCRIPTION OF MNEMONIC
#---------    -------------------            -------------------------------
# Generated from Intellog Unique Number	CW_73_75/WELL/1050
WELL.         TRICENT ET AL MITSUE 12-08     : Well_name    - WELL
LOC .         00/12-08-074-05W5/0            : Location     - LOCATION
UWI .         00/12-08-074-05W5/0            : Uwi          - UNIQUE WELL ID
ENTR.         JAYE                           : Entered      - ENTERED BY
SRVC.         SCHLUMBERGER                   : Scn          - SERVICE COMPANY
DATE.         11 JAN 84                      : Date         - LOG DATE
STRT.M        360                            : top_depth    - START DEPTH
STOP.M        590                            : bot_depth    - STOP DEPTH
STEP.M        0.25                           : increment    - STEP LENGTH
 NULL. -999.2500:NULL Value
~CURVE INFORMATION BLOCK
#MNEM UNIT       ERCB CURVE CODE    CURVE DESCRIPTION
#-----------   ------------------   ----------------------------------
DEPT.M        00 001 00 00         : DEPTH        - DEPTH
CALI.MM       00 280 01 00         : CAL          - CALIPER
GR  .API      00 310 00 00         : GR           - GAMMA RAY
NPHI.V/V      00 330 00 00         : PHIN         - NEUTRON POROSITY (SANDSTONE)
DPHI.V/V      00 890 00 00         : PHID         - DENSITY POROSITY (SANDSTONE)
ILD .OHMM     00 120 00 00         : RESD         - DEEP RESISTIVITY (DIL)
~PARAMETER INFORMATION
#MNEM.UNIT           DATA             DESCRIPTION OF MNEMONIC
#---------         -----------     ------------------------------
GL  .M        596.5                : gl           - GROUND LEVEL ELEVATION
EREF.M        600.65               : kb           - ELEVATION OF DEPTH REFERENCE
DATM.M        596.5                : datum        - DATUM ELEVATION
TDD .M        1689                 : tdd          - TOTAL DEPTH DRILLER
RUN .         ONE                  : Run          - RUN NUMBER
ENG .         GAGGINO              : Engineer     - RECORDING ENGINEER
WIT .         EARLE                : Witness      - WITNESSED BY
BASE.         EDM                  : Branch       - HOME BASE OF LOGGING UNIT
MUD .         GEL CHEM             : Mud_type     - MUD TYPE
MATR.         SANDSTONE            : Logunit      - NEUTRON MATRIX
TMAX.C        53                   : BHT          - MAXIMUM RECORDED TEMPERATURE
BHTD.M        1689.5               : BHTDEP       - MAXIMUM RECORDED TEMPERATURE
RMT .C        15                   : MDTP         - TEMPERATURE OF MUD
MUDD.KG/M     1130                 : MWT          - MUD DENSITY
NEUT.         1                    : NEUTRON      - NEUTRON TYPE
RESI.         0                    : RESIST       - RESISTIVITY TYPE
RM  .OHMM     0.618                : RM           - RESISTIVITY OF MUD
RMC .OHMM     0                    : RMC          - RESISTIVITY OF MUD CAKE
RMF .OHMM     1.15                 : RMF          - RESISTIVITY OF MUD FILTRATE
SUFT.C        0                    : SUFT         - SURFACE TEMPERATURE
~A  DEPTH      CAL       GR     PHIN     PHID     RESD
# ...
  396.500  241.512   49.627    0.379    0.311    5.042
  396.750  241.799   47.214    0.428    0.277    5.117
  397.000  239.807   44.307    0.432    0.305    5.144
  397.250  238.333   43.498    0.413    0.313    5.142
  397.500  237.998   43.246    0.419    0.315    5.016
  397.750  237.560   45.277    0.428    0.325    4.775
  398.000  237.227   51.444    0.435    0.333    4.208
  398.250  237.203   50.141    0.434    0.322    3.675
  398.500  239.666   50.321    0.422    0.319    3.173
  398.750  248.037   50.870    0.416    0.336    2.909
  399.000  272.268   45.309    0.446    0.484    2.924
  399.250  380.759   41.043    0.475    0.622    3.187
  399.500  376.175   42.704    0.604    0.596    3.786
  399.750  317.075   48.254    0.632    0.556    4.787
  400.000  271.450   52.075    0.613    0.291    5.376
  400.250  241.059   45.958    0.432    0.295    5.476
  400.500  232.951   44.533    0.440    0.304    5.381
  400.750  232.720   44.835    0.455    0.328    5.319
  401.000  232.072   46.496    0.448    0.331    5.238
  401.250  231.741   47.293    0.435    0.331    5.167
  401.500  231.510   47.163    0.419    0.334    5.136
  401.750  232.006   46.725    0.400    0.340    5.105
  402.000  232.392   46.287    0.424    0.360    5.094
  402.250  233.410   45.170    0.440    0.357    5.063
  402.500  234.417   45.843    0.439    0.355    5.023
  402.750  234.814   46.455    0.441    0.348    5.040
  403.000  234.791   44.844    0.443    0.343    5.038
  403.250  234.250   41.752    0.454    0.342    5.055
  403.500  233.704   41.931    0.449    0.342    5.082
  403.750  233.165   43.715    0.446    0.342    5.099
  404.000  232.619   45.314    0.463    0.342    5.145
  404.250  232.600   46.666    0.430    0.339    5.182
  404.500  232.473   47.956    0.406    0.335    5.219
  404.750  232.451   47.642    0.403    0.333    5.266
  405.000  232.218   45.969    0.414    0.332    5.303
  405.250  232.400   46.395    0.418    0.334    5.371
  405.500  232.485   47.994    0.420    0.335    5.430
  405.750  233.498   46.939    0.419    0.337    5.500
  406.000  234.511   44.835    0.412    0.344    5.539
  406.250  235.525   43.286    0.412    0.339    5.527
  406.500  236.742   44.884    0.425    0.332    5.494
  406.750  237.442   45.187    0.434    0.324    5.460
  407.000  237.217   43.268    0.430    0.330    5.469
  407.250  236.671   42.398    0.433    0.353    5.528
  407.500  236.236   45.108    0.437    0.354    5.631
  407.750  235.793   47.632    0.430    0.346    5.714
  408.000  235.569   46.639    0.420    0.340    5.864
  408.250  235.749   47.004    0.411    0.335    6.063
  408.500  236.038   50.516    0.417    0.330    6.436
  408.750  236.011   50.078    0.429    0.328    6.794
  409.000  236.198   46.554    0.437    0.327    7.012
  409.250  236.381   45.190    0.438    0.326    7.128
  409.500  236.773   45.430    0.425    0.328    7.247
  409.750  237.064   43.326    0.411    0.330    7.381
  410.000  237.247   42.456    0.401    0.334    7.490
  410.250  237.431   45.413    0.407    0.338    7.572
  410.500  237.510   46.703    0.418    0.340    7.611
  410.750  237.489   45.401    0.412    0.335    7.681
  411.000  237.050   45.395    0.417    0.331    7.794
  411.250  236.401   47.919    0.437    0.326    7.894
  411.500  236.171   46.247    0.422    0.322    8.011
  411.750  235.733   41.427    0.425    0.321    8.083
  412.000  235.505   41.606    0.408    0.320    8.140
  412.250  235.581   44.378    0.412    0.318    8.122
  412.500  235.666   47.026    0.407    0.315    8.195
  412.750  235.746   44.983    0.399    0.314    8.332
  413.000  236.135   42.076    0.411    0.312    8.535
  413.250  236.217   46.083    0.428    0.307    9.215
  413.500  236.506   47.620    0.430    0.302   11.847
  413.750  236.899   45.515    0.438    0.295   14.210
  414.000  238.325   42.670    0.414    0.258   15.169
  414.250  241.618   43.343    0.237    0.225   14.742
  414.500  242.735   43.522    0.166    0.199   13.567
  414.750  242.295   36.664    0.149    0.179   11.176
  415.000  241.653   30.795    0.191    0.154    9.434
  415.250  241.008   38.196    0.220    0.182    8.054
  415.500  241.189   47.325    0.255    0.323    7.274
  415.750  241.375   50.344    0.302    0.332    7.271
  416.000  241.765   48.609    0.390    0.323    7.448
  416.250  242.157   45.888    0.416    0.291    7.715
  416.500  243.066   44.586    0.385    0.270    7.814
  416.750  244.185   44.950    0.298    0.282    7.566
  417.000  245.196   46.611    0.361    0.290    7.243
  417.250  246.103   48.580    0.427    0.278    6.869
  417.500  246.183   48.451    0.416    0.268    6.441
  417.750  245.645   45.852    0.410    0.260    6.144
  418.000  244.480   44.365    0.410    0.258    5.915
  418.250  243.630   48.927    0.401    0.283    5.683
  418.500  243.190   52.193    0.394    0.288    5.503
  418.750  243.060   51.137    0.391    0.290    5.328
  419.000  242.625   51.625    0.395    0.303    5.246
  419.250  242.603   52.916    0.413    0.317    5.176
  419.500  241.852   48.959    0.412    0.347    5.135
  419.750  241.414   49.632    0.416    0.359    5.171
  420.000  241.804   52.404    0.431    0.351    5.238
  420.250  242.300   54.434    0.427    0.340    5.236
  420.500  242.588   52.269    0.430    0.342    5.185
  420.750  242.361   46.831    0.430    0.344    5.173
  421.000  242.232   46.763    0.413    0.337    5.181
  421.250  242.414   46.696    0.417    0.336    5.179
  421.500  242.801   45.393    0.430    0.344    5.167
  421.750  242.889   41.869    0.424    0.353    5.126
  422.000  242.760   42.665    0.424    0.354    5.115
  422.250  243.045   48.030    0.469    0.351    5.093
  422.500  243.128   49.196    0.494    0.347    5.091
  422.750  243.418   48.265    0.438    0.349    5.089
  423.000  243.706   49.802    0.420    0.347    5.068
  423.250  243.985   53.747    0.434    0.343    5.047
  423.500  243.969   52.753    0.429    0.343    5.074
  423.750  244.051   48.858    0.416    0.345    5.100
  424.000  244.442   44.778    0.432    0.346    5.098
  424.250  244.833   51.007    0.436    0.346    5.096
  424.500  245.428   55.075    0.437    0.345    5.075
  424.750  246.133   52.044    0.436    0.343    5.063
  425.000  246.937   49.199    0.427    0.337    5.062
  425.250  247.531   48.082    0.430    0.323    5.060
  425.500  247.512   49.002    0.465    0.318    5.048
  425.750  247.178   51.156    0.476    0.327    5.046
  426.000  246.634   49.978    0.481    0.323    5.063
  426.250  246.095   49.540    0.463    0.325    5.099
  426.500  245.970   52.311    0.440    0.330    5.175
  426.750  245.632   52.306    0.462    0.333    5.321
  427.000  245.610   49.892    0.485    0.325    5.574
  427.250  245.797   50.010    0.450    0.317    6.063
  427.500  245.875   51.794    0.443    0.319    6.991
  427.750  245.955   53.393    0.443    0.328    8.338
  428.000  246.452   52.708    0.457    0.308    9.926
  428.250  246.633   53.566    0.468    0.266   11.106
  428.500  246.920   49.425    0.459    0.211   11.483
  428.750  246.896   45.282    0.245    0.219   11.097
  429.000  246.876   44.228    0.155    0.252    9.689
  429.250  246.645   44.654    0.162    0.277    7.877
  429.500  246.000   46.252    0.184    0.308    6.750
  429.750  245.771   50.012    0.225    0.319    5.894
  430.000  246.472   53.648    0.291    0.324    5.527
  430.250  247.485   53.087    0.372    0.327    5.261
  430.500  249.016   50.673    0.429    0.327    5.075
  430.750  250.441   52.520    0.433    0.325    4.876
  431.000  251.044   57.699    0.413    0.321    4.651
  431.250  251.436   56.705    0.426    0.315    4.378
  431.500  253.692   55.032    0.425    0.300    4.152
  431.750  258.539   58.113    0.422    0.283    3.872
  432.000  263.283   62.119    0.439    0.251    3.530
  432.250  266.575   63.656    0.458    0.243    3.535
  432.500  271.218   65.379    0.451    0.257    3.824
  432.750  278.552   67.163    0.457    0.271    4.552
