~VERSION INFORMATION
 VERS.                 2.0:   CWLS LOG ASCII STANDARD -VERSION 2.0
 WRAP.                  NO:   ONE LINE PER DEPTH STEP
~WELL INFORMATION BLOCK
#MNEM.UNIT           DATA                    DESCRIPTION OF MNEMONIC
#---------    -------------------            -------------------------------
# Generated from Intellog Unique Number	CS_73_76/WELL/838
WELL.         MIAMI OIL PRODUCERS            : Well_name    - WELL
LOC .         00/10-32-073-11W4/0            : Location     - LOCATION
UWI .         00/10-32-073-11W4/0            : Uwi          - UNIQUE WELL ID
ENTR.         SP                             : Entered      - ENTERED BY
SRVC.         SCHLUMBERGER                   : Scn          - SERVICE COMPANY
STRT.M        295.656                        : top_depth    - START DEPTH
STOP.M        533.156                        : bot_depth    - STOP DEPTH
STEP.M        0.25                           : increment    - STEP LENGTH
 NULL. -999.2500:NULL Value
~CURVE INFORMATION BLOCK
#MNEM UNIT       ERCB CURVE CODE    CURVE DESCRIPTION
#-----------   ------------------   ----------------------------------
DEPT.M        00 001 00 00         : DEPTH        - DEPTH
GR  .API      00 310 00 00         : GR           - GAMMA RAY
DPHI.V/V      00 890 00 00         : PHID         - DENSITY POROSITY (SANDSTONE)
NPHI.V/V      00 330 00 00         : PHIN         - NEUTRON POROSITY (SANDSTONE)
ILD .OHMM     00 120 00 00         : RESD         - DEEP RESISTIVITY (DIL)
~PARAMETER INFORMATION
#MNEM.UNIT           DATA             DESCRIPTION OF MNEMONIC
#---------         -----------     ------------------------------
GL  .M        644.347              : gl           - GROUND LEVEL ELEVATION
EREF.M        647.395              : kb           - ELEVATION OF DEPTH REFERENCE
DATM.M        644.347              : datum        - DATUM ELEVATION
TDD .M        636.727              : tdd          - TOTAL DEPTH DRILLER
RUN .         ONE                  : Run          - RUN NUMBER
ENG .         BILL                 : Engineer     - RECORDING ENGINEER
WIT .         JIM                  : Witness      - WITNESSED BY
MUD .         GEL                  : Mud_type     - MUD TYPE
MATR.         SANDSTONE            : Logunit      - NEUTRON MATRIX
TMAX.C        25.5556              : BHT          - MAXIMUM RECORDED TEMPERATURE
BHTD.M        636.727              : BHTDEP       - MAXIMUM RECORDED TEMPERATURE
MATR.         1                    : LOGUNIT      - NEUTRON MATRIX
RMT .C        25                   : MDTP         - TEMPERATURE OF MUD
NEUT.         1                    : NEUTRON      - NEUTRON TYPE
RESI.         0                    : RESIST       - RESISTIVITY TYPE
RMC .OHMM     0.25                 : RMC          - RESISTIVITY OF MUD CAKE
RMF .OHMM     0.25                 : RMF          - RESISTIVITY OF MUD FILTRATE
SUFT.C        15                   : SUFT         - SURFACE TEMPERATURE
~A  DEPTH       GR     PHID     PHIN     RESD
# ...
  339.156  110.538    0.245    0.446    8.791
  339.406  104.291    0.264    0.461    9.096
  339.656   96.555    0.283    0.470    9.518
  339.906   89.456    0.296    0.463   10.294
  340.156   84.544    0.292    0.453   10.909
  340.406   84.034    0.282    0.457   11.493
  340.656   87.293    0.275    0.468   11.567
  340.906   90.343    0.279    0.466   11.003
  341.156   90.763    0.285    0.466   10.231
  341.406   90.239    0.277    0.482    9.962
  341.656   88.198    0.266    0.493   10.329
  341.906   87.813    0.254    0.486   10.545
  342.156   88.228    0.238    0.479   10.766
  342.406   89.791    0.240    0.500   10.621
  342.656   89.726    0.253    0.507   10.534
  342.906   88.720    0.264    0.515   10.206
  343.156   90.689    0.270    0.526   10.042
  343.406   92.357    0.274    0.532    9.837
  343.656   92.285    0.265    0.536    9.864
  343.906   91.343    0.255    0.550    9.891
  344.156   90.502    0.256    0.524    9.693
  344.406   93.107    0.261    0.495    9.410
  344.656   96.203    0.259    0.474    8.937
  344.906   98.593    0.263    0.457    8.474
  345.156  104.062    0.268    0.448    7.981
  345.406  106.800    0.258    0.436    7.584
  345.656  107.710    0.252    0.428    7.543
  345.906  107.279    0.257    0.428    7.671
  346.156  106.186    0.269    0.430    7.833
  346.406  103.580    0.275    0.453    7.973
  346.656  102.187    0.271    0.462    8.121
  346.906  101.475    0.269    0.452    8.332
  347.156  105.898    0.269    0.435    8.446
  347.406  109.123    0.265    0.436    8.294
  347.656  106.759    0.258    0.451    8.135
  347.906  105.038    0.265    0.462    8.043
  348.156  102.167    0.263    0.476    7.652
  348.406   99.266    0.257    0.467    7.288
  348.656   99.573    0.247    0.456    7.076
  348.906  101.482    0.239    0.470    7.048
  349.156  103.094    0.230    0.479    7.194
  349.406  106.291    0.246    0.480    7.361
  349.656  108.617    0.244    0.469    7.837
  349.906  107.921    0.258    0.470    8.327
  350.156  102.239    0.271    0.489    8.743
  350.406   96.073    0.282    0.499    9.204
  350.656   91.703    0.277    0.547    9.475
  350.906   96.115    0.287    0.574    9.325
  351.156   99.884    0.282    0.539    8.941
  351.406  102.249    0.278    0.502    8.157
  351.656  102.337    0.271    0.466    7.550
  351.906  100.710    0.263    0.461    7.518
  352.156  100.992    0.267    0.459    7.730
  352.406   97.655    0.283    0.459    8.381
  352.656   91.910    0.296    0.458    8.708
  352.906   87.868    0.288    0.465    9.667
  353.156   81.535    0.290    0.462   10.312
  353.406   76.853    0.293    0.439   11.026
  353.656   68.358    0.311    0.405   11.349
  353.906   61.559    0.328    0.385   11.937
  354.156   60.791    0.321    0.388   12.112
  354.406   65.444    0.323    0.401   12.142
  354.656   68.588    0.317    0.393   12.160
  354.906   71.957    0.308    0.405   11.975
  355.156   76.664    0.291    0.411   11.780
  355.406   79.671    0.280    0.422   11.520
  355.656   79.167    0.272    0.438   10.836
  355.906   79.240    0.275    0.434   10.223
  356.156   79.074    0.287    0.426    9.625
  356.406   77.483    0.293    0.429    9.523
  356.656   76.708    0.298    0.442    9.472
  356.906   78.780    0.281    0.454    9.304
  357.156   84.995    0.265    0.469    9.302
  357.406   88.870    0.251    0.462    9.302
  357.656   91.979    0.255    0.446    9.308
  357.906   92.164    0.250    0.448    9.312
  358.156   90.824    0.244    0.456    9.319
  358.406   89.415    0.251    0.463    9.305
  358.656   89.375    0.254    0.463    9.519
  358.906   89.738    0.243    0.472    9.509
  359.156   88.444    0.245    0.470    9.517
  359.406   86.720    0.252    0.459    9.558
  359.656   86.308    0.256    0.444    9.868
  359.906   83.805    0.260    0.430   10.171
  360.156   82.410    0.260    0.420   10.463
  360.406   88.123    0.260    0.422   10.453
  360.656   92.740    0.252    0.433   10.476
  360.906   96.488    0.236    0.442   10.256
  361.156   93.813    0.242    0.450    9.613
  361.406   84.083    0.265    0.446    7.722
  361.656   74.769    0.278    0.435    7.276
  361.906   69.517    0.285    0.419    7.688
  362.156   70.111    0.289    0.412    8.391
  362.406   75.623    0.290    0.426    8.905
  362.656   78.450    0.293    0.439    9.572
  362.906   81.992    0.286    0.451   10.225
  363.156   83.822    0.273    0.461   10.890
  363.406   85.276    0.283    0.463   10.820
  363.656   84.448    0.279    0.451   10.499
  363.906   83.504    0.273    0.443   10.208
  364.156   82.800    0.276    0.451    9.686
  364.406   82.163    0.278    0.459    9.621
  364.656   80.738    0.276    0.464    9.449
  364.906   79.647    0.281    0.455    9.405
  365.156   78.674    0.281    0.446    9.303
  365.406   77.146    0.279    0.449    9.307
  365.656   75.509    0.283    0.448    9.302
  365.906   74.623    0.284    0.454    9.486
  366.156   73.998    0.274    0.464    9.579
  366.406   73.205    0.268    0.502    9.860
  366.656   70.691    0.285    0.514   10.028
  366.906   68.806    0.307    0.478   10.143
  367.156   70.022    0.311    0.448   10.253
  367.406   71.382    0.317    0.431   10.604
  367.656   73.336    0.324    0.443   10.632
  367.906   75.974    0.331    0.452   10.643
  368.156   79.030    0.324    0.449   10.643
  368.406   81.675    0.303    0.451   10.589
  368.656   82.347    0.287    0.442   10.468
  368.906   79.027    0.267    0.432   10.163
  369.156   76.968    0.269    0.426    9.874
  369.406   77.032    0.281    0.422    9.586
  369.656   76.533    0.291    0.438    9.287
  369.906   74.716    0.300    0.448    9.188
  370.156   75.271    0.290    0.445    8.911
  370.406   75.942    0.288    0.441    8.679
  370.656   75.043    0.295    0.446    8.440
  370.906   71.437    0.307    0.459    8.458
  371.156   68.980    0.316    0.450    8.515
  371.406   69.448    0.303    0.450    8.617
  371.656   71.788    0.290    0.452    8.620
  371.906   74.927    0.293    0.448    8.579
  372.156   81.041    0.279    0.457    8.482
  372.406   88.473    0.265    0.461    8.071
  372.656   89.536    0.264    0.451    7.833
  372.906   91.165    0.259    0.437    7.362
  373.156   93.318    0.253    0.461    7.076
  373.406   97.050    0.247    0.480    6.614
  373.656   99.959    0.245    0.497    5.669
  373.906  101.385    0.243    0.495    4.962
  374.156  102.650    0.240    0.489    4.554
  374.406  103.527    0.237    0.498    4.276
  374.656  103.965    0.238    0.499    4.046
  374.906  100.224    0.250    0.495    3.889
  375.156   97.264    0.264    0.495    3.733
  375.406   95.004    0.261    0.507    3.619
  375.656   93.264    0.257    0.509    3.563
  375.906   89.828    0.258    0.510    3.489
  376.156   85.496    0.267    0.521    3.497
  376.406   80.188    0.289    0.491    3.484
  376.656   72.550    0.317    0.463    3.973
  376.906   66.353    0.340    0.452    4.665
  377.156   60.276    0.348    0.453    5.865
  377.406   59.864    0.346    0.453    7.335
  377.656   60.132    0.334    0.451    8.782
  377.906   61.006    0.330    0.451   10.191
  378.156   61.482    0.333    0.454   10.466
  378.406   61.938    0.335    0.436   10.331
  378.656   61.582    0.336    0.431   10.017
  378.906   61.377    0.335    0.435    9.974
  379.156   61.348    0.333    0.440    9.980
  379.406   62.770    0.333    0.447   10.084
  379.656   65.611    0.331    0.445   10.188
  379.906   65.552    0.333    0.440   10.521
  380.156   64.810    0.339    0.445   10.850
  380.406   65.547    0.331    0.451   11.187
  380.656   66.028    0.324    0.457   11.365
  380.906   65.300    0.318    0.457   11.602
  381.156   64.369    0.310    0.451   11.818
  381.406   63.357    0.316    0.450   11.817
  381.656   63.218    0.322    0.437   11.826
  381.906   63.214    0.332    0.436   11.845
  382.156   63.297    0.335    0.451   11.633
  382.406   62.666    0.328    0.472   11.403
