~VERSION INFORMATION
 VERS.                 2.0:   CWLS LOG ASCII STANDARD -VERSION 2.0
 WRAP.                  NO:   ONE LINE PER DEPTH STEP
~WELL INFORMATION BLOCK
#MNEM.UNIT           DATA                    DESCRIPTION OF MNEMONIC
#---------    -------------------            -------------------------------
# Generated from Intellog Unique Number	CW_70_72/WELL/1039
NULL.         -999.25                        : NULL_VALUE
WELL.         MCMORGAN DOME SMITH 10-18      : Well_name    - WELL              
LOC .         10-18-071-24W4                 : Location     - LOCATION          
UWI .         00/10-18-071-24W4/0            : Uwi          - UNIQUE WELL ID    
ENTR.         JAYE                           : Entered      - ENTERED BY        
SRVC.         SCHLUMBERGER                   : Scn          - SERVICE COMPANY   
DATE.         16 MAR 72                      : Date         - LOG DATE          
STRT.M        434.645                        : top_depth    - START DEPTH       
STOP.M        646.145                        : bot_depth    - STOP DEPTH        
STEP.M        0.25                           : increment    - STEP LENGTH       
~CURVE INFORMATION BLOCK
#MNEM UNIT       ERCB CURVE CODE    CURVE DESCRIPTION
#-----------   ------------------   ----------------------------------
DEPT.M        00 001 00 00         : DEPTH        - DEPTH                       
DPHI.V/V      00 890 00 00         : PHID         - DENSITY POROSITY (SANDSTONE)
NPHI.V/V      00 330 00 00         : PHIN         - NEUTRON POROSITY (SANDSTONE)
GR  .API      00 310 00 00         : GR           - GAMMA RAY                   
CALI.MM       00 280 01 00         : CAL          - CALIPER                     
ILD .OHMM     00 120 00 00         : RESD         - DEEP RESISTIVITY (DIL)      
~PARAMETER INFORMATION       
#MNEM.UNIT           DATA             DESCRIPTION OF MNEMONIC
#---------         -----------     ------------------------------
GL  .M        638.861              : gl           - GROUND LEVEL ELEVATION      
EREF.M        642.518              : kb           - ELEVATION OF DEPTH REFERENCE
DATM.M        638.861              : datum        - DATUM ELEVATION             
TDD .M        612.648              : tdd          - TOTAL DEPTH DRILLER         
RUN .         ONE                  : Run          - RUN NUMBER                  
ENG .         HAYWOOD              : Engineer     - RECORDING ENGINEER          
WIT .         GRAD                 : Witness      - WITNESSED BY                
BASE.         EDM                  : Branch       - HOME BASE OF LOGGING UNIT   
MUD .         FGM                  : Mud_type     - MUD TYPE                    
MATR.         SANDSTONE            : Logunit      - NEUTRON MATRIX              
TMAX.C        28.3333              : BHT          - MAXIMUM RECORDED TEMPERATURE
BHTD.M        612.648              : BHTDEP       - MAXIMUM RECORDED TEMPERATURE
RMT .C        20                   : MDTP         - TEMPERATURE OF MUD          
MUDD.KG/M     1104                 : MWT          - MUD DENSITY                 
NEUT.         1                    : NEUTRON      - NEUTRON TYPE                
RESI.         0                    : RESIST       - RESISTIVITY TYPE            
RM  .OHMM     2.62                 : RM           - RESISTIVITY OF MUD          
RMC .OHMM     0                    : RMC          - RESISTIVITY OF MUD CAKE     
RMF .OHMM     2.67                 : RMF          - RESISTIVITY OF MUD FILTRATE 
SUFT.C        0                    : SUFT         - SURFACE TEMPERATURE         
~A  DEPTH     PHID     PHIN       GR      CAL     RESD
# ...
  471.145   -0.024    0.182   51.865  208.418    5.665
  471.395   -0.009    0.191   55.211  208.397    5.071
  471.645    0.024    0.205   62.034  208.274    4.598
  471.895    0.060    0.257   67.271  208.460    4.192
  472.145    0.093    0.307   75.132  208.446    3.958
  472.395    0.128    0.358   83.176  208.423    3.649
  472.645    0.160    0.401   89.695  208.095    3.370
  472.895    0.171    0.430   95.603  208.388    3.147
  473.145    0.170    0.442   92.418  208.469    2.994
  473.395    0.198    0.449   88.441  208.657    2.858
  473.645    0.228    0.446   83.424  208.740    2.801
  473.895    0.256    0.445   78.471  208.720    2.764
  474.145    0.278    0.445   73.455  209.016    2.769
  474.395    0.292    0.443   69.294  208.685    2.820
  474.645    0.286    0.441   67.818  208.667    2.915
  474.895    0.269    0.443   69.150  208.545    3.041
  475.145    0.270    0.445   70.724  208.111    3.225
  475.395    0.266    0.446   73.459  208.093    3.537
  475.645    0.257    0.446   77.354  208.176    4.160
  475.895    0.245    0.446   81.126  208.261    4.646
  476.145    0.206    0.446   84.959  208.447    5.170
  476.395    0.208    0.442   88.549  208.426    5.535
  476.645    0.240    0.432   89.270  208.411    5.669
  476.895    0.242    0.417   83.216  208.390    5.382
  477.145    0.199    0.370   81.070  208.269    4.999
  477.395    0.167    0.351   82.706  208.249    4.625
  477.645    0.145    0.351   85.197  208.332    4.457
  477.895    0.159    0.387   88.176  208.416    4.295
  478.145    0.172    0.387   86.699  208.291    4.055
  478.395    0.161    0.379   85.956  208.275    3.801
  478.645    0.169    0.396   87.043  208.257    3.504
  478.895    0.172    0.421   88.985  208.338    3.051
  479.145    0.179    0.438   91.049  208.217    2.797
  479.395    0.175    0.442   88.474  208.300    2.550
  479.645    0.198    0.447   79.675  208.490    2.395
  479.895    0.229    0.439   69.166  208.466    2.253
  480.145    0.255    0.414   60.368  208.450    2.167
  480.395    0.278    0.399   51.262  208.225    2.119
  480.645    0.290    0.391   43.624  208.825    2.111
  480.895    0.305    0.384   42.636  208.908    2.119
  481.145    0.317    0.389   45.005  208.890    2.162
  481.395    0.323    0.402   46.030  208.873    2.293
  481.645    0.315    0.426   45.714  208.852    2.455
  481.895    0.316    0.402   45.032  208.835    2.701
  482.145    0.319    0.378   45.019  208.917    3.051
  482.395    0.330    0.376   45.864  209.001    3.395
  482.645    0.330    0.386   47.072  209.087    3.935
  482.895    0.322    0.400   48.647  209.481    4.220
  483.145    0.308    0.404   51.260  209.565    3.897
  483.395    0.294    0.401   54.117  209.443    3.175
  483.645    0.277    0.398   57.829  208.183    3.060
  483.895    0.237    0.405   62.700  207.646    3.025
  484.145    0.204    0.419   66.960  206.698    3.031
  484.395    0.229    0.437   72.625  206.161    3.002
  484.645    0.254    0.448   80.241  206.350    2.942
  484.895    0.271    0.454   85.784  206.847    2.824
  485.145    0.282    0.454   87.237  207.447    2.747
  485.395    0.261    0.453   81.244  207.738    2.696
  485.645    0.273    0.454   72.324  207.819    2.641
  485.895    0.297    0.453   63.158  207.804    2.612
  486.145    0.303    0.450   56.618  207.886    2.592
  486.395    0.296    0.444   51.967  207.765    2.578
  486.645    0.303    0.430   51.164  208.367    2.558
  486.895    0.311    0.433   49.808  208.554    2.549
  487.145    0.305    0.426   49.005  208.736    2.544
  487.395    0.305    0.429   48.078  208.720    2.581
  487.645    0.310    0.432   46.846  208.910    2.698
  487.895    0.303    0.416   45.308  208.682    2.974
  488.145    0.311    0.408   45.419  208.453    3.479
  488.395    0.304    0.404   46.565  208.334    4.184
  488.645    0.301    0.402   47.594  207.796    4.831
  488.895    0.304    0.400   48.925  207.570    5.619
  489.145    0.294    0.392   50.196  207.657    6.161
  489.395    0.283    0.376   48.842  207.534    6.632
  489.645    0.266    0.358   46.633  207.723    6.742
  489.895    0.243    0.325   47.048  207.498    6.717
  490.145    0.219    0.312   47.952  207.890    6.090
  490.395    0.246    0.327   49.221  207.975    4.441
  490.645    0.271    0.341   50.066  208.060    3.685
  490.895    0.301    0.349   51.886  208.039    3.197
  491.145    0.282    0.345   53.584  208.224    2.867
  491.395    0.289    0.349   54.914  208.412    2.623
  491.645    0.303    0.376   55.696  208.395    2.468
  491.895    0.300    0.414   55.012  208.375    2.391
  492.145    0.296    0.434   52.866  208.358    2.321
  492.395    0.301    0.444   51.513  208.336    2.249
  492.645    0.308    0.438   53.760  208.215    2.196
  492.895    0.319    0.420   54.297  207.988    2.159
  493.145    0.329    0.401   52.028  207.972    2.159
  493.395    0.313    0.408   48.722  207.949    2.171
  493.645    0.315    0.414   48.466  208.035    2.194
  493.895    0.310    0.423   51.016  208.223    2.215
  494.145    0.310    0.438   54.058  207.997    2.260
  494.395    0.322    0.448   56.732  208.184    2.289
  494.645    0.326    0.447   55.622  208.371    2.318
  494.895    0.327    0.435   54.206  208.558    2.343
  495.145    0.335    0.428   55.355  208.745    2.361
  495.395    0.346    0.440   58.211  208.416    2.352
  495.645    0.340    0.444   60.337  208.193    2.338
  495.895    0.313    0.429   60.325  207.962    2.291
  496.145    0.314    0.420   56.347  207.842    2.265
  496.395    0.328    0.416   54.261  207.928    2.240
  496.645    0.322    0.412   56.080  207.703    2.203
  496.895    0.315    0.415   57.473  207.578    2.182
  497.145    0.311    0.425   57.340  207.352    2.190
  497.395    0.317    0.437   55.620  207.541    2.227
  497.645    0.334    0.447   54.386  207.828    2.314
  497.895    0.334    0.445   54.803  207.914    2.379
  498.145    0.314    0.442   57.172  207.895    2.418
  498.395    0.326    0.437   59.967  207.775    2.422
  498.645    0.337    0.438   62.093  207.859    2.445
  498.895    0.337    0.434   64.338  208.147    2.517
  499.145    0.338    0.426   65.548  208.232    2.612
  499.395    0.333    0.424   65.597  208.111    2.843
  499.645    0.339    0.439   64.732  208.088    3.992
  499.895    0.334    0.447   62.280  208.280    4.962
  500.145    0.311    0.444   58.973  208.672    7.045
  500.395    0.259    0.431   56.154  208.345    9.569
  500.645    0.195    0.401   53.824  208.011   10.056
  500.895    0.147    0.361   52.654  207.687    9.426
  501.145    0.111    0.308   56.121  206.942    7.132
  501.395    0.088    0.248   60.686  207.233    5.135
  501.645    0.131    0.322   64.214  207.318    4.099
  501.895    0.163    0.348   67.437  207.300    3.383
  502.145    0.219    0.379   69.988  207.591    3.095
  502.395    0.281    0.402   71.625  207.881    3.072
  502.645    0.278    0.425   72.833  208.068    3.223
  502.895    0.271    0.441   73.373  208.252    3.412
  503.145    0.262    0.444   73.911  208.235    3.714
  503.395    0.241    0.444   74.936  208.008    4.005
  503.645    0.232    0.447   76.085  208.199    4.256
  503.895    0.225    0.446   78.270  208.077    4.351
  504.145    0.217    0.446   79.418  208.158    4.342
  504.395    0.204    0.440   78.918  208.141    4.341
  504.645    0.213    0.432   78.784  207.812    4.246
  504.895    0.196    0.434   79.628  207.793    4.039
  505.145    0.188    0.447   81.692  207.568    3.758
  505.395    0.207    0.450   83.512  207.129    3.535
  505.645    0.226    0.450   82.769  206.906    3.407
  505.895    0.237    0.449   80.803  206.368    3.229
  506.145    0.251    0.448   77.252  206.662    3.129
  506.395    0.272    0.447   74.434  206.645    3.060
  506.645    0.287    0.448   72.348  206.623    2.981
  506.895    0.294    0.446   70.078  206.811    2.937
  507.145    0.295    0.443   68.420  206.793    2.888
  507.395    0.301    0.441   66.760  206.878    2.861
