~VERSION INFORMATION
 VERS.                 2.0:   CWLS LOG ASCII STANDARD -VERSION 2.0
 WRAP.                  NO:   ONE LINE PER DEPTH STEP
~WELL INFORMATION BLOCK
#MNEM.UNIT           DATA                    DESCRIPTION OF MNEMONIC
#---------    -------------------            -------------------------------
# Generated from Intellog Unique Number	CS_73_76/WELL/4784
WELL.         BOW VALLEY INDUSTRIES          : Well_name    - WELL
LOC .         00/11-28-076-16W4/0            : Location     - LOCATION
UWI .         00/11-28-076-16W4/0            : Uwi          - UNIQUE WELL ID
ENTR.         JO                             : Entered      - ENTERED BY
SRVC.         SCHLUMBERGER                   : Scn          - SERVICE COMPANY
STRT.M        330                            : top_depth    - START DEPTH
STOP.M        555                            : bot_depth    - STOP DEPTH
STEP.M        0.25                           : increment    - STEP LENGTH
 NULL. -999.2500:NULL Value
~CURVE INFORMATION BLOCK
#MNEM UNIT       ERCB CURVE CODE    CURVE DESCRIPTION
#-----------   ------------------   ----------------------------------
DEPT.M        00 001 00 00         : DEPTH        - DEPTH
GR  .API      00 310 00 00         : GR           - GAMMA RAY
NPHI.V/V      00 330 00 00         : PHIN         - NEUTRON POROSITY (SANDSTONE)
DPHI.V/V      00 890 00 00         : PHID         - DENSITY POROSITY (SANDSTONE)
ILD .OHMM     00 120 00 00         : RESD         - DEEP RESISTIVITY (DIL)
~PARAMETER INFORMATION
#MNEM.UNIT           DATA             DESCRIPTION OF MNEMONIC
#---------         -----------     ------------------------------
GL  .M        699.4                : gl           - GROUND LEVEL ELEVATION
EREF.M        708.7                : kb           - ELEVATION OF DEPTH REFERENCE
DATM.M        708.7                : datum        - DATUM ELEVATION
TDD .M        561                  : tdd          - TOTAL DEPTH DRILLER
RUN .         ONE                  : Run          - RUN NUMBER
ENG .         BILL                 : Engineer     - RECORDING ENGINEER
WIT .         JIM                  : Witness      - WITNESSED BY
MUD .         GEL                  : Mud_type     - MUD TYPE
MATR.         SANDSTONE            : Logunit      - NEUTRON MATRIX
TMAX.C        38                   : BHT          - MAXIMUM RECORDED TEMPERATURE
BHTD.M        561                  : BHTDEP       - MAXIMUM RECORDED TEMPERATURE
MATR.         1                    : LOGUNIT      - NEUTRON MATRIX
RMT .C        22                   : MDTP         - TEMPERATURE OF MUD
NEUT.         1                    : NEUTRON      - NEUTRON TYPE
RESI.         0                    : RESIST       - RESISTIVITY TYPE
RMC .OHMM     2                    : RMC          - RESISTIVITY OF MUD CAKE
RMF .OHMM     4                    : RMF          - RESISTIVITY OF MUD FILTRATE
SUFT.C        5                    : SUFT         - SURFACE TEMPERATURE
~A  DEPTH       GR     PHIN     PHID     RESD
# ...
  504.000   99.960    0.389    0.242    3.523
  504.250   90.262    0.549    0.253    2.975
  504.500   90.287    0.522    0.251    2.513
  504.750   91.527    0.487    0.249    2.044
  505.000   90.336    0.475    0.244    2.006
  505.250   94.007    0.464    0.239    2.007
  505.500   97.683    0.480    0.237    2.007
  505.750   94.056    0.475    0.238    2.124
  506.000   95.903    0.464    0.228    2.335
  506.250   94.105    0.450    0.218    2.518
  506.500   99.599    0.419    0.192    2.767
  506.750   97.192    0.406    0.159    2.928
  507.000   91.146    0.386    0.151    3.218
  507.250   89.342    0.390    0.152    3.604
  507.500   86.936    0.384    0.152    3.886
  507.750   84.529    0.376    0.158    4.352
  508.000   86.377    0.371    0.165    4.606
  508.250   92.478    0.376    0.171    4.784
  508.500   96.149    0.368    0.165    4.969
  508.750   73.082    0.358    0.152    5.460
  509.000   69.460    0.345    0.134    6.349
  509.250   69.485    0.324    0.023    7.382
  509.500   71.940    0.309    0.107    8.747
  509.750   80.472    0.342    0.137    8.750
  510.000   93.264    0.348    0.160    7.966
  510.250   92.681    0.356    0.176    6.855
  510.500   96.966    0.355    0.165    5.899
  510.750  101.864    0.357    0.167    4.981
  511.000  103.092    0.375    0.166    4.536
  511.250  105.553    0.398    0.167    4.288
  511.500  104.356    0.399    0.172    4.210
  511.750   91.614    0.399    0.173    4.132
  512.000   85.561    0.397    0.167    4.133
  512.250   86.194    0.394    0.163    4.134
  512.500   84.401    0.392    0.157    4.136
  512.750   89.889    0.392    0.147    4.137
  513.000   94.775    0.398    0.134    4.061
  513.250   99.053    0.410    0.176    3.839
  513.500  108.807    0.438    0.215    3.495
  513.750  108.230    0.443    0.218    3.243
  514.000  104.608    0.433    0.211    3.008
  514.250  103.418    0.423    0.201    2.898
  514.500  104.670    0.416    0.189    3.068
  514.750  105.898    0.416    0.183    3.308
  515.000  107.745    0.412    0.176    3.635
  515.250  107.764    0.407    0.165    4.227
  515.500  101.711    0.397    0.138    4.915
  515.750   90.196    0.378    0.106    5.934
  516.000   86.569    0.356    0.151    7.439
  516.250   87.808    0.343    0.230    9.503
  516.500   49.543    0.346    0.254    8.816
  516.750   59.290    0.352    0.244    7.586
  517.000   76.944    0.350    0.211    6.528
  517.250   97.630    0.411    0.174    5.725
  517.500  102.522    0.421    0.181    5.946
  517.750  105.579    0.386    0.180    7.179
  518.000  102.565    0.353    0.180    8.667
  518.250  118.402    0.356    0.176    9.890
  518.500  117.205    0.354    0.174    9.708
  518.750  112.368    0.377    0.157    9.530
  519.000  107.531    0.375    0.154    9.182
  519.250  102.080    0.373    0.158    9.183
  519.500  101.503    0.373    0.160    9.360
  519.750  111.858    0.370    0.160    9.906
  520.000   96.685    0.355    0.189   10.290
  520.250   57.818    0.332    0.231   10.890
  520.500   44.473    0.318    0.323   11.527
  520.750   35.389    0.283    0.347   12.666
  521.000   38.452    0.227    0.324   17.445
  521.250   42.116    0.191    0.300   26.396
  521.500   43.970    0.271    0.274   33.718
  521.750   39.735    0.302    0.257   39.206
  522.000   38.544    0.320    0.204   35.696
  522.250   53.153    0.327    0.224   36.384
  522.500   58.659    0.326    0.262   39.984
  522.750   57.456    0.361    0.273   47.374
  523.000   55.050    0.355    0.282   57.204
  523.250   44.744    0.348    0.285   65.270
  523.500   32.007    0.340    0.285   78.802
  523.750   25.955    0.340    0.294  104.524
  524.000   25.372    0.347    0.299  161.161
  524.250   26.004    0.345    0.294  167.398
  524.500   24.819    0.340    0.289  155.307
  524.750   20.584    0.346    0.313  138.758
  525.000   21.216    0.353    0.307  121.679
  525.250   26.710    0.353    0.301  115.026
  525.500   28.558    0.346    0.299  115.066
  525.750   31.013    0.337    0.300  117.275
  526.000   38.944    0.333    0.293   71.927
  526.250   46.260    0.325    0.285   47.562
  526.500   58.439    0.315    0.267   34.553
  526.750   99.792    0.337    0.223   20.029
  527.000   78.547    0.355    0.200   15.396
  527.250   80.389    0.352    0.130   13.501
  527.500   79.818    0.349    0.221   13.505
  527.750   81.666    0.347    0.224   15.122
  528.000   84.115    0.347    0.215   16.309
  528.250   87.178    0.345    0.205   16.313
  528.500   79.916    0.340    0.193   14.305
  528.750   83.581    0.336    0.184   13.272
  529.000   91.505    0.332    0.175   12.546
  529.250  101.253    0.336    0.162   12.086
  529.500   91.555    0.342    0.146   11.645
  529.750   95.231    0.337    0.159   11.430
  530.000   93.427    0.334    0.174   11.433
  530.250   84.944    0.329    0.179   11.438
  530.500   91.653    0.326    0.170   11.440
  530.750   93.501    0.331    0.163   11.661
  531.000   87.448    0.335    0.176   11.886
  531.250   83.219    0.336    0.188   12.115
  531.500   78.990    0.336    0.190   12.349
  531.750   77.192    0.338    0.181   12.351
  532.000   79.647    0.345    0.188   12.589
  532.250   85.748    0.350    0.195   12.593
  532.500   85.165    0.351    0.195   12.597
  532.750   87.019    0.349    0.186   12.840
  533.000   88.259    0.348    0.174   12.844
  533.250   85.853    0.348    0.181   13.091
  533.500   81.624    0.350    0.191   13.342
  533.750   80.433    0.351    0.197   13.347
  534.000   79.850    0.353    0.202   13.350
  534.250   80.482    0.356    0.198   13.355
  534.500   78.082    0.353    0.184   13.360
  534.750   79.322    0.348    0.162   13.363
  535.000   82.379    0.342    0.139   13.117
  535.250   85.448    0.343    0.206   12.877
  535.500   84.865    0.347    0.203   12.641
  535.750   86.099    0.352    0.192   12.407
  536.000   87.946    0.360    0.183   12.412
  536.250   90.402    0.355    0.178   12.414
  536.500   81.931    0.354    0.184   12.894
  536.750   83.766    0.362    0.193   13.393
  537.000   82.576    0.367    0.190   13.396
  537.250   77.745    0.362    0.196   13.399
  537.500   78.978    0.367    0.203   13.405
  537.750   88.726    0.374    0.194   13.408
  538.000   96.657    0.391    0.190   13.413
  538.250   87.566    0.381    0.188   13.415
  538.500   88.204    0.368    0.183   12.923
  538.750   86.400    0.363    0.186   12.218
  539.000   87.640    0.356    0.187   12.221
  539.250   74.295    0.363    0.191   12.224
  539.500   68.845    0.368    0.211   12.697
  539.750   58.539    0.371    0.213   13.438
  540.000   71.331    0.363    0.215   14.492
  540.250   79.863    0.371    0.226   14.497
  540.500   86.572    0.382    0.217   14.231
  540.750   91.458    0.377    0.205   13.454
  541.000   89.052    0.383    0.187   12.483
  541.250   82.398    0.395    0.217   12.025
  541.500   81.201    0.389    0.222   12.028
  541.750   53.880    0.385    0.234   12.260
  542.000   50.258    0.376    0.258   12.264
  542.250   60.614    0.359    0.247   11.594
  542.500   41.800    0.354    0.237   11.169
  542.750   43.040    0.353    0.249   10.759
  543.000   38.203    0.348    0.291   10.364
  543.250   31.537    0.341    0.286    9.984
  543.500   47.368    0.347    0.280    9.802
  543.750   30.377    0.349    0.280    9.805
  544.000   26.148    0.369    0.318    9.624
  544.250   24.349    0.356    0.266    9.627
  544.500   23.159    0.344    0.263    9.630
  544.750   34.122    0.339    0.281    9.634
  545.000   32.931    0.347    0.301    9.818
  545.250   36.000    0.356    0.303   10.588
  545.500   39.057    0.353    0.300   12.545
  545.750   31.789    0.368    0.302   14.315
  546.000   27.560    0.366    0.306   15.439
  546.250   36.092    0.365    0.305   15.737
  546.500   48.270    0.366    0.301   15.447
  546.750   54.979    0.369    0.299   14.064
  547.000   51.972    0.372    0.290   12.566
  547.250   56.250    0.351    0.264    8.155
