~VERSION INFORMATION
 VERS.                 2.0:   CWLS LOG ASCII STANDARD -VERSION 2.0
 WRAP.                  NO:   ONE LINE PER DEPTH STEP
~WELL INFORMATION BLOCK
#MNEM.UNIT           DATA                    DESCRIPTION OF MNEMONIC
#---------    -------------------            -------------------------------
# Generated from Intellog Unique Number	CS_73_76/WELL/3254
WELL.         10-34-075-09W4                 : Well_name    - WELL
LOC .         00/10-34-075-09W4/0            : Location     - LOCATION
UWI .         00/10-34-075-09W4/0            : Uwi          - UNIQUE WELL ID
ENTR.         SP                             : Entered      - ENTERED BY
SRVC.         SCHLUMBERGER                   : Scn          - SERVICE COMPANY
STRT.M        270                            : top_depth    - START DEPTH
STOP.M        500                            : bot_depth    - STOP DEPTH
STEP.M        0.25                           : increment    - STEP LENGTH
 NULL. -999.2500:NULL Value
~CURVE INFORMATION BLOCK
#MNEM UNIT       ERCB CURVE CODE    CURVE DESCRIPTION
#-----------   ------------------   ----------------------------------
DEPT.M        00 001 00 00         : DEPTH        - DEPTH
ILD .OHMM     00 120 00 00         : RESD         - DEEP RESISTIVITY (DIL)
DPHI.V/V      00 890 00 00         : PHID         - DENSITY POROSITY (LIMESTONE)
NPHI.V/V      00 330 00 00         : PHIN         - NEUTRON POROSITY (LIMESTONE)
GR  .API      00 310 00 00         : GR           - GAMMA RAY
~PARAMETER INFORMATION
#MNEM.UNIT           DATA             DESCRIPTION OF MNEMONIC
#---------         -----------     ------------------------------
GL  .M        673.46               : gl           - GROUND LEVEL ELEVATION
EREF.M        676.81               : kb           - ELEVATION OF DEPTH REFERENCE
DATM.M        673.46               : datum        - DATUM ELEVATION
TDD .M        515                  : tdd          - TOTAL DEPTH DRILLER
RUN .         ONE                  : Run          - RUN NUMBER
ENG .         BILL                 : Engineer     - RECORDING ENGINEER
WIT .         JIM                  : Witness      - WITNESSED BY
MUD .         GEL                  : Mud_type     - MUD TYPE
MATR.         LIMESTONE            : Logunit      - NEUTRON MATRIX
TMAX.C        17.4                 : BHT          - MAXIMUM RECORDED TEMPERATURE
BHTD.M        515                  : BHTDEP       - MAXIMUM RECORDED TEMPERATURE
MATR.         1                    : LOGUNIT      - NEUTRON MATRIX
RMT .C        25                   : MDTP         - TEMPERATURE OF MUD
NEUT.         1                    : NEUTRON      - NEUTRON TYPE
RESI.         0                    : RESIST       - RESISTIVITY TYPE
RMC .OHMM     0.25                 : RMC          - RESISTIVITY OF MUD CAKE
RMF .OHMM     0.25                 : RMF          - RESISTIVITY OF MUD FILTRATE
SUFT.C        15                   : SUFT         - SURFACE TEMPERATURE
~A  DEPTH     RESD     PHID     PHIN       GR
  270.000    2.853    0.261    0.511   91.460
  270.250    2.907    0.261    0.504   92.058
  270.500    3.017    0.265    0.496   92.048
  270.750    3.074    0.266    0.504   93.255
  271.000    3.074    0.267    0.515   94.468
  271.250    3.132    0.264    0.521   96.284
  271.500    3.191    0.268    0.534   96.887
  271.750    3.191    0.254    0.521   96.876
  272.000    3.251    0.246    0.489   99.911
  272.250    3.312    0.256    0.476  102.343
  272.500    3.312    0.256    0.493  105.383
  272.750    3.438    0.260    0.508  101.104
  273.000    3.569    0.244    0.525   99.871
  273.250    3.847    0.258    0.538   99.864
  273.500    4.068    0.262    0.519   99.241
  273.750    4.223    0.256    0.521   98.013
  274.000    4.384    0.243    0.487   96.174
  274.250    4.467    0.225    0.482   96.165
  274.500    4.467    0.226    0.494   96.764
  274.750    4.384    0.232    0.500   99.192
  275.000    4.302    0.237    0.505   96.744
  275.250    3.992    0.237    0.480   93.686
  275.500    3.773    0.233    0.477   91.236
  275.750    3.703    0.247    0.489   94.273
  276.000    3.703    0.255    0.502   96.095
  276.250    3.773    0.260    0.493   93.032
  276.500    3.844    0.248    0.496   93.025
  276.750    3.916    0.249    0.490   96.058
  277.000    3.990    0.262    0.494   97.271
  277.250    3.843    0.257    0.502   98.481
  277.500    3.843    0.246    0.465   98.472
  277.750    4.065    0.242    0.448   97.849
  278.000    4.464    0.257    0.452   97.232
  278.250    5.484    0.259    0.464   91.125
  278.500    9.437    0.273    0.447   81.969
  278.750   14.789    0.287    0.279   70.373
  279.000   21.910    0.306    0.250   61.218
  279.250   30.118    0.330    0.250   46.573
  279.500   30.685    0.356    0.261   38.028
  279.750   29.557    0.375    0.275   34.357
  280.000   26.914    0.382    0.291   30.077
  280.250   26.413    0.362    0.304   31.287
  280.500   25.923    0.356    0.309   31.280
  280.750   25.441    0.343    0.308   33.098
  281.000   23.603    0.337    0.309   33.697
  281.250   22.735    0.350    0.317   33.686
  281.500   21.094    0.342    0.325   33.069
  281.750   19.571    0.330    0.331   37.931
  282.000   17.491    0.337    0.355   40.975
  282.250   16.847    0.339    0.372   50.109
  282.500   16.227    0.334    0.386   56.198
  282.750   16.227    0.336    0.397   64.724
  283.000   15.925    0.334    0.405   74.469
  283.250   15.924    0.325    0.405   78.728
  283.500   15.923    0.321    0.412   79.936
  283.750   15.922    0.333    0.417   76.877
  284.000   15.921    0.345    0.423   72.595
  284.250   15.921    0.354    0.418   70.147
  284.500   15.624    0.334    0.410   68.919
  284.750   15.623    0.308    0.416   68.909
  285.000   15.623    0.302    0.407   65.851
  285.250   15.622    0.291    0.402   61.570
  285.500   15.621    0.290    0.387   59.733
  285.750   14.493    0.306    0.376   63.380
  286.000   13.198    0.299    0.385   66.422
  286.250   11.795    0.302    0.394   73.722
  286.500   10.741    0.294    0.385   76.764
  286.750   10.541    0.270    0.384   80.412
  287.000   10.739    0.263    0.390   82.844
  287.250   12.015    0.251    0.397   87.097
  287.500   13.697    0.240    0.416   88.311
  287.750   14.219    0.278    0.427   89.521
  288.000   15.039    0.304    0.447   89.509
  288.250   15.907    0.318    0.441   87.059
  288.500   16.514    0.320    0.422   84.002
  288.750   17.797    0.306    0.422   77.892
  289.000   18.474    0.299    0.416   74.226
  289.250   18.822    0.297    0.405   68.118
  289.500   19.177    0.323    0.392   63.229
  289.750   19.538    0.331    0.400   57.730
  290.000   19.538    0.334    0.407   54.675
  290.250   19.906    0.334    0.411   48.564
  290.500   19.904    0.337    0.400   44.285
  290.750   19.535    0.333    0.381   39.397
  291.000   18.124    0.331    0.382   35.730
  291.250   17.787    0.321    0.383   33.281
  291.500   16.503    0.311    0.374   38.147
  291.750   15.028    0.316    0.364   43.628
  292.000   13.684    0.300    0.357   52.763
  292.250   12.230    0.291    0.370   64.946
  292.500   10.141    0.263    0.386   72.254
  292.750    8.254    0.241    0.404   78.952
  293.000    7.105    0.232    0.419   89.305
  293.250    6.003    0.222    0.449   96.613
  293.500    5.168    0.242    0.470  101.480
  293.750    4.533    0.238    0.479  104.521
  294.000    3.902    0.207    0.484  108.777
  294.250    3.689    0.213    0.500  114.862
  294.500    3.359    0.230    0.504  116.685
  294.750    3.620    0.231    0.493  116.672
  295.000    3.975    0.249    0.496  115.444
  295.250    5.363    0.243    0.502  116.654
  295.500    7.102    0.260    0.511  114.812
  295.750    8.725    0.293    0.517  105.658
  296.000   11.128    0.315    0.474   84.917
  296.250   13.672    0.321    0.434   74.541
  296.500   15.586    0.317    0.411   70.873
  296.750   17.437    0.340    0.417   68.421
  297.000   18.102    0.340    0.424   67.189
  297.250   17.436    0.340    0.422   66.574
  297.500   16.794    0.344    0.419   66.561
  297.750   16.482    0.348    0.419   65.945
  298.000   16.175    0.350    0.418   65.934
  298.250   15.874    0.352    0.428   66.534
  298.500   15.873    0.352    0.434   70.786
  298.750   16.172    0.352    0.429   71.390
  299.000   16.172    0.347    0.426   72.600
  299.250   15.871    0.336    0.440   71.980
  299.500   15.576    0.324    0.449   71.970
  299.750   15.003    0.316    0.455   71.958
  300.000   14.183    0.319    0.463   72.558
  300.250   13.159    0.318    0.445   75.595
  300.500   12.675    0.334    0.411   76.808
  300.750   10.709    0.321    0.390   81.667
  301.000    8.554    0.293    0.398   84.098
  301.250    6.832    0.273    0.401   86.530
  301.500    5.882    0.255    0.390   89.572
  301.750    5.356    0.245    0.394   96.268
  302.000    5.063    0.244    0.406  102.357
  302.250    4.786    0.237    0.428  111.491
  302.500    4.697    0.223    0.447  116.361
  302.750    5.158    0.210    0.456  121.838
  303.000    5.991    0.221    0.469  124.267
  303.250    6.579    0.231    0.476  124.865
  303.500    7.641    0.228    0.483  124.852
  303.750    8.710    0.235    0.472  124.847
  304.000   10.117    0.229    0.466  122.396
  304.250   11.533    0.245    0.459  118.118
  304.500   12.664    0.277    0.444  114.449
  304.750   13.648    0.283    0.426  112.001
  305.000   14.168    0.293    0.405  108.942
  305.250   13.145    0.299    0.407  105.273
  305.500   11.316    0.292    0.409   99.773
  305.750   10.499    0.284    0.411   99.761
  306.000    9.925    0.272    0.416  101.580
  306.250    9.383    0.277    0.433  104.011
  306.500    9.560    0.275    0.440  106.441
  306.750   10.302    0.289    0.449  108.261
  307.000   11.313    0.284    0.454  111.296
  307.250   12.192    0.281    0.449  111.900
  307.500   14.428    0.258    0.443  111.279
  307.750   15.261    0.259    0.452  109.440
  308.000   17.397    0.280    0.460   92.965
  308.250   18.748    0.288    0.441   80.152
  308.500   19.102    0.281    0.410   72.825
  308.750   19.462    0.304    0.391   65.499
  309.000   18.745    0.335    0.385   66.095
  309.250   18.397    0.335    0.390   68.526
  309.500   16.441    0.326    0.395   72.777
  309.750   13.891    0.331    0.400   73.989
  310.000   11.959    0.335    0.408   73.375
  310.250    9.917    0.329    0.419   70.316
  310.500    8.071    0.331    0.428   72.744
  310.750    7.079    0.315    0.434   78.831
  311.000    6.327    0.284    0.450   86.745
  311.250    6.326    0.241    0.435   98.321
  311.500    7.078    0.213    0.427  109.896
  311.750    7.628    0.220    0.445  115.375
  312.000    8.860    0.231    0.453  112.317
  312.250    9.729    0.242    0.457  103.155
  312.500   10.683    0.268    0.466   98.879
  312.750   10.682    0.279    0.439   93.992
  313.000    9.547    0.297    0.414   90.936
  313.250    7.916    0.261    0.395   92.142
