~VERSION INFORMATION
 VERS.                 2.0:   CWLS LOG ASCII STANDARD -VERSION 2.0
 WRAP.                  NO:   ONE LINE PER DEPTH STEP
~WELL INFORMATION BLOCK
#MNEM.UNIT           DATA                    DESCRIPTION OF MNEMONIC
#---------    -------------------            -------------------------------
# Generated from Intellog Unique Number	CN_91_93/WELL/2727
WELL.         PARAMOUNT RESOURCES LTD.       : Well_name    - WELL
LOC .         00/13-28-091-19W4/0            : Location     - LOCATION
UWI .         00/13-28-091-19W4/0            : Uwi          - UNIQUE WELL ID
ENTR.         JOETTE                         : Entered      - ENTERED BY
SRVC.         COMPUTALOG                     : Scn          - SERVICE COMPANY
DATE.         02/11/92                       : Date         - LOG DATE
STRT.M        100                            : top_depth    - START DEPTH
STOP.M        262                            : bot_depth    - STOP DEPTH
STEP.M        0.25                           : increment    - STEP LENGTH
 NULL. -999.2500:NULL Value
~CURVE INFORMATION BLOCK
#MNEM UNIT       ERCB CURVE CODE    CURVE DESCRIPTION
#-----------   ------------------   ----------------------------------
DEPT.M        00 001 00 00         : DEPTH        - DEPTH
GR  .API      00 310 00 00         : GR           - GAMMA RAY
CALI.MM       00 280 01 00         : CAL          - CALIPER
NPHI.V/V      00 330 00 00         : PHIN         - NEUTRON POROSITY (SANDSTONE)
DPHI.V/V      00 890 00 00         : PHID         - DENSITY POROSITY (SANDSTONE)
ILD .OHMM     00 120 00 00         : RESD         - DEEP RESISTIVITY (DIL)
~PARAMETER INFORMATION
#MNEM.UNIT           DATA             DESCRIPTION OF MNEMONIC
#---------         -----------     ------------------------------
GL  .M        535.6                : gl           - GROUND LEVEL ELEVATION
EREF.M        539                  : kb           - ELEVATION OF DEPTH REFERENCE
DATM.M        539                  : datum        - DATUM ELEVATION
TDD .M        263                  : tdd          - TOTAL DEPTH DRILLER
RUN .         ONE                  : Run          - RUN NUMBER
ENG .         BILL                 : Engineer     - RECORDING ENGINEER
WIT .         JIM                  : Witness      - WITNESSED BY
MUD .         GEL                  : Mud_type     - MUD TYPE
MATR.         SANDSTONE            : Logunit      - NEUTRON MATRIX
TMAX.C        15                   : BHT          - MAXIMUM RECORDED TEMPERATURE
BHTD.M        263                  : BHTDEP       - MAXIMUM RECORDED TEMPERATURE
RMT .C        7.8                  : MDTP         - TEMPERATURE OF MUD
MUDD.KG/M     1070                 : MWT          - MUD DENSITY
NEUT.         1                    : NEUTRON      - NEUTRON TYPE
RESI.         0                    : RESIST       - RESISTIVITY TYPE
RM  .OHMM     4.5                  : RM           - RESISTIVITY OF MUD
RMC .OHMM     4.5                  : RMC          - RESISTIVITY OF MUD CAKE
RMF .OHMM     4.5                  : RMF          - RESISTIVITY OF MUD FILTRATE
SUFT.C        4                    : SUFT         - SURFACE TEMPERATURE
~A  DEPTH       GR      CAL     PHIN     PHID     RESD
# ...
  209.500  107.270  150.332    0.347    0.123   13.366
  209.750  104.831  149.308    0.330    0.106   14.180
  210.000  102.393  148.789    0.328    0.121   15.042
  210.250   95.397  150.294    0.345    0.184   15.690
  210.500   93.566  151.295    0.353    0.200   15.819
  210.750   90.518  152.294    0.359    0.184   15.813
  211.000   90.815  152.788    0.362    0.165   15.543
  211.250   91.718  152.268    0.348    0.169   15.148
  211.500   91.710  151.749    0.333    0.175   16.071
  211.750   93.830  150.720    0.298    0.139   20.896
  212.000   95.646  150.709    0.281    0.093   26.716
  212.250   85.307  151.204    0.269    0.075   30.592
  212.500   76.791  151.698    0.261    0.055   34.147
  212.750   71.616  152.695    0.263    0.057   31.361
  213.000   70.698  153.698    0.268    0.080   28.317
  213.250   74.641  155.710    0.306    0.109   23.691
  213.500   86.179  157.215    0.331    0.165   21.943
  213.750   97.415  157.699    0.396    0.215   18.672
  214.000  100.446  158.202    0.401    0.214   16.297
  214.250  100.742  157.683    0.389    0.096   12.958
  214.500   99.519  157.683    0.398    0.032   10.391
  214.750  103.156  157.656    0.399    0.022    9.224
  215.000  103.755  157.140    0.394    0.083    8.690
  215.250  103.141  157.140    0.394    0.153    8.911
  215.500  106.169  157.113    0.398    0.172   10.378
  215.750  108.594  157.606    0.404    0.167   10.378
  216.000  110.411  157.584    0.408    0.161   10.461
  216.250  111.617  158.086    0.405    0.168   10.546
  216.500  111.307  158.579    0.402    0.181   10.192
  216.750  110.084  159.071    0.400    0.187    9.766
  217.000  113.722  159.062    0.406    0.173    9.517
  217.250  112.801  159.047    0.411    0.142    9.434
  217.500  109.756  159.539    0.412    0.117    9.675
  217.750  107.318  160.033    0.410    0.100   10.005
  218.000  109.131  160.524    0.402    0.171   10.174
  218.250  110.341  160.524    0.399    0.170    9.915
  218.500  111.243  160.496    0.403    0.149    9.340
  218.750  110.933  160.488    0.405    0.131    9.104
  219.000  108.491  160.466    0.396    0.127    9.178
  219.250  106.359  160.463    0.389    0.126    9.904
  219.500  107.263  159.944    0.389    0.126   10.961
  219.750  108.471  158.412    0.377    0.110   11.240
  220.000  107.248  155.359    0.374    0.014   11.238
  220.250  101.163  153.322    0.388    0.038   10.767
  220.500  108.751  154.827    0.396    0.135    9.805
  220.750  119.377  158.359    0.389    0.164    8.929
  221.000  120.584  161.383    0.389    0.165    8.271
  221.250  119.058  162.383    0.400    0.134    8.410
  221.500  115.405  161.358    0.407    0.119    9.229
  221.750  109.623  160.334    0.402    0.125    9.071
  222.000  112.654  159.813    0.400    0.155    8.545
  222.250  115.078  161.824    0.405    0.166    8.329
  222.500  117.198  165.360    0.405    0.174    8.117
  222.750  119.011  168.890    0.395    0.177    8.467
  223.000  122.650  168.370    0.387    0.178    9.944
  223.250  122.338  166.333    0.386    0.180   10.549
  223.500  118.381  164.801    0.379    0.183   11.003
  223.750  119.892  163.772    0.348    0.169   11.974
  224.000  120.795  163.762    0.326    0.140   12.595
  224.250  116.839  163.748    0.321   -0.005   12.485
  224.500  107.107  161.709    0.331    0.009   11.862
  224.750  106.186  159.163    0.354    0.093   10.711
  225.000  110.130  159.150    0.365    0.154   10.005
  225.250  117.415  162.682    0.374    0.179    9.425
  225.500  121.662  164.697    0.378    0.182    9.109
  225.750  127.731  164.683    0.387    0.174    8.581
  226.000  130.761  163.659    0.411    0.179    8.222
  226.250  125.589  162.127    0.432    0.182    7.946
  226.500  123.453  169.709    0.425    0.185    7.614
  226.750  124.357  178.302    0.403    0.171    7.295
  227.000  121.007  174.747    0.398    0.125    7.806
  227.250  114.011  164.100    0.402    0.042    8.494
  227.500  113.698  160.035    0.403    0.069    8.564
  227.750  121.590  162.047    0.405    0.107    8.206
  228.000  125.534  165.073    0.416    0.169    7.863
  228.250  129.780  166.579    0.416    0.178    7.598
  228.500  130.684  167.073    0.419    0.179    7.532
  228.750  130.675  165.541    0.422    0.177    7.658
  229.000  117.906  164.007    0.408    0.178    8.056
  229.250   96.629  163.488    0.391    0.184    9.069
  229.500   84.466  160.437    0.364    0.208   10.037
  229.750   77.773  154.347    0.346    0.258   10.469
  230.000   65.003  152.308    0.345    0.288   10.735
  230.250   44.941  151.787    0.348    0.289   10.824
  230.500   47.057  151.775    0.347    0.284   11.100
  230.750   47.962  151.255    0.351    0.285   11.191
  231.000   46.739  150.230    0.372    0.288   11.772
  231.250   48.555  149.709    0.390    0.297   15.178
  231.500   49.460  149.687    0.393    0.300   19.571
  231.750   48.236  149.684    0.390    0.298   27.701
  232.000   46.406  149.671    0.395    0.295   31.989
  232.250   47.614  150.671    0.398    0.295   36.317
  232.500   49.732  150.657    0.404    0.300   44.128
  232.750   52.154  150.137    0.403    0.300   46.815
  233.000   52.754  149.621    0.387    0.300   52.257
  233.250   53.051  148.594    0.384    0.302   57.839
  233.500   52.435  149.089    0.385    0.306   63.477
  233.750   52.124  152.112    0.389    0.311   71.457
  234.000   52.421  155.644    0.392    0.312   78.422
  234.250   53.021  155.633    0.389    0.306   86.057
  234.500   53.021  155.114    0.387    0.303   90.533
  234.750   53.610  155.114    0.384    0.300   97.680
  235.000   54.818  154.072    0.382    0.299  101.021
  235.250   55.116  152.540    0.380    0.299  102.728
  235.500   55.108  152.540    0.377    0.296  103.550
  235.750   55.404  152.002    0.378    0.292  105.314
  236.000   56.309  151.996    0.383    0.292  103.506
  236.250   57.514  152.996    0.388    0.293   99.183
  236.500   55.683  153.996    0.390    0.289   94.231
  236.750   55.069  155.502    0.402    0.288   93.409
  237.000   54.758  156.501    0.399    0.291   94.181
  237.250   54.750  156.488    0.397    0.294   97.396
  237.500   54.742  154.958    0.402    0.295  101.589
  237.750   53.214  153.426    0.397    0.295  101.589
  238.000   51.383  151.387    0.395    0.296  105.008
  238.250   50.464  150.361    0.403    0.299  107.706
  238.500   48.938  150.349    0.413    0.297  107.706
  238.750   47.714  151.346    0.408    0.280  110.403
  239.000   47.403  152.349    0.399    0.266  112.279
  239.250   46.484  152.841    0.396    0.262  110.355
  239.500   45.868  153.333    0.406    0.274  100.496
  239.750   46.164  153.319    0.402    0.279   89.978
  240.000   51.929  152.803    0.396    0.279   77.874
  240.250   57.999  152.803    0.405    0.276   60.874
  240.500   59.206  152.269    0.420    0.271   49.229
  240.750   59.503  151.752    0.403    0.255   38.483
  241.000   61.925  151.737    0.397    0.228   32.746
  241.250   64.044  152.229    0.399    0.213   28.102
  241.500   65.557  152.721    0.405    0.189   22.919
  241.750   67.067  153.218    0.409    0.202   19.173
  242.000   67.667  153.218    0.416    0.211   17.461
  242.250   68.874  154.199    0.420    0.211   15.241
  242.500   71.298  155.202    0.406    0.189   10.760
  242.750   75.545  157.217    0.402    0.173    8.270
  243.000   85.565  160.748    0.411    0.174    6.803
  243.250   91.634  164.788    0.422    0.211    5.740
  243.500   96.488  169.330    0.428    0.231    4.681
  243.750   97.695  171.344    0.431    0.239    4.562
  244.000   96.777  169.811    0.432    0.222    4.678
  244.250   94.034  167.266    0.426    0.177    6.678
  244.500   86.429  163.710    0.406    0.161    7.145
  244.750   82.168  157.620    0.395    0.135    8.981
  245.000   77.906  153.556    0.375    0.146   10.371
  245.250   81.240  155.060    0.375    0.191   10.457
  245.500   86.399  155.060    0.391    0.198    9.283
  245.750  101.888  158.575    0.406    0.200    7.135
