~VERSION INFORMATION
 VERS.                 2.0:   CWLS LOG ASCII STANDARD -VERSION 2.0
 WRAP.                  NO:   ONE LINE PER DEPTH STEP
~WELL INFORMATION BLOCK
#MNEM.UNIT           DATA                    DESCRIPTION OF MNEMONIC
#---------    -------------------            -------------------------------
# Generated from Intellog Unique Number	CS_67_68/WELL/2192
WELL.         10-07-067-04W4                 : Well_name    - WELL
LOC .         00/10-07-067-04W4/0            : Location     - LOCATION
UWI .         00/10-07-067-04W4/0            : Uwi          - UNIQUE WELL ID
ENTR.         SP                             : Entered      - ENTERED BY
SRVC.         SCHLUMBERGER                   : Scn          - SERVICE COMPANY
STRT.M        355                            : top_depth    - START DEPTH
STOP.M        570                            : bot_depth    - STOP DEPTH
STEP.M        0.25                           : increment    - STEP LENGTH
 NULL. -999.2500:NULL Value
~CURVE INFORMATION BLOCK
#MNEM UNIT       ERCB CURVE CODE    CURVE DESCRIPTION
#-----------   ------------------   ----------------------------------
DEPT.M        00 001 00 00         : DEPTH        - DEPTH
ILD .OHMM     00 120 00 00         : RESD         - DEEP RESISTIVITY (DIL)
DPHI.V/V      00 890 00 00         : PHID         - DENSITY POROSITY (LIMESTONE)
NPHI.V/V      00 330 00 00         : PHIN         - NEUTRON POROSITY (LIMESTONE)
GR  .API      00 310 00 00         : GR           - GAMMA RAY
CALI.MM       00 280 01 00         : CAL          - CALIPER
~PARAMETER INFORMATION
#MNEM.UNIT           DATA             DESCRIPTION OF MNEMONIC
#---------         -----------     ------------------------------
GL  .M        682.01               : gl           - GROUND LEVEL ELEVATION
EREF.M        686.28               : kb           - ELEVATION OF DEPTH REFERENCE
DATM.M        686.8                : datum        - DATUM ELEVATION
TDD .M        580                  : tdd          - TOTAL DEPTH DRILLER
RUN .         ONE                  : Run          - RUN NUMBER
ENG .         BILL                 : Engineer     - RECORDING ENGINEER
WIT .         JIM                  : Witness      - WITNESSED BY
MUD .         GEL                  : Mud_type     - MUD TYPE
MATR.         LIMESTONE            : Logunit      - NEUTRON MATRIX
TMAX.C        22                   : BHT          - MAXIMUM RECORDED TEMPERATURE
BHTD.M        578.2                : BHTDEP       - MAXIMUM RECORDED TEMPERATURE
MATR.         1                    : LOGUNIT      - NEUTRON MATRIX
RMT .C        25                   : MDTP         - TEMPERATURE OF MUD
NEUT.         1                    : NEUTRON      - NEUTRON TYPE
RESI.         0                    : RESIST       - RESISTIVITY TYPE
RMC .OHMM     0.25                 : RMC          - RESISTIVITY OF MUD CAKE
RMF .OHMM     0.25                 : RMF          - RESISTIVITY OF MUD FILTRATE
SUFT.C        15                   : SUFT         - SURFACE TEMPERATURE
~A  DEPTH     RESD     PHID     PHIN       GR      CAL
# ...
  501.000    2.892    0.306    0.479   72.988  247.876
  501.250    2.658    0.294    0.531   75.635  247.689
  501.500    2.579    0.285    0.531   75.894  247.712
  501.750    2.504    0.286    0.524   77.562  247.733
  502.000    2.444    0.284    0.546   78.556  247.553
  502.250    2.417    0.279    0.573   80.162  247.266
  502.500    2.386    0.276    0.568   81.463  246.984
  502.750    2.387    0.279    0.526   80.312  247.618
  503.000    2.402    0.288    0.503   78.977  248.763
  503.250    2.435    0.289    0.515   79.480  250.010
  503.500    2.539    0.286    0.521   80.536  251.258
  503.750    2.643    0.286    0.512   81.039  251.382
  504.000    2.852    0.290    0.500   81.725  251.609
  504.250    3.289    0.274    0.501   81.371  251.427
  504.500    4.320    0.204    0.511   78.749  251.346
  504.750    5.000    0.168    0.443   74.963  251.470
  505.000    5.426    0.138    0.367   72.280  252.003
  505.250    5.480    0.158    0.399   73.396  252.539
  505.500    4.941    0.202    0.418   72.184  252.761
  505.750    4.363    0.219    0.438   72.320  252.785
  506.000    3.787    0.229    0.447   74.416  252.704
  506.250    3.319    0.233    0.453   77.677  252.217
  506.500    3.072    0.244    0.446   81.490  251.830
  506.750    2.807    0.254    0.469   84.138  251.647
  507.000    2.673    0.256    0.483   85.623  251.367
  507.250    2.595    0.247    0.500   87.598  251.387
  507.500    2.543    0.238    0.489   89.509  251.408
  507.750    2.543    0.236    0.495   90.625  251.633
  508.000    2.521    0.244    0.507   89.841  252.169
  508.250    2.512    0.252    0.507   90.345  252.292
  508.500    2.513    0.252    0.506   91.953  252.618
  508.750    2.509    0.245    0.506   90.433  252.745
  509.000    2.510    0.237    0.520   88.669  252.766
  509.250    2.531    0.234    0.541   91.992  252.686
  509.500    2.600    0.238    0.562   94.640  252.607
  509.750    2.811    0.239    0.508   96.431  252.526
  510.000    3.138    0.238    0.452   95.768  252.547
  510.250    3.470    0.235    0.423   87.449  252.364
  510.500    3.875    0.234    0.458   85.932  252.285
  510.750    4.376    0.243    0.478   86.188  252.409
  511.000    4.875    0.236    0.496   80.257  252.535
  511.250    5.783    0.236    0.424   65.257  252.862
  511.500    6.580    0.232    0.401   60.736  253.190
  511.750    7.047    0.230    0.390   59.156  253.722
  512.000    7.490    0.234    0.392   60.703  253.846
  512.250    7.738    0.223    0.411   62.125  253.867
  512.500    7.919    0.212    0.421   62.444  253.686
  512.750    7.968    0.198    0.413   59.516  253.198
  513.000    7.777    0.226    0.417   60.756  253.116
  513.250    7.407    0.256    0.419   61.935  253.142
  513.500    7.313    0.278    0.426   62.497  253.266
  513.750    7.642    0.264    0.423   59.509  253.492
  514.000    8.091    0.278    0.430   52.719  253.617
  514.250    9.258    0.313    0.447   44.705  253.637
  514.500   12.071    0.333    0.438   40.126  253.353
  514.750   17.732    0.344    0.420   40.136  253.273
  515.000   19.573    0.356    0.424   41.742  252.991
  515.250   20.764    0.361    0.423   43.657  253.010
  515.500   21.210    0.354    0.415   44.895  252.930
  515.750   20.431    0.347    0.406   45.950  252.648
  516.000   17.045    0.345    0.416   48.597  252.566
  516.250   12.670    0.345    0.418   51.674  252.382
  516.500   10.511    0.346    0.415   55.733  252.508
  516.750    8.902    0.352    0.405   58.442  252.736
  517.000    7.669    0.335    0.404   60.906  252.857
  517.250    6.326    0.325    0.399   64.228  252.881
  517.500    5.575    0.314    0.390   68.410  252.494
  517.750    4.914    0.305    0.396   71.362  251.494
  518.000    4.592    0.313    0.411   71.682  250.702
  518.250    4.449    0.322    0.418   64.465  250.210
  518.500    4.409    0.328    0.431   61.107  250.235
  518.750    4.486    0.335    0.452   59.834  250.155
  519.000    4.600    0.330    0.437   64.076  249.768
  519.250    4.717    0.309    0.424   68.257  249.788
  519.500    4.966    0.294    0.409   71.763  250.220
  519.750    5.409    0.294    0.423   74.164  250.956
  520.000    5.631    0.292    0.434   76.139  251.896
  520.250    5.634    0.291    0.436   78.174  253.962
  520.500    5.530    0.295    0.426   79.841  255.004
  520.750    5.297    0.272    0.419   78.935  255.846
  521.000    4.988    0.211    0.428   82.075  256.381
  521.250    4.778    0.186    0.432   84.171  256.808
  521.500    4.646    0.194    0.423   86.022  257.135
  521.750    4.587    0.190    0.420   86.893  257.157
  522.000    4.554    0.192    0.420   86.109  257.183
  522.250    4.497    0.198    0.428   83.980  257.202
  522.500    4.498    0.199    0.429   82.642  257.126
  522.750    4.509    0.192    0.427   81.064  257.247
  523.000    4.511    0.189    0.448   77.828  257.064
  523.250    4.564    0.187    0.453   80.476  256.578
  523.500    4.636    0.201    0.441   84.658  256.190
  523.750    4.798    0.211    0.440   86.875  255.805
  524.000    4.966    0.209    0.455   87.625  255.316
  524.250    5.131    0.203    0.466   87.578  254.928
  524.500    5.202    0.199    0.453   87.958  254.543
  524.750    5.204    0.197    0.448   88.216  254.358
  525.000    5.167    0.193    0.447   87.187  254.079
  525.250    5.189    0.191    0.427   84.811  254.199
  525.500    5.320    0.196    0.412   79.186  254.118
  525.750    5.486    0.204    0.392   72.766  253.322
  526.000    5.615    0.217    0.373   67.694  254.265
  526.250    5.713    0.232    0.357   64.704  255.107
  526.500    5.858    0.241    0.345   60.672  255.740
  526.750    5.984    0.250    0.347   65.589  256.276
  527.000    6.124    0.236    0.372   72.709  256.191
  527.250    6.339    0.226    0.392   80.014  255.503
  527.500    6.725    0.230    0.415   85.236  254.702
  527.750    7.202    0.234    0.397   71.523  254.011
  528.000    7.816    0.240    0.372   58.791  252.807
  528.250    8.322    0.250    0.359   55.373  242.922
  528.500    8.998    0.261    0.359   54.835  244.482
  528.750    9.545    0.270    0.349   54.420  246.848
  529.000   10.184    0.266    0.342   53.391  249.115
  529.250   10.621    0.265    0.359   49.972  250.979
  529.500   10.890    0.263    0.372   45.145  251.306
  529.750   11.466    0.280    0.375   39.276  251.227
  530.000   12.467    0.301    0.364   34.509  250.634
  530.250   14.051    0.319    0.346   37.341  249.942
  530.500   15.277    0.241    0.329   51.019  249.248
  530.750   15.724    0.201    0.329   67.086  248.152
  531.000   12.678    0.183    0.354   71.818  247.456
  531.250   10.537    0.227    0.378   69.319  247.175
  531.500    9.339    0.247    0.367   63.388  247.396
  531.750    8.778    0.244    0.351   59.112  247.316
  532.000    8.313    0.242    0.339   59.679  247.440
  532.250    8.038    0.238    0.346   60.060  247.667
  532.500    7.832    0.230    0.334   60.010  247.999
  532.750    7.864    0.221    0.326   59.900  248.629
  533.000    7.973    0.229    0.319   58.566  249.063
  533.250    7.991    0.224    0.338   56.435  248.979
  533.500    8.010    0.213    0.349   56.386  248.800
  533.750    8.044    0.217    0.345   60.690  248.820
  534.000    8.017    0.209    0.336   67.505  248.639
  534.250    7.975    0.193    0.374   72.787  248.866
  534.500    7.933    0.181    0.399   77.457  249.090
  534.750    7.832    0.176    0.422   81.086  249.114
  535.000    7.601    0.179    0.424   83.427  249.236
  535.250    7.562    0.186    0.413   83.931  249.769
  535.500    7.551    0.192    0.440   83.944  249.895
  535.750    7.568    0.198    0.458   86.653  250.122
  536.000    7.615    0.198    0.450   81.886  249.939
  536.250    7.676    0.189    0.418   79.143  249.966
  536.500    7.693    0.181    0.422   81.669  249.779
  536.750    7.755    0.176    0.434   83.090  249.395
  537.000    7.847    0.178    0.424   83.717  249.107
  537.250    8.077    0.178    0.428   84.711  248.721
