~VERSION INFORMATION
 VERS.                 2.0:   CWLS LOG ASCII STANDARD -VERSION 2.0
 WRAP.                  NO:   ONE LINE PER DEPTH STEP
~WELL INFORMATION BLOCK
#MNEM.UNIT           DATA                    DESCRIPTION OF MNEMONIC
#---------    -------------------            -------------------------------
# Generated from Intellog Unique Number	CW_79_81/WELL/2899
WELL.         CAN DELHI WAVASCA NC. 10-18    : Well_name    - WELL
LOC .         00/10-18-080-25W4/0            : Location     - LOCATION
UWI .         00/10-18-080-25W4/0            : Uwi          - UNIQUE WELL ID
ENTR.         JJ                             : Entered      - ENTERED BY
SRVC.         WESTERN ATLAS                  : Scn          - SERVICE COMPANY
DATE.         7 FEB 69                       : Date         - LOG DATE
STRT.M        338.328                        : top_depth    - START DEPTH
STOP.M        466.328                        : bot_depth    - STOP DEPTH
STEP.M        0.25                           : increment    - STEP LENGTH
 NULL. -999.2500:NULL Value
~CURVE INFORMATION BLOCK
#MNEM UNIT       ERCB CURVE CODE    CURVE DESCRIPTION
#-----------   ------------------   ----------------------------------
DEPT.M        00 001 00 00         : DEPTH        - DEPTH
DELT.US/F     00 520 00 00         : DELT         - SONIC TRAVEL TIME
GR  .API      00 310 00 00         : GR           - GAMMA RAY
RHOB.KG/M3    00 350 00 00         : DENS         - BULK DENSITY
CALI.MM       00 280 01 00         : CAL          - CALIPER
ILD .OHMM     00 120 00 00         : RESD         - DEEP RESISTIVITY (DIL)
~PARAMETER INFORMATION
#MNEM.UNIT           DATA             DESCRIPTION OF MNEMONIC
#---------         -----------     ------------------------------
GL  .M        551.261              : gl           - GROUND LEVEL ELEVATION
EREF.M        554.157              : kb           - ELEVATION OF DEPTH REFERENCE
DATM.M        554.157              : datum        - DATUM ELEVATION
TDD .M        469.392              : tdd          - TOTAL DEPTH DRILLER
RUN .         ONE                  : Run          - RUN NUMBER
ENG .         BLAND                : Engineer     - RECORDING ENGINEER
WIT .         WOREBEC              : Witness      - WITNESSED BY
BASE.         EDM                  : Branch       - HOME BASE OF LOGGING UNIT
MUD .         MUD                  : Mud_type     - MUD TYPE
MATR.         LIMESTONE            : Logunit      - NEUTRON MATRIX
TMAX.C        29.4444              : BHT          - MAXIMUM RECORDED TEMPERATURE
BHTD.M        470.611              : BHTDEP       - MAXIMUM RECORDED TEMPERATURE
RMT .C        15.5556              : MDTP         - TEMPERATURE OF MUD
MUDD.KG/M     1176                 : MWT          - MUD DENSITY
NEUT.         1                    : NEUTRON      - NEUTRON TYPE
RESI.         0                    : RESIST       - RESISTIVITY TYPE
RM  .OHMM     7                    : RM           - RESISTIVITY OF MUD
RMC .OHMM     5.5                  : RMC          - RESISTIVITY OF MUD CAKE
RMF .OHMM     8                    : RMF          - RESISTIVITY OF MUD FILTRATE
SUFT.C        5                    : SUFT         - SURFACE TEMPERATURE
~A  DEPTH     DELT       GR     DENS      CAL     RESD
  338.328  412.586   72.810 2395.100  222.073   11.421
  338.578  411.760   71.156 2411.740  221.717   11.705
  338.828  410.664   72.335 2397.480  221.031   10.912
  339.078  404.996   71.676 2414.930  220.549   10.657
  339.328  419.197   72.014 2424.610  220.192   10.842
  339.578  409.021   72.999 2403.150  220.552   11.426
  339.828  412.299   74.523 2377.510  221.776   12.611
  340.078  381.412   75.010 2385.970  223.085   16.036
  340.328  365.154   70.925 2429.540  223.968   19.081
  340.578  373.208   66.688 2395.530  224.664   20.726
  340.828  385.317   67.227 2416.980  224.603   20.172
  341.078  386.314   69.794 2423.850  224.231   17.216
  341.328  400.385   71.321 2435.710  223.761   11.742
  341.578  421.054   74.041 2440.990  223.722   10.007
  341.828  418.190   80.385 2435.090  223.765    8.472
  342.078  420.497   74.665 2425.210  223.512    7.797
  342.328  428.160   77.384 2452.830  223.038    7.423
  342.578  424.260   80.500 2455.510  222.128    7.308
  342.828  419.571   80.093 2440.860  219.769    7.312
  343.078  420.047   83.061 2464.080  218.023    7.538
  343.328  426.069   80.418 2485.530  215.658    7.783
  343.578  419.490   79.359 2505.550  213.187    8.329
  343.828  415.913   80.741 2526.790  210.184    8.594
  344.078  417.632   81.373 2535.660  202.876    8.678
  344.328  411.249   82.204 2532.150  199.139    8.483
  344.578  408.063   78.373 2457.650  205.079    8.329
  344.828  416.504   80.891 2434.810  209.025    8.393
  345.078  418.031   80.481 2468.810  207.498    8.718
  345.328  417.855   80.772 2465.710  205.552    9.525
  345.578  413.747   82.646 2448.660  203.606   10.068
  345.828  408.344   84.072 2473.880  199.342   11.213
  346.078  398.557   84.906 2508.690  191.618   12.679
  346.328  395.312   82.361 2523.720  186.715   15.125
  346.578  423.300   79.465 2524.420  182.356   16.389
  346.828  436.580   76.926 2528.300  183.451   18.774
  347.078  448.169   73.438 2555.920  187.927   22.459
  347.328  365.192   69.898 2558.210  191.769   25.504
  347.578  345.213   63.235 2552.120  195.087   27.330
  347.828  335.817   58.798 2550.610  197.554   27.915
  348.078  346.289   63.057 2530.370  198.777   27.820
  348.328  369.116   66.820 2498.140  197.559   26.425
  348.578  384.493   68.546 2471.110  190.662   24.570
  348.828  401.499   67.744 2512.680  190.609   22.155
  349.078  392.563   68.472 2456.140  192.567   19.220
  349.328  401.729   73.781 2477.170  194.398   18.345
  349.578  364.040   71.187 2520.560  196.248   19.670
  349.828  343.998   68.248 2549.770  196.935   23.775
  350.078  203.057   65.892 2611.090  196.349   29.121
  350.328  187.913   62.954 2621.360  195.040   31.766
  350.578  252.105   59.910 2582.350  194.660   33.790
  350.828  323.087   63.873 2544.140  194.821   34.556
  351.078  301.605   67.089 2599.080  194.451   33.560
  351.328  258.037   63.599 2564.670  194.826   30.586
  351.578  242.434   59.664 2523.490  195.295   24.750
  351.828  372.630   65.117 2490.870  195.351   19.476
  352.078  386.888   73.002 2516.690  195.832   16.801
  352.328  386.910   77.856 2500.230  194.411   13.126
  352.578  390.066   78.886 2532.440  192.033   11.232
  352.828  393.416   80.860 2537.920  187.772   10.897
  353.078  389.573   80.404 2508.680  189.407   11.441
  353.328  391.488   76.864 2485.250  192.617   12.586
  353.578  396.738   78.247 2514.460  196.248   13.912
  353.828  326.240   80.017 2560.620  196.191   14.537
  354.078  306.917   76.431 2598.010  191.195   14.281
  354.328  278.179   71.801 2528.300  194.724   13.567
  354.578  375.831   81.772 2497.480  198.872   11.692
  354.828  387.869   89.157 2519.920  204.299   10.538
  355.078  374.555   89.891 2529.600  198.454   10.623
  355.328  386.338   86.902 2534.250  197.140   11.208
  355.578  394.064   84.063 2499.250  200.257   12.273
  355.828  380.493   78.633 2523.290  203.039   13.117
  356.078  359.468   75.345 2540.330  205.611   14.303
  356.328  361.507   74.935 2525.650  207.031   14.008
  356.578  375.448   81.231 2491.440  208.883   13.093
  356.828  386.899   77.940 2521.860  209.660   11.759
  357.078  389.599   83.093 2539.090  208.247   11.103
  357.328  409.153   83.876 2530.210  208.091   10.629
  357.578  401.977   85.406 2522.130  208.352   10.834
  357.828  397.885   84.751 2536.190  209.451   11.038
  358.078  397.966   81.308 2510.160  210.772   11.124
  358.328  399.947   78.017 2475.750  213.042   10.849
  358.578  394.862   82.775 2500.160  214.343   10.535
  358.828  403.967   80.281 2474.730  217.248   10.279
  359.078  408.756   82.305 2472.830  218.033   10.044
  359.328  407.131   85.171 2492.070  219.138    9.869
  359.578  407.810   86.650 2509.320  216.874    9.714
  359.828  406.779   85.055 2532.950  218.292    9.659
  360.078  406.666   88.267 2515.290  221.607    9.524
  360.328  405.185   88.006 2530.140  221.665    9.450
  360.578  406.628   87.706 2521.650  220.346    9.435
  360.828  404.499   88.726 2539.290  216.396    9.541
  361.078  401.048   84.990 2533.410  212.771    9.685
  361.328  406.624   81.011 2522.920  216.095    9.831
  361.578  416.691   82.584 2559.330  215.826   10.175
  361.828  419.792   82.426 2552.430  213.566   11.241
  362.078  421.574   82.017 2514.230  210.779   12.526
  362.328  405.651   84.187 2499.170  208.202   13.771
  362.578  411.028   80.351 2491.090  205.612   15.035
  362.828  436.006   74.382 2480.800  201.667   16.301
  363.078  419.165   77.156 2517.000  196.665   17.226
  363.328  427.744   79.967 2508.720  190.827   18.591
  363.578  416.780   77.423 2513.390  188.990   20.215
  363.828  420.324   72.398 2545.990  189.359   22.860
  364.078  436.881   71.645 2529.140  189.828   26.046
  364.328  418.926   73.167 2519.850  190.941   29.031
  364.578  416.652   71.665 2527.530  191.626   33.676
  364.828  397.395   67.337 2506.680  192.303   39.141
  365.078  383.689   70.007 2468.480  193.404   41.686
  365.328  353.714   72.079 2466.980  195.150   42.011
  365.578  251.263   69.282 2499.180  196.775   42.117
  365.828  270.559   61.925 2516.830  199.043   42.062
  366.078  352.587   59.874 2473.440  200.671   41.927
  366.328  360.113   63.841 2447.210  201.455   41.732
  366.578  365.686   65.071 2480.610  200.464   41.437
  366.828  371.263   67.188 2452.980  198.203   40.882
  367.078  348.804   64.799 2485.590  195.523   39.667
  367.328  247.594   60.611 2563.650  195.461   36.852
  367.578  246.892   57.520 2495.950  196.143   33.837
  367.828  307.229   67.687 2477.290  198.938   30.962
  368.078  355.536   74.281 2461.220  202.567   28.047
  368.328  338.891   75.313 2453.540  198.405   24.973
  368.578  395.045   71.823 2460.810  200.140   19.078
  368.828  414.137   74.940 2412.440  203.153   18.963
  369.078  412.264   79.797 2423.900  204.670   19.708
  369.328  407.318   79.488 2400.480  206.624   20.976
  369.578  398.044   75.654 2410.540  208.142   21.438
  369.828  402.642   76.039 2415.210  209.055   22.343
  370.078  405.671   78.412 2424.670  209.738   23.088
  370.328  402.412   81.375 2439.920  210.632   23.013
  370.578  394.659   82.110 2463.950  211.421   22.439
  370.828  385.336   84.284 2470.830  212.415   21.603
  371.078  394.170   80.893 2480.100  213.525   20.308
  371.328  401.383   78.596 2448.280  214.515   19.054
  371.578  397.346   78.635 2452.770  214.983   17.879
  371.828  399.908   79.476 2472.390  216.194   17.304
  372.078  406.467   80.597 2455.740  216.559   17.331
  372.328  392.954   76.512 2446.250  216.524   17.415
  372.578  390.816   84.002 2471.470  216.570   17.439
  372.828  388.025   77.884 2501.880  217.040   16.965
  373.078  386.924   80.653 2505.170  217.403   16.450
  373.328  389.030   78.602 2542.950  217.355   15.735
  373.578  392.521   82.216 2543.050  217.200   15.020
  373.828  391.549   78.926 2518.610  217.257   14.505
  374.078  391.052   83.731 2515.130  217.521   14.290
  374.328  344.082   83.423 2503.430  217.468   14.236
  374.578  337.040   82.666 2511.110  216.888   14.381
