~VERSION INFORMATION
 VERS.                 2.0:   CWLS LOG ASCII STANDARD -VERSION 2.0
 WRAP.                  NO:   ONE LINE PER DEPTH STEP
~WELL INFORMATION BLOCK
#MNEM.UNIT           DATA                    DESCRIPTION OF MNEMONIC
#---------    -------------------            -------------------------------
# Generated from Intellog Unique Number	CS_73_76/WELL/2204
WELL.         CANADA CITIES SERVICE LTD      : Well_name    - WELL
LOC .         00/11-29-074-01W4/0            : Location     - LOCATION
UWI .         00/11-29-074-01W4/0            : Uwi          - UNIQUE WELL ID
ENTR.         SP                             : Entered      - ENTERED BY
SRVC.         SCHLUMBERGER                   : Scn          - SERVICE COMPANY
STRT.M        325                            : top_depth    - START DEPTH
STOP.M        575                            : bot_depth    - STOP DEPTH
STEP.M        0.25                           : increment    - STEP LENGTH
 NULL. -999.2500:NULL Value
~CURVE INFORMATION BLOCK
#MNEM UNIT       ERCB CURVE CODE    CURVE DESCRIPTION
#-----------   ------------------   ----------------------------------
DEPT.M        00 001 00 00         : DEPTH        - DEPTH
ILD .OHMM     00 120 00 00         : RESD         - DEEP RESISTIVITY (DIL)
DPHI.V/V      00 890 00 00         : PHID         - DENSITY POROSITY (LIMESTONE)
NPHI.V/V      00 330 00 00         : PHIN         - NEUTRON POROSITY (LIMESTONE)
GR  .API      00 310 00 00         : GR           - GAMMA RAY
~PARAMETER INFORMATION
#MNEM.UNIT           DATA             DESCRIPTION OF MNEMONIC
#---------         -----------     ------------------------------
GL  .M        693.6                : gl           - GROUND LEVEL ELEVATION
EREF.M        597                  : kb           - ELEVATION OF DEPTH REFERENCE
DATM.M        693.6                : datum        - DATUM ELEVATION
TDD .M        582                  : tdd          - TOTAL DEPTH DRILLER
RUN .         ONE                  : Run          - RUN NUMBER
ENG .         BILL                 : Engineer     - RECORDING ENGINEER
WIT .         JIM                  : Witness      - WITNESSED BY
MUD .         GEL                  : Mud_type     - MUD TYPE
MATR.         LIMESTONE            : Logunit      - NEUTRON MATRIX
TMAX.C        18.5                 : BHT          - MAXIMUM RECORDED TEMPERATURE
BHTD.M        582                  : BHTDEP       - MAXIMUM RECORDED TEMPERATURE
MATR.         1                    : LOGUNIT      - NEUTRON MATRIX
RMT .C        25                   : MDTP         - TEMPERATURE OF MUD
NEUT.         1                    : NEUTRON      - NEUTRON TYPE
RESI.         0                    : RESIST       - RESISTIVITY TYPE
RMC .OHMM     0.25                 : RMC          - RESISTIVITY OF MUD CAKE
RMF .OHMM     0.25                 : RMF          - RESISTIVITY OF MUD FILTRATE
SUFT.C        15                   : SUFT         - SURFACE TEMPERATURE
~A  DEPTH     RESD     PHID     PHIN       GR
  325.000    3.440    0.216    0.526  104.080
  325.250    3.638    0.217    0.514  101.628
  325.500    3.848    0.219    0.498   99.176
  325.750    4.069    0.224    0.462   97.337
  326.000    4.068    0.228    0.485  102.232
  326.250    3.992    0.229    0.485  101.617
  326.500    3.844    0.217    0.467  102.839
  326.750    3.703    0.223    0.477  105.284
  327.000    3.500    0.224    0.487  104.058
  327.250    3.308    0.224    0.504  100.994
  327.500    3.127    0.225    0.516   99.767
  327.750    3.011    0.233    0.528  101.601
  328.000    3.068    0.240    0.523   99.148
  328.250    3.244    0.237    0.509   99.146
  328.500    3.367    0.252    0.517  100.980
  328.750    3.495    0.237    0.523  102.202
  329.000    3.628    0.218    0.511  103.424
  329.250    3.627    0.219    0.515  103.421
  329.500    3.695    0.213    0.511  102.805
  329.750    3.764    0.225    0.494  102.803
  330.000    3.834    0.230    0.475  100.964
  330.250    3.906    0.231    0.472   99.737
  330.500    3.692    0.237    0.491  100.346
  330.750    3.361    0.252    0.501  100.956
  331.000    3.119    0.237    0.487  101.564
  331.250    2.684    0.229    0.510  101.562
  331.500    2.490    0.220    0.527   99.724
  331.750    2.537    0.223    0.544   94.823
  332.000    3.422    0.230    0.553   91.147
  332.250    4.792    0.226    0.543   86.246
  332.500    7.509    0.190    0.518   81.957
  332.750   10.515    0.206    0.443   77.669
  333.000   11.545    0.261    0.420   79.502
  333.250   11.983    0.279    0.410   78.276
  333.500   11.980    0.287    0.399   73.376
  333.750   11.979    0.282    0.391   68.475
  334.000   11.535    0.260    0.386   72.758
  334.250   11.320    0.253    0.388   75.817
  334.500   11.318    0.268    0.385   76.425
  334.750   11.970    0.276    0.393   76.423
  335.000   12.424    0.268    0.399   78.870
  335.250   11.743    0.249    0.380   83.764
  335.500   10.893    0.256    0.394   89.884
  335.750   10.298    0.261    0.404   92.943
  336.000    9.375    0.254    0.399   94.776
  336.250    9.029    0.230    0.398   97.223
  336.500    9.028    0.233    0.419   99.056
  336.750   10.290    0.251    0.438   95.380
  337.000   12.176    0.277    0.453   89.868
  337.250   14.139    0.306    0.453   81.294
  337.500   14.954    0.329    0.443   71.495
  337.750   15.233    0.324    0.438   70.268
  338.000   14.947    0.332    0.432   70.878
  338.250   14.396    0.322    0.433   74.548
  338.500   14.127    0.319    0.433   78.219
  338.750   13.352    0.311    0.437   81.890
  339.000   12.860    0.297    0.420   86.785
  339.250   12.618    0.295    0.433   90.456
  339.500   12.617    0.306    0.434   92.901
  339.750   12.851    0.297    0.431   94.736
  340.000   13.092    0.292    0.438   96.570
  340.250   13.090    0.294    0.429   91.057
  340.500   13.088    0.295    0.426   86.768
  340.750   13.332    0.300    0.422   86.153
  341.000   13.329    0.300    0.421   84.314
  341.250   13.328    0.291    0.429   80.025
  341.500   13.577    0.267    0.405   76.962
  341.750   13.575    0.275    0.394   74.510
  342.000   13.827    0.282    0.410   72.058
  342.250   13.826    0.287    0.430   70.219
  342.500   13.315    0.256    0.438   68.992
  342.750   12.824    0.242    0.444   70.826
  343.000   12.121    0.241    0.446   73.884
  343.250   11.457    0.250    0.439   76.331
  343.500   10.628    0.259    0.440   80.613
  343.750   10.627    0.263    0.445   82.448
  344.000   10.044    0.268    0.448   84.282
  344.250    9.494    0.274    0.450   85.503
  344.500    9.144    0.279    0.448   86.725
  344.750    8.482    0.271    0.450   91.007
  345.000    8.323    0.257    0.446   94.066
  345.250    8.168    0.247    0.448   96.513
  345.500    8.637    0.235    0.456   96.510
  345.750    9.307    0.220    0.452   92.834
  346.000   10.029    0.234    0.436   89.770
  346.250   10.606    0.222    0.428   86.706
  346.500   10.605    0.228    0.413   86.091
  346.750   10.603    0.217    0.402   81.191
  347.000   10.601    0.246    0.397   77.514
  347.250   10.598    0.263    0.407   80.572
  347.500   10.797    0.247    0.406   82.407
  347.750   11.207    0.229    0.418   86.077
  348.000   11.632    0.243    0.431   87.911
  348.250   12.302    0.257    0.436   86.684
  348.500   12.769    0.268    0.440   77.498
  348.750   14.552    0.277    0.446   67.087
  349.000   15.390    0.288    0.415   56.065
  349.250   15.679    0.299    0.389   50.552
  349.500   16.275    0.287    0.378   51.161
  349.750   15.969    0.289    0.363   52.995
  350.000   15.380    0.287    0.370   57.278
  350.250   14.268    0.284    0.373   55.439
  350.500   12.281    0.288    0.372   50.538
  350.750   10.375    0.288    0.366   48.087
  351.000    8.765    0.249    0.359   52.982
  351.250    7.000    0.230    0.364   71.346
  351.500    6.255    0.196    0.408   92.159
  351.750    5.590    0.168    0.443  114.809
  352.000    4.995    0.192    0.461  122.153
  352.250    4.634    0.198    0.479  122.763
  352.500    4.462    0.205    0.493  121.535
  352.750    4.379    0.202    0.506  122.757
  353.000    4.217    0.198    0.516  122.755
  353.250    4.062    0.205    0.513  121.527
  353.500    3.911    0.192    0.506  120.300
  353.750    3.911    0.205    0.512  119.073
  354.000    4.294    0.219    0.539  115.397
  354.250    5.177    0.228    0.554  108.660
  354.500    6.602    0.238    0.513  103.147
  354.750    7.959    0.246    0.494   95.185
  355.000    9.962    0.255    0.419   87.836
  355.250   12.704    0.271    0.420   78.650
  355.500   14.212    0.307    0.433   65.790
  355.750   15.603    0.337    0.429   54.155
  356.000   16.195    0.348    0.417   44.356
  356.250   16.499    0.347    0.429   40.068
  356.500   17.124    0.348    0.427   40.065
  356.750   17.445    0.348    0.411   43.123
  357.000   17.119    0.336    0.401   46.182
  357.250   16.797    0.335    0.409   51.077
  357.500   16.795    0.349    0.427   55.360
  357.750   16.791    0.353    0.438   57.806
  358.000   17.104    0.344    0.434   53.518
  358.250   17.425    0.343    0.417   51.678
  358.500   17.751    0.343    0.418   59.635
  358.750   17.749    0.346    0.427   70.652
  359.000   17.745    0.343    0.412   79.833
  359.250   18.076    0.336    0.404   92.075
  359.500   18.072    0.312    0.399  101.868
  359.750   17.734    0.303    0.405  100.029
  360.000   17.732    0.301    0.406   89.618
  360.250   17.729    0.293    0.407   79.820
  360.500   18.061    0.297    0.415   77.368
  360.750   18.056    0.305    0.423   73.692
  361.000   17.717    0.318    0.399   66.342
  361.250   17.714    0.326    0.388   63.891
  361.500   17.712    0.326    0.379   62.663
  361.750   17.379    0.326    0.373   59.599
  362.000   17.054    0.316    0.382   63.270
  362.250   17.051    0.303    0.385   65.716
  362.500   16.732    0.301    0.397   67.550
  362.750   16.419    0.313    0.393   69.996
  363.000   16.416    0.298    0.410   74.280
  363.250   16.108    0.305    0.417   79.175
  363.500   16.104    0.287    0.431   81.621
  363.750   16.102    0.266    0.439   83.455
  364.000   16.100    0.262    0.448   79.779
  364.250   16.097    0.263    0.447   62.634
  364.500   16.092    0.310    0.419   55.284
  364.750   16.090    0.312    0.396   52.833
  365.000   16.088    0.306    0.380   55.279
  365.250   15.786    0.288    0.373   59.561
  365.500   14.921    0.275    0.377   63.232
  365.750   14.370    0.269    0.383   65.678
  366.000   12.840    0.268    0.379   66.900
  366.250   11.691    0.266    0.373   69.346
  366.500   10.645    0.254    0.375   71.793
  366.750    9.875    0.237    0.378   75.463
  367.000    9.334    0.229    0.391   80.358
  367.250   10.058    0.226    0.404   83.417
  367.500   11.251    0.224    0.427   84.639
  367.750   12.823    0.258    0.435   76.065
  368.000   13.310    0.286    0.410   64.430
  368.250   13.816    0.300    0.403   56.467
