~VERSION INFORMATION
 VERS.                 2.0:   CWLS LOG ASCII STANDARD -VERSION 2.0
 WRAP.                  NO:   ONE LINE PER DEPTH STEP
~WELL INFORMATION BLOCK
#MNEM.UNIT           DATA                    DESCRIPTION OF MNEMONIC
#---------    -------------------            -------------------------------
# Generated from Intellog Unique Number	CS_77_79/WELL/1025
WELL.         CWWE THORNBURY                 : Well_name    - WELL
LOC .         00/16-18-079-13W4/0            : Location     - LOCATION
UWI .         00/16-18-079-13W4/0            : Uwi          - UNIQUE WELL ID
ENTR.         JHS                            : Entered      - ENTERED BY
SRVC.         SCHLUMBERGER                   : Scn          - SERVICE COMPANY
STRT.M        250                            : top_depth    - START DEPTH
STOP.M        510                            : bot_depth    - STOP DEPTH
STEP.M        0.25                           : increment    - STEP LENGTH
 NULL. -999.2500:NULL Value
~CURVE INFORMATION BLOCK
#MNEM UNIT       ERCB CURVE CODE    CURVE DESCRIPTION
#-----------   ------------------   ----------------------------------
DEPT.M        00 001 00 00         : DEPTH        - DEPTH
DPHI.V/V      00 890 00 00         : PHID         - DENSITY POROSITY (LIMESTONE)
NPHI.V/V      00 330 00 00         : PHIN         - NEUTRON POROSITY (LIMESTONE)
GR  .API      00 310 00 00         : GR           - GAMMA RAY
ILD .OHMM     00 120 00 00         : RESD         - DEEP RESISTIVITY (DIL)
RHOB.KG/M3    00 350 00 00         : DENS         - BULK DENSITY
~PARAMETER INFORMATION
#MNEM.UNIT           DATA             DESCRIPTION OF MNEMONIC
#---------         -----------     ------------------------------
GL  .M        681.78               : gl           - GROUND LEVEL ELEVATION
EREF.M        684.88               : kb           - ELEVATION OF DEPTH REFERENCE
DATM.M        684.88               : datum        - DATUM ELEVATION
TDD .M        523                  : tdd          - TOTAL DEPTH DRILLER
RUN .         ONE                  : Run          - RUN NUMBER
ENG .         BILL                 : Engineer     - RECORDING ENGINEER
WIT .         JIM                  : Witness      - WITNESSED BY
MUD .         GEL                  : Mud_type     - MUD TYPE
MATR.         LIMESTONE            : Logunit      - NEUTRON MATRIX
TMAX.C        21                   : BHT          - MAXIMUM RECORDED TEMPERATURE
BHTD.M        523                  : BHTDEP       - MAXIMUM RECORDED TEMPERATURE
MATR.         1                    : LOGUNIT      - NEUTRON MATRIX
RMT .C        25                   : MDTP         - TEMPERATURE OF MUD
NEUT.         1                    : NEUTRON      - NEUTRON TYPE
RESI.         0                    : RESIST       - RESISTIVITY TYPE
RMC .OHMM     0.25                 : RMC          - RESISTIVITY OF MUD CAKE
RMF .OHMM     0.25                 : RMF          - RESISTIVITY OF MUD FILTRATE
SUFT.C        15                   : SUFT         - SURFACE TEMPERATURE
~A  DEPTH     PHID     PHIN       GR     RESD     DENS
# ...
  396.000    0.220    0.443  104.377    5.311    0.000
  396.250    0.215    0.461  106.192    5.222    0.000
  396.500    0.244    0.456  106.181    5.227    0.000
  396.750    0.235    0.449  104.932    5.335    0.000
  397.000    0.225    0.453  107.369    5.446    0.000
  397.250    0.218    0.475  111.028    5.559    0.000
  397.500    0.222    0.497  108.562    5.669    0.000
  397.750    0.231    0.483  101.802    6.008    0.000
  398.000    0.253    0.475   98.114    6.489    0.000
  398.250    0.267    0.464   96.267    7.009    0.000
  398.500    0.265    0.447   97.472    7.428    0.000
  398.750    0.248    0.452  102.352    7.872    0.000
  399.000    0.235    0.443  104.786    8.032    0.000
  399.250    0.226    0.430  102.320    8.199    0.000
  399.500    0.234    0.428  104.744    8.362    0.000
  399.750    0.229    0.440  102.893    8.378    0.000
  400.000    0.252    0.391   93.425    8.234    0.000
  400.250    0.241    0.405  105.076    8.085    0.000
  400.500    0.233    0.436  108.738    7.648    0.000
  400.750    0.235    0.450  108.097    6.711    0.000
  401.000    0.241    0.432  106.225    6.114    0.000
  401.250    0.252    0.444  104.359    6.006    0.000
  401.500    0.263    0.471  100.027    6.011    0.000
  401.750    0.258    0.487   98.157    6.132    0.000
  402.000    0.243    0.454  101.202    6.371    0.000
  402.250    0.237    0.446  100.565    6.497    0.000
  402.500    0.234    0.448   96.226    6.755    0.000
  402.750    0.232    0.426   95.594    6.889    0.000
  403.000    0.256    0.413   98.026    6.895    0.000
  403.250    0.280    0.429   94.928    6.772    0.000
  403.500    0.296    0.449   89.369    6.777    0.000
  403.750    0.252    0.451   83.194    6.411    0.000
  404.000    0.287    0.472   77.637    6.296    0.000
  404.250    0.317    0.504   77.608    6.070    0.000
  404.500    0.330    0.468   79.427    5.962    0.000
  404.750    0.332    0.460   75.709    5.969    0.000
  405.000    0.332    0.467   72.612    5.973    0.000
  405.250    0.323    0.461   71.354    6.093    0.000
  405.500    0.321    0.469   70.100    6.098    0.000
  405.750    0.335    0.469   68.847    6.104    0.000
  406.000    0.334    0.460   68.202    6.108    0.000
  406.250    0.325    0.450   73.096    6.231    0.000
  406.500    0.323    0.442   76.759    6.353    0.000
  406.750    0.312    0.448   76.115    6.988    0.000
  407.000    0.171    0.474   72.403    8.130    0.000
  407.250    0.116    0.457   63.772   10.199    0.000
  407.500    0.106    0.264   45.919   11.867    0.000
  407.750    0.160    0.264   37.286   11.657    0.000
  408.000    0.214    0.314   53.243   10.620    0.000
  408.250    0.281    0.377   71.042    9.143    0.000
  408.500    0.326    0.414   76.546    7.439    0.000
  408.750    0.326    0.450   77.130    5.941    0.000
  409.000    0.323    0.462   81.409    5.516    0.000
  409.250    0.329    0.477   80.152    5.626    0.000
  409.500    0.336    0.483   78.282    5.848    0.000
  409.750    0.336    0.488   80.093    6.075    0.000
  410.000    0.310    0.494   78.848    6.809    0.000
  410.250    0.165    0.450   74.516    7.629    0.000
  410.500    0.092    0.281   68.341    9.046    0.000
  410.750    0.065    0.247   65.858   10.927    0.000
  411.000    0.039    0.219   59.073   13.708    0.000
  411.250    0.056    0.213   52.898   13.985    0.000
  411.500    0.157    0.286   63.935   13.226    0.000
  411.750    0.246    0.326   73.128   11.175    0.000
  412.000    0.294    0.424   77.401    8.758    0.000
  412.250    0.331    0.485   76.759    7.261    0.000
  412.500    0.299    0.489   75.503    6.135    0.000
  412.750    0.297    0.455   73.636    5.696    0.000
  413.000    0.310    0.447   76.072    5.701    0.000
  413.250    0.320    0.454   80.349    5.706    0.000
  413.500    0.315    0.470   76.631    5.821    0.000
  413.750    0.293    0.477   74.149    5.938    0.000
  414.000    0.295    0.469   74.737    5.941    0.000
  414.250    0.311    0.453   78.396    5.837    0.000
  414.500    0.333    0.444   76.525    5.733    0.000
  414.750    0.332    0.445   79.572    5.737    0.000
  415.000    0.311    0.437   81.392    5.635    0.000
  415.250    0.289    0.432   79.513    5.748    0.000
  415.500    0.278    0.452   77.033    5.973    0.000
  415.750    0.250    0.468   72.706    6.327    0.000
  416.000    0.214    0.415   68.992    6.215    0.000
  416.250    0.218    0.370   74.499    6.104    0.000
  416.500    0.274    0.402   80.000    5.995    0.000
  416.750    0.306    0.435   79.970    5.888    0.000
  417.000    0.303    0.471   86.096    5.784    0.000
  417.250    0.303    0.457   89.137    5.682    0.000
  417.500    0.310    0.450   86.658    5.688    0.000
  417.750    0.316    0.459   80.485    5.691    0.000
  418.000    0.321    0.470   83.531    5.591    0.000
  418.250    0.311    0.477   85.964    5.597    0.000
  418.500    0.297    0.467   81.018    5.601    0.000
  418.750    0.285    0.456   78.534    5.713    0.000
  419.000    0.281    0.455   79.120    5.716    0.000
  419.250    0.291    0.467   78.482    5.832    0.000
  419.500    0.295    0.479   80.909    5.835    0.000
  419.750    0.288    0.482   83.960    5.841    0.000
  420.000    0.284    0.447   85.774    5.847    0.000
  420.250    0.281    0.437   85.141    5.742    0.000
  420.500    0.271    0.441   90.640    5.641    0.000
  420.750    0.249    0.448   94.920    5.437    0.000
  421.000    0.224    0.463   95.504    5.047    0.000
  421.250    0.226    0.470  101.014    4.598    0.000
  421.500    0.234    0.479  108.359    4.432    0.000
  421.750    0.229    0.490  108.329    4.520    0.000
  422.000    0.231    0.478  102.162    4.610 2314.650
  422.250    0.250    0.456   94.760    4.882 2283.110
  422.500    0.261    0.451   91.042    5.170 2264.130
  422.750    0.266    0.446   87.329    5.476 2255.670
  423.000    0.274    0.444   81.772    5.691 2240.890
  423.250    0.148    0.460   75.603    6.141 2456.910
  423.500    0.066    0.466   68.814    6.753 2597.390
  423.750    0.050    0.299   63.870    7.289 2624.570
  424.000    0.079    0.324   67.530    7.719 2574.130
  424.250    0.140    0.391   83.478    7.726 2471.260
  424.500    0.192    0.434   87.762    7.588 2380.980
  424.750    0.219    0.444   92.041    7.045 2334.750
  425.000    0.227    0.449   93.853    6.663 2322.080
  425.250    0.221    0.451   95.055    6.303 2332.490
  425.500    0.199    0.454   99.944    6.309 2370.170
  425.750    0.193    0.447  102.384    6.558 2380.580
  426.000    0.221    0.443  104.202    6.689 2332.240
  426.250    0.207    0.439  102.331    6.951 2355.240
  426.500    0.185    0.426   99.221    6.958 2392.920
  426.750    0.198    0.425   98.583    7.098 2371.860
  427.000    0.225    0.437   98.564    7.237 2325.630
  427.250    0.213    0.416  102.820    7.244 2346.500
  427.500    0.208    0.426  102.807    7.528 2354.820
  427.750    0.209    0.448   99.711    7.679 2352.660
  428.000    0.191    0.416   94.762    7.831 2384.030
  428.250    0.176    0.398   97.197    8.140 2409.120
  428.500    0.158    0.408   97.172    8.302 2440.520
  428.750    0.132    0.426   92.230    8.467 2484.500
  429.000    0.166    0.403   94.036    8.472 2425.680
  429.250    0.203    0.398  100.168    7.868 2362.670
  429.500    0.203    0.404  109.361    7.582 2362.590
  429.750    0.200    0.412  116.705    7.038 2368.800
  430.000    0.204    0.407  118.528    6.784 2360.310
  430.250    0.207    0.384  116.046    6.540 2356.030
  430.500    0.207    0.389  108.642    6.303 2355.960
  430.750    0.194    0.398  100.621    5.962 2378.970
  431.000    0.168    0.399   98.136    5.536 2422.930
  431.250    0.175    0.427   98.111    5.139 2410.260
  431.500    0.195    0.445   98.692    4.682 2376.610
  431.750    0.218    0.426   99.280    4.107 2336.680
  432.000    0.234    0.416   99.871    3.280 2309.340
  432.250    0.256    0.431   99.231    2.720 2271.490
