~VERSION INFORMATION
 VERS.                 2.0:   CWLS LOG ASCII STANDARD -VERSION 2.0
 WRAP.                  NO:   ONE LINE PER DEPTH STEP
~WELL INFORMATION BLOCK
#MNEM.UNIT           DATA                    DESCRIPTION OF MNEMONIC
#---------    -------------------            -------------------------------
# Generated from Intellog Unique Number	CS_71_72/WELL/899
WELL.         PEX PHILLIPS AEC GRIST         : Well_name    - WELL
LOC .         00/11-17-071-07W4/0            : Location     - LOCATION
UWI .         00/11-17-071-07W4/0            : Uwi          - UNIQUE WELL ID
ENTR.         SP                             : Entered      - ENTERED BY
SRVC.         SCHLUMBERGER                   : Scn          - SERVICE COMPANY
STRT.M        300                            : top_depth    - START DEPTH
STOP.M        520                            : bot_depth    - STOP DEPTH
STEP.M        0.25                           : increment    - STEP LENGTH
 NULL. -999.2500:NULL Value
~CURVE INFORMATION BLOCK
#MNEM UNIT       ERCB CURVE CODE    CURVE DESCRIPTION
#-----------   ------------------   ----------------------------------
DEPT.M        00 001 00 00         : DEPTH        - DEPTH
ILD .OHMM     00 120 00 00         : RESD         - DEEP RESISTIVITY (DIL)
DPHI.V/V      00 890 00 00         : PHID         - DENSITY POROSITY (LIMESTONE)
NPHI.V/V      00 330 00 00         : PHIN         - NEUTRON POROSITY (LIMESTONE)
GR  .API      00 310 00 00         : GR           - GAMMA RAY
~PARAMETER INFORMATION
#MNEM.UNIT           DATA             DESCRIPTION OF MNEMONIC
#---------         -----------     ------------------------------
GL  .M        659.5                : gl           - GROUND LEVEL ELEVATION
EREF.M        663.5                : kb           - ELEVATION OF DEPTH REFERENCE
DATM.M        659.5                : datum        - DATUM ELEVATION
TDD .M        526                  : tdd          - TOTAL DEPTH DRILLER
RUN .         ONE                  : Run          - RUN NUMBER
ENG .         BILL                 : Engineer     - RECORDING ENGINEER
WIT .         JIM                  : Witness      - WITNESSED BY
MUD .         GEL                  : Mud_type     - MUD TYPE
MATR.         LIMESTONE            : Logunit      - NEUTRON MATRIX
TMAX.C        23                   : BHT          - MAXIMUM RECORDED TEMPERATURE
BHTD.M        526                  : BHTDEP       - MAXIMUM RECORDED TEMPERATURE
MATR.         1                    : LOGUNIT      - NEUTRON MATRIX
RMT .C        25                   : MDTP         - TEMPERATURE OF MUD
NEUT.         1                    : NEUTRON      - NEUTRON TYPE
RESI.         0                    : RESIST       - RESISTIVITY TYPE
RMC .OHMM     0.25                 : RMC          - RESISTIVITY OF MUD CAKE
RMF .OHMM     0.25                 : RMF          - RESISTIVITY OF MUD FILTRATE
SUFT.C        15                   : SUFT         - SURFACE TEMPERATURE
~A  DEPTH     RESD     PHID     PHIN       GR
# ...
  387.000    6.903    0.339    0.439   62.264
  387.250    6.702    0.341    0.442   61.838
  387.500    6.352    0.328    0.467   65.622
  387.750    6.052    0.315    0.489   68.368
  388.000    5.722    0.307    0.502   70.504
  388.250    5.401    0.320    0.511   71.176
  388.500    5.107    0.325    0.476   71.360
  388.750    4.705    0.295    0.452   77.462
  389.000    4.221    0.277    0.464   84.905
  389.250    3.736    0.294    0.474   88.505
  389.500    3.198    0.312    0.485   90.519
  389.750    2.726    0.317    0.512   96.193
  390.000    2.382    0.292    0.544  102.600
  390.250    2.129    0.267    0.508  104.736
  390.500    1.968    0.265    0.516  102.236
  390.750    1.893    0.273    0.542   97.967
  391.000    1.905    0.268    0.555   96.260
  391.250    2.026    0.263    0.558   95.651
  391.500    2.153    0.271    0.558   95.287
  391.750    2.345    0.279    0.544   93.031
  392.000    2.560    0.264    0.529   90.165
  392.250    2.721    0.264    0.530   86.811
  392.500    2.843    0.271    0.524   85.592
  392.750    3.145    0.258    0.517   85.350
  393.000    3.249    0.251    0.502   85.107
  393.250    3.421    0.255    0.466   84.803
  393.500    3.671    0.254    0.477   84.682
  393.750    3.931    0.248    0.469   84.622
  394.000    4.323    0.240    0.455   84.318
  394.250    4.647    0.233    0.450   83.221
  394.500    4.811    0.229    0.444   83.833
  394.750    4.887    0.235    0.464   87.677
  395.000    4.808    0.240    0.488   88.654
  395.250    4.625    0.234    0.488   87.618
  395.500    4.432    0.238    0.475   87.436
  395.750    4.411    0.238    0.460   87.316
  396.000    4.447    0.236    0.450   86.158
  396.250    4.510    0.238    0.447   83.597
  396.500    4.556    0.229    0.445   81.097
  396.750    4.602    0.247    0.444   83.721
  397.000    4.632    0.261    0.455   85.614
  397.250    4.574    0.265    0.468   85.371
  397.500    4.518    0.268    0.477   84.091
  397.750    4.388    0.281    0.490   81.652
  398.000    4.318    0.279    0.446   83.727
  398.250    4.303    0.267    0.450   85.924
  398.500    4.323    0.268    0.453   86.291
  398.750    4.383    0.269    0.453   85.439
  399.000    4.453    0.272    0.461   83.000
  399.250    4.567    0.257    0.464   80.805
  399.500    4.710    0.235    0.460   80.379
  399.750    4.858    0.220    0.457   81.478
  400.000    5.000    0.222    0.455   83.919
  400.250    5.196    0.231    0.446   84.714
  400.500    5.502    0.236    0.438   83.739
  400.750    5.883    0.224    0.430   82.642
  401.000    6.183    0.214    0.425   83.680
  401.250    6.280    0.209    0.442   83.437
  401.500    6.392    0.213    0.459   80.876
  401.750    6.446    0.232    0.471   82.464
  402.000    6.451    0.241    0.462   85.088
  402.250    6.418    0.225    0.453   84.296
  402.500    6.340    0.210    0.444   82.589
  402.750    6.262    0.207    0.443   82.407
  403.000    6.217    0.216    0.440   83.019
  403.250    6.141    0.216    0.439   83.386
  403.500    6.088    0.207    0.456   82.228
  403.750    6.037    0.209    0.459   85.157
  404.000    6.030    0.206    0.446   86.500
  404.250    6.032    0.200    0.448   85.891
  404.500    6.039    0.212    0.467   84.246
  404.750    6.032    0.222    0.478   84.918
  405.000    6.046    0.213    0.459   86.078
  405.250    6.061    0.194    0.459   87.360
  405.500    6.100    0.200    0.465   88.093
  405.750    6.116    0.209    0.452   88.522
  406.000    6.097    0.207    0.450   86.083
  406.250    6.102    0.179    0.463   82.790
  406.500    6.234    0.154    0.444   81.022
  406.750    6.465    0.124    0.409   82.365
  407.000    6.744    0.175    0.410   85.416
  407.250    6.864    0.205    0.449   87.370
  407.500    6.755    0.210    0.457   88.164
  407.750    6.621    0.209    0.444   87.860
  408.000    6.526    0.216    0.455   86.763
  408.250    6.327    0.215    0.471   85.239
  408.500    6.271    0.206    0.473   88.230
  408.750    6.217    0.195    0.464   91.525
  409.000    6.129    0.193    0.457   91.526
  409.250    6.064    0.193    0.459   89.331
  409.500    5.989    0.193    0.480   88.417
  409.750    5.870    0.196    0.497   86.771
  410.000    5.562    0.208    0.508   83.966
  410.250    5.141    0.225    0.502   85.981
  410.500    4.534    0.222    0.499   86.897
  410.750    4.038    0.241    0.508   85.861
  411.000    3.761    0.276    0.524   88.485
  411.250    3.464    0.279    0.534   93.489
  411.500    3.233    0.256    0.543   96.540
  411.750    3.064    0.245    0.550   96.785
  412.000    3.037    0.236    0.536   94.529
  412.250    3.056    0.227    0.525   93.737
  412.500    3.058    0.234    0.518   94.897
  412.750    3.084    0.247    0.515   96.363
  413.000    3.098    0.263    0.529   96.242
  413.250    3.112    0.277    0.558   93.071
  413.500    3.114    0.294    0.570   89.595
  413.750    3.128    0.308    0.576   87.766
  414.000    3.233    0.304    0.563   88.743
  414.250    3.455    0.232    0.484   88.318
  414.500    3.792    0.212    0.445   86.550
  414.750    4.155    0.219    0.454   84.782
  415.000    4.358    0.240    0.479   80.574
  415.250    4.546    0.255    0.488   75.817
  415.500    4.671    0.258    0.482   75.757
  415.750    4.736    0.267    0.484   76.552
  416.000    4.758    0.279    0.473   75.638
  416.250    4.743    0.267    0.484   76.188
  416.500    4.755    0.256    0.498   79.178
  416.750    4.840    0.283    0.506   80.765
  417.000    4.945    0.309    0.493   80.828
  417.250    5.148    0.217    0.456   75.948
  417.500    5.494    0.181    0.423   72.229
  417.750    5.884    0.157    0.399   73.511
  418.000    6.114    0.189    0.390   72.658
  418.250    6.330    0.239    0.433   70.280
  418.500    6.370    0.278    0.466   69.366
  418.750    6.185    0.311    0.479   69.978
  419.000    5.559    0.303    0.468   70.772
  419.250    4.997    0.306    0.471   72.298
  419.500    4.663    0.320    0.461   74.129
  419.750    4.477    0.305    0.452   74.923
  420.000    4.405    0.292    0.443   74.436
  420.250    4.392    0.294    0.455   70.168
  420.500    4.420    0.302    0.473   69.132
  420.750    4.457    0.310    0.452   67.303
  421.000    4.496    0.317    0.423   64.620
  421.250    4.499    0.323    0.447   64.133
  421.500    4.544    0.322    0.482   65.233
  421.750    4.598    0.312    0.501   66.759
  422.000    4.662    0.299    0.478   69.139
  422.250    4.772    0.272    0.468   73.471
  422.500    4.875    0.252    0.467   77.071
  422.750    4.963    0.257    0.466   77.438
  423.000    5.023    0.247    0.444   78.660
  423.250    5.035    0.234    0.418   82.016
  423.500    5.078    0.229    0.411   83.298
  423.750    5.062    0.229    0.418   82.933
  424.000    5.085    0.258    0.455   80.677
  424.250    5.117    0.294    0.467   80.496
  424.500    5.219    0.251    0.453   81.229
  424.750    5.372    0.228    0.440   80.559
  425.000    5.509    0.228    0.425   80.682
  425.250    5.566    0.224    0.406   83.123
  425.500    5.527    0.235    0.396   84.406
  425.750    5.357    0.253    0.440   84.956
  426.000    5.047    0.262    0.458   85.506
  426.250    4.755    0.245    0.469   87.093
  426.500    4.540    0.221    0.460   87.460
  426.750    4.359    0.207    0.448   85.510
  427.000    4.169    0.253    0.439   85.694
  427.250    4.048    0.271    0.444   86.671
  427.500    3.960    0.257    0.498   87.282
  427.750    3.875    0.256    0.508   86.368
  428.000    3.900    0.267    0.488   85.271
  428.250    4.014    0.252    0.515   84.052
  428.500    4.228    0.246    0.459   83.871
  428.750    4.335    0.253    0.436   84.177
  429.000    4.462    0.240    0.442   85.093
  429.250    4.357    0.233    0.463   87.290
  429.500    3.821    0.255    0.469   90.097
  429.750    3.358    0.290    0.477   93.393
  430.000    3.018    0.312    0.507   96.017
  430.250    2.712    0.307    0.540   97.055
