~VERSION INFORMATION
 VERS.                 2.0:   CWLS LOG ASCII STANDARD -VERSION 2.0
 WRAP.                  NO:   ONE LINE PER DEPTH STEP
~WELL INFORMATION BLOCK
#MNEM.UNIT           DATA                    DESCRIPTION OF MNEMONIC
#---------    -------------------            -------------------------------
# Generated from Intellog Unique Number	CS_73_76/WELL/3247
WELL.         HOME HB DEVENISH               : Well_name    - WELL
LOC .         00/10-29-075-08W4/0            : Location     - LOCATION
UWI .         00/10-29-075-08W4/0            : Uwi          - UNIQUE WELL ID
ENTR.         SP                             : Entered      - ENTERED BY
SRVC.         SCHLUMBERGER                   : Scn          - SERVICE COMPANY
STRT.M        262.128                        : top_depth    - START DEPTH
STOP.M        490.378                        : bot_depth    - STOP DEPTH
STEP.M        0.25                           : increment    - STEP LENGTH
 NULL. -999.2500:NULL Value
~CURVE INFORMATION BLOCK
#MNEM UNIT       ERCB CURVE CODE    CURVE DESCRIPTION
#-----------   ------------------   ----------------------------------
DEPT.M        00 001 00 00         : DEPTH        - DEPTH
GR  .API      00 310 00 00         : GR           - GAMMA RAY
DPHI.V/V      00 890 00 00         : PHID         - DENSITY POROSITY (SANDSTONE)
NPHI.V/V      00 330 00 00         : PHIN         - NEUTRON POROSITY (SANDSTONE)
ILD .OHMM     00 120 00 00         : RESD         - DEEP RESISTIVITY (DIL)
~PARAMETER INFORMATION
#MNEM.UNIT           DATA             DESCRIPTION OF MNEMONIC
#---------         -----------     ------------------------------
GL  .M        662.33               : gl           - GROUND LEVEL ELEVATION
EREF.M        665.378              : kb           - ELEVATION OF DEPTH REFERENCE
DATM.M        662.33               : datum        - DATUM ELEVATION
TDD .M        498.348              : tdd          - TOTAL DEPTH DRILLER
RUN .         ONE                  : Run          - RUN NUMBER
ENG .         BILL                 : Engineer     - RECORDING ENGINEER
WIT .         JIM                  : Witness      - WITNESSED BY
MUD .         GEL                  : Mud_type     - MUD TYPE
MATR.         SANDSTONE            : Logunit      - NEUTRON MATRIX
TMAX.C        16.6667              : BHT          - MAXIMUM RECORDED TEMPERATURE
BHTD.M        498.348              : BHTDEP       - MAXIMUM RECORDED TEMPERATURE
MATR.         1                    : LOGUNIT      - NEUTRON MATRIX
RMT .C        25                   : MDTP         - TEMPERATURE OF MUD
NEUT.         1                    : NEUTRON      - NEUTRON TYPE
RESI.         0                    : RESIST       - RESISTIVITY TYPE
RMC .OHMM     0.25                 : RMC          - RESISTIVITY OF MUD CAKE
RMF .OHMM     0.25                 : RMF          - RESISTIVITY OF MUD FILTRATE
SUFT.C        15                   : SUFT         - SURFACE TEMPERATURE
~A  DEPTH       GR     PHID     PHIN     RESD
# ...
  392.628   59.681    0.318    0.448    8.276
  392.878   59.753    0.318    0.457    8.303
  393.128   58.433    0.323    0.463    8.135
  393.378   57.745    0.328    0.463    8.150
  393.628   57.295    0.322    0.462    8.154
  393.878   57.585    0.332    0.462    8.169
  394.128   57.928    0.335    0.472    8.002
  394.378   58.499    0.338    0.480    8.011
  394.628   58.257    0.337    0.488    7.961
  394.878   57.879    0.326    0.467    7.874
  395.128   57.825    0.312    0.453    7.773
  395.378   58.710    0.319    0.449    7.738
  395.628   59.046    0.320    0.462    7.737
  395.878   59.686    0.298    0.470    7.753
  396.128   59.495    0.309    0.478    7.586
  396.378   56.435    0.284    0.455    7.613
  396.628   52.422    0.226    0.376    7.455
  396.878   49.192    0.170    0.317    7.468
  397.128   47.986    0.232    0.313    7.484
  397.378   53.100    0.310    0.362    7.329
  397.628   56.099    0.292    0.412    7.349
  397.878   56.137    0.257    0.422    7.473
  398.128   54.648    0.136    0.368    7.634
  398.378   52.447    0.107    0.283    7.620
  398.628   54.497    0.186    0.304    7.542
  398.878   58.399    0.307    0.386    7.306
  399.128   60.711    0.325    0.445    7.225
  399.378   62.427    0.321    0.449    7.076
  399.628   62.581    0.316    0.457    7.072
  399.878   62.588    0.311    0.451    6.964
  400.128   62.629    0.329    0.455    6.966
  400.378   61.900    0.325    0.467    6.961
  400.628   60.914    0.316    0.470    6.841
  400.878   59.756    0.316    0.465    6.837
  401.128   57.744    0.312    0.459    6.981
  401.378   57.162    0.306    0.467    7.059
  401.628   57.179    0.319    0.469    7.286
  401.878   57.179    0.317    0.476    7.505
  402.128   57.191    0.314    0.483    7.892
  402.378   57.299    0.326    0.477    8.129
  402.628   58.202    0.322    0.468    8.239
  402.878   61.453    0.318    0.453    8.243
  403.128   64.028    0.314    0.435    8.261
  403.378   62.330    0.316    0.423    8.400
  403.628   60.612    0.316    0.446    8.399
  403.878   58.157    0.314    0.460    8.401
  404.128   55.472    0.304    0.443    8.293
  404.378   53.831    0.302    0.419    7.997
  404.628   53.559    0.337    0.439    7.672
  404.878   54.546    0.352    0.468    7.306
  405.128   55.526    0.341    0.485    7.127
  405.378   56.465    0.334    0.479    7.141
  405.628   57.772    0.333    0.475    7.144
  405.878   58.481    0.334    0.468    7.150
  406.128   58.928    0.329    0.476    7.033
  406.378   58.973    0.319    0.486    7.020
  406.628   58.281    0.326    0.490    7.009
  406.878   57.860    0.331    0.505    6.892
  407.128   56.685    0.342    0.507    6.908
  407.378   57.692    0.337    0.502    6.772
  407.628   56.700    0.327    0.489    6.777
  407.878   59.729    0.327    0.478    6.742
  408.128   61.881    0.326    0.483    6.658
  408.378   61.398    0.319    0.490    6.660
  408.628   59.169    0.308    0.481    6.663
  408.878   58.836    0.317    0.479    6.665
  409.128   59.482    0.314    0.472    6.667
  409.378   60.220    0.300    0.466    6.669
  409.628   60.152    0.316    0.462    6.668
  409.878   59.861    0.324    0.460    6.618
  410.128   58.831    0.331    0.473    6.556
  410.378   58.868    0.332    0.485    6.543
  410.628   59.013    0.325    0.479    6.688
  410.878   60.045    0.336    0.482    6.678
  411.128   60.028    0.338    0.481    6.549
  411.378   60.043    0.336    0.476    6.536
  411.628   60.004    0.330    0.472    6.335
  411.878   62.502    0.323    0.472    6.097
  412.128   67.302    0.309    0.477    5.752
  412.378   74.325    0.288    0.477    5.586
  412.628   79.940    0.253    0.475    5.582
  412.878   85.389    0.223    0.486    5.588
  413.128   88.196    0.219    0.492    5.766
  413.378   88.846    0.217    0.500    5.942
  413.628   87.468    0.211    0.496    6.124
  413.878   88.260    0.207    0.487    6.321
  414.128   90.123    0.201    0.480    6.346
  414.378   91.056    0.197    0.480    6.349
  414.628   91.696    0.190    0.488    6.290
  414.878   91.657    0.209    0.493    6.124
  415.128   91.655    0.229    0.503    6.024
  415.378   91.851    0.234    0.508    6.021
  415.628   93.499    0.236    0.501    6.020
  415.878   93.939    0.238    0.493    6.022
  416.128   93.996    0.238    0.495    6.023
  416.378   93.987    0.238    0.497    6.023
  416.628   92.970    0.235    0.488    6.114
  416.878   91.979    0.236    0.478    6.136
  417.128   87.349    0.260    0.477    6.141
  417.378   82.286    0.277    0.488    6.132
  417.628   80.977    0.274    0.494    6.278
  417.878   82.571    0.273    0.489    6.150
  418.128   85.623    0.271    0.483    6.081
  418.378   85.949    0.268    0.480    6.028
  418.628   88.208    0.230    0.484    5.750
  418.878   91.270    0.205    0.467    5.478
  419.128   93.338    0.211    0.456    5.105
  419.378   91.171    0.212    0.458    4.838
  419.628   89.956    0.198    0.477    4.264
  419.878   87.952    0.193    0.500    3.742
  420.128   88.742    0.210    0.514    3.107
  420.378   91.444    0.233    0.522    2.799
  420.628   89.795    0.257    0.536    2.525
  420.878   87.227    0.282    0.547    2.301
  421.128   85.497    0.281    0.566    2.212
  421.378   85.576    0.262    0.599    2.183
  421.628   84.889    0.274    0.589    2.181
  421.878   84.297    0.283    0.588    2.235
  422.128   84.243    0.271    0.577    2.268
  422.378   85.244    0.250    0.557    2.287
  422.628   86.208    0.250    0.537    2.310
  422.878   85.684    0.239    0.543    2.277
  423.128   85.624    0.226    0.565    2.268
  423.378   88.625    0.235    0.568    2.313
  423.628   92.508    0.228    0.566    2.374
  423.878   94.363    0.221    0.568    2.563
  424.128   96.861    0.225    0.563    2.819
  424.378   96.551    0.226    0.550    3.220
  424.628   93.280    0.215    0.544    3.577
  424.878   88.722    0.213    0.539    4.030
  425.128   86.381    0.207    0.492    4.759
  425.378   84.937    0.202    0.464    5.615
  425.628   87.363    0.189    0.462    5.853
  425.878   90.702    0.177    0.468    5.803
  426.128   91.537    0.171    0.462    5.344
  426.378   90.602    0.157    0.442    4.976
  426.628   89.240    0.144    0.446    4.538
  426.878   92.680    0.170    0.507    4.312
  427.128   96.916    0.186    0.522    4.179
  427.378   97.758    0.207    0.522    4.157
  427.628   96.887    0.217    0.508    4.233
  427.878   95.535    0.203    0.500    4.216
  428.128   95.638    0.199    0.494    3.921
  428.378   95.679    0.193    0.505    3.696
  428.628   94.666    0.200    0.509    3.415
  428.878   95.191    0.205    0.501    3.152
  429.128   96.691    0.213    0.492    2.931
  429.378   98.791    0.219    0.503    2.590
  429.628  100.412    0.216    0.523    2.406
  429.878  100.500    0.227    0.533    2.187
  430.128   98.754    0.225    0.524    1.999
  430.378   97.429    0.211    0.535    1.840
  430.628   96.470    0.219    0.538    1.752
  430.878   95.656    0.216    0.528    1.711
  431.128   97.214    0.210    0.520    1.801
  431.378   99.341    0.201    0.516    1.874
  431.628   99.212    0.199    0.530    1.997
  431.878   98.718    0.202    0.549    2.156
  432.128   97.739    0.201    0.557    2.284
  432.378   96.784    0.199    0.547    2.476
  432.628   98.262    0.194    0.542    2.661
  432.878  100.487    0.200    0.554    2.922
  433.128  101.549    0.206    0.560    3.073
  433.378  100.446    0.195    0.551    3.236
  433.628  100.988    0.184    0.547    3.262
  433.878  101.515    0.196    0.546    3.305
  434.128  101.530    0.181    0.541    3.367
  434.378  101.561    0.195    0.533    3.436
  434.628  101.026    0.187    0.528    3.483
  434.878   99.739    0.171    0.544    3.561
  435.128   98.422    0.159    0.559    3.641
  435.378   96.090    0.162    0.546    3.927
  435.628   90.414    0.154    0.554    4.344
  435.878   85.240    0.144    0.532    5.171
