~VERSION INFORMATION
 VERS.                 2.0:   CWLS LOG ASCII STANDARD -VERSION 2.0
 WRAP.                  NO:   ONE LINE PER DEPTH STEP
~WELL INFORMATION BLOCK
#MNEM.UNIT           DATA                    DESCRIPTION OF MNEMONIC
#---------    -------------------            -------------------------------
# Generated from Intellog Unique Number	CN_94_101/WELL/3811
WELL.         11-09-096-17W4                 : Well_name    - WELL
LOC .         00/11-09-096-17W4/0            : Location     - LOCATION
UWI .         00/11-09-096-17W400            : Uwi          - UNIQUE WELL ID
ENTR.         T                              : Entered      - ENTERED BY
SRVC.         SCHLUMBERGER                   : Scn          - SERVICE COMPANY
DATE.         07/31/92                       : Date         - LOG DATE
STRT.M        300                            : top_depth    - START DEPTH
STOP.M        475                            : bot_depth    - STOP DEPTH
STEP.M        0.25                           : increment    - STEP LENGTH
 NULL. -999.2500:NULL Value
~CURVE INFORMATION BLOCK
#MNEM UNIT       ERCB CURVE CODE    CURVE DESCRIPTION
#-----------   ------------------   ----------------------------------
DEPT.M        00 001 00 00         : DEPTH        - DEPTH
GR  .API      00 310 00 00         : GR           - GAMMA RAY
CALI.MM       00 280 01 00         : CAL          - CALIPER
NPHI.V/V      00 330 00 00         : PHIN         - NEUTRON POROSITY (SANDSTONE)
DPHI.V/V      00 890 00 00         : PHID         - DENSITY POROSITY (SANDSTONE)
ILD .OHMM     00 120 00 00         : RESD         - DEEP RESISTIVITY (DIL)
~PARAMETER INFORMATION
#MNEM.UNIT           DATA             DESCRIPTION OF MNEMONIC
#---------         -----------     ------------------------------
GL  .M        743                  : gl           - GROUND LEVEL ELEVATION
EREF.M        747.4                : kb           - ELEVATION OF DEPTH REFERENCE
DATM.M        747.4                : datum        - DATUM ELEVATION
TDD .M        482                  : tdd          - TOTAL DEPTH DRILLER
RUN .         0.000000             : Run          - RUN NUMBER
MUD .         GEL                  : Mud_type     - MUD TYPE
MATR.         SANDSTONE            : Logunit      - NEUTRON MATRIX
TMAX.C        0                    : BHT          - MAXIMUM RECORDED TEMPERATURE
BHTD.M        103.632              : BHTDEP       - MAXIMUM RECORDED TEMPERATURE
RMT .C        -1.11111             : MDTP         - TEMPERATURE OF MUD
MUDD.KG/M     8900                 : MWT          - MUD DENSITY
NEUT.         1                    : NEUTRON      - NEUTRON TYPE
RESI.         0                    : RESIST       - RESISTIVITY TYPE
RM  .OHMM     3.69                 : RM           - RESISTIVITY OF MUD
RMC .OHMM     3.69                 : RMC          - RESISTIVITY OF MUD CAKE
RMF .OHMM     0                    : RMF          - RESISTIVITY OF MUD FILTRATE
SUFT.C        -15                  : SUFT         - SURFACE TEMPERATURE
BTZC.MM       0                    : BITZC        - BIT SIZE CONSTANT
MDW .KG/M     0                    : MDW          - MUD WEIGHT
~A  DEPTH       GR      CAL     PHIN     PHID     RESD
  300.000  115.678  152.218    0.512    0.242    5.158
  300.250  120.763  152.218    0.550    0.248    4.835
  300.500  125.212  151.210    0.555    0.250    4.835
  300.750  129.661  150.202    0.541    0.252    4.835
  301.000  127.754  152.218    0.500    0.253    5.048
  301.250  126.483  155.242    0.523    0.248    5.503
  301.500  122.669  158.266    0.566    0.224    6.000
  301.750  118.220  158.266    0.568    0.203    5.872
  302.000  109.322  163.306    0.566    0.163    6.264
  302.250  107.415  163.306    0.562    0.183    5.872
  302.500  115.678  164.315    0.571    0.216    5.623
  302.750  119.492  166.331    0.561    0.221    5.623
  303.000  118.856  167.339    0.524    0.221    5.623
  303.250  121.398  170.363    0.527    0.218    5.623
  303.500  121.398  168.347    0.547    0.205    5.503
  303.750  120.127  168.347    0.543    0.178    5.271
  304.000  119.492  168.347    0.541    0.188    4.940
  304.250  121.398  168.347    0.548    0.227    4.940
  304.500  123.941  167.339    0.542    0.233    5.048
  304.750  123.305  165.323    0.542    0.238    5.271
  305.000  123.305  163.306    0.545    0.239    5.623
  305.250  123.305  159.274    0.534    0.241    6.000
  305.500  123.941  158.266    0.519    0.245    6.264
  305.750  123.941  155.242    0.494    0.242    6.683
  306.000  123.305  155.242    0.478    0.234    6.829
  306.250  118.220  158.266    0.468    0.234    6.978
  306.500  115.042  158.266    0.473    0.236    7.286
  306.750  115.678  157.258    0.480    0.234    7.445
  307.000  117.585  160.282    0.479    0.237    7.774
  307.250  115.042  164.315    0.458    0.238    8.117
  307.500  114.407  165.323    0.458    0.242    8.849
  307.750  110.593  165.323    0.468    0.250    9.647
  308.000   99.788  166.331    0.466    0.247    9.857
  308.250  101.695  169.355    0.437    0.241    9.857
  308.500  104.873  171.371    0.430    0.239   10.072
  308.750  107.415  171.371    0.435    0.241   10.072
  309.000  110.593  171.371    0.439    0.236    9.239
  309.250  107.415  171.371    0.469    0.213    8.475
  309.500   99.788  171.371    0.446    0.169    7.774
  309.750   87.712  171.371    0.441    0.183    7.131
  310.000   91.277  171.371    0.459    0.246    6.683
  310.250  105.319  167.339    0.542    0.252    5.746
  310.500  120.000  167.339    0.542    0.243    5.386
  310.750  120.000  168.347    0.485    0.238    5.158
  311.000  115.532  171.371    0.456    0.238    4.940
  311.250  113.136  169.355    0.458    0.238    4.940
  311.500  115.678  172.379    0.505    0.239    5.158
  311.750  118.856  172.379    0.539    0.243    5.271
  312.000  116.949  173.387    0.545    0.247    5.386
  312.250  116.314  174.395    0.547    0.243    7.131
  312.500  113.771  175.403    0.518    0.234    9.042
  312.750  106.144  173.387    0.476    0.222    9.647
  313.000   95.339  173.387    0.436    0.202   11.971
  313.250   89.619  170.363    0.434    0.199   10.145
  313.500   95.339  168.347    0.479    0.242    9.928
  313.750   97.246  168.347    0.479    0.270    9.928
  314.000   97.246  168.347    0.480    0.274    7.995
  314.250   99.153  158.266    0.437    0.279    6.723
  314.500   99.153  169.355    0.447    0.271    6.300
  314.750  101.695  167.339    0.460    0.262    5.778
  315.000  104.681  167.339    0.508    0.253    5.185
  315.250  103.404  159.274    0.513    0.250    4.859
  315.500  100.851  160.282    0.510    0.250    5.298
  315.750  104.043  160.282    0.513    0.251    6.300
  316.000  104.681  161.290    0.505    0.252    7.995
  316.250   98.936  163.306    0.457    0.261    9.715
  316.500   95.106  163.306    0.442    0.274   14.346
  316.750   90.000  161.290    0.443    0.295    9.507
  317.000   84.255  159.274    0.446    0.295    9.928
  317.250   86.809  157.258    0.453    0.268    7.995
  317.500  101.695  156.250    0.505    0.239    7.021
  317.750  110.593  159.274    0.539    0.234    7.656
  318.000  110.593  158.266    0.546    0.227    7.824
  318.250  108.051  158.266    0.521    0.221    7.995
  318.500   99.788  157.258    0.484    0.226    8.170
  318.750   90.254  156.250    0.470    0.242    7.995
  319.000   91.525  154.234    0.469    0.262    7.824
  319.250   99.153  158.266    0.464    0.267    7.656
  319.500  102.331  158.266    0.463    0.260    7.021
  319.750  101.695  159.274    0.476    0.239    6.438
  320.000  107.234  160.282    0.509    0.245    6.033
  320.250  112.979  165.323    0.513    0.243    5.778
  320.500  111.064  168.347    0.505    0.247    5.654
  320.750  106.596  172.379    0.496    0.255    5.298
  321.000  105.957  173.387    0.501    0.258    5.074
  321.250  106.596  171.371    0.508    0.253    4.859
  321.500  104.681  169.355    0.509    0.247    4.675
  321.750  100.851  166.331    0.493    0.248    4.477
  322.000  100.213  164.315    0.507    0.251    4.380
  322.250  101.489  161.290    0.524    0.252    4.477
  322.500  103.404  159.274    0.518    0.255    4.575
  322.750  104.681  156.250    0.514    0.253    4.675
  323.000  104.681  158.266    0.533    0.251    4.778
  323.250  107.234  156.250    0.556    0.245    4.990
  323.500  111.064  154.234    0.556    0.245    5.443
  323.750  110.593  152.218    0.537    0.251    5.937
  324.000  108.051  151.210    0.509    0.258    6.476
  324.250  102.966  150.202    0.449    0.260    7.378
  324.500   94.068  148.185    0.439    0.256    7.378
  324.750   92.797  151.210    0.455    0.262    7.219
  325.000   93.191  147.177    0.493    0.270    7.875
  325.250   95.745  149.194    0.499    0.275    7.378
  325.500   97.660  155.242    0.498    0.270    8.047
  325.750   98.298  159.274    0.503    0.265    5.685
  326.000   98.936  162.298    0.505    0.267    5.685
  326.250   97.021  165.323    0.508    0.262    7.219
  326.500   93.191  165.323    0.518    0.251    7.064
  326.750   88.085  166.331    0.501    0.258    7.064
  327.000   79.787  168.347    0.419    0.267    7.064
  327.250   74.681  169.355    0.413    0.291    7.219
  327.500   75.319  173.387    0.455    0.295    7.219
  327.750   83.617  177.419    0.476    0.277    7.705
  328.000   93.830  181.452    0.479    0.271    7.705
  328.250   96.383  186.492    0.447    0.280    7.705
  328.500   86.809  187.500    0.438    0.297    7.875
  328.750   77.234  189.516    0.446    0.303    8.224
  329.000   75.319  190.524    0.470    0.308    7.705
  329.250   75.319  188.508    0.469    0.299    7.219
  329.500   75.957  181.452    0.451    0.294    7.064
  329.750   84.255  170.363    0.455    0.286    6.764
  330.000  100.213  170.363    0.465    0.271    6.166
  330.250  102.766  170.363    0.474    0.277    5.778
  330.500   97.660  170.363    0.485    0.285    5.414
  330.750   88.723  170.363    0.476    0.287    5.185
  331.000   86.170  170.363    0.476    0.272    5.074
  331.250  100.851  170.363    0.476    0.267    5.074
  331.500  105.319  170.363    0.491    0.267    4.965
  331.750  100.213  173.387    0.503    0.284    4.859
  332.000   95.106  176.411    0.474    0.294    4.755
  332.250   94.468  174.395    0.483    0.281    4.755
  332.500  107.234  177.419    0.486    0.252    4.755
  332.750  118.723  181.452    0.472    0.246    4.755
  333.000  118.723  182.460    0.465    0.246    4.965
  333.250  116.170  186.492    0.464    0.251    5.185
  333.500  112.340  185.484    0.479    0.255    5.654
  333.750  107.872  184.476    0.475    0.237    5.904
  334.000  102.128  182.460    0.447    0.209    6.300
  334.250  100.851  180.444    0.441    0.218    6.723
  334.500  104.681  176.411    0.452    0.241    7.021
  334.750  108.511  169.355    0.469    0.243    7.656
  335.000  107.234  162.298    0.480    0.260    7.995
  335.250  107.234  159.274    0.429    0.304    7.824
  335.500  107.234  159.274    0.387    0.339    7.656
  335.750  109.787  159.274    0.416    0.320    7.492
  336.000  110.426  158.266    0.457    0.274    7.332
  336.250  109.958  156.250    0.459    0.261    7.175
