~VERSION INFORMATION
 VERS.                 2.0:   CWLS LOG ASCII STANDARD -VERSION 2.0
 WRAP.                  NO:   ONE LINE PER DEPTH STEP
~WELL INFORMATION BLOCK
#MNEM.UNIT           DATA                    DESCRIPTION OF MNEMONIC
#---------    -------------------            -------------------------------
# Generated from Intellog Unique Number	CC_80_83/WELL/2411
NULL.         -999.25                        : NULL_VALUE
WELL.         BVX ET AL HOUSE                : Well_name    - WELL
LOC .         11-27-083-15W4                 : Location     - LOCATION          
UWI .         00/11-27-083-15W400            : Uwi          - UNIQUE WELL ID    
ENTR.         DW                             : Entered      - ENTERED BY        
SRVC.         SCHLUMBERGER                   : Scn          - SERVICE COMPANY   
DATE.         09 MAR 80                      : Date         - LOG DATE
STRT.M        100                            : top_depth    - START DEPTH       
STOP.M        291.1                          : bot_depth    - STOP DEPTH        
STEP.M        0.3                            : increment    - STEP LENGTH       
~CURVE INFORMATION BLOCK
#MNEM UNIT       ERCB CURVE CODE    CURVE DESCRIPTION
#-----------   ------------------   ----------------------------------
DEPT.M        00 001 00 00         : DEPTH        - DEPTH                       
DPHI.V/V      00 890 00 00         : PHID         - DENSITY POROSITY (LIMESTONE)
NPHI.V/V      00 330 00 00         : PHIN         - NEUTRON POROSITY (LIMESTONE)
GR  .API      00 310 00 00         : GR           - GAMMA RAY                   
ILD .OHMM     00 120 00 00         : RESD         - DEEP RESISTIVITY (DIL)      
~PARAMETER INFORMATION       
#MNEM.UNIT           DATA             DESCRIPTION OF MNEMONIC
#---------         -----------     ------------------------------
GL  .M        549.8                : gl           - GROUND LEVEL ELEVATION      
EREF.M        552.8                : kb           - ELEVATION OF DEPTH REFERENCE
DATM.M        552.8                : datum        - DATUM ELEVATION             
TDD .M        290                  : tdd          - TOTAL DEPTH DRILLER         
RUN .         ONE                  : Run          - RUN NUMBER                  
ENG .         BILL                 : Engineer     - RECORDING ENGINEER          
WIT .         JIM                  : Witness      - WITNESSED BY                
MUD .         GEL                  : Mud_type     - MUD TYPE                    
MATR.         LIMESTONE            : Logunit      - NEUTRON MATRIX              
TMAX.C        20                   : BHT          - MAXIMUM RECORDED TEMPERATURE
BHTD.M        290                  : BHTDEP       - MAXIMUM RECORDED TEMPERATURE
MATR.         1                    : LOGUNIT      - NEUTRON MATRIX              
RMT .C        25                   : MDTP         - TEMPERATURE OF MUD          
NEUT.         1                    : NEUTRON      - NEUTRON TYPE                
RESI.         0                    : RESIST       - RESISTIVITY TYPE            
RMC .OHMM     0.25                 : RMC          - RESISTIVITY OF MUD CAKE     
RMF .OHMM     0.25                 : RMF          - RESISTIVITY OF MUD FILTRATE 
SUFT.C        15                   : SUFT         - SURFACE TEMPERATURE         
~A  DEPTH     PHID     PHIN       GR     RESD
# ...
  152.201    0.317    0.429   55.890   22.430
  152.501    0.316    0.441   51.561   22.006
  152.801    0.327    0.447   48.464   21.591
  153.101    0.321    0.442   49.075   21.183
  153.401    0.320    0.421   52.769   21.580
  153.701    0.321    0.417   51.526   22.406
  154.001    0.314    0.418   51.518   23.263
  154.301    0.312    0.420   55.212   23.255
  154.601    0.301    0.418   53.349   22.816
  154.901    0.295    0.414   52.726   21.967
  155.201    0.319    0.417   53.950   21.149
  155.501    0.316    0.424   53.944   22.374
  155.801    0.295    0.427   52.700   22.796
  156.101    0.309    0.424   53.309   23.224
  156.401    0.316    0.423   53.916   23.660
  156.701    0.315    0.414   52.673   23.656
  157.001    0.309    0.413   54.517   24.101
  157.301    0.299    0.422   58.212   23.642
  157.601    0.348    0.432   61.907   22.761
  157.901    0.357    0.451   60.663   21.914
  158.201    0.359    0.460   56.952   21.498
  158.501    0.353    0.451   58.178   21.493
  158.801    0.347    0.441   64.958   21.488
  159.101    0.352    0.456   69.269   21.892
  159.401    0.349    0.460   69.261   22.304
  159.701    0.334    0.445   66.784   22.300
  160.001    0.349    0.456   58.751   21.879
  160.301    0.338    0.457   56.889   21.063
  160.601    0.351    0.450   61.203   20.278
  160.901    0.361    0.455   64.898   19.523
  161.201    0.345    0.444   61.184   19.517
  161.501    0.340    0.448   58.089   19.885
  161.801    0.334    0.438   58.078   20.259
  162.101    0.353    0.434   59.923   20.639
  162.401    0.355    0.440   59.299   21.027
  162.701    0.329    0.447   58.671   21.422
  163.001    0.331    0.451   61.132   21.417
  163.301    0.337    0.448   61.738   21.012
  163.601    0.345    0.460   61.731   20.615
  163.901    0.355    0.472   61.102   19.848
  164.201    0.335    0.452   61.096   19.473
  164.501    0.333    0.444   61.090   19.837
  164.801    0.330    0.447   61.694   20.209
  165.101    0.337    0.448   62.304   19.456
  165.401    0.341    0.452   62.913   19.823
  165.701    0.339    0.453   64.756   20.197
  166.001    0.338    0.449   67.218   19.815
  166.301    0.315    0.449   70.297   19.440
  166.601    0.334    0.453   73.991   19.073
  166.901    0.345    0.457   70.279   18.712
  167.201    0.344    0.462   69.653   18.357
  167.501    0.323    0.471   72.731   18.011
  167.801    0.300    0.480   77.042   17.014
  168.101    0.282    0.468   82.590   15.774
  168.401    0.243    0.449   94.926   13.560
  168.701    0.176    0.462  104.176   12.337
  169.001    0.225    0.473  112.188    7.271
  169.301    0.237    0.484  113.415    5.797
  169.601    0.217    0.496  114.024    5.175
  169.901    0.184    0.510  115.867    5.077
  170.201    0.191    0.512  115.856    5.172
  170.501    0.171    0.484  109.061    5.472
  170.801    0.168    0.453  106.583    5.681
  171.101    0.207    0.502  107.808    6.125
  171.401    0.197    0.463  110.885    6.481
  171.701    0.207    0.463  113.963    6.479
  172.001    0.202    0.488  117.042    5.784
  172.301    0.219    0.508  121.354    5.465
  172.601    0.231    0.504  121.964    5.463
  172.901    0.229    0.506  113.313    5.565
  173.201    0.194    0.507  117.622    5.670
  173.501    0.182    0.499  121.934    5.777
  173.801    0.221    0.496  122.544    5.886
  174.101    0.232    0.511  122.537    5.560
  174.401    0.214    0.526  121.909    5.353
  174.701    0.228    0.543  121.285    5.252
  175.001    0.203    0.506  120.658    5.251
  175.301    0.220    0.518  120.649    5.055
  175.601    0.225    0.517  115.086    4.960
  175.901    0.226    0.514  113.843    4.959
  176.201    0.242    0.517  111.980    4.958
  176.501    0.229    0.527  107.653    4.956
  176.801    0.238    0.510  100.855    4.682
  177.101    0.269    0.506   95.909    4.423
  177.401    0.294    0.506   90.343    4.422
  177.701    0.310    0.476   84.162    4.421
  178.001    0.299    0.473   81.068    4.591
  178.301    0.305    0.495   78.589    7.496
  178.601    0.308    0.457   70.555   10.329
  178.901    0.233    0.436   69.930   12.710
  179.201    0.038    0.252   64.365   15.638
  179.501    0.121    0.287   63.124   23.238
  179.801    0.168    0.347   72.992   26.017
  180.101    0.314    0.411   76.067   22.791
  180.401    0.303    0.471   72.356   19.227
  180.701    0.306    0.455   75.434   13.431
  181.001    0.318    0.470   76.659   11.546
  181.301    0.321    0.482   71.710   10.702
  181.601    0.322    0.461   70.468   10.499
  181.901    0.324    0.449   71.079   10.497
  182.201    0.315    0.462   71.688   10.495
  182.501    0.308    0.454   72.293   10.693
  182.801    0.304    0.449   75.987   10.895
  183.101    0.307    0.461   77.834   11.311
  183.401    0.292    0.476   80.911   11.309
  183.701    0.265    0.465   77.814   11.094
  184.001    0.172    0.391   75.337   11.092
  184.301    0.161    0.352   76.561   12.187
  184.601    0.226    0.367   79.639   13.390
  184.901    0.285    0.453   83.952   13.640
  185.201    0.252    0.464   88.266   13.133
  185.501    0.237    0.469   91.342   10.872
  185.801    0.259    0.476   92.570    9.000
  186.101    0.268    0.504   91.327    7.311
  186.401    0.266    0.492   93.168    7.309
  186.701    0.269    0.482   98.098    7.589
  187.001    0.269    0.469   99.940    7.732
  187.301    0.252    0.463   99.317    7.584
  187.601    0.248    0.476   93.133    7.441
  187.901    0.263    0.496   89.420    7.030
  188.201    0.235    0.463   87.562    6.897
  188.501    0.262    0.444   86.316    6.767
  188.801    0.235    0.452   87.544    6.766
  189.101    0.246    0.462   91.853    7.024
  189.401    0.262    0.473   93.698    6.891
  189.701    0.233    0.467   93.073    7.021
  190.001    0.264    0.469   90.594    7.427
  190.301    0.243    0.474   88.732    7.567
  190.601    0.229    0.474   86.873    8.005
  190.901    0.280    0.483   86.247    8.004
  191.201    0.303    0.478   85.003    7.421
  191.501    0.313    0.465   82.524    7.560
  191.801    0.295    0.459   81.286    7.999
  192.101    0.290    0.456   78.806    8.624
  192.401    0.297    0.459   76.945    9.124
  192.701    0.319    0.463   75.085    9.836
  193.001    0.295    0.469   74.458    9.835
  193.301    0.258    0.475   76.300   10.020
  193.601    0.254    0.474   78.761    9.646
  193.901    0.275    0.477   81.222    9.113
  194.201    0.294    0.522   83.064    6.611
  194.501    0.323    0.540   83.058    5.075
  194.801    0.338    0.544   76.874    4.616
  195.101    0.312    0.502   73.163    4.884
  195.401    0.291    0.466   71.305    5.573
  195.701    0.279    0.469   68.827    6.359
  196.001    0.322    0.472   77.458    8.598
  196.301    0.337    0.462   78.686    9.270
  196.601    0.343    0.461   75.586    9.624
  196.901    0.315    0.467   73.727    9.265
  197.201    0.310    0.471   73.103    8.920
  197.501    0.328    0.474   74.948    8.918
  197.801    0.317    0.482   81.727    8.748
  198.101    0.308    0.476   83.572    8.583
  198.401    0.299    0.450   85.413    8.109
  198.701    0.281    0.481   86.639    7.661
  199.001    0.267    0.482   86.632    7.237
  199.301    0.290    0.465   84.772    7.101
  199.601    0.283    0.454   87.229    6.460
  199.901    0.250    0.478   89.690    5.659
  200.201    0.249    0.482   90.918    5.346
  200.501    0.259    0.470   90.907    5.050
  200.801    0.275    0.468   89.664    4.862
  201.101    0.270    0.472   87.189    4.862
  201.401    0.272    0.488   79.770    4.861
  201.701    0.305    0.507   76.676    5.046
  202.001    0.314    0.481   79.138    5.339
  202.301    0.325    0.433   85.302    6.952
  202.601    0.326    0.433   85.292    8.553
  202.901    0.330    0.450   79.111    8.880
  203.201    0.318    0.494   72.312    8.712
  203.501    0.309    0.494   68.601    8.547
  203.801    0.323    0.487   68.591    8.707
  204.101    0.329    0.471   69.814    9.041
