~VERSION INFORMATION
 VERS.                 2.0:   CWLS LOG ASCII STANDARD -VERSION 2.0
 WRAP.                  NO:   ONE LINE PER DEPTH STEP
~WELL INFORMATION BLOCK
#MNEM.UNIT           DATA                    DESCRIPTION OF MNEMONIC
#---------    -------------------            -------------------------------
# Generated from Intellog Unique Number	CS_73_76/WELL/3233
WELL.         10-08-076-08W4                 : Well_name    - WELL
LOC .         00/10-08-076-08W4/0            : Location     - LOCATION
UWI .         00/10-08-076-08W4/0            : Uwi          - UNIQUE WELL ID
ENTR.         SP                             : Entered      - ENTERED BY
SRVC.         SCHLUMBERGER                   : Scn          - SERVICE COMPANY
STRT.M        225                            : top_depth    - START DEPTH
STOP.M        455                            : bot_depth    - STOP DEPTH
STEP.M        0.25                           : increment    - STEP LENGTH
 NULL. -999.2500:NULL Value
~CURVE INFORMATION BLOCK
#MNEM UNIT       ERCB CURVE CODE    CURVE DESCRIPTION
#-----------   ------------------   ----------------------------------
DEPT.M        00 001 00 00         : DEPTH        - DEPTH
ILD .OHMM     00 120 00 00         : RESD         - DEEP RESISTIVITY (DIL)
GR  .API      00 310 00 00         : GR           - GAMMA RAY
DPHI.V/V      00 890 00 00         : PHID         - DENSITY POROSITY (LIMESTONE)
NPHI.V/V      00 330 00 00         : PHIN         - NEUTRON POROSITY (LIMESTONE)
~PARAMETER INFORMATION
#MNEM.UNIT           DATA             DESCRIPTION OF MNEMONIC
#---------         -----------     ------------------------------
GL  .M        630.79               : gl           - GROUND LEVEL ELEVATION
EREF.M        634.29               : kb           - ELEVATION OF DEPTH REFERENCE
DATM.M        630.79               : datum        - DATUM ELEVATION
TDD .M        462                  : tdd          - TOTAL DEPTH DRILLER
RUN .         ONE                  : Run          - RUN NUMBER
ENG .         BILL                 : Engineer     - RECORDING ENGINEER
WIT .         JIM                  : Witness      - WITNESSED BY
MUD .         GEL                  : Mud_type     - MUD TYPE
MATR.         LIMESTONE            : Logunit      - NEUTRON MATRIX
TMAX.C        29                   : BHT          - MAXIMUM RECORDED TEMPERATURE
BHTD.M        462                  : BHTDEP       - MAXIMUM RECORDED TEMPERATURE
MATR.         1                    : LOGUNIT      - NEUTRON MATRIX
RMT .C        25                   : MDTP         - TEMPERATURE OF MUD
NEUT.         1                    : NEUTRON      - NEUTRON TYPE
RESI.         0                    : RESIST       - RESISTIVITY TYPE
RMC .OHMM     0.25                 : RMC          - RESISTIVITY OF MUD CAKE
RMF .OHMM     0.25                 : RMF          - RESISTIVITY OF MUD FILTRATE
SUFT.C        15                   : SUFT         - SURFACE TEMPERATURE
~A  DEPTH     RESD       GR     PHID     PHIN
# ...
  355.500    7.702   48.739    0.357    0.389
  355.750    7.702   56.702    0.348    0.405
  356.000    7.559   59.765    0.346    0.391
  356.250    7.419   64.667    0.345    0.386
  356.500    7.147   62.833    0.320    0.396
  356.750    6.758   60.999    0.302    0.411
  357.000    6.271   69.574    0.255    0.428
  357.250    5.820   81.209    0.239    0.455
  357.500    5.503   86.110    0.250    0.455
  357.750    5.301   82.440    0.286    0.420
  358.000    5.203   79.994    0.302    0.416
  358.250    5.301   75.712    0.310    0.504
  358.500    5.401   61.020    0.326    0.581
  358.750    5.929   54.901    0.338    0.440
  359.000    6.270   50.006    0.357    0.417
  359.250    6.631   51.234    0.373    0.411
  359.500    7.013   51.849    0.360    0.404
  359.750    7.145   52.464    0.348    0.397
  360.000    7.280   51.855    0.347    0.390
  360.250    7.417   46.349    0.333    0.385
  360.500    7.416   48.189    0.318    0.389
  360.750    7.556   48.191    0.322    0.408
  361.000    7.416   54.317    0.321    0.375
  361.250    7.555   46.972    0.317    0.374
  361.500    7.416   40.241    0.332    0.426
  361.750    7.555   39.631    0.330    0.455
  362.000    7.842   38.410    0.321    0.424
  362.250    7.842   41.474    0.331    0.408
  362.500    7.555   48.825    0.322    0.349
  362.750    7.990   46.378    0.321    0.352
  363.000    7.989   45.769    0.320    0.365
  363.250    7.842   45.160    0.327    0.398
  363.500    7.696   50.061    0.328    0.424
  363.750    7.696   54.349    0.327    0.403
  364.000    7.554   52.516    0.338    0.349
  364.250    7.553   40.886    0.354    0.369
  364.500    7.696   37.828    0.368    0.380
  364.750    7.695   46.403    0.381    0.361
  365.000    7.695   47.630    0.357    0.337
  365.250    7.695   44.572    0.348    0.352
  365.500    7.840   47.024    0.347    0.361
  365.750    7.840   42.741    0.343    0.376
  366.000    7.840   43.969    0.344    0.392
  366.250    7.987   51.319    0.353    0.423
  366.500    7.839   55.608    0.355    0.440
  366.750    7.987   55.611    0.355    0.442
  367.000    8.137   48.267    0.341    0.249
  367.250    8.446   43.372    0.238    0.202
  367.500    8.605   42.763    0.044    0.150
  367.750    9.272   39.092    0.022    0.134
  368.000    9.991   36.034    0.210    0.178
  368.250    9.806   45.221    0.314    0.382
  368.500    9.100   59.918    0.364    0.431
  368.750    8.445   61.145    0.354    0.428
  369.000    8.136   55.026    0.363    0.412
  369.250    7.837   46.457    0.342    0.399
  369.500    7.692   44.013    0.341    0.341
  369.750    7.550   45.241    0.355    0.416
  370.000    7.410   45.855    0.359    0.445
  370.250    7.410   51.368    0.354    0.467
  370.500    7.409   56.881    0.343    0.464
  370.750    7.409   51.986    0.337    0.474
  371.000    7.409   45.255    0.333    0.453
  371.250    7.409   42.809    0.333    0.374
  371.500    7.409   44.648    0.342    0.348
  371.750    7.409   52.611    0.352    0.353
  372.000    7.548   52.001    0.360    0.375
  372.250    7.690   47.719    0.354    0.388
  372.500    7.690   52.620    0.333    0.393
  372.750    7.690   50.786    0.339    0.380
  373.000    7.689   47.116    0.353    0.405
  373.250    7.547   45.894    0.360    0.426
  373.500    7.547   45.897    0.354    0.420
  373.750    7.547   46.512    0.328    0.407
  374.000    7.689   45.903    0.329    0.396
  374.250    7.689   44.069    0.339    0.393
  374.500    7.688   41.623    0.351    0.375
  374.750    7.688   48.362    0.359    0.376
  375.000    7.546   51.426    0.343    0.382
  375.250    7.546   50.205    0.336    0.359
  375.500    7.406   56.943    0.339    0.356
  375.750    7.406   52.660    0.356    0.375
  376.000    7.269   47.764    0.366    0.399
  376.250    7.269   50.829    0.342    0.362
  376.500    7.134   54.505    0.339    0.373
  376.750    7.134   54.509    0.349    0.393
  377.000    7.002   60.634    0.309    0.395
  377.250    7.001   77.168    0.249    0.391
  377.500    6.872   82.069    0.234    0.399
  377.750    6.620   72.277    0.222    0.403
  378.000    6.497   74.728    0.219    0.402
  378.250    6.377   85.752    0.226    0.386
  378.500    6.259   90.041    0.236    0.368
  378.750    6.259   86.983    0.244    0.357
  379.000    6.258   88.822    0.239    0.346
  379.250    6.143   85.151    0.233    0.356
  379.500    6.029   79.644    0.228    0.375
  379.750    5.917   75.362    0.233    0.379
  380.000    5.917   79.038    0.235    0.348
  380.250    5.917   76.593    0.236    0.361
  380.500    5.917   80.881    0.241    0.371
  380.750    6.028   77.823    0.237    0.353
  381.000    5.917   81.499    0.236    0.351
  381.250    5.916   82.728    0.256    0.383
  381.500    5.916   80.281    0.272    0.433
  381.750    5.916   74.163    0.274    0.414
  382.000    5.916   72.328    0.230    0.389
  382.250    5.806   77.229    0.209    0.394
  382.500    5.699   88.865    0.213    0.360
  382.750    5.289   84.582    0.237    0.361
  383.000    4.908   83.973    0.247    0.390
  383.250    4.641   80.915    0.257    0.411
  383.500    4.072   85.816    0.234    0.374
  383.750    3.640   88.268    0.239    0.354
  384.000    2.964   80.312    0.281    0.395
  384.250    2.751   72.968    0.291    0.431
  384.500    2.459   76.645    0.301    0.453
  384.750    2.240   82.770    0.310    0.398
  385.000    2.158   89.508    0.305    0.379
  385.250    2.158   87.062    0.291    0.410
  385.500    2.199   82.167    0.275    0.430
  385.750    2.282   83.395    0.274    0.421
  386.000    2.325   88.295    0.290    0.406
  386.250    2.369   80.339    0.300    0.415
  386.500    2.369   77.281    0.289    0.403
  386.750    2.369   79.733    0.283    0.396
  387.000    2.369   85.246    0.275    0.415
  387.250    2.369   87.698    0.267    0.441
  387.500    2.413   80.967    0.263    0.428
  387.750    2.459   77.908    0.258    0.406
  388.000    2.699   84.035    0.256    0.361
  388.250    2.855   84.037    0.249    0.341
  388.500    3.314   77.305    0.223    0.333
  388.750    3.777   77.309    0.229    0.339
  389.000    4.147   79.761    0.211    0.388
  389.250    4.638   84.049    0.214    0.396
  389.500    4.997   86.501    0.227    0.350
  389.750    5.385   82.831    0.193    0.330
  390.000    5.385   80.997    0.177    0.341
  390.250    5.285   87.123    0.161    0.357
  390.500    4.725   93.861    0.235    0.350
  390.750    4.467   91.415    0.219    0.365
  391.000    4.304   89.581    0.220    0.361
  391.250    4.069   91.421    0.215    0.335
  391.500    3.847   93.261    0.233    0.323
  391.750    3.776   95.713    0.222    0.388
  392.000    3.638  100.614    0.220    0.347
  392.250    3.570   97.556    0.210    0.342
  392.500    3.376   88.987    0.221    0.356
  392.750    2.853   85.929    0.233    0.375
  393.000    2.239   93.279    0.220    0.393
  393.250    1.823   96.344    0.230    0.402
  393.500    1.630   98.184    0.233    0.417
  393.750    1.541   95.737    0.232    0.405
  394.000    1.378   97.577    0.237    0.390
  394.250    1.302   96.968    0.231    0.393
  394.500    1.278   89.624    0.217    0.410
  394.750    1.352   87.791    0.220    0.394
  395.000    1.512   84.119    0.226    0.351
  395.250    1.599   93.919    0.231    0.357
  395.500    1.457   98.208    0.238    0.386
  395.750    1.352   96.986    0.237    0.427
  396.000    1.231   95.764    0.225    0.443
  396.250    1.122   81.687    0.221    0.405
  396.500    1.080   84.138    0.221    0.405
  396.750    1.143   80.467    0.226    0.388
  397.000    1.430   87.206    0.233    0.391
  397.250    2.077   89.045    0.237    0.407
  397.500    3.250   85.987    0.219    0.368
  397.750    3.704   85.990    0.232    0.353
  398.000    3.438   84.157    0.224    0.374
  398.250    2.598   91.507    0.225    0.401
  398.500    2.076   96.408    0.236    0.422
  398.750    2.038   92.125    0.237    0.475
