~VERSION INFORMATION
 VERS.                 2.0:   CWLS LOG ASCII STANDARD -VERSION 2.0
 WRAP.                  NO:   ONE LINE PER DEPTH STEP
~WELL INFORMATION BLOCK
#MNEM.UNIT           DATA                    DESCRIPTION OF MNEMONIC
#---------    -------------------            -------------------------------
# Generated from Intellog Unique Number	CS_67_68/WELL/829
WELL.         SUNCOR                         : Well_name    - WELL
LOC .         00/11-10-068-18W4/0            : Location     - LOCATION
UWI .         00/11-10-068-18W4/0            : Uwi          - UNIQUE WELL ID
ENTR.         SP                             : Entered      - ENTERED BY
SRVC.         SCHLUMBERGER                   : Scn          - SERVICE COMPANY
STRT.M        275                            : top_depth    - START DEPTH
STOP.M        500                            : bot_depth    - STOP DEPTH
STEP.M        0.25                           : increment    - STEP LENGTH
 NULL. -999.2500:NULL Value
~CURVE INFORMATION BLOCK
#MNEM UNIT       ERCB CURVE CODE    CURVE DESCRIPTION
#-----------   ------------------   ----------------------------------
DEPT.M        00 001 00 00         : DEPTH        - DEPTH
ILD .OHMM     00 120 00 00         : RESD         - DEEP RESISTIVITY (DIL)
DPHI.V/V      00 890 00 00         : PHID         - DENSITY POROSITY (LIMESTONE)
NPHI.V/V      00 330 00 00         : PHIN         - NEUTRON POROSITY (LIMESTONE)
GR  .API      00 310 00 00         : GR           - GAMMA RAY
~PARAMETER INFORMATION
#MNEM.UNIT           DATA             DESCRIPTION OF MNEMONIC
#---------         -----------     ------------------------------
GL  .M        556                  : gl           - GROUND LEVEL ELEVATION
EREF.M        559.4                : kb           - ELEVATION OF DEPTH REFERENCE
DATM.M        556                  : datum        - DATUM ELEVATION
TDD .M        537                  : tdd          - TOTAL DEPTH DRILLER
RUN .         ONE                  : Run          - RUN NUMBER
ENG .         BILL                 : Engineer     - RECORDING ENGINEER
WIT .         JIM                  : Witness      - WITNESSED BY
MUD .         GEL                  : Mud_type     - MUD TYPE
MATR.         LIMESTONE            : Logunit      - NEUTRON MATRIX
TMAX.C        21                   : BHT          - MAXIMUM RECORDED TEMPERATURE
BHTD.M        527                  : BHTDEP       - MAXIMUM RECORDED TEMPERATURE
MATR.         1                    : LOGUNIT      - NEUTRON MATRIX
RMT .C        25                   : MDTP         - TEMPERATURE OF MUD
NEUT.         1                    : NEUTRON      - NEUTRON TYPE
RESI.         0                    : RESIST       - RESISTIVITY TYPE
RMC .OHMM     0.25                 : RMC          - RESISTIVITY OF MUD CAKE
RMF .OHMM     0.25                 : RMF          - RESISTIVITY OF MUD FILTRATE
SUFT.C        15                   : SUFT         - SURFACE TEMPERATURE
~A  DEPTH     RESD     PHID     PHIN       GR
# ...
  362.000    5.287    0.243    0.415   87.418
  362.250    4.854    0.224    0.434   90.364
  362.500    4.481    0.232    0.447   89.405
  362.750    4.208    0.255    0.429   84.045
  363.000    4.063    0.254    0.421   83.880
  363.250    3.886    0.242    0.414   86.344
  363.500    3.816    0.251    0.419   87.945
  363.750    3.740    0.236    0.422   88.513
  364.000    3.673    0.221    0.420   92.748
  364.250    3.640    0.214    0.419   95.941
  364.500    3.662    0.209    0.422   95.837
  364.750    3.747    0.211    0.426   95.367
  365.000    3.820    0.213    0.436   96.300
  365.250    3.836    0.222    0.447   96.991
  365.500    3.852    0.218    0.425   92.792
  365.750    3.883    0.188    0.420   90.242
  366.000    3.900    0.160    0.430   99.120
  366.250    3.872    0.176    0.438  105.919
  366.500    3.845    0.183    0.447  108.870
  366.750    3.876    0.194    0.438  107.666
  367.000    3.907    0.206    0.447  105.239
  367.250    3.968    0.217    0.463  102.201
  367.500    4.037    0.238    0.459   97.024
  367.750    4.131    0.232    0.433   88.243
  368.000    4.242    0.207    0.409   91.808
  368.250    4.276    0.195    0.405   95.915
  368.500    4.207    0.190    0.425  101.313
  368.750    4.093    0.190    0.444  105.729
  369.000    3.959    0.193    0.451  109.350
  369.250    3.801    0.200    0.441  105.704
  369.500    3.691    0.200    0.441  103.948
  369.750    3.604    0.200    0.468  103.780
  370.000    3.487    0.208    0.493  105.877
  370.250    3.417    0.205    0.514  107.729
  370.500    3.375    0.212    0.518  110.982
  370.750    3.408    0.215    0.483  111.062
  371.000    3.586    0.207    0.457  106.434
  371.250    3.859    0.206    0.441  107.798
  371.500    4.084    0.215    0.441  106.470
  371.750    4.395    0.224    0.453  103.126
  372.000    4.573    0.208    0.450  102.840
  372.250    4.610    0.188    0.441  101.208
  372.500    4.594    0.186    0.432   95.115
  372.750    4.579    0.238    0.422   91.098
  373.000    4.439    0.267    0.416   86.412
  373.250    4.222    0.281    0.409   83.195
  373.500    3.826    0.282    0.405   80.704
  373.750    3.659    0.297    0.413   77.911
  374.000    3.661    0.328    0.446   76.521
  374.250    3.803    0.339    0.476   75.562
  374.500    3.905    0.311    0.382   77.901
  374.750    3.813    0.304    0.353   74.073
  375.000    3.385    0.309    0.332   71.095
  375.250    2.944    0.325    0.338   68.728
  375.500    2.738    0.337    0.359   67.219
  375.750    2.542    0.322    0.374   67.479
  376.000    2.423    0.301    0.373   75.135
  376.250    2.348    0.270    0.369   87.740
  376.500    2.345    0.237    0.383   94.235
  376.750    2.689    0.206    0.412   93.455
  377.000    3.261    0.269    0.439   79.358
  377.250    3.861    0.329    0.376   69.112
  377.500    4.427    0.368    0.245   68.458
  377.750    4.827    0.387    0.232   70.858
  378.000    4.976    0.393    0.230   68.492
  378.250    4.458    0.354    0.267   59.589
  378.500    2.902    0.324    0.314   53.801
  378.750    2.400    0.322    0.348   55.167
  379.000    2.166    0.327    0.381   56.160
  379.250    2.061    0.316    0.383   55.383
  379.500    1.949    0.306    0.384   52.834
  379.750    1.837    0.299    0.385   53.156
  380.000    1.800    0.307    0.376   56.841
  380.250    1.788    0.321    0.374   57.040
  380.500    1.802    0.314    0.379   55.654
  380.750    1.816    0.318    0.363   58.115
  381.000    1.835    0.325    0.355   59.109
  381.250    1.860    0.330    0.351   56.560
  381.500    1.878    0.320    0.369   59.144
  381.750    1.896    0.313    0.385   63.561
  382.000    1.905    0.312    0.397   66.022
  382.250    1.906    0.318    0.392   63.474
  382.500    1.906    0.324    0.385   60.559
  382.750    1.907    0.327    0.372   58.254
  383.000    1.894    0.329    0.379   59.006
  383.250    1.877    0.330    0.395   61.590
  383.500    1.871    0.332    0.394   61.731
  383.750    1.865    0.332    0.386   61.075
  384.000    1.849    0.327    0.389   61.274
  384.250    1.819    0.324    0.395   61.109
  384.500    1.802    0.320    0.399   57.765
  384.750    1.780    0.320    0.400   55.339
  385.000    1.771    0.325    0.392   58.230
  385.250    1.772    0.327    0.382   61.485
  385.500    1.773    0.323    0.374   64.190
  385.750    1.793    0.317    0.385   63.354
  386.000    1.828    0.320    0.397   60.559
  386.250    1.881    0.326    0.392   62.351
  386.500    1.994    0.313    0.392   69.332
  386.750    2.134    0.282    0.403   78.088
  387.000    2.375    0.253    0.417   83.604
  387.250    2.590    0.228    0.436   89.424
  387.500    2.861    0.217    0.450   92.863
  387.750    3.096    0.211    0.456   93.004
  388.000    3.185    0.220    0.450   90.577
  388.250    3.145    0.248    0.425   79.474
  388.500    2.970    0.265    0.406   71.610
  388.750    2.804    0.277    0.394   74.071
  389.000    2.628    0.279    0.387   80.749
  389.250    2.575    0.246    0.396   85.777
  389.500    2.665    0.229    0.416   89.402
  389.750    2.960    0.220    0.422   90.700
  390.000    3.180    0.221    0.440   92.244
  390.250    3.315    0.222    0.465   93.362
  390.500    3.286    0.217    0.467   87.881
  390.750    2.971    0.227    0.455   82.032
  391.000    2.748    0.269    0.425   76.917
  391.250    2.595    0.291    0.414   74.613
  391.500    2.455    0.297    0.407   76.647
  391.750    2.375    0.280    0.407   80.269
  392.000    2.310    0.269    0.413   82.976
  392.250    2.256    0.283    0.407   82.626
  392.500    2.240    0.296    0.399   81.729
  392.750    2.233    0.299    0.405   81.439
  393.000    2.230    0.303    0.422   81.214
  393.250    2.256    0.307    0.433   80.862
  393.500    2.308    0.306    0.416   78.620
  393.750    2.397    0.288    0.404   77.660
  394.000    2.509    0.275    0.397   79.510
  394.250    2.600    0.266    0.390   78.735
  394.500    2.671    0.259    0.387   80.464
  394.750    2.728    0.253    0.396   82.070
  395.000    2.749    0.252    0.411   82.329
  395.250    2.746    0.263    0.427   78.255
  395.500    2.731    0.270    0.440   75.460
  395.750    2.733    0.276    0.452   76.884
  396.000    2.739    0.279    0.461   78.614
  396.250    2.741    0.275    0.443   79.976
  396.500    2.762    0.259    0.431   81.214
  396.750    2.795    0.234    0.443   83.981
  397.000    2.828    0.218    0.435   90.413
  397.250    2.850    0.199    0.426   95.868
  397.500    2.906    0.206    0.442   91.914
  397.750    2.951    0.218    0.440   90.342
  398.000    3.008    0.216    0.425   91.337
  398.250    3.049    0.225    0.433   86.589
  398.500    3.102    0.235    0.450   83.246
  398.750    3.204    0.240    0.429   83.263
  399.000    3.303    0.242    0.414   85.543
  399.250    3.424    0.236    0.407   88.309
  399.500    3.556    0.218    0.417   89.243
  399.750    3.805    0.201    0.431   87.489
  400.000    3.982    0.194    0.424   89.461
  400.250    3.910    0.195    0.416   92.171
  400.500    3.811    0.199    0.409   92.922
  400.750    3.841    0.204    0.407   91.776
  401.000    4.095    0.207    0.438   85.683
  401.250    6.032    0.222    0.135   72.258
  401.500   12.987    0.199    0.115   58.285
  401.750   22.300    0.031    0.110   50.968
  402.000   38.362    0.017    0.113   44.450
  402.250   51.759    0.002    0.118   42.511
  402.500   16.253   -0.006    0.129   44.728
  402.750    9.984    0.039    0.189   50.980
  403.000    7.324    0.175    0.271   54.416
  403.250    5.052    0.255    0.375   59.140
  403.500    3.678    0.292    0.435   62.763
  403.750    3.110    0.304    0.433   65.224
  404.000    2.845    0.296    0.411   67.990
  404.250    2.847    0.285    0.397   73.752
  404.500    2.945    0.265    0.407   79.940
  404.750    3.002    0.238    0.412   84.969
  405.000    3.072    0.237    0.420   84.069
  405.250    3.102    0.252    0.433   78.953
