~VERSION INFORMATION
 VERS.                 2.0:   CWLS LOG ASCII STANDARD -VERSION 2.0
 WRAP.                  NO:   ONE LINE PER DEPTH STEP
~WELL INFORMATION BLOCK
#MNEM.UNIT           DATA                    DESCRIPTION OF MNEMONIC
#---------    -------------------            -------------------------------
# Generated from Intellog Unique Number	CS_73_76/WELL/2203
WELL.         W.W. BECKER OIL & GAS LTD      : Well_name    - WELL
LOC .         00/11-26-074-14W4/0            : Location     - LOCATION
UWI .         00/11-26-074-14W4/0            : Uwi          - UNIQUE WELL ID
ENTR.         SP                             : Entered      - ENTERED BY
SRVC.         SCHLUMBERGER                   : Scn          - SERVICE COMPANY
STRT.M        411.48                         : top_depth    - START DEPTH
STOP.M        630.73                         : bot_depth    - STOP DEPTH
STEP.M        0.25                           : increment    - STEP LENGTH
 NULL. -999.2500:NULL Value
~CURVE INFORMATION BLOCK
#MNEM UNIT       ERCB CURVE CODE    CURVE DESCRIPTION
#-----------   ------------------   ----------------------------------
DEPT.M        00 001 00 00         : DEPTH        - DEPTH
GR  .API      00 310 00 00         : GR           - GAMMA RAY
DPHI.V/V      00 890 00 00         : PHID         - DENSITY POROSITY (SANDSTONE)
NPHI.V/V      00 330 00 00         : PHIN         - NEUTRON POROSITY (SANDSTONE)
ILD .OHMM     00 120 00 00         : RESD         - DEEP RESISTIVITY (DIL)
~PARAMETER INFORMATION
#MNEM.UNIT           DATA             DESCRIPTION OF MNEMONIC
#---------         -----------     ------------------------------
GL  .M        771.296              : gl           - GROUND LEVEL ELEVATION
EREF.M        774.527              : kb           - ELEVATION OF DEPTH REFERENCE
DATM.M        771.296              : datum        - DATUM ELEVATION
TDD .M        634.594              : tdd          - TOTAL DEPTH DRILLER
RUN .         ONE                  : Run          - RUN NUMBER
ENG .         BILL                 : Engineer     - RECORDING ENGINEER
WIT .         JIM                  : Witness      - WITNESSED BY
MUD .         GEL                  : Mud_type     - MUD TYPE
MATR.         SANDSTONE            : Logunit      - NEUTRON MATRIX
TMAX.C        16.6667              : BHT          - MAXIMUM RECORDED TEMPERATURE
BHTD.M        634.594              : BHTDEP       - MAXIMUM RECORDED TEMPERATURE
MATR.         1                    : LOGUNIT      - NEUTRON MATRIX
RMT .C        25                   : MDTP         - TEMPERATURE OF MUD
NEUT.         1                    : NEUTRON      - NEUTRON TYPE
RESI.         0                    : RESIST       - RESISTIVITY TYPE
RMC .OHMM     0.25                 : RMC          - RESISTIVITY OF MUD CAKE
RMF .OHMM     0.25                 : RMF          - RESISTIVITY OF MUD FILTRATE
SUFT.C        15                   : SUFT         - SURFACE TEMPERATURE
~A  DEPTH       GR     PHID     PHIN     RESD
# ...
  498.480   91.056    0.261    0.474    4.903
  498.730   92.027    0.222    0.468    4.653
  498.980   90.579    0.201    0.470    4.421
  499.230   90.076    0.202    0.476    4.300
  499.480   91.281    0.203    0.478    4.053
  499.730   95.739    0.217    0.485    3.812
  499.980   97.339    0.210    0.500    3.379
  500.230   97.589    0.191    0.526    3.018
  500.480   99.280    0.197    0.534    2.446
  500.730  102.394    0.202    0.539    1.984
  500.980  103.784    0.219    0.541    1.777
  501.230  103.715    0.227    0.539    1.591
  501.480  102.670    0.217    0.532    1.537
  501.730  102.464    0.212    0.526    1.567
  501.980  102.429    0.225    0.518    1.725
  502.230  103.424    0.228    0.532    1.936
  502.480  103.706    0.220    0.539    2.238
  502.730  103.774    0.214    0.541    2.688
  502.980  102.791    0.230    0.536    2.647
  503.230   99.480    0.246    0.523    2.626
  503.480   94.508    0.258    0.519    2.761
  503.730   89.524    0.255    0.503    3.012
  503.980   85.118    0.260    0.493    3.452
  504.230   81.815    0.273    0.479    4.069
  504.480   88.314    0.264    0.468    4.236
  504.730   92.449    0.259    0.492    3.471
  504.980   97.084    0.260    0.510    2.958
  505.230   98.503    0.253    0.525    2.645
  505.480   97.155    0.259    0.538    2.388
  505.730   93.173    0.266    0.557    2.492
  505.980   89.905    0.272    0.509    3.017
  506.230   88.746    0.277    0.497    3.745
  506.480   88.811    0.285    0.489    4.503
  506.730   88.843    0.280    0.494    5.144
  506.980   88.923    0.275    0.497    5.522
  507.230   88.230    0.284    0.487    5.666
  507.480   87.750    0.283    0.481    5.656
  507.730   86.783    0.269    0.476    5.657
  507.980   85.895    0.261    0.473    5.660
  508.230   84.918    0.272    0.473    5.566
  508.480   84.053    0.279    0.475    5.554
  508.730   84.869    0.286    0.475    5.550
  508.980   87.968    0.289    0.474    5.561
  509.230   89.880    0.288    0.469    5.437
  509.480   90.860    0.284    0.457    5.447
  509.730   89.252    0.275    0.445    5.451
  509.980   83.645    0.272    0.439    5.479
  510.230   78.322    0.272    0.444    5.546
  510.480   74.255    0.278    0.454    5.845
  510.730   72.160    0.286    0.457    6.059
  510.980   67.501    0.283    0.461    6.883
  511.230   65.037    0.277    0.416    7.871
  511.480   60.301    0.236    0.300   11.219
  511.730   57.397    0.163    0.229   17.480
  511.980   54.350    0.091    0.172   23.175
  512.230   51.195    0.007    0.164   29.027
  512.480   58.356    0.019    0.175   29.232
  512.730   64.765    0.041    0.195   22.878
  512.980   70.420    0.212    0.289   13.179
  513.230   74.145    0.238    0.406    8.269
  513.480   78.452    0.278    0.448    6.737
  513.730   81.401    0.308    0.459    6.005
  513.980   81.575    0.306    0.461    5.685
  514.230   81.190    0.295    0.459    5.655
  514.480   86.885    0.286    0.452    5.653
  514.730   92.972    0.267    0.454    5.653
  514.980   95.052    0.256    0.461    5.653
  515.230   96.164    0.241    0.465    5.653
  515.480   95.925    0.228    0.468    5.653
  515.730   95.558    0.231    0.464    5.652
  515.980   95.570    0.230    0.458    5.652
  516.230   95.527    0.237    0.454    5.652
  516.480   96.762    0.231    0.459    5.652
  516.730   96.822    0.228    0.465    5.652
  516.980   94.642    0.227    0.472    5.652
  517.230   92.127    0.229    0.463    5.652
  517.480   91.216    0.219    0.457    5.652
  517.730   93.461    0.209    0.449    5.652
  517.980   94.409    0.216    0.441    5.651
  518.230   94.540    0.211    0.450    5.652
  518.480   93.853    0.203    0.459    5.653
  518.730   91.813    0.210    0.465    5.572
  518.980   90.711    0.201    0.451    5.548
  519.230   90.341    0.188    0.438    5.546
  519.480   91.998    0.181    0.433    5.365
  519.730   92.843    0.195    0.446    5.318
  519.980   92.878    0.205    0.455    5.244
  520.230   91.588    0.217    0.466    5.079
  520.480   91.015    0.228    0.473    5.035
  520.730   93.182    0.239    0.474    4.960
  520.980   96.285    0.250    0.462    4.856
  521.230   96.953    0.243    0.454    4.872
  521.480   93.272    0.222    0.459    4.963
  521.730   91.138    0.215    0.460    4.994
  521.980   87.438    0.229    0.453    5.051
  522.230   86.721    0.226    0.463    5.210
  522.480   89.010    0.237    0.471    5.349
  522.730   91.145    0.244    0.477    5.340
  522.980   91.294    0.249    0.479    5.338
  523.230   87.685    0.253    0.470    5.325
  523.480   85.258    0.255    0.458    5.150
  523.730   85.505    0.253    0.466    5.146
  523.980   90.394    0.245    0.473    5.145
  524.230   93.836    0.244    0.476    5.135
  524.480   95.210    0.244    0.465    5.241
  524.730   94.792    0.238    0.447    5.343
  524.980   90.193    0.271    0.441    5.414
  525.230   86.756    0.271    0.450    5.437
  525.480   85.929    0.262    0.456    5.440
  525.730   85.586    0.251    0.461    5.425
  525.980   84.412    0.272    0.448    5.520
  526.230   83.019    0.280    0.436    5.536
  526.480   83.927    0.287    0.431    5.550
  526.730   86.567    0.292    0.429    5.431
  526.980   85.602    0.289    0.436    5.438
  527.230   83.173    0.287    0.445    5.388
  527.480   83.106    0.291    0.450    5.330
  527.730   83.687    0.295    0.445    5.243
  527.980   83.544    0.283    0.450    5.133
  528.230   85.607    0.284    0.456    5.145
  528.480   85.391    0.288    0.459    5.246
  528.730   83.447    0.278    0.461    5.240
  528.980   83.155    0.272    0.463    5.239
  529.230   82.463    0.265    0.463    5.245
  529.480   83.441    0.254    0.459    5.284
  529.730   85.546    0.252    0.455    5.438
  529.980   85.243    0.253    0.457    5.612
  530.230   85.789    0.254    0.465    5.659
  530.480   87.172    0.260    0.473    5.757
  530.730   90.845    0.263    0.476    5.765
  530.980   93.773    0.271    0.476    5.644
  531.230   95.247    0.267    0.472    5.430
  531.480   96.890    0.253    0.469    4.910
  531.730   99.166    0.246    0.466    3.946
  531.980  101.883    0.247    0.473    3.522
  532.230  105.984    0.249    0.490    2.829
  532.480  109.420    0.259    0.507    2.490
  532.730  110.544    0.244    0.514    2.197
  532.980  108.541    0.234    0.495    2.073
  533.230  106.208    0.225    0.509    2.011
  533.480  102.476    0.217    0.509    2.154
  533.730  100.266    0.227    0.518    2.374
  533.980   98.707    0.233    0.518    2.777
  534.230   99.302    0.229    0.509    3.206
  534.480  100.619    0.224    0.498    3.618
  534.730  100.852    0.214    0.486    4.037
  534.980   99.070    0.217    0.480    4.382
  535.230   98.777    0.227    0.483    4.507
  535.480   98.766    0.226    0.482    4.506
  535.730   99.752    0.217    0.474    4.508
  535.980  100.704    0.212    0.475    4.506
  536.230   97.871    0.219    0.469    4.463
  536.480   93.604    0.213    0.470    4.438
  536.730   91.784    0.210    0.473    4.510
  536.980   89.672    0.209    0.468    4.508
  537.230   89.166    0.207    0.464    4.507
  537.480   89.210    0.232    0.468    4.509
  537.730   88.890    0.256    0.464    4.537
  537.980   86.808    0.273    0.458    4.591
  538.230   85.808    0.283    0.452    4.653
  538.480   84.507    0.276    0.457    4.682
  538.730   82.677    0.265    0.462    4.595
  538.980   83.464    0.241    0.455    4.594
  539.230   89.252    0.215    0.445    4.595
  539.480   95.518    0.207    0.445    4.519
  539.730   98.948    0.215    0.462    4.383
  539.980   99.060    0.229    0.474    4.255
  540.230   98.715    0.225    0.475    4.260
  540.480   98.058    0.229    0.468    4.253
  540.730   96.057    0.235    0.464    4.344
  540.980   94.309    0.237    0.467    4.330
  541.230   92.394    0.240    0.466    4.430
  541.480   89.529    0.228    0.471    4.422
  541.730   85.983    0.237    0.473    4.477
