~VERSION INFORMATION
 VERS.                 2.0:   CWLS LOG ASCII STANDARD -VERSION 2.0
 WRAP.                  NO:   ONE LINE PER DEPTH STEP
~WELL INFORMATION BLOCK
#MNEM.UNIT           DATA                    DESCRIPTION OF MNEMONIC
#---------    -------------------            -------------------------------
# Generated from Intellog Unique Number	CW_70_72/WELL/1064
NULL.         -999.25                        : NULL_VALUE
WELL.         LANDBANK ET AL MITSUE 11-36    : Well_name    - WELL              
LOC .         11-36-072-03W5                 : Location     - LOCATION          
UWI .         00/11-36-072-03W5/0            : Uwi          - UNIQUE WELL ID    
ENTR.         JAYE                           : Entered      - ENTERED BY        
SRVC.         SCHLUMBERGER                   : Scn          - SERVICE COMPANY   
DATE.         29 FEB 79                      : Date         - LOG DATE          
STRT.M        395                            : top_depth    - START DEPTH       
STOP.M        635                            : bot_depth    - STOP DEPTH        
STEP.M        0.25                           : increment    - STEP LENGTH       
~CURVE INFORMATION BLOCK
#MNEM UNIT       ERCB CURVE CODE    CURVE DESCRIPTION
#-----------   ------------------   ----------------------------------
DEPT.M        00 001 00 00         : DEPTH        - DEPTH                       
DPHI.V/V      00 890 00 00         : PHID         - DENSITY POROSITY (SANDSTONE)
NPHI.V/V      00 330 00 00         : PHIN         - NEUTRON POROSITY (SANDSTONE)
GR  .API      00 310 00 00         : GR           - GAMMA RAY                   
CALI.MM       00 280 01 00         : CAL          - CALIPER                     
ILD .OHMM     00 120 00 00         : RESD         - DEEP RESISTIVITY (DIL)      
~PARAMETER INFORMATION       
#MNEM.UNIT           DATA             DESCRIPTION OF MNEMONIC
#---------         -----------     ------------------------------
GL  .M        589                  : gl           - GROUND LEVEL ELEVATION      
EREF.M        591.7                : kb           - ELEVATION OF DEPTH REFERENCE
DATM.M        589                  : datum        - DATUM ELEVATION             
TDD .M        637                  : tdd          - TOTAL DEPTH DRILLER         
RUN .         ONE                  : Run          - RUN NUMBER                  
ENG .         MARSCHNER            : Engineer     - RECORDING ENGINEER          
WIT .         LOWTHER              : Witness      - WITNESSED BY                
BASE.         EDM                  : Branch       - HOME BASE OF LOGGING UNIT   
MUD .         GEL XHEM             : Mud_type     - MUD TYPE                    
MATR.         SANDSTONE            : Logunit      - NEUTRON MATRIX              
TMAX.C        25.5                 : BHT          - MAXIMUM RECORDED TEMPERATURE
BHTD.M        638                  : BHTDEP       - MAXIMUM RECORDED TEMPERATURE
RMT .C        7.8                  : MDTP         - TEMPERATURE OF MUD          
MUDD.KG/M     1190                 : MWT          - MUD DENSITY                 
NEUT.         1                    : NEUTRON      - NEUTRON TYPE                
RESI.         0                    : RESIST       - RESISTIVITY TYPE            
RM  .OHMM     4.55                 : RM           - RESISTIVITY OF MUD          
RMC .OHMM     0                    : RMC          - RESISTIVITY OF MUD CAKE     
RMF .OHMM     4.7                  : RMF          - RESISTIVITY OF MUD FILTRATE 
SUFT.C        32                   : SUFT         - SURFACE TEMPERATURE         
~A  DEPTH     PHID     PHIN       GR      CAL     RESD
# ...
  541.000    0.246    0.433  107.826  169.274    3.900
  541.250    0.234    0.428  106.021  169.132    3.857
  541.500    0.240    0.432  102.123  168.785    3.830
  541.750    0.223    0.410   96.994  168.032    3.853
  542.000    0.204    0.380  101.154  166.461    3.876
  542.250    0.200    0.379  105.867  164.367    3.870
  542.500    0.221    0.396  109.597  163.202    3.857
  542.750    0.238    0.420  113.386  162.552    3.830
  543.000    0.233    0.431  114.719  161.995    3.817
  543.250    0.218    0.415  114.756  161.962    3.826
  543.500    0.201    0.432  115.225  162.026    3.842
  543.750    0.199    0.460  114.588  161.975    3.850
  544.000    0.234    0.454  110.628  162.252    3.873
  544.250    0.260    0.454  104.452  162.629    3.875
  544.500    0.257    0.458  100.617  163.207    3.861
  544.750    0.251    0.472   96.227  164.188    3.877
  545.000    0.244    0.476   94.419  164.975    3.893
  545.250    0.237    0.453   99.747  165.860    3.931
  545.500    0.240    0.442  103.231  166.642    3.940
  545.750    0.252    0.445  104.992  167.415    3.934
  546.000    0.244    0.441  104.847  168.096    3.914
  546.250    0.230    0.442  105.562  168.575    3.944
  546.500    0.215    0.434  106.583  169.559    4.042
  546.750    0.206    0.447  106.807  170.137    4.159
  547.000    0.229    0.445   97.925  170.510    4.270
  547.250    0.196    0.431   95.443  170.679    4.344
  547.500    0.166    0.401   99.602  170.947    4.386
  547.750    0.190    0.414  102.717  171.322    4.388
  548.000    0.205    0.440  106.260  171.478    4.341
  548.250    0.211    0.422  110.051  171.345    4.254
  548.500    0.222    0.415  113.964  171.104    4.077
  548.750    0.233    0.433  115.358  170.964    3.988
  549.000    0.210    0.442  112.445  170.822    3.945
  549.250    0.208    0.444  111.867  170.677    3.939
  549.500    0.214    0.437  109.689  170.536    3.963
  549.750    0.222    0.442  109.483  170.397    3.964
  550.000    0.241    0.435  112.121  176.437    3.981
  550.250    0.235    0.427  112.387  176.360    3.930
  550.500    0.221    0.415  110.848  174.107    4.003
  550.750    0.224    0.419  107.069  166.665    4.062
  551.000    0.214    0.433  104.595  165.347    4.070
  551.250    0.217    0.429  104.862  164.856    4.075
  551.500    0.219    0.410  107.242  164.672    4.050
  551.750    0.220    0.410  111.300  165.838    3.990
  552.000    0.207    0.422  117.787  167.629    3.930
  552.250    0.206    0.437  125.518  169.110    3.928
  552.500    0.204    0.454  119.687  169.757    3.971
  552.750    0.198    0.475  114.289  169.893    4.097
  553.000    0.184    0.469  109.141  168.673    4.316
  553.250    0.159    0.367  104.554  166.108    4.756
  553.500    0.119    0.341   98.782  165.196    5.319
  553.750    0.118    0.314   91.271  166.261    6.175
  554.000    0.063    0.277   85.688  168.986    7.654
  554.250    0.036    0.237   80.849  168.081    8.655
  554.500    0.025    0.194   73.337  166.860    9.994
  554.750    0.032    0.196   64.641  165.857   11.113
  555.000    0.047    0.219   82.703  165.779   11.382
  555.250    0.087    0.268  100.451  165.912    9.299
  555.500    0.121    0.329  113.408  166.240    7.276
  555.750    0.146    0.368  119.710  166.895    6.021
  556.000    0.159    0.404  114.498  167.643    4.992
  556.250    0.172    0.422  112.088  168.810    4.354
  556.500    0.183    0.427  114.468  170.395    4.178
  556.750    0.197    0.433  113.863  171.774    4.169
  557.000    0.189    0.442  113.007  172.211    4.222
  557.250    0.194    0.451  112.961  172.965    4.285
  557.500    0.180    0.458  113.102  173.407    4.348
  557.750    0.169    0.453  112.619  173.436    4.396
  558.000    0.162    0.444  112.325  173.457    4.418
  558.250    0.173    0.434  112.590  172.761    4.425
  558.500    0.169    0.423  111.796  172.059    4.408
  558.750    0.159    0.421  114.054  170.118    4.382
  559.000    0.175    0.441  112.267  169.311    4.363
  559.250    0.176    0.436  115.640  169.242    4.338
  559.500    0.177    0.422  117.213  169.990    4.313
  559.750    0.180    0.417  116.855  170.742    4.294
  560.000    0.183    0.421  115.814  171.701    4.269
  560.250    0.188    0.426  115.393  172.245    4.227
  560.500    0.191    0.429  114.977  172.797    4.212
  560.750    0.187    0.435  114.119  172.925    4.249
  561.000    0.194    0.450  110.028  172.849    4.328
  561.250    0.195    0.462  103.016  171.835    4.441
  561.500    0.187    0.463   97.743  170.616    4.557
  561.750    0.208    0.441   95.081  169.813    4.634
  562.000    0.221    0.429   94.351  169.841    4.641
  562.250    0.230    0.412   93.995  169.456    4.657
  562.500    0.218    0.396   92.890  168.546    4.672
  562.750    0.213    0.398   94.962  166.914    4.637
  563.000    0.212    0.399   93.731  165.387    4.592
  563.250    0.204    0.410   90.387  164.063    4.531
  563.500    0.208    0.426   94.074  163.676    4.487
  563.750    0.215    0.431   99.939  163.394    4.468
  564.000    0.224    0.424  107.608  163.423    4.434
  564.250    0.223    0.419  105.385  163.449    4.432
  564.500    0.217    0.417  101.294  163.994    4.447
  564.750    0.210    0.416   97.016  163.915    4.446
  565.000    0.202    0.412   92.864  163.220    4.395
  565.250    0.193    0.413   89.955  163.346    4.289
  565.500    0.207    0.414   95.135  164.305    4.207
  565.750    0.217    0.413  103.053  165.887    4.089
  566.000    0.220    0.413  110.662  167.157    3.953
  566.250    0.215    0.418  125.733  168.950    3.864
  566.500    0.194    0.435  138.257  171.880    3.785
  566.750    0.206    0.451  131.242  173.670    3.727
  567.000    0.217    0.441  125.347  171.000    3.705
  567.250    0.221    0.444  122.501  170.301    3.731
  567.500    0.209    0.454  120.152  171.362    3.865
  567.750    0.187    0.456  117.183  173.366    4.041
  568.000    0.169    0.444  114.648  174.743    4.201
  568.250    0.176    0.431  112.238  175.488    4.368
  568.500    0.184    0.447  109.578  176.865    4.509
  568.750    0.183    0.459  113.637  177.201    4.608
  569.000    0.171    0.459  112.035  177.539    4.746
  569.250    0.169    0.435  110.309  177.882    4.891
  569.500    0.204    0.421  108.272  177.802    4.952
  569.750    0.186    0.439  105.179  176.586    4.979
  570.000    0.184    0.456  101.647  174.747    5.005
  570.250    0.177    0.430   97.930  172.179    4.957
  570.500    0.159    0.405   94.648  170.337    4.810
  570.750    0.149    0.391   97.714  168.604    4.700
  571.000    0.172    0.379  106.378  168.005    4.604
  571.250    0.178    0.394  114.172  168.448    4.578
  571.500    0.182    0.393  119.352  169.724    4.593
  571.750    0.192    0.403  123.537  170.576    4.617
  572.000    0.195    0.414  126.851  171.536    4.573
  572.250    0.192    0.426  119.213  171.975    4.520
  572.500    0.189    0.430  112.325  170.968    4.510
  572.750    0.193    0.434  107.238  169.128    4.541
  573.000    0.192    0.443  101.280  167.803    4.550
  573.250    0.186    0.438   97.189  168.150    4.564
  573.500    0.168    0.406  112.574  169.210    4.581
  573.750    0.180    0.406  118.252  170.893    4.613
  574.000    0.178    0.415  119.512  172.475    4.638
  574.250    0.174    0.420  116.666  173.748    4.645
  574.500    0.177    0.426  117.615  174.920    4.704
  574.750    0.166    0.435  119.748  175.462    4.755
  575.000    0.164    0.449  120.635  175.279    4.792
  575.250    0.165    0.452  118.660  174.683    4.815
  575.500    0.165    0.433  115.004  174.610    4.842
  575.750    0.159    0.417  109.359  174.637    4.875
  576.000    0.159    0.420  109.561  174.764    4.875
  576.250    0.175    0.431  117.604  175.410    4.864
  576.500    0.171    0.420  110.216  177.099    4.807
  576.750    0.178    0.387  109.424  177.746    4.682
  577.000    0.185    0.405  111.992  177.361    4.576
  577.250    0.185    0.426  117.794  176.974    4.450
