~VERSION INFORMATION
 VERS.                 2.0:   CWLS LOG ASCII STANDARD -VERSION 2.0
 WRAP.                  NO:   ONE LINE PER DEPTH STEP
~WELL INFORMATION BLOCK
#MNEM.UNIT           DATA                    DESCRIPTION OF MNEMONIC
#---------    -------------------            -------------------------------
# Generated from Intellog Unique Number	CW_70_72/WELL/1047
NULL.         -999.25                        : NULL_VALUE
WELL.         SUNDANCE ET AL TOMATO 10-33    : Well_name    - WELL              
LOC .         10-33-072-23W4                 : Location     - LOCATION          
UWI .         00/10-33-072-23W4/0            : Uwi          - UNIQUE WELL ID    
ENTR.         JAYE                           : Entered      - ENTERED BY        
SRVC.         SCHLUMBERGER                   : Scn          - SERVICE COMPANY   
DATE.         11 JAN 74                      : Date         - LOG DATE          
STRT.M        414.528                        : top_depth    - START DEPTH       
STOP.M        637.028                        : bot_depth    - STOP DEPTH        
STEP.M        0.25                           : increment    - STEP LENGTH       
~CURVE INFORMATION BLOCK
#MNEM UNIT       ERCB CURVE CODE    CURVE DESCRIPTION
#-----------   ------------------   ----------------------------------
DEPT.M        00 001 00 00         : DEPTH        - DEPTH                       
DPHI.V/V      00 890 00 00         : PHID         - DENSITY POROSITY (SANDSTONE)
NPHI.V/V      00 330 00 00         : PHIN         - NEUTRON POROSITY (SANDSTONE)
GR  .API      00 310 00 00         : GR           - GAMMA RAY                   
CALI.MM       00 280 01 00         : CAL          - CALIPER                     
ILD .OHMM     00 120 00 00         : RESD         - DEEP RESISTIVITY (DIL)      
~PARAMETER INFORMATION       
#MNEM.UNIT           DATA             DESCRIPTION OF MNEMONIC
#---------         -----------     ------------------------------
GL  .M        670.103              : gl           - GROUND LEVEL ELEVATION      
EREF.M        673.151              : kb           - ELEVATION OF DEPTH REFERENCE
DATM.M        670.103              : datum        - DATUM ELEVATION             
TDD .M        647.09               : tdd          - TOTAL DEPTH DRILLER         
RUN .         ONE                  : Run          - RUN NUMBER                  
MATR.         SANDSTONE            : Logunit      - NEUTRON MATRIX              
TMAX.C        41.6667              : BHT          - MAXIMUM RECORDED TEMPERATURE
BHTD.M        646.176              : BHTDEP       - MAXIMUM RECORDED TEMPERATURE
RMT .C        14.4444              : MDTP         - TEMPERATURE OF MUD          
MUDD.KG/M     0                    : MWT          - MUD DENSITY                 
NEUT.         1                    : NEUTRON      - NEUTRON TYPE                
RESI.         0                    : RESIST       - RESISTIVITY TYPE            
RM  .OHMM     3.72                 : RM           - RESISTIVITY OF MUD          
RMC .OHMM     0                    : RMC          - RESISTIVITY OF MUD CAKE     
RMF .OHMM     2.21                 : RMF          - RESISTIVITY OF MUD FILTRATE 
SUFT.C        0                    : SUFT         - SURFACE TEMPERATURE         
~A  DEPTH     PHID     PHIN       GR      CAL     RESD
# ...
  487.528    0.224    0.414   41.646  153.227    5.776
  487.778    0.225    0.347   43.009  152.836    6.038
  488.028    0.079    0.318   44.251  154.418    6.405
  488.278    0.018    0.158   42.178  157.455    7.089
  488.528    0.000    0.124   39.182  161.637    7.976
  488.778   -0.013    0.107   35.695  164.779   10.097
  489.028   -0.017    0.097   32.638  165.112   13.885
  489.278   -0.019    0.087   30.933  165.032   24.167
  489.528   -0.021    0.084   31.438  165.159   41.295
  489.778   -0.022    0.085   33.785  165.081   52.661
  490.028   -0.023    0.089   36.071  165.000   56.279
  490.278   -0.023    0.093   38.233  164.919   54.754
  490.528   -0.023    0.096   40.213  164.941   53.270
  490.778   -0.022    0.097   40.962  164.651   51.542
  491.028   -0.021    0.097   41.036  163.947   49.053
  491.278   -0.020    0.097   41.111  163.557   47.112
  491.528   -0.018    0.097   40.880  163.265   44.181
  491.778   -0.016    0.098   40.464  163.287   41.430
  492.028   -0.010    0.101   39.863  163.626   38.213
  492.278    0.004    0.105   39.692  163.644   34.795
  492.528    0.010    0.109   41.486  163.879   32.629
  492.778    0.004    0.116   42.788  164.104   29.765
  493.028   -0.001    0.133   42.003  164.543   27.002
  493.278    0.026    0.162   43.183  164.253   24.094
  493.528    0.108    0.319   46.022  156.376   21.499
  493.778    0.186    0.363   48.061  153.382   18.592
  494.028    0.241    0.387   49.918  152.990   15.441
  494.278    0.257    0.415   51.097  153.324   12.659
  494.528    0.263    0.438   51.724  153.555   10.630
  494.778    0.272    0.467   51.615  153.584    8.893
  495.028    0.286    0.477   51.137  153.502    7.748
  495.278    0.294    0.465   51.335  153.312    7.293
  495.528    0.281    0.457   51.350  153.127    7.121
  495.778    0.272    0.442   52.345  153.047    7.031
  496.028    0.268    0.433   53.893  153.380    6.942
  496.278    0.275    0.446   52.864  154.028    6.855
  496.528    0.285    0.475   52.939  154.883    6.830
  496.778    0.276    0.466   54.365  155.222    6.794
  497.028    0.264    0.454   55.482  155.138    6.782
  497.278    0.242    0.468   57.462  154.744    6.834
  497.528    0.249    0.457   59.870  154.352    6.872
  497.778    0.262    0.446   62.031  153.958    6.861
  498.028    0.274    0.477   61.248  153.671    6.849
  498.278    0.254    0.501   61.689  153.796    6.876
  498.528    0.247    0.494   63.607  153.513    6.915
  498.778    0.247    0.450   62.331  152.804    6.954
  499.028    0.226    0.453   60.809  152.408    6.994
  499.278    0.221    0.453   62.419  150.975    7.086
  499.528    0.254    0.427   63.476  150.581    7.312
  499.778    0.275    0.403   64.842  151.020    7.658
  500.028    0.269    0.387   67.065  152.810    8.138
  500.278    0.265    0.372   67.757  155.848    8.586
  500.528    0.239    0.369   67.461  155.561    9.226
  500.778    0.179    0.331   67.353  156.311   10.117
  501.028    0.107    0.301   67.733  158.206   11.074
  501.278    0.059    0.263   66.149  160.517   12.346
  501.528    0.076    0.263   62.663  162.410   13.463
  501.778    0.084    0.277   65.379  163.889   15.066
  502.028    0.062    0.245   67.049  164.224   16.189
  502.278    0.080    0.240   66.449  164.245   17.365
  502.528    0.127    0.249   67.569  163.021   18.052
  502.778    0.144    0.269   69.669  160.340   17.531
  503.028    0.167    0.296   71.156  158.076   15.273
  503.278    0.224    0.331   74.546  156.852   12.731
  503.528    0.245    0.431   79.904  156.147   10.710
  503.778    0.230    0.423   82.987  156.380    9.313
  504.028    0.220    0.420   85.456  156.712    8.054
  504.278    0.197    0.431   87.434  157.360    7.253
  504.528    0.173    0.454   90.394  158.840    6.727
  504.778    0.150    0.480   95.136  160.316    6.170
  505.028    0.165    0.515   98.956  162.521    5.650
  505.278    0.147    0.529   98.355  165.769    5.182
  505.528    0.170    0.510   96.036  167.872    4.923
  505.778    0.184    0.497   93.225  169.452    4.642
  506.028    0.172    0.487   92.686  170.829    4.434
  506.278    0.171    0.524   96.322  171.058    4.259
  506.528    0.169    0.522   99.159  168.377    4.090
  506.778    0.176    0.503  102.243  166.738    3.936
  507.028    0.182    0.555  106.555  167.279    3.808
  507.278    0.173    0.576   98.832  170.837    3.719
  507.528    0.200    0.543   97.863  172.525    3.719
  507.778    0.214    0.506   99.902  169.637    3.859
  508.028    0.176    0.476  101.881  165.085    4.178
  508.278    0.182    0.466   98.395  161.467    4.649
  508.528    0.206    0.473   91.716  159.618    5.193
  508.778    0.206    0.474   91.606  160.995    5.673
  509.028    0.185    0.499   95.918  162.680    6.108
  509.278    0.192    0.496   98.203  162.702    6.385
  509.528    0.200    0.484   96.068  163.663    6.492
  509.778    0.195    0.494   92.274  164.411    6.529
  510.028    0.192    0.511   93.147  164.330    6.459
  510.278    0.211    0.536   92.670  164.043    6.424
  510.528    0.214    0.525   89.736  163.129    6.473
  510.778    0.226    0.510   87.723  158.682    6.545
  511.028    0.242    0.485   84.483  157.040    6.668
  511.278    0.225    0.455   79.400  157.273    6.881
  511.528    0.237    0.480   75.238  155.526    6.997
  511.778    0.259    0.464   70.155  153.887    7.089
  512.028    0.262    0.463   66.670  152.976    7.142
  512.278    0.269    0.488   65.886  152.164    7.104
  512.528    0.282    0.469   66.389  151.253    7.053
  512.778    0.275    0.452   67.508  150.862    6.913
  513.028    0.291    0.450   70.345  151.092    6.800
  513.278    0.295    0.448   74.411  151.529    6.690
  513.528    0.246    0.441   78.232  153.318    6.678
  513.778    0.205    0.424   81.745  157.812    6.754
  514.028    0.181    0.400   84.890  160.953    6.906
  514.278    0.219    0.499   79.193  156.923    7.035
  514.528    0.237    0.530   80.129  154.969    7.154
  514.778    0.258    0.488   80.510  154.368    7.181
  515.028    0.256    0.461   79.419  153.978    7.104
  515.278    0.229    0.483   79.986  153.895    6.975
  515.528    0.235    0.493   80.120  154.647    6.799
  515.778    0.215    0.490   81.486  155.918    6.639
  516.028    0.202    0.505   82.542  156.563    6.495
  516.278    0.200    0.522   82.311  156.065    6.331
  516.528    0.183    0.490   82.569  153.072    6.274
  516.778    0.160    0.409   82.644  149.560    6.333
  517.028    0.133    0.328   80.017  148.856    6.669
  517.278    0.102    0.288   73.645  152.205    7.339
  517.528    0.069    0.236   61.440  159.403    8.489
  517.778    0.033    0.209   54.392  163.481   10.263
  518.028    0.045    0.202   54.775  163.505   12.731
  518.278    0.033    0.195   56.632  164.153   16.659
  518.528    0.045    0.179   59.284  164.172   20.139
  518.778    0.051    0.174   56.411  163.160   21.286
  519.028    0.041    0.196   57.163  162.659   21.447
  519.278    0.061    0.226   58.219  163.098   20.448
  519.528    0.077    0.247   60.198  161.457   18.212
  519.778    0.125    0.302   58.431  155.658   16.401
  520.028    0.182    0.344   58.445  153.293   14.053
  520.278    0.234    0.429   62.019  152.898   10.260
  520.528    0.290    0.482   65.963  153.132    7.757
  520.778    0.313    0.469   67.019  153.566    6.526
  521.028    0.304    0.471   65.498  153.692    5.749
  521.278    0.296    0.477   65.880  153.926    5.351
  521.528    0.300    0.477   68.534  153.842    5.168
  521.778    0.306    0.478   72.477  152.618    5.112
  522.028    0.307    0.498   73.227  151.497    5.038
  522.278    0.294    0.481   71.215  150.796    5.021
  522.528    0.278    0.455   70.490  152.167    5.087
  522.778    0.277    0.478   72.100  155.412    5.135
  523.028    0.286    0.479   72.484  146.390    5.173
  523.278    0.303    0.526   71.207  147.661    5.174
  523.528    0.318    0.472   68.335  150.492    5.184
  523.778    0.294    0.486   67.366  152.385    5.281
