~VERSION INFORMATION
 VERS.                 2.0:   CWLS LOG ASCII STANDARD -VERSION 2.0
 WRAP.                  NO:   ONE LINE PER DEPTH STEP
~WELL INFORMATION BLOCK
#MNEM.UNIT           DATA                    DESCRIPTION OF MNEMONIC
#---------    -------------------            -------------------------------
# Generated from Intellog Unique Number	CX_WELLS/WELL/2975
WELL.         ULSTER ET AL HANGST            : Well_name    - WELL
LOC .         00/12-23-082-11W4/0            : Location     - LOCATION
UWI .         00/12-23-082-11W400            : Uwi          - UNIQUE WELL ID
ENTR.         T                              : Entered      - ENTERED BY
SRVC.         SCHLUMBERGER                   : Scn          - SERVICE COMPANY
STRT.M        270                            : top_depth    - START DEPTH
STOP.M        493                            : bot_depth    - STOP DEPTH
STEP.M        0.25                           : increment    - STEP LENGTH
 NULL. -999.2500:NULL Value
~CURVE INFORMATION BLOCK
#MNEM UNIT       ERCB CURVE CODE    CURVE DESCRIPTION
#-----------   ------------------   ----------------------------------
DEPT.M        00 001 00 00         : DEPTH        - DEPTH
GR  .API      00 310 00 00         : GR           - GAMMA RAY
NPHI.V/V      00 330 00 00         : PHIN         - NEUTRON POROSITY (SANDSTONE)
DPHI.V/V      00 890 00 00         : PHID         - DENSITY POROSITY (SANDSTONE)
ILD .OHMM     00 120 00 00         : RESD         - DEEP RESISTIVITY (OTHER)
~PARAMETER INFORMATION
#MNEM.UNIT           DATA             DESCRIPTION OF MNEMONIC
#---------         -----------     ------------------------------
GL  .M        716                  : gl           - GROUND LEVEL ELEVATION
EREF.M        721.2                : kb           - ELEVATION OF DEPTH REFERENCE
DATM.M        721.2                : datum        - DATUM ELEVATION
TDD .M        497                  : tdd          - TOTAL DEPTH DRILLER
RUN .         ONE                  : Run          - RUN NUMBER
ENG .         BILL                 : Engineer     - RECORDING ENGINEER
WIT .         JIM                  : Witness      - WITNESSED BY
MUD .         GEL                  : Mud_type     - MUD TYPE
MATR.         SANDSTONE            : Logunit      - NEUTRON MATRIX
TMAX.C        22                   : BHT          - MAXIMUM RECORDED TEMPERATURE
BHTD.M        496                  : BHTDEP       - MAXIMUM RECORDED TEMPERATURE
MATR.         1                    : LOGUNIT      - NEUTRON MATRIX
RMT .C        20                   : MDTP         - TEMPERATURE OF MUD
NEUT.         1                    : NEUTRON      - NEUTRON TYPE
RESI.         7                    : RESIST       - RESISTIVITY TYPE
RMC .OHMM     8.2                  : RMC          - RESISTIVITY OF MUD CAKE
RMF .OHMM     8.2                  : RMF          - RESISTIVITY OF MUD FILTRATE
SUFT.C        4                    : SUFT         - SURFACE TEMPERATURE
~A  DEPTH       GR     PHIN     PHID     RESD
# ...
  444.000   80.022    0.365    0.259    7.801
  444.250   78.885    0.362    0.255    7.687
  444.500   75.410    0.364    0.250    8.309
  444.750   73.672    0.376    0.246    8.636
  445.000   74.942    0.377    0.243    9.156
  445.250   78.037    0.371    0.240    9.017
  445.500   83.561    0.361    0.236    8.874
  445.750   86.055    0.368    0.232    8.733
  446.000   87.346    0.371    0.230    8.750
  446.250   88.638    0.376    0.223    8.779
  446.500   92.958    0.395    0.220    8.808
  446.750   97.880    0.395    0.215    8.837
  447.000   99.150    0.385    0.213    8.848
  447.250  102.245    0.375    0.213    8.871
  447.500  104.762    0.381    0.227    8.895
  447.750  106.677    0.389    0.225    8.918
  448.000  107.946    0.399    0.231    9.455
  448.250  109.861    0.411    0.242   10.220
  448.500  105.718    0.410    0.258   11.255
  448.750   97.966    0.402    0.266   12.619
  449.000   88.432    0.395    0.273   13.879
  449.250   80.079    0.382    0.272   17.091
  449.500   71.747    0.371    0.269   20.278
  449.750   66.423    0.366    0.266   24.494
  450.000   65.910    0.363    0.263   25.508
  450.250   66.021    0.361    0.256   23.723
  450.500   67.313    0.357    0.242   21.283
  450.750   69.206    0.353    0.226   19.807
  451.000   71.700    0.349    0.218   18.445
  451.250   76.020    0.348    0.211   17.805
  451.500   74.906    0.348    0.222   16.882
  451.750   72.567    0.356    0.218   17.244
  452.000   73.257    0.378    0.213   17.934
  452.250   80.563    0.390    0.220   19.398
  452.500   82.478    0.390    0.221   20.553
  452.750   83.168    0.380    0.219   21.792
  453.000   91.075    0.372    0.214   21.446
  453.250   88.757    0.354    0.209   19.945
  453.500   83.433    0.350    0.206   17.228
  453.750   78.689    0.351    0.200   15.172
  454.000   73.966    0.357    0.202   15.211
  454.250   72.852    0.361    0.209   15.251
  454.500   75.346    0.362    0.217   15.291
  454.750   79.644    0.375    0.215   15.059
  455.000   88.175    0.386    0.190   14.800
  455.250   93.698    0.387    0.192   14.296
  455.500   90.156    0.385    0.212   13.331
  455.750   83.028    0.379    0.247   13.093
  456.000   77.704    0.372    0.265   12.422
  456.250   78.438    0.376    0.256   11.778
  456.500   80.287    0.383    0.243   11.384
  456.750   83.382    0.390    0.232   11.196
  457.000   83.493    0.422    0.284   10.815
  457.250   83.582    0.446    0.296   10.454
  457.500   84.250    0.488    0.270   10.098
  457.750   86.143    0.473    0.239    9.748
  458.000   92.267    0.445    0.205    8.904
  458.250   97.167    0.417    0.200    7.978
  458.500  102.089    0.409    0.203    7.021
  458.750  100.374    0.404    0.207    6.657
  459.000   98.079    0.393    0.214    7.058
  459.250   95.718    0.382    0.215    7.629
  459.500   91.596    0.367    0.211    8.553
  459.750   88.678    0.366    0.196    9.967
  460.000   88.789    0.360    0.199   10.568
  460.250   87.674    0.348    0.217   10.795
  460.500   85.335    0.340    0.229   10.624
  460.750   87.228    0.351    0.226   10.645
  461.000   91.526    0.366    0.216   10.289
  461.250   98.253    0.378    0.205   10.126
  461.500   97.740    0.388    0.210    9.600
  461.750   94.822    0.394    0.228    9.273
  462.000   91.302    0.402    0.237    9.651
  462.250   89.586    0.407    0.224   10.232
  462.500   95.087    0.415    0.213   10.856
  462.750   99.987    0.423    0.203   11.503
  463.000  103.706    0.426    0.175   11.533
  463.250  100.788    0.416    0.161   11.586
  463.500   97.246    0.395    0.136   11.819
  463.750   88.915    0.380    0.213   12.073
  464.000   84.816    0.362    0.224   12.341
  464.250   90.295    0.353    0.182   13.076
  464.500   99.427    0.355    0.180   14.134
  464.750  102.545    0.365    0.207   14.428
  465.000   89.358    0.358    0.238   14.757
  465.250   84.034    0.351    0.248   14.786
  465.500   76.304    0.342    0.253   14.825
  465.750   70.958    0.344    0.261   16.014
  466.000   64.431    0.347    0.264   17.635
  466.250   61.513    0.351    0.262   19.785
  466.500   61.022    0.358    0.251   20.564
  466.750   58.705    0.366    0.250   23.071
  467.000   57.569    0.372    0.253   24.462
  467.250   55.252    0.380    0.257   24.526
  467.500   54.115    0.381    0.265   23.253
  467.750   57.255    0.375    0.265   21.654
  468.000   58.525    0.363    0.255   19.793
  468.250   63.424    0.362    0.233   18.408
  468.500   70.151    0.363    0.217   17.442
  468.750   75.050    0.365    0.213   16.526
  469.000   78.748    0.369    0.203   15.390
  469.250   77.633    0.380    0.203   16.016
  469.500   74.715    0.384    0.259   17.626
  469.750   71.195    0.378    0.288   19.762
  470.000   65.893    0.373    0.289   22.157
  470.250   61.126    0.373    0.291   26.288
  470.500   55.201    0.385    0.303   30.049
  470.750   56.492    0.392    0.308   34.324
  471.000   59.009    0.397    0.305   39.208
  471.250   60.344    0.394    0.305   46.518
  471.500   60.990    0.389    0.301   52.156
  471.750   62.905    0.385    0.290   48.570
  472.000   63.573    0.380    0.279   44.308
  472.250   65.466    0.374    0.260   35.524
  472.500   67.960    0.369    0.241   24.983
  472.750   74.686    0.372    0.222   17.257
  473.000   81.390    0.376    0.199   14.096
  473.250  100.790    0.383    0.188   12.630
  473.500  105.668    0.389    0.177   11.115
  473.750  112.372    0.392    0.175    9.614
  474.000  115.490    0.392    0.174    9.274
  474.250  112.572    0.388    0.171    8.799
  474.500  110.277    0.388    0.170    8.343
  474.750  109.118    0.388    0.168    8.359
  475.000  108.004    0.389    0.168    8.226
  475.250  107.513    0.390    0.166    8.253
  475.500  106.978    0.387    0.159    8.128
  475.750  106.488    0.381    0.163    8.144
  476.000  105.953    0.383    0.169    8.170
  476.250  104.839    0.385    0.172    8.187
  476.500  104.348    0.388    0.179    8.067
  476.750  103.835    0.392    0.180    8.078
  477.000  104.525    0.397    0.180    8.104
  477.250  107.019    0.402    0.179    8.440
  477.500  108.311    0.406    0.175    8.610
  477.750  101.160    0.403    0.171    8.800
  478.000   94.634    0.396    0.162    8.983
  478.250   93.519    0.385    0.162    9.188
  478.500   94.811    0.385    0.170    9.380
  478.750   99.733    0.386    0.179    9.404
  479.000  101.046    0.386    0.188    9.429
  479.250  100.534    0.381    0.194    9.631
  479.500   98.195    0.381    0.201    9.845
  479.750   94.675    0.382    0.200   10.050
  480.000   91.155    0.384    0.194   10.266
  480.250   86.432    0.384    0.191   10.697
  480.500   84.093    0.380    0.197   10.920
  480.750   80.595    0.375    0.204   11.155
  481.000   79.481    0.375    0.210   11.184
  481.250   81.396    0.378    0.213   11.006
  481.500   82.643    0.382    0.213   10.632
  481.750   85.739    0.386    0.204   10.093
  482.000   90.059    0.393    0.197    9.743
  482.250   96.763    0.402    0.176    9.405
  482.500  107.098    0.406    0.165    9.085
  482.750  113.201    0.407    0.162    8.776
  483.000  112.688    0.407    0.162    8.811
  483.250  110.973    0.405    0.157    8.822
  483.500  112.264    0.402    0.148    9.018
  483.750  114.758    0.399    0.143    9.205
  484.000  117.876    0.394    0.148    9.956
  484.250  117.965    0.369    0.175   10.355
  484.500  118.655    0.351    0.196   10.979
  484.750  120.547    0.351    0.202   11.425
  485.000  120.658    0.357    0.195   11.671
  485.250  120.145    0.362    0.186   11.930
  485.500  120.813    0.369    0.177   11.740
  485.750  120.902    0.385    0.172   10.933
  486.000  121.013    0.409    0.178   10.359
  486.250  121.079    0.434    0.183    9.828
  486.500  121.791    0.442    0.191    9.481
  486.750  123.684    0.452    0.214    9.336
  487.000  124.396    0.460    0.251    9.716
  487.250  122.057    0.468    0.285   10.908
