~V
VERS. 2.00: Ver 2.00
WRAP. NO:
VEND. PRIZM:GeoGraphix
~W
STRT.M 63.0000:START DEPTH
STOP.M 270.0000:STOP DEPTH
STEP.M 0.3000:STEP
NULL. -999.2500:NULL VALUE
WELL. 00/11-34-083-05W4/0 :WELL
COMP. :COMPANY
UWI. 00_11-34-083-05W4_0:UNIQUE WELL ID
FLD. :FIELD
CNTY. :COUNTY
STAT. :STATE
CTRY. :COUNTRY
PDAT. :PERMANENT DATUM
LMF. :LOG MEASURED FROM
DMF. :DRILLING MEASURED FROM
LOC1. :LOCATION LINE 1
LOC2. :LOCATION LINE 2
LOC3. :LOCATION LINE 3
SEC. :SECTION
TWP. :TOWNSHIP
RAN. :RANGE
SRVC. :Logging Company
BASE. :Logging Unit Location
ENG. :Logging Engineer
WITN. :Witnessed By
RUN. :Run No.
MUD_TYPE. :Type Fluid in Hole
MUDS. :Source of Mud Sample
RMFS. :Source of Mud Filtrate
RMCS. :Source of Mud Cake
LOC. :LOCATION
DATE. :LOG DATE
~C
DEPT.M :DEPTH
PHID. :Density Pososity
NPHI. :NPHI
RHOB.KGM3 :Bulk Density
GR.API :GR
ILD.Ohmm :ILD
~P
EKB. -999.2500:ELEVATION OF KELLY BUSHING
EDF. -999.2500:ELEVATION OF DRILLING FLOOR
EGL. -999.2500:ELEVATION OF GROUND LEVEL
EPD. -999.2500:ELEVATION OF PERMANENT DATUM
APD. -999.2500:LMF DISTANCE ABOVE PERMANENT DATUM
LAT. -999.2500:LATITUDE OF WELL LOCATION
LONG. -999.2500:LONGITUDE OF WELL LOCATION
TDD. -999.2500:Total Depth Driller
TDL. -999.2500:Total Depth Logger
LCSG1. -999.2500:Depth of Casing from Logger
CSIZE. -999.2500:Casing Size
CWT. -999.2500:Casing Weight
BS. -999.2500:Bit Size
TLI. 63.0000:Top Logged Interval
BLI. 270.0000:Bottom Logged Interval
MRT. 0.0000:Maximum Recorded Temperature
WMUD. -999.2500:Drilling Mud Density
DFV. -999.2500:Drilling Mud Viscosity
PH. -999.2500:Drilling Mud pH
DFL. -999.2500:Drilling Mud Fluid Loss
RM. -999.2500:Resistivity of Drilling Fluid
RMT. -999.2500:Measured Temp. of Drilling Fluid
RMF. -999.2500:Resistivity of Drilling Fluid Filtrate
RMFT. -999.2500:Measured Temp. of Drilling Fluid Filtrate
RMC. -999.2500:Resistivity of Mud Cake
RMCT. -999.2500:Measured Temp. of Mud Cake
PHImax.V/V 0.3900:Maximum allowable Porosity
RwBnd.OHMM 0.1500:Bound Water Resistivity
RhoHy.KG/MT 1000.0000:Hydrocarbon Bulk density
SwCutoff.V/V 0.7000:Water Saturation Cutoff
PHINsh.V/V 0.4800:New Description
Rw.OHMM 1.0000:Formation Water Resistivity
Rshl.OHMM 5.0000:Resistivity shale
Trw.DEGC 25.0000:Rw measured at Lab conditions
ShaleCutoff.V/V 0.4000:New Description
GRcln.API 45.0000:Gamma Ray clean
RhoM.KG/MT 2650.0000:Bulk Density Matrix
GRshl.API 90.0000:Gamma Ray shale
m. 2.0000:Archie "m"
n. 2.0000:Archie "n"
GasTol.V/V 0.0500:Gas Tollerance
BHTemp.DEGC 25.0000:Bottom Hole Temperature
BHTDepth.M 1000.0000:Bottom Hole Depth
PHIDsh.US/MT 0.1800:New Description
a. 1.0000:Archie "a"
Gas Tol.V/V 0.0500:Gas Tollerance
RhoF.KG/MT 1000.0000:Bulk Density Fluid
RhoShl.KG/MT 2300.0000:Bulk Density Shale
TarCutoff.V/V 0.0300:New Description
SurfTemp.DEGC 10.0000:New Description
HIshl.V/V 0.4000:Neutron Hydrogen Index shale
NULL. -999.2500:
~A
# ...
   99.0000     0.3124     0.4411  2134.5134    84.2289     8.5962 
   99.3000     0.3137     0.4667  2132.4094    85.5195     8.6466 
   99.6000     0.3188     0.4722  2123.9910    89.8202     8.6970 
   99.9000     0.3345     0.4647  2098.1472    86.9239     8.8840 
  100.2000     0.3384     0.4646  2091.6602    80.0720     9.4830 
  100.5000     0.3355     0.4710  2096.4275    72.4271    10.0820 
  100.8000     0.3322     0.4419  2101.8164    68.5217    10.7374 
  101.1000     0.3288     0.4166  2107.4536    65.6160    12.4657 
  101.4000     0.3335     0.4147  2099.6631    61.8182    14.1151 
  101.7000     0.3391     0.4155  2090.4504    60.5070    13.9203 
  102.0000     0.3353     0.4106  2096.7764    63.6902    13.7256 
  102.3000     0.3279     0.3838  2108.9170    62.1554    13.3487 
  102.6000     0.3118     0.3820  2135.4846    65.9667    12.2606 
  102.9000     0.2964     0.4201  2160.9102    84.9045    11.1724 
  103.2000     0.2817     0.4418  2185.2671    93.0894    10.1019 
  103.5000     0.2752     0.4431  2195.9429    91.9433     9.8169 
  103.8000     0.2929     0.4419  2166.7905    86.7383     9.5319 
  104.1000     0.2971     0.4307  2159.7620    75.9704     9.2823 
  104.4000     0.2978     0.4060  2158.7100    72.8460    10.1240 
  104.7000     0.2982     0.3785  2157.9939    75.7913    10.9657 
  105.0000     0.2993     0.3731  2156.1904    69.0366    11.8074 
  105.3000     0.3057     0.3970  2145.5371    71.9265    11.5815 
  105.6000     0.3109     0.4087  2136.9749    72.2393    11.1783 
  105.9000     0.3152     0.4165  2129.8647    67.4921    10.7751 
  106.2000     0.3130     0.4280  2133.5862    65.5554    10.7860 
  106.5000     0.3079     0.3975  2141.9360    68.3205    12.0331 
  106.8000     0.3058     0.3870  2145.4121    72.9435    13.2802 
  107.1000     0.3082     0.4057  2141.4158    73.5665    13.5058 
  107.4000     0.3212     0.4265  2119.9868    71.9041    12.9689 
  107.7000     0.3361     0.4077  2095.4006    65.4384    12.4319 
  108.0000     0.3476     0.4036  2076.5173    58.2428    12.9090 
  108.3000     0.3513     0.4001  2070.3921    56.1613    14.2125 
  108.6000     0.3463     0.3980  2078.6069    51.1282    15.4930 
  108.9000     0.3420     0.3879  2085.6892    43.8152    16.5542 
  109.2000     0.3508     0.3758  2071.1023    46.0468    17.6137 
  109.5000     0.3531     0.3701  2067.3142    43.0108    17.8505 
  109.8000     0.3534     0.3728  2066.9167    32.0748    17.9232 
  110.1000     0.3510     0.3379  2070.7769    30.3011    17.7063 
  110.4000     0.3592     0.3208  2057.2725    30.7636    17.1901 
  110.7000     0.3837     0.3467  2016.8925    30.4411    16.3537 
  111.0000     0.5298     0.3752  1775.7653    36.4072    15.2131 
  111.3000     0.5181     0.3793  1795.1757    47.9891    13.1787 
  111.6000     0.4155     0.3691  1964.4889    75.4718     9.1716 
  111.9000     0.3205     0.4009  2121.1489   107.7313     6.3087 
  112.2000     0.2850     0.4573  2179.6958   108.7575     5.0138 
  112.5000     0.2902     0.5352  2171.0957   109.3271     4.0248 
  112.8000     0.2989     0.5284  2156.7893   109.7607     3.2788 
  113.1000     0.3057     0.5106  2145.6453   109.7313     2.9992 
  113.4000     0.3054     0.5062  2146.0542   109.3874     3.1371 
  113.7000     0.2870     0.4925  2176.4653   105.6108     3.3356 
  114.0000     0.2828     0.4697  2183.3179   106.7004     3.3695 
  114.3000     0.2961     0.4768  2161.3706   109.4010     3.1054 
  114.6000     0.3120     0.5167  2135.2295   105.7988     3.1441 
  114.9000     0.3201     0.5294  2121.8296   101.0380     3.3867 
  115.2000     0.3288     0.5110  2107.5432    96.9092     3.6335 
  115.5000     0.3247     0.5133  2114.2908    94.8633     4.0227 
  115.8000     0.3442     0.5140  2081.9961    87.8665     4.7712 
  116.1000     0.3530     0.4991  2067.5586    75.6626     5.5377 
  116.4000     0.3526     0.4779  2068.2151    61.9124     6.0317 
  116.7000     0.3519     0.4420  2069.3430    48.1623     6.3592 
  117.0000     0.3626     0.4137  2051.7258    53.1138     6.2872 
  117.3000     0.3514     0.4081  2070.2595    55.9317     6.2153 
  117.6000     0.3602     0.3986  2055.6641    56.7135     6.1453 
  117.9000     0.3689     0.4032  2041.3607    52.4156     6.0776 
  118.2000     0.3768     0.4159  2028.2417    51.1360     6.0098 
  118.5000     0.3744     0.4284  2032.3219    51.9869     5.9421 
  118.8000     0.3690     0.4366  2041.1821    52.9925     5.8744 
  119.1000     0.3578     0.4208  2059.6753    55.7016     5.8581 
  119.4000     0.3599     0.4297  2056.1885    57.7571     5.8958 
  119.7000     0.3614     0.4373  2053.7371    53.8906     5.9335 
  120.0000     0.3536     0.4093  2066.5994    51.4346     5.9713 
  120.3000     0.3432     0.4002  2083.7629    49.4933     6.0906 
  120.6000     0.3223     0.3897  2118.1992    51.8509     6.4087 
  120.9000     0.3093     0.3889  2139.6375    48.4104     6.7269 
  121.2000     0.3347     0.3963  2097.7061    48.1972     6.7971 
  121.5000     0.3583     0.4078  2058.8835    48.8192     6.6447 
  121.8000     0.3710     0.4300  2037.8647    50.4356     6.4924 
  122.1000     0.3677     0.4305  2043.3546    49.6218     6.5025 
  122.4000     0.3539     0.4088  2066.0657    47.7350     6.5976 
  122.7000     0.3388     0.4043  2090.9839    49.4731     6.6927 
  123.0000     0.3207     0.4065  2120.9014    50.5721     6.8125 
  123.3000     0.3036     0.4062  2149.0369    50.9170     6.9736 
  123.6000     0.2963     0.3993  2161.0310    49.5010     7.1347 
  123.9000     0.3154     0.3878  2129.5793    52.2048     7.1821 
  124.2000     0.3383     0.3900  2091.8396    55.3459     7.0066 
  124.5000     0.3489     0.3976  2074.3752    57.1464     6.8312 
  124.8000     0.3543     0.4046  2065.4792    57.3359     6.6557 
  125.1000     0.3568     0.4054  2061.2832    56.9639     6.4874 
  125.4000     0.3509     0.3932  2071.0110    56.2524     6.4391 
  125.7000     0.3454     0.3861  2080.0415    59.1088     6.3908 
  126.0000     0.3415     0.3988  2086.4937    63.2569     6.3425 
  126.3000     0.3455     0.4095  2080.0046    61.8524     6.2942 
  126.6000     0.3472     0.4197  2077.1582    62.4479     6.2459 
  126.9000     0.3486     0.4205  2074.8862    65.4100     6.2332 
  127.2000     0.3568     0.4229  2061.2368    65.6622     6.2706 
  127.5000     0.3531     0.4297  2067.3735    61.9378     6.3081 
  127.8000     0.3432     0.4188  2083.6875    64.8323     6.3456 
  128.1000     0.3412     0.4152  2087.0422    67.0832     6.3830 
  128.4000     0.3392     0.4155  2090.3967    67.6232     6.4205 
  128.7000     0.3403     0.4166  2088.4622    65.6508     6.4675 
  129.0000     0.3429     0.4178  2084.2898    65.3187     6.5193 
  129.3000     0.3457     0.4147  2079.5886    65.9653     6.5710 
  129.6000     0.3420     0.4039  2085.6807    68.1407     6.6228 
  129.9000     0.3391     0.3901  2090.4895    65.8923     6.8136 
  130.2000     0.3436     0.3873  2082.9983    62.7819     7.2284 
  130.5000     0.3313     0.3840  2103.4207    62.6258     7.9360 
  130.8000     0.3366     0.3034  2094.6689    59.7962     8.6951 
  131.1000     0.3471     0.2616  2077.3154    62.2651     8.0882 
  131.4000     0.3405     0.3008  2088.1956    65.5879     7.4186 
  131.7000     0.3323     0.3866  2101.7490    68.0699     6.7337 
  132.0000     0.3256     0.4085  2112.7646    68.9988     6.0703 
  132.3000     0.3279     0.4017  2108.9343    66.1455     5.9387 
  132.6000     0.3328     0.3869  2100.8311    65.8007     5.8072 
  132.9000     0.3349     0.3968  2097.3567    70.0419     5.6757 
  133.2000     0.3370     0.4256  2094.0076    73.2084     5.5503 
  133.5000     0.3305     0.4119  2104.6917    74.5947     5.5558 
  133.8000     0.3312     0.3957  2103.4419    74.5894     5.5613 
  134.1000     0.3371     0.3917  2093.8020    67.1589     5.5668 
  134.4000     0.3259     0.3935  2112.2002    68.6446     5.5723 
  134.7000     0.3197     0.3875  2122.4265    70.9423     5.5778 
