~VERSION INFORMATION
 VERS.                 2.0:   CWLS LOG ASCII STANDARD -VERSION 2.0
 WRAP.                  NO:   ONE LINE PER DEPTH STEP
~WELL INFORMATION BLOCK
#MNEM.UNIT           DATA                    DESCRIPTION OF MNEMONIC
#---------    -------------------            -------------------------------
# Generated from Intellog Unique Number	CS_77_79/WELL/927
WELL.         ALLIED ET AL HOUSE             : Well_name    - WELL
LOC .         00/10-01-079-16W4/0            : Location     - LOCATION
UWI .         00/10-01-079-16W4/0            : Uwi          - UNIQUE WELL ID
ENTR.         JHS                            : Entered      - ENTERED BY
SRVC.         SCHLUMBERGER                   : Scn          - SERVICE COMPANY
STRT.M        198.12                         : top_depth    - START DEPTH
STOP.M        426.37                         : bot_depth    - STOP DEPTH
STEP.M        0.25                           : increment    - STEP LENGTH
 NULL. -999.2500:NULL Value
~CURVE INFORMATION BLOCK
#MNEM UNIT       ERCB CURVE CODE    CURVE DESCRIPTION
#-----------   ------------------   ----------------------------------
DEPT.M        00 001 00 00         : DEPTH        - DEPTH
RHOB.KG/M3    00 350 00 00         : DENS         - BULK DENSITY
GR  .API      00 310 00 00         : GR           - GAMMA RAY
DPHI.V/V      00 890 00 00         : PHID         - DENSITY POROSITY (SANDSTONE)
NPHI.V/V      00 330 00 00         : PHIN         - NEUTRON POROSITY (SANDSTONE)
ILD .OHMM     00 120 00 00         : RESD         - DEEP RESISTIVITY (DIL)
~PARAMETER INFORMATION
#MNEM.UNIT           DATA             DESCRIPTION OF MNEMONIC
#---------         -----------     ------------------------------
GL  .M        603.504              : gl           - GROUND LEVEL ELEVATION
EREF.M        606.552              : kb           - ELEVATION OF DEPTH REFERENCE
DATM.M        606.552              : datum        - DATUM ELEVATION
TDD .M        466.344              : tdd          - TOTAL DEPTH DRILLER
RUN .         ONE                  : Run          - RUN NUMBER
ENG .         BILL                 : Engineer     - RECORDING ENGINEER
WIT .         JIM                  : Witness      - WITNESSED BY
MUD .         GEL                  : Mud_type     - MUD TYPE
MATR.         SANDSTONE            : Logunit      - NEUTRON MATRIX
TMAX.C        31.1111              : BHT          - MAXIMUM RECORDED TEMPERATURE
BHTD.M        466.344              : BHTDEP       - MAXIMUM RECORDED TEMPERATURE
MATR.         1                    : LOGUNIT      - NEUTRON MATRIX
RMT .C        25                   : MDTP         - TEMPERATURE OF MUD
NEUT.         1                    : NEUTRON      - NEUTRON TYPE
RESI.         0                    : RESIST       - RESISTIVITY TYPE
RMC .OHMM     0.25                 : RMC          - RESISTIVITY OF MUD CAKE
RMF .OHMM     0.25                 : RMF          - RESISTIVITY OF MUD FILTRATE
SUFT.C        15                   : SUFT         - SURFACE TEMPERATURE
~A  DEPTH     DENS       GR     PHID     PHIN     RESD
# ...
  307.620   -0.000   93.865    0.236    0.548    2.985
  307.870   -0.000   92.118    0.229    0.538    3.225
  308.120    0.000   93.045    0.232    0.536    3.752
  308.370    0.000   93.811    0.246    0.536    4.146
  308.620    0.000   92.756    0.246    0.530    4.602
  308.870   -0.000   92.750    0.235    0.531    4.771
  309.120   -0.000   93.756    0.238    0.540    4.582
  309.370    0.000   95.176    0.267    0.552    4.827
  309.620    0.000   94.895    0.268    0.550    4.834
  309.870    0.000   92.983    0.245    0.542    4.838
  310.120   -0.000   90.488    0.238    0.559    5.044
  310.370   -0.000   88.859    0.231    0.533    5.145
  310.620   -0.000   82.612    0.238    0.517    5.472
  310.870    0.000   75.713    0.258    0.510    5.803
  311.120    0.000   69.331    0.282    0.500    6.158
  311.370    0.000   63.757    0.318    0.478    6.735
  311.620   -0.000   56.058    0.351    0.469    7.390
  311.870   -0.000   54.685    0.341    0.457    7.988
  312.120   -0.000   55.662    0.327    0.455    8.522
  312.370    0.000   58.639    0.326    0.459    8.742
  312.620    0.000   61.524    0.335    0.459    8.779
  312.870   -0.000   62.288    0.349    0.465    9.139
  313.120   -0.000   60.382    0.351    0.466    9.106
  313.370   -0.000   57.090    0.324    0.445    9.594
  313.620    0.000   55.116    0.317    0.433    9.732
  313.870    0.000   55.077    0.305    0.443    9.974
  314.120    0.000   55.865    0.300    0.457   10.199
  314.370   -0.000   56.947    0.301    0.448   10.353
  314.620   -0.000   56.694    0.310    0.450   10.322
  314.870   -0.000   56.337    0.319    0.460   10.219
  315.120    0.000   58.137    0.311    0.432   10.227
  315.370    0.000   59.970    0.300    0.442   10.236
  315.620   -0.000   60.535    0.305    0.458   10.245
  315.870   -0.000   61.223    0.309    0.458   10.256
  316.120   -0.000   63.488    0.314    0.450   10.264
  316.370    0.000   67.001    0.319    0.464   10.275
  316.620    0.000   68.503    0.318    0.477   10.284
  316.870    0.000   67.679    0.328    0.481   10.293
  317.120   -0.000   66.228    0.314    0.468   10.305
  317.370   -0.000   64.434    0.313    0.455   10.307
  317.620   -0.000   64.229    0.311    0.446   10.310
  317.870    0.000   65.294    0.308    0.446   10.124
  318.120    0.000   65.395    0.301    0.462   10.157
  318.370    0.000   65.413    0.294    0.481    9.951
  318.620   -0.000   67.268    0.320    0.479    9.988
  318.870   -0.000   67.541    0.337    0.493    9.766
  319.120    0.000   64.962    0.324    0.503    9.593
  319.370    0.000   61.529    0.330    0.504    9.611
  319.620    0.000   62.201    0.337    0.491    9.347
  319.870   -0.000   67.428    0.345    0.480    9.218
  320.120   -0.000   70.447    0.336    0.481    8.919
  320.370   -0.000   74.127    0.333    0.486    8.608
  320.620    0.000   74.763    0.343    0.467    8.272
  320.870    0.000   70.841    0.352    0.461    8.196
  321.120    0.000   70.365    0.337    0.471    7.865
  321.370   -0.000   71.563    0.344    0.519    7.730
  321.620   -0.000   70.336    0.336    0.533    7.665
  321.870    0.000   67.920    0.310    0.498    8.089
  322.120    0.000   65.993    0.292    0.471    8.405
  322.370    0.000   63.171    0.266    0.437    9.009
  322.620   -0.000   61.364    0.242    0.376    9.853
  322.870   -0.000   60.508    0.158    0.331   10.867
  323.120   -0.000   58.069    0.102    0.288   13.210
  323.370    0.000   55.664    0.082    0.246   15.317
  323.620    0.000   52.416    0.070    0.229   20.258
  323.870    0.000   49.911    0.053    0.218   24.800
  324.120   -0.000   50.475    0.038    0.226   26.208
  324.370   -0.000   58.707    0.078    0.294   24.308
  324.620   -0.000   66.842    0.207    0.379   18.255
  324.870    0.000   66.900    0.305    0.504   13.771
  325.120    0.000   66.493    0.329    0.486   11.202
  325.370   -0.000   65.013    0.338    0.474    9.065
  325.620   -0.000   64.236    0.328    0.480    8.522
  325.870   -0.000   65.842    0.339    0.483    8.222
  326.120    0.000   68.892    0.328    0.476    8.437
  326.370    0.000   71.810    0.331    0.488    8.460
  326.620    0.000   71.566    0.317    0.498    8.474
  326.870   -0.000   71.538    0.328    0.490    8.483
  327.120   -0.000   73.153    0.325    0.483    8.514
  327.370   -0.000   74.046    0.308    0.485    8.294
  327.620    0.000   74.823    0.318    0.483    8.314
  327.870    0.000   76.825    0.313    0.479    8.322
  328.120   -0.000   79.443    0.313    0.477    8.335
  328.370   -0.000   80.445    0.318    0.488    8.340
  328.620   -0.000   78.641    0.307    0.495    8.351
  328.870    0.000   77.761    0.309    0.498    8.362
  329.120    0.000   76.398    0.296    0.507    8.370
  329.370    0.000   76.563    0.273    0.506    8.379
  329.620   -0.000   77.537    0.264    0.480    8.395
  329.870   -0.000   80.607    0.278    0.489    8.506
  330.120   -0.000   84.548    0.290    0.474    8.379
  330.370    0.000   86.939    0.281    0.489    8.088
  330.620    0.000   90.530    0.260    0.508    7.547
  330.870    0.000   92.745    0.254    0.522    7.033
  331.120   -0.000   92.361    0.246    0.527    6.721
  331.370   -0.000   91.581    0.237    0.521    6.405
  331.620    0.000   93.311    0.225    0.491    6.080
  331.870    0.000   93.305    0.233    0.474    6.087
  332.120    0.000   93.211    0.234    0.471    6.092
  332.370   -0.000   96.037    0.242    0.498    6.103
  332.620   -0.000   96.765    0.244    0.511    6.115
  332.870   -0.000   95.132    0.230    0.515    6.122
  333.120    0.000   94.222    0.238    0.511    6.132
  333.370    0.000   94.542    0.236    0.496    6.138
  333.620    0.000   95.190    0.227    0.484    6.148
  333.870   -0.000   94.745    0.224    0.476    6.328
  334.120   -0.000   94.529    0.227    0.484    6.133
  334.370    0.000   95.813    0.243    0.498    6.177
  334.620    0.000   95.860    0.235    0.515    5.796
  334.870    0.000   95.176    0.234    0.525    5.307
  335.120   -0.000   95.189    0.248    0.527    5.215
  335.370   -0.000   96.959    0.263    0.498    5.444
  335.620   -0.000   95.363    0.274    0.480    5.926
  335.870    0.000   92.094    0.227    0.473    6.752
  336.120    0.000   86.443    0.203    0.459    7.952
  336.370    0.000   86.132    0.198    0.442    8.904
  336.620   -0.000   83.066    0.188    0.437    9.567
  336.870   -0.000   80.049    0.173    0.452    9.899
  337.120   -0.000   82.847    0.172    0.456    9.450
  337.370    0.000   87.054    0.218    0.467    8.669
  337.620    0.000   89.469    0.241    0.479    7.975
  337.870   -0.000   91.689    0.253    0.487    7.318
  338.120   -0.000   92.750    0.240    0.500    6.859
  338.370   -0.000   91.911    0.247    0.507    6.729
  338.620    0.000   89.003    0.255    0.481    6.916
  338.870    0.000   83.559    0.236    0.459    7.336
  339.120    0.000   81.912    0.196    0.473    8.000
  339.370   -0.000   84.821    0.196    0.484    8.318
  339.620   -0.000   89.120    0.272    0.474    8.600
  339.870   -0.000   86.136    0.250    0.466    8.363
  340.120    0.000   83.838    0.240    0.471    8.023
  340.370    0.000   87.232    0.281    0.479    7.935
  340.620    0.000   88.159    0.316    0.484    7.812
  340.870   -0.000   85.841    0.310    0.496    7.954
  341.120   -0.000   81.773    0.247    0.501    8.013
  341.370    0.000   77.407    0.228    0.474    8.224
  341.620    0.000   77.823    0.216    0.407    8.536
  341.870    0.000   75.967    0.157    0.359    9.101
  342.120   -0.000   73.112    0.094    0.300    9.753
  342.370   -0.000   68.416    0.060    0.273   11.198
  342.620   -0.000   63.782    0.045    0.245   12.422
  342.870    0.000   63.291    0.038    0.223   15.165
  343.120    0.000   62.657    0.043    0.212   19.350
  343.370    0.000   59.896    0.052    0.203   22.749
  343.620   -0.000   53.369    0.036    0.195   25.039
  343.870   -0.000   53.890    0.003    0.186   27.179
