~VERSION INFORMATION
 VERS.                 2.0:   CWLS LOG ASCII STANDARD -VERSION 2.0
 WRAP.                  NO:   ONE LINE PER DEPTH STEP
~WELL INFORMATION BLOCK
#MNEM.UNIT           DATA                    DESCRIPTION OF MNEMONIC
#---------    -------------------            -------------------------------
# Generated from Intellog Unique Number	CS_73_76/WELL/3266
WELL.         BOW VALLEY EXPLORATION         : Well_name    - WELL
LOC .         00/11-21-075-15W4/0            : Location     - LOCATION
UWI .         00/11-21-075-15W4/0            : Uwi          - UNIQUE WELL ID
ENTR.         SP                             : Entered      - ENTERED BY
SRVC.         SCHLUMBERGER                   : Scn          - SERVICE COMPANY
STRT.M        425                            : top_depth    - START DEPTH
STOP.M        610                            : bot_depth    - STOP DEPTH
STEP.M        0.25                           : increment    - STEP LENGTH
 NULL. -999.2500:NULL Value
~CURVE INFORMATION BLOCK
#MNEM UNIT       ERCB CURVE CODE    CURVE DESCRIPTION
#-----------   ------------------   ----------------------------------
DEPT.M        00 001 00 00         : DEPTH        - DEPTH
ILD .OHMM     00 120 00 00         : RESD         - DEEP RESISTIVITY (DIL)
DPHI.V/V      00 890 00 00         : PHID         - DENSITY POROSITY (LIMESTONE)
NPHI.V/V      00 330 00 00         : PHIN         - NEUTRON POROSITY (LIMESTONE)
GR  .API      00 310 00 00         : GR           - GAMMA RAY
~PARAMETER INFORMATION
#MNEM.UNIT           DATA             DESCRIPTION OF MNEMONIC
#---------         -----------     ------------------------------
GL  .M        790.66               : gl           - GROUND LEVEL ELEVATION
EREF.M        793.69               : kb           - ELEVATION OF DEPTH REFERENCE
DATM.M        790.66               : datum        - DATUM ELEVATION
TDD .M        619                  : tdd          - TOTAL DEPTH DRILLER
RUN .         ONE                  : Run          - RUN NUMBER
ENG .         BILL                 : Engineer     - RECORDING ENGINEER
WIT .         JIM                  : Witness      - WITNESSED BY
MUD .         GEL                  : Mud_type     - MUD TYPE
MATR.         LIMESTONE            : Logunit      - NEUTRON MATRIX
TMAX.C        12.2                 : BHT          - MAXIMUM RECORDED TEMPERATURE
BHTD.M        619                  : BHTDEP       - MAXIMUM RECORDED TEMPERATURE
MATR.         1                    : LOGUNIT      - NEUTRON MATRIX
RMT .C        25                   : MDTP         - TEMPERATURE OF MUD
NEUT.         1                    : NEUTRON      - NEUTRON TYPE
RESI.         0                    : RESIST       - RESISTIVITY TYPE
RMC .OHMM     0.25                 : RMC          - RESISTIVITY OF MUD CAKE
RMF .OHMM     0.25                 : RMF          - RESISTIVITY OF MUD FILTRATE
SUFT.C        15                   : SUFT         - SURFACE TEMPERATURE
~A  DEPTH     RESD     PHID     PHIN       GR
# ...
  512.000    4.319    0.251    0.454   92.374
  512.250    4.086    0.234    0.454   95.425
  512.500    3.795    0.250    0.454   96.648
  512.750    3.273    0.236    0.464   95.442
  513.000    2.930    0.242    0.472   94.240
  513.250    2.721    0.267    0.452   93.641
  513.500    2.771    0.255    0.433   91.223
  513.750    3.093    0.242    0.426   90.021
  514.000    3.583    0.234    0.434   91.854
  514.250    4.000    0.241    0.454   91.863
  514.500    4.149    0.235    0.464   90.663
  514.750    4.303    0.228    0.455   90.669
  515.000    4.381    0.222    0.443   91.287
  515.250    4.461    0.225    0.455   91.301
  515.500    4.460    0.240    0.458   91.307
  515.750    4.377    0.250    0.469   89.499
  516.000    4.375    0.237    0.481   88.293
  516.250    4.374    0.230    0.483   85.874
  516.500    4.621    0.248    0.488   81.635
  516.750    4.793    0.291    0.488   74.965
  517.000    5.253    0.317    0.456   70.116
  517.250    5.758    0.322    0.427   65.876
  517.500    6.547    0.328    0.429   65.278
  517.750    6.917    0.322    0.438   67.718
  518.000    7.175    0.308    0.438   73.196
  518.250    7.172    0.296    0.456   76.241
  518.500    7.037    0.306    0.470   68.969
  518.750    7.165    0.314    0.454   67.153
  519.000    7.432    0.322    0.424   68.382
  519.250    7.568    0.314    0.421   74.465
  519.500    7.707    0.303    0.426   81.154
  519.750    7.993    0.296    0.432   90.274
  520.000    8.139    0.296    0.426   96.965
  520.250    7.842    0.298    0.440  102.441
  520.500    6.765    0.304    0.447  100.023
  520.750    5.226    0.290    0.454  104.895
  521.000    3.236    0.262    0.470  106.117
  521.250    2.409    0.248    0.499  106.737
  521.500    2.079    0.267    0.545  106.141
  521.750    1.895    0.264    0.552  104.936
  522.000    1.760    0.261    0.561  101.909
  522.250    1.759    0.281    0.585  101.923
  522.500    1.893    0.295    0.567  100.718
  522.750    2.233    0.283    0.568   96.476
  523.000    2.587    0.274    0.562   87.986
  523.250    2.997    0.287    0.532   83.743
  523.500    3.806    0.323    0.496   78.895
  523.750    4.491    0.319    0.466   81.950
  524.000    5.203    0.295    0.455   83.172
  524.250    5.916    0.287    0.448   84.392
  524.500    6.024    0.301    0.443   86.226
  524.750    6.022    0.304    0.440   87.454
  525.000    5.910    0.283    0.444   88.068
  525.250    5.907    0.270    0.453   86.867
  525.500    5.906    0.259    0.449   84.449
  525.750    5.904    0.263    0.448   81.421
  526.000    6.011    0.282    0.453   77.787
  526.250    6.009    0.288    0.461   77.190
  526.500    6.007    0.281    0.456   79.026
  526.750    6.116    0.282    0.449   79.645
  527.000    6.227    0.276    0.437   79.651
  527.250    6.226    0.267    0.435   80.879
  527.500    6.339    0.233    0.436   81.496
  527.750    6.455    0.249    0.433   82.114
  528.000    6.453    0.248    0.424   80.911
  528.250    6.692    0.249    0.416   80.316
  528.500    6.814    0.259    0.424   79.715
  528.750    7.199    0.273    0.434   79.121
  529.000    7.606    0.288    0.455   79.129
  529.250    8.034    0.300    0.451   77.926
  529.500    8.182    0.306    0.450   77.936
  529.750    7.739    0.280    0.445   78.554
  530.000    6.926    0.273    0.440   79.781
  530.250    6.675    0.283    0.444   79.790
  530.500    6.430    0.291    0.455   79.194
  530.750    6.311    0.274    0.461   79.811
  531.000    6.307    0.254    0.449   79.216
  531.250    6.191    0.266    0.440   75.582
  531.500    6.189    0.286    0.432   73.773
  531.750    6.186    0.301    0.428   74.387
  532.000    6.184    0.279    0.416   76.827
  532.250    6.182    0.249    0.409   81.090
  532.500    5.849    0.232    0.417   83.530
  532.750    5.847    0.231    0.428   82.325
  533.000    5.845    0.235    0.416   80.515
  533.250    5.842    0.244    0.414   80.529
  533.500    5.841    0.249    0.415   80.535
  533.750    5.628    0.257    0.426   82.368
  534.000    5.225    0.266    0.436   84.203
  534.250    4.943    0.279    0.452   84.212
  534.500    4.676    0.270    0.455   83.614
  534.750    4.761    0.270    0.453   81.195
  535.000    5.316    0.270    0.455   76.348
  535.250    6.388    0.194    0.447   64.821
  535.500    7.821    0.045    0.405   58.150
  535.750    9.932    0.033    0.181   54.519
  536.000   11.507    0.029    0.170   53.921
  536.250   14.348    0.035    0.171   52.719
  536.500   16.315    0.052    0.192   52.732
  536.750   16.614    0.087    0.207   53.346
  537.000   13.071    0.154    0.262   55.180
  537.250   10.869    0.223    0.351   57.015
  537.500    8.873    0.272    0.400   58.235
  537.750    7.110    0.319    0.422   57.639
  538.000    6.603    0.338    0.431   58.259
  538.250    6.019    0.344    0.425   58.876
  538.500    5.908    0.336    0.420   60.099
  538.750    5.797    0.330    0.422   60.719
  539.000    5.796    0.335    0.435   61.338
  539.250    5.793    0.333    0.435   62.561
  539.500    5.791    0.325    0.430   63.181
  539.750    5.789    0.327    0.436   64.409
  540.000    5.787    0.325    0.432   64.418
  540.250    5.893    0.315    0.420   63.819
  540.500    5.891    0.306    0.406   63.224
  540.750    5.999    0.312    0.397   62.625
  541.000    5.997    0.301    0.389   61.420
  541.250    6.106    0.286    0.383   62.043
  541.500    6.104    0.283    0.378   64.483
  541.750    6.101    0.312    0.391   65.704
  542.000    5.988    0.326    0.399   67.536
  542.250    5.987    0.328    0.403   68.766
  542.500    5.984    0.326    0.407   68.773
  542.750    5.873    0.333    0.415   70.609
  543.000    5.871    0.325    0.428   71.830
  543.250    5.869    0.319    0.442   73.056
  543.500    5.867    0.326    0.437   73.067
  543.750    5.757    0.322    0.442   74.292
  544.000    5.755    0.305    0.445   75.517
  544.250    5.754    0.314    0.449   74.922
  544.500    5.647    0.308    0.451   74.323
  544.750    5.645    0.304    0.435   73.733
  545.000    5.539    0.309    0.429   73.741
  545.250    5.537    0.306    0.426   73.748
  545.500    5.535    0.299    0.445   73.151
  545.750    5.533    0.309    0.457   71.343
  546.000    5.431    0.300    0.446   70.745
  546.250    5.330    0.286    0.443   71.970
  546.500    5.329    0.280    0.446   75.017
  546.750    5.134    0.269    0.445   80.496
  547.000    4.947    0.284    0.441   84.150
  547.250    4.594    0.287    0.444   87.805
  547.500    4.345    0.262    0.448   89.636
  547.750    4.035    0.231    0.457   90.252
  548.000    3.817    0.248    0.471   90.872
  548.250    3.746    0.233    0.478   90.880
  548.500    3.677    0.222    0.459   89.676
  548.750    3.675    0.236    0.460   87.866
  549.000    3.674    0.259    0.464   86.661
  549.250    3.741    0.259    0.458   87.281
  549.500    3.739    0.253    0.455   89.114
  549.750    3.738    0.249    0.472   90.347
  550.000    3.806    0.239    0.482   90.357
  550.250    3.805    0.235    0.489   90.365
  550.500    3.874    0.219    0.483   90.373
  550.750    3.945    0.213    0.442   89.165
  551.000    4.168    0.216    0.433   87.355
  551.250    4.403    0.224    0.428   88.579
  551.500    4.651    0.236    0.437   91.626
  551.750    4.736    0.247    0.442   92.246
  552.000    4.822    0.244    0.446   92.866
  552.250    4.821    0.221    0.452   93.480
  552.500    4.820    0.208    0.425   93.496
  552.750    4.907    0.232    0.413   93.502
  553.000    4.906    0.230    0.418   90.475
  553.250    4.903    0.222    0.420   91.093
  553.500    4.902    0.239    0.420   92.321
  553.750    4.901    0.224    0.424   92.940
  554.000    4.809    0.209    0.447   91.126
  554.250    4.720    0.201    0.463   86.887
  554.500    4.719    0.194    0.468   83.859
  554.750    4.984    0.174    0.447   78.407
  555.000    5.364    0.182    0.425   75.379
  555.250    5.667    0.211    0.418   71.747
