~VERSION INFORMATION
 VERS.                 2.0:   CWLS LOG ASCII STANDARD -VERSION 2.0
 WRAP.                  NO:   ONE LINE PER DEPTH STEP
~WELL INFORMATION BLOCK
#MNEM.UNIT           DATA                    DESCRIPTION OF MNEMONIC
#---------    -------------------            -------------------------------
# Generated from Intellog Unique Number	CW_76_78/WELL/2806
WELL.         10-20-076-24W4                 : Well_name    - WELL
LOC .         00/10-20-076-24W4/0            : Location     - LOCATION
UWI .         00/10-20-076-24W4/0            : Uwi          - UNIQUE WELL ID
ENTR.         JJ                             : Entered      - ENTERED BY
SRVC.         WESTERN ATLAS                  : Scn          - SERVICE COMPANY
DATE.         1 MAR 67                       : Date         - LOG DATE
STRT.M        746.76                         : top_depth    - START DEPTH
STOP.M        899.26                         : bot_depth    - STOP DEPTH
STEP.M        0.25                           : increment    - STEP LENGTH
 NULL. -999.2500:NULL Value
~CURVE INFORMATION BLOCK
#MNEM UNIT       ERCB CURVE CODE    CURVE DESCRIPTION
#-----------   ------------------   ----------------------------------
DEPT.M        00 001 00 00         : DEPTH        - DEPTH
DELT.US/F     00 520 00 00         : DELT         - SONIC TRAVEL TIME
GR  .API      00 310 00 00         : GR           - GAMMA RAY
CALI.MM       00 280 01 00         : CAL          - CALIPER
ILD .OHMM     00 120 00 00         : RESD         - DEEP RESISTIVITY (DIL)
~PARAMETER INFORMATION
#MNEM.UNIT           DATA             DESCRIPTION OF MNEMONIC
#---------         -----------     ------------------------------
GL  .M        938.479              : gl           - GROUND LEVEL ELEVATION
EREF.M        942.137              : kb           - ELEVATION OF DEPTH REFERENCE
DATM.M        942.137              : datum        - DATUM ELEVATION
TDD .M        905.256              : tdd          - TOTAL DEPTH DRILLER
RUN .         ONE                  : Run          - RUN NUMBER
ENG .         LUNN                 : Engineer     - RECORDING ENGINEER
WIT .         TERRILL              : Witness      - WITNESSED BY
MUD .         GEL                  : Mud_type     - MUD TYPE
MATR.         SANDSTONE            : Logunit      - NEUTRON MATRIX
TMAX.C        36.1111              : BHT          - MAXIMUM RECORDED TEMPERATURE
BHTD.M        904.037              : BHTDEP       - MAXIMUM RECORDED TEMPERATURE
RMT .C        21.1111              : MDTP         - TEMPERATURE OF MUD
MUDD.KG/M     1080                 : MWT          - MUD DENSITY
NEUT.         1                    : NEUTRON      - NEUTRON TYPE
RESI.         0                    : RESIST       - RESISTIVITY TYPE
RM  .OHMM     4.5                  : RM           - RESISTIVITY OF MUD
RMC .OHMM     3.31                 : RMC          - RESISTIVITY OF MUD CAKE
RMF .OHMM     4.84                 : RMF          - RESISTIVITY OF MUD FILTRATE
SUFT.C        5                    : SUFT         - SURFACE TEMPERATURE
~A  DEPTH     DELT       GR      CAL     RESD
# ...
  877.260  365.351  116.313  220.803    7.107
  877.510  372.848  106.907  224.742    7.194
  877.760  342.736   98.348  223.939    6.955
  878.010  329.482   91.835  217.746    6.431
  878.260  316.360   83.276  215.355    5.988
  878.510  316.674   77.310  215.183    5.566
  878.760  312.148   76.731  215.962    5.387
  879.010  314.343   80.437  216.423    5.250
  879.260  314.588   78.210  216.665    5.216
  879.510  312.612   77.929  216.602    5.263
  879.760  310.443   81.987  216.528    5.595
  880.010  306.586   86.791  216.570    6.049
  880.260  303.412   90.894  217.237    5.974
  880.510  299.829   98.641  218.751    5.061
  880.760  302.895  101.849  220.375    3.966
  881.010  310.255   98.227  222.106    3.706
  881.260  313.726  100.439  224.989    3.794
  881.510  316.255  105.342  227.451    4.452
  881.760  311.667  117.874  228.969    5.540
  882.010  314.196  120.334  229.952    6.342
  882.260  333.851  121.549  229.990    6.613
  882.510  346.924  123.265  229.179    5.966
  882.760  356.170  124.976  228.691    5.074
  883.010  360.781  129.430  229.889    4.876
  883.260  351.354  124.912  230.242    5.147
  883.510  340.315  120.988  230.279    5.745
  883.760  328.272  123.051  222.932    6.424
  884.010  327.238  131.346  219.799    7.369
  884.260  338.835  137.645  219.520    8.579
  884.510  339.955  144.493  225.045    9.626
  884.760  344.833  153.435  229.197   10.448
  885.010  339.302  139.741  224.700    9.107
  885.260  357.415  148.585  217.768    7.787
  885.510  365.785  156.977  219.812    7.262
  885.760  351.390  161.981  226.184    7.533
  886.010  301.664  164.592  226.113    8.784
  886.260  270.947  166.154  223.091    9.749
  886.510  261.990  165.575  223.548   10.265
  886.760  262.502  153.077  227.391    9.761
  887.010  261.472  147.412  229.426    8.726
  887.260  266.351  148.874  230.204    8.202
  887.510  284.060  143.557  226.339    7.738
  887.760  300.357  146.466  222.362    7.153
  888.010  307.252  152.516  219.972    6.750
  888.260  302.930  146.202  218.852    6.286
  888.510  302.371  148.862  218.255    5.681
  888.760  302.746  143.895  218.400    5.217
  889.010  300.307  146.904  218.748    4.876
  889.260  312.104  151.907  220.585    4.575
  889.510  322.222  156.162  221.251    4.317
  889.760  325.358  157.476  219.811    4.180
  890.010  319.219  139.893  221.430    4.083
  890.260  314.833  144.996  225.794    3.927
  890.510  306.145  149.899  228.152    3.871
  890.760  293.361  132.218  225.767    3.877
  891.010  281.315  125.105  221.051    3.944
  891.260  300.231  140.979  217.607    4.051
  891.510  304.306  178.738  219.860    4.180
  891.760  315.029  199.048  221.162    4.308
  892.010  320.177  172.441  221.938    4.294
  892.260  343.123  130.180  227.147    4.219
  892.510  302.735  120.724  227.289    4.204
  892.760  298.277  114.908  224.276    4.577
  893.010  288.851  119.412  225.152    5.114
  893.260  288.224  122.721  229.300    5.181
  893.510  290.079  126.328  234.721    4.963
  893.760  283.877  109.094  234.125    4.683
  894.010  286.204   72.515  232.058    4.464
  894.260  281.546   44.812  231.137    4.613
  894.510  275.671   31.367  229.486    4.904
  894.760  274.516   21.661  228.469    5.196
  895.010  344.948   11.508  228.399    5.345
  895.260  403.829   11.726  228.441    5.514
  895.510  399.171   12.640  228.583    5.480
  895.760  344.946   15.800  228.517    5.445
  896.010  406.513   14.671  228.551    5.348
  896.260  381.303   13.392  228.269    5.273
  896.510  339.031   11.465  226.195    5.238
  896.760  311.469    8.390  226.448    5.102
  897.010  356.650    9.953  231.548    4.964
  897.260  344.067   11.268  212.586    4.909
  897.510  317.043   11.284  165.450    4.915
  897.760  317.086   11.803  128.233    5.125
  898.010  339.698    8.728  128.276    6.151
  898.260  366.271    7.700  128.627    7.075
  898.510  361.746   10.458  128.980    7.693
  898.760  355.410   14.813  130.709    8.026
  899.010  356.732   20.364  132.540    7.155
  899.260  293.035   15.347  133.416    5.875
