~VERSION INFORMATION
 VERS.                 2.0:   CWLS LOG ASCII STANDARD -VERSION 2.0
 WRAP.                  NO:   ONE LINE PER DEPTH STEP
~WELL INFORMATION BLOCK
#MNEM.UNIT           DATA                    DESCRIPTION OF MNEMONIC
#---------    -------------------            -------------------------------
# Generated from Intellog Unique Number	CW_73_75/WELL/222
WELL.         PAN AM H W-1 10-23             : Well_name    - WELL
LOC .         00/10-23-075-02W5/0            : Location     - LOCATION
UWI .         00/10-23-075-02W5/0            : Uwi          - UNIQUE WELL ID
ENTR.         JJ                             : Entered      - ENTERED BY
SRVC.         SCHLUMBERGER                   : Scn          - SERVICE COMPANY
DATE.         24 MAR 68                      : Date         - LOG DATE
STRT.M        615.696                        : top_depth    - START DEPTH
STOP.M        743.696                        : bot_depth    - STOP DEPTH
STEP.M        0.25                           : increment    - STEP LENGTH
 NULL. -999.2500:NULL Value
~CURVE INFORMATION BLOCK
#MNEM UNIT       ERCB CURVE CODE    CURVE DESCRIPTION
#-----------   ------------------   ----------------------------------
DEPT.M        00 001 00 00         : DEPTH        - DEPTH
DELT.US/F     00 520 00 00         : DELT         - SONIC TRAVEL TIME
GR  .API      00 310 00 00         : GR           - GAMMA RAY
ILD .OHMM     00 120 00 00         : RESD         - DEEP RESISTIVITY (DIL)
~PARAMETER INFORMATION
#MNEM.UNIT           DATA             DESCRIPTION OF MNEMONIC
#---------         -----------     ------------------------------
GL  .M        833.628              : gl           - GROUND LEVEL ELEVATION
EREF.M        837.743              : kb           - ELEVATION OF DEPTH REFERENCE
DATM.M        833.628              : datum        - DATUM ELEVATION
TDD .M        757.428              : tdd          - TOTAL DEPTH DRILLER
RUN .         ONE                  : Run          - RUN NUMBER
ENG .         EDGSON               : Engineer     - RECORDING ENGINEER
WIT .         SANDERSON            : Witness      - WITNESSED BY
BASE.         EDM                  : Branch       - HOME BASE OF LOGGING UNIT
MUD .         FRESH WATER          : Mud_type     - MUD TYPE
MATR.         SANDSTONE            : Logunit      - NEUTRON MATRIX
TMAX.C        23.3333              : BHT          - MAXIMUM RECORDED TEMPERATURE
BHTD.M        756.209              : BHTDEP       - MAXIMUM RECORDED TEMPERATURE
RMT .C        15.5556              : MDTP         - TEMPERATURE OF MUD
MUDD.KG/M     0                    : MWT          - MUD DENSITY
NEUT.         1                    : NEUTRON      - NEUTRON TYPE
RESI.         0                    : RESIST       - RESISTIVITY TYPE
RM  .OHMM     0                    : RM           - RESISTIVITY OF MUD
RMC .OHMM     0                    : RMC          - RESISTIVITY OF MUD CAKE
RMF .OHMM     0                    : RMF          - RESISTIVITY OF MUD FILTRATE
SUFT.C        5                    : SUFT         - SURFACE TEMPERATURE
~A  DEPTH     DELT       GR     RESD
# ...
  669.946  362.536   45.993    9.004
  670.196  361.734   49.417    9.016
  670.446  362.477   53.635    8.934
  670.696  363.959   53.186    8.951
  670.946  366.516   49.709    8.963
  671.196  369.409   46.480    9.078
  671.446  366.590   43.202    9.093
  671.696  361.487   43.548    9.312
  671.946  360.617   48.014    9.530
  672.196  344.425   48.013    9.845
  672.446  319.295   45.826   10.266
  672.696  299.004   44.931   10.684
  672.946  317.421   44.780   10.900
  673.196  318.164   44.580   11.118
  673.446  306.138   44.081   11.534
  673.696  267.635   45.222   12.054
  673.946  312.597   47.106   12.773
  674.196  337.062   48.297   13.492
  674.446  254.474   49.288   14.211
  674.696  270.607   50.527   13.321
  674.946  303.539   49.830   11.528
  675.196  315.102   49.729   10.334
  675.446  329.352   50.671    9.343
  675.696  349.584   50.073    8.653
  675.946  383.390   50.667    7.766
  676.196  384.402   54.538    7.280
  676.446  342.471   56.969    6.891
  676.696  329.169   49.818    6.603
  676.946  312.641   46.689    6.417
  677.196  317.416   46.439    5.929
  677.446  333.750   51.699    5.745
  677.696  346.656   55.272    5.961
  677.946  351.431   56.114    6.280
  678.196  341.556   54.326    6.698
  678.446  316.695   53.629    7.014
  678.696  304.535   53.627    7.331
  678.946  330.478   54.023    7.550
  679.196  303.467   55.312    7.766
  679.446  278.942   58.041    7.880
  679.696  336.067   60.174    7.796
  679.946  356.770   60.470    7.510
  680.196  325.524   60.518    7.026
  680.446  317.867   63.197    6.635
  680.696  344.684   64.089    5.948
  680.946  357.926   59.321    5.361
  681.196  352.352   61.553    5.173
  681.446  353.297   67.658    5.086
  681.696  333.610   69.295    5.204
  681.946  347.189   64.974    5.319
  682.196  337.515   59.759    5.435
  682.446  322.062   56.133    5.551
  682.696  324.888   57.025    5.667
  682.946  312.527   58.910    5.782
  683.196  298.217   62.681    6.107
  683.446  338.474   65.807    6.219
  683.696  338.142   59.600    6.433
  683.946  311.534   58.754    6.549
  684.196  290.100   61.930    6.564
  684.446  333.650   63.616    6.581
  684.696  339.837   64.409    6.596
  684.946  326.669   63.712    6.513
  685.196  355.233   64.703    6.427
  685.446  349.257   63.162    6.241
  685.696  349.260   68.075    6.154
  685.946  341.468   71.102    6.070
  686.196  347.050   65.093    5.987
  686.446  341.341   64.297    5.903
  686.696  330.055   64.246    5.918
  686.946  323.943   64.541    5.930
  687.196  348.542   66.278    5.945
  687.446  350.697   73.822    5.863
  687.696  339.545   73.424    5.979
  687.946  325.033   67.613    6.397
  688.196  305.414   65.377    7.013
  688.446  312.070   63.935    8.036
  688.696  264.696   59.862    8.858
  688.946  255.090   55.144    9.374
  689.196  260.940   62.788    9.594
  689.446  292.395   68.248    8.905
  689.696  352.275   69.090    7.611
  689.946  349.860   71.174    6.319
  690.196  354.567   69.682    5.330
  690.446  345.364   69.234    4.941
  690.696  339.723   70.573    4.656
  690.946  351.018   73.500    4.671
  691.196  349.341   69.278    4.684
  691.446  344.640   65.255    4.802
  691.696  336.647   60.984    4.920
  691.946  334.097   63.861    4.933
  692.196  353.387   68.427    4.950
  692.446  352.987   66.043    5.064
  692.696  355.209   58.345    5.079
  692.946  238.214   52.187    5.701
  693.196  255.220   53.178    6.922
  693.446  228.074   53.623    9.051
  693.696  276.866   51.288   10.675
  693.946  383.855   48.407   12.604
  694.196  371.292   44.632   13.124
  694.446  371.834   41.254   12.735
  694.696  378.288   38.273   12.550
  694.946  358.266   39.761   13.070
  695.196  286.028   45.121   13.486
  695.446  314.794   47.553   13.805
  695.696  334.488   50.480   13.418
  695.946  336.911   51.670   12.630
  696.196  348.339   50.377   11.837
  696.446  355.399   43.574   10.947
  696.696  362.660   41.983    9.859
  696.946  369.316   42.329    9.367
  697.196  378.796   44.611    8.479
  697.446  373.625   46.397    8.193
  697.696  366.438   46.941    8.107
  697.946  359.520   49.322    8.424
  698.196  359.725   47.335    9.043
  698.446  350.589   43.262    9.865
  698.696  339.101   42.118   10.887
  698.946  347.304   43.904   11.910
  699.196  360.479   41.966   12.527
  699.446  349.461   43.900   12.945
  699.696  327.154   42.111   12.861
  699.946  321.177   43.102   12.476
  700.196  340.803   41.959   12.286
  700.446  347.594   42.404   12.202
  700.696  331.739   45.182   12.220
  700.946  329.861   47.465   12.233
  701.196  304.597   42.647   12.753
  701.446  225.839   39.468   13.572
  701.696  236.326   42.842   14.696
  701.946  256.155   47.308   15.212
  702.196  303.670   49.342   13.618
  702.446  348.901   45.468   12.629
  702.696  348.770   48.495   11.639
  702.946  327.941   48.940   10.847
  703.196  305.499   46.208   10.160
  703.446  307.653   44.121   10.177
  703.696  309.740   41.587   10.392
  703.946  310.685   42.975   10.511
  704.196  314.922   46.548   10.424
  704.446  315.329   49.922   10.038
  704.696  340.735   47.786    9.549
  704.946  362.109   46.939    9.160
  705.196  372.261   47.286    9.883
  705.446  306.675   47.582   10.803
  705.696  274.556   44.006   12.027
  705.946  208.769   40.678   13.048
  706.196  279.805   48.272   13.667
  706.446  305.681   57.604   13.380
  706.696  347.081   54.474   12.390
  706.946  336.870   54.324   11.602
  707.196  314.294   53.676   11.114
  707.446  330.762   48.760   11.226
  707.696  274.047   46.970   11.947
  707.946  259.805   47.664   12.970
  708.196  273.517   45.776   13.486
  708.446  290.187   44.334   14.207
  708.696  292.207   44.928   14.526
  708.946  283.273   46.813   14.942
  709.196  356.324   49.889   15.562
  709.446  372.255   51.178   16.284
  709.696  315.742   45.765   16.803
  709.946  278.650   47.501   17.016
  710.196  262.122   48.889   15.724
  710.446  290.821   48.639   14.230
  710.696  309.775   52.014   12.636
  710.946  267.510   45.905   11.142
  711.196  302.190   50.372   10.252
  711.446  325.041   55.931    9.563
  711.696  336.469   57.418    8.878
  711.946  332.844   58.161    8.489
  712.196  337.418   57.316    8.303
  712.446  324.922   52.002    8.521
  712.696  281.244   49.468    9.037
  712.946  306.180   47.182    9.960
  713.196  217.813   53.039   10.681
  713.446  249.872   62.619   10.497
  713.696  303.032   68.476   10.108
  713.946  330.118   69.765    8.914
  714.196  339.127   71.004    7.823
  714.446  330.193   73.584    6.733
  714.696  333.691   65.093    6.145
  714.946  336.921   61.367    5.858
  715.196  339.948   63.848    5.670
  715.446  337.600   64.988    5.585
  715.696  333.369   70.100    5.602
  715.946  339.623   68.411    5.619
  716.196  326.455   69.104    5.634
  716.446  338.622   68.904    5.649
  716.696  348.706   70.391    5.663
  716.946  343.939   71.630    5.678
  717.196  328.822   71.778    5.797
  717.446  354.564   73.564    5.911
  717.696  336.893   72.966    6.232
  717.946  318.753   66.262    6.444
  718.196  308.676   67.451    7.065
  718.446  322.254   67.747    8.088
  718.696  319.503   67.150    9.107
  718.946  320.111   61.091   10.634
  719.196  329.053   61.040   11.453
  719.446  330.804   64.563   12.276
  719.696  316.158   66.349   12.390
  719.946  328.795   70.170   12.005
  720.196  321.474   74.289   11.418
  720.446  314.824   66.443   11.031
  720.696  275.851   58.100   10.946
  720.946  305.289   61.077   10.957
  721.196  318.867   62.019   11.278
  721.446  311.882   60.776   11.693
  721.696  323.848   57.150   12.614
  721.946  194.824   52.531   14.139
  722.196  191.400   47.713   15.462
  722.446  248.055   54.017   16.887
  722.696  281.122   60.718   17.908
  722.946  309.216   65.134   18.227
  723.196  327.499   63.395   17.134
  723.446  327.436   60.762   14.433
  723.696  319.442   58.228   12.839
  723.946  310.575   64.035   11.346
