~VERSION INFORMATION
 VERS.                 2.0:   CWLS LOG ASCII STANDARD -VERSION 2.0
 WRAP.                  NO:   ONE LINE PER DEPTH STEP
~WELL INFORMATION BLOCK
#MNEM.UNIT           DATA                    DESCRIPTION OF MNEMONIC
#---------    -------------------            -------------------------------
# Generated from Intellog Unique Number	CS_73_76/WELL/2182
WELL.         PEX KIRBY                      : Well_name    - WELL
LOC .         00/10-01-074-08W4/0            : Location     - LOCATION
UWI .         00/10-01-074-08W4/0            : Uwi          - UNIQUE WELL ID
ENTR.         SP                             : Entered      - ENTERED BY
SRVC.         SCHLUMBERGER                   : Scn          - SERVICE COMPANY
STRT.M        340                            : top_depth    - START DEPTH
STOP.M        565                            : bot_depth    - STOP DEPTH
STEP.M        0.25                           : increment    - STEP LENGTH
 NULL. -999.2500:NULL Value
~CURVE INFORMATION BLOCK
#MNEM UNIT       ERCB CURVE CODE    CURVE DESCRIPTION
#-----------   ------------------   ----------------------------------
DEPT.M        00 001 00 00         : DEPTH        - DEPTH
DPHI.V/V      00 890 00 00         : PHID         - DENSITY POROSITY (LIMESTONE)
NPHI.V/V      00 330 00 00         : PHIN         - NEUTRON POROSITY (LIMESTONE)
GR  .API      00 310 00 00         : GR           - GAMMA RAY
ILD .OHMM     00 120 00 00         : RESD         - DEEP RESISTIVITY (DIL)
~PARAMETER INFORMATION
#MNEM.UNIT           DATA             DESCRIPTION OF MNEMONIC
#---------         -----------     ------------------------------
GL  .M        725.14               : gl           - GROUND LEVEL ELEVATION
EREF.M        728.54               : kb           - ELEVATION OF DEPTH REFERENCE
DATM.M        725.14               : datum        - DATUM ELEVATION
TDD .M        573                  : tdd          - TOTAL DEPTH DRILLER
RUN .         ONE                  : Run          - RUN NUMBER
ENG .         BILL                 : Engineer     - RECORDING ENGINEER
WIT .         JIM                  : Witness      - WITNESSED BY
MUD .         GEL                  : Mud_type     - MUD TYPE
MATR.         LIMESTONE            : Logunit      - NEUTRON MATRIX
TMAX.C        30                   : BHT          - MAXIMUM RECORDED TEMPERATURE
BHTD.M        573                  : BHTDEP       - MAXIMUM RECORDED TEMPERATURE
MATR.         1                    : LOGUNIT      - NEUTRON MATRIX
RMT .C        25                   : MDTP         - TEMPERATURE OF MUD
NEUT.         1                    : NEUTRON      - NEUTRON TYPE
RESI.         0                    : RESIST       - RESISTIVITY TYPE
RMC .OHMM     0.25                 : RMC          - RESISTIVITY OF MUD CAKE
RMF .OHMM     0.25                 : RMF          - RESISTIVITY OF MUD FILTRATE
SUFT.C        15                   : SUFT         - SURFACE TEMPERATURE
~A  DEPTH     PHID     PHIN       GR     RESD
# ...
  383.500    0.214    0.403  101.434    8.123
  383.750    0.216    0.412  102.049    8.761
  384.000    0.217    0.399   95.902    9.449
  384.250    0.222    0.388   95.287   10.000
  384.500    0.217    0.384   97.131   10.991
  384.750    0.217    0.383  101.434   11.854
  385.000    0.238    0.385  104.508   12.310
  385.250    0.241    0.385  101.434   13.530
  385.500    0.241    0.369  100.820   13.787
  385.750    0.238    0.357   97.131   14.318
  386.000    0.233    0.354  100.820   14.591
  386.250    0.242    0.343   98.361   14.868
  386.500    0.250    0.344   92.828   15.441
  386.750    0.257    0.356   89.754   16.035
  387.000    0.266    0.369   70.697   19.009
  387.250    0.280    0.375   63.934   20.893
  387.500    0.298    0.375   61.475   22.111
  387.750    0.279    0.377   57.787   22.962
  388.000    0.284    0.378   59.016   21.288
  388.250    0.290    0.367   65.164   17.618
  388.500    0.284    0.369   75.000   15.727
  388.750    0.232    0.373   84.221   14.581
  389.000    0.193    0.364   83.607   12.532
  389.250    0.148    0.364   78.689   10.977
  389.500    0.203    0.385   86.680   10.371
  389.750    0.199    0.391   92.213    9.986
  390.000    0.210    0.379   94.672    9.615
  390.250    0.225    0.369   97.131    9.614
  390.500    0.220    0.352   84.836   10.369
  390.750    0.235    0.357   77.459   11.836
  391.000    0.248    0.364   84.836   12.765
  391.250    0.246    0.392   80.533   14.298
  391.500    0.257    0.381   75.000   16.015
  391.750    0.258    0.380   72.541   16.950
  392.000    0.249    0.379   72.541   17.601
  392.250    0.247    0.385   71.311   17.601
  392.500    0.244    0.371   78.074   17.269
  392.750    0.241    0.380   80.533   17.269
  393.000    0.239    0.380   77.459   16.315
  393.250    0.238    0.367   82.992   15.125
  393.500    0.231    0.368   90.984   13.760
  393.750    0.223    0.380   84.836   13.000
  394.000    0.210    0.388   88.525   12.282
  394.250    0.197    0.390   84.836   11.826
  394.500    0.210    0.388   78.689   11.825
  394.750    0.203    0.399   81.762   12.049
  395.000    0.206    0.368   84.221   12.513
  395.250    0.215    0.354   81.147   12.995
  395.500    0.231    0.366   86.066   13.753
  395.750    0.239    0.359   79.918   14.833
  396.000    0.253    0.348   71.926   16.303
  396.250    0.251    0.361   73.156   16.613
  396.500    0.242    0.359   70.697   16.929
  396.750    0.250    0.353   66.393   16.611
  397.000    0.244    0.355   72.541   16.299
  397.250    0.250    0.360   78.074   15.992
  397.500    0.259    0.367   81.762   15.692
  397.750    0.266    0.375   77.459   15.108
  398.000    0.262    0.387   74.385   14.007
  398.250    0.256    0.405   73.156   13.486
  398.500    0.250    0.386   87.910   12.741
  398.750    0.243    0.397   89.754   12.502
  399.000    0.241    0.380   97.746   15.392
  399.250    0.260    0.365   90.369   18.247
  399.500    0.298    0.362   67.623   22.044
  399.750    0.317    0.357   63.320   25.163
  400.000    0.312    0.376   58.402   26.132
  400.250    0.318    0.392   52.254   27.137
  400.500    0.324    0.398   55.328   27.135
  400.750    0.326    0.381   54.098   26.126
  401.000    0.322    0.370   52.869   25.155
  401.250    0.331    0.372   57.787   24.220
  401.500    0.332    0.373   60.861   22.883
  401.750    0.316    0.379   61.475   22.031
  402.000    0.316    0.365   62.705   21.618
  402.250    0.318    0.354   59.631   20.814
  402.500    0.324    0.374   62.090   19.665
  402.750    0.317    0.393   64.549   17.889
  403.000    0.299    0.377   71.926   15.670
  403.250    0.286    0.362   63.934   13.217
  403.500    0.274    0.346   61.475   11.360
  403.750    0.274    0.349   66.393    9.765
  404.000    0.274    0.363   75.615    7.930
  404.250    0.274    0.383   78.689    6.816
  404.500    0.277    0.397   81.762    5.971
  404.750    0.270    0.405   84.221    5.970
  405.000    0.294    0.395   88.525    7.213
  405.250    0.319    0.349   74.385    9.222
  405.500    0.327    0.358   60.246   10.330
  405.750    0.330    0.367   52.254   13.208
  406.000    0.328    0.375   51.639   16.889
  406.250    0.330    0.367   53.484   20.404
  406.500    0.325    0.368   48.566   23.290
  406.750    0.315    0.370   46.107   25.119
  407.000    0.318    0.378   38.730   25.597
  407.250    0.322    0.370   38.115   26.084
  407.500    0.317    0.373   41.803   26.082
  407.750    0.320    0.381   44.877   26.081
  408.000    0.318    0.372   38.730   26.079
  408.250    0.314    0.372   39.344   26.077
  408.500    0.313    0.368   44.262   26.076
  408.750    0.312    0.352   44.877   26.073
  409.000    0.313    0.352   45.492   26.072
  409.250    0.317    0.353   46.107    0.000
  409.500    0.318    0.356   44.877    0.000
  409.750    0.319    0.346   43.648    0.000
  410.000    0.319    0.340   46.107    0.000
  410.250    0.310    0.337   48.566    0.000
  410.500    0.310    0.345   47.951    0.000
  410.750    0.312    0.354   45.492    0.000
  411.000    0.310    0.354   46.721    0.000
  411.250    0.316    0.368   48.566    0.000
  411.500    0.327    0.370   46.107    0.000
  411.750    0.338    0.365   46.107    0.000
  412.000    0.337    0.374   46.721    0.000
  412.250    0.329    0.363   49.180    0.000
  412.500    0.326    0.350   48.566    0.000
  412.750    0.320    0.360   52.869    0.000
  413.000    0.327    0.380   53.484    0.000
  413.250    0.335    0.361   57.787    0.000
  413.500    0.327    0.352   54.713    0.000
  413.750    0.326    0.359   52.254    0.000
  414.000    0.330    0.359   51.639    0.000
  414.250    0.325    0.360   45.492    0.000
  414.500    0.327    0.358   49.180    0.000
  414.750    0.328    0.358   52.254    0.000
  415.000    0.320    0.380   51.639    0.000
  415.250    0.325    0.367   57.172    0.000
  415.500    0.330    0.373   58.402    0.000
  415.750    0.326    0.367   59.016    0.000
  416.000    0.323    0.369   57.787    0.000
  416.250    0.327    0.369   59.016    0.000
  416.500    0.318    0.376   55.943    0.000
  416.750    0.323    0.375   56.557    0.000
  417.000    0.321    0.381   59.631    0.000
  417.250    0.320    0.378   62.090    0.000
  417.500    0.320    0.371   63.320    0.000
  417.750    0.318    0.375   62.090    0.000
  418.000    0.315    0.378   59.631    0.000
  418.250    0.326    0.378   59.631    0.000
  418.500    0.328    0.392   55.328    0.000
  418.750    0.324    0.392   51.639    0.000
  419.000    0.323    0.400   54.713    0.000
  419.250    0.319    0.373   55.328    0.000
  419.500    0.312    0.370   56.557    0.000
  419.750    0.304    0.359   55.328    0.000
  420.000    0.294    0.362   54.098    0.000
  420.250    0.284    0.352   54.098    0.000
  420.500    0.280    0.343   52.869    0.000
  420.750    0.286    0.361   50.410    0.000
  421.000    0.294    0.365   49.795    0.000
  421.250    0.302    0.379   54.098    0.000
  421.500    0.302    0.390   56.557    0.000
  421.750    0.292    0.366   58.402    0.000
  422.000    0.286    0.352   60.246    0.000
  422.250    0.175    0.345   54.713    0.000
  422.500    0.039    0.313   51.639    0.000
  422.750    0.071    0.259   46.721    0.000
  423.000    0.120    0.267   45.492    0.000
  423.250    0.177    0.297   53.484    0.000
  423.500    0.296    0.392   58.402    0.000
  423.750    0.308    0.390   60.246    0.000
  424.000    0.318    0.395   57.172    0.000
  424.250    0.319    0.379   53.484    0.000
  424.500    0.314    0.368   56.557    0.000
  424.750    0.308    0.385   60.246    0.000
  425.000    0.317    0.394   67.008    6.391
  425.250    0.324    0.403   68.853    6.268
  425.500    0.306    0.389   72.541    6.263
  425.750    0.298    0.395   77.459    5.973
  426.000    0.295    0.400   73.156    5.540
  426.250    0.312    0.385   74.385    4.682
  426.500    0.303    0.375   76.230    4.184
  426.750    0.313    0.376   76.844    3.991
