~VERSION INFORMATION
 VERS.                 2.0:   CWLS LOG ASCII STANDARD -VERSION 2.0
 WRAP.                  NO:   ONE LINE PER DEPTH STEP
~WELL INFORMATION BLOCK
#MNEM.UNIT           DATA                    DESCRIPTION OF MNEMONIC
#---------    -------------------            -------------------------------
# Generated from Intellog Unique Number	CW_82_90/WELL/3448
WELL.         NUMAC LIEGE                    : Well_name    - WELL
LOC .         00/11-14-088-21W4/0            : Location     - LOCATION
UWI .         00/11-14-088-21W4/0            : Uwi          - UNIQUE WELL ID
ENTR.         MAX                            : Entered      - ENTERED BY
SRVC.         WESTERN ATLAS                  : Scn          - SERVICE COMPANY
STRT.M        125                            : top_depth    - START DEPTH
STOP.M        303                            : bot_depth    - STOP DEPTH
STEP.M        0.25                           : increment    - STEP LENGTH
 NULL. -999.2500:NULL Value
~CURVE INFORMATION BLOCK
#MNEM UNIT       ERCB CURVE CODE    CURVE DESCRIPTION
#-----------   ------------------   ----------------------------------
DEPT.M        00 001 00 00         : DEPTH        - DEPTH
ILD .OHMM     00 120 00 00         : RESD         - DEEP RESISTIVITY (DIL)
NPHI.V/V      00 330 00 00         : PHIN         - NEUTRON POROSITY (SANDSTONE)
DPHI.V/V      00 890 00 00         : PHID         - DENSITY POROSITY (SANDSTONE)
CALI.MM       00 280 01 00         : CAL          - CALIPER
GR  .API      00 310 00 00         : GR           - GAMMA RAY
~PARAMETER INFORMATION
#MNEM.UNIT           DATA             DESCRIPTION OF MNEMONIC
#---------         -----------     ------------------------------
GL  .M        529.86               : gl           - GROUND LEVEL ELEVATION
EREF.M        532.96               : kb           - ELEVATION OF DEPTH REFERENCE
DATM.M        529.86               : datum        - DATUM ELEVATION
TDD .M        304                  : tdd          - TOTAL DEPTH DRILLER
RUN .         ONE                  : Run          - RUN NUMBER
ENG .         BILL                 : Engineer     - RECORDING ENGINEER
WIT .         JIM                  : Witness      - WITNESSED BY
MUD .         GEL                  : Mud_type     - MUD TYPE
MATR.         SANDSTONE            : Logunit      - NEUTRON MATRIX
TMAX.C        18                   : BHT          - MAXIMUM RECORDED TEMPERATURE
BHTD.M        304                  : BHTDEP       - MAXIMUM RECORDED TEMPERATURE
MATR.         1                    : LOGUNIT      - NEUTRON MATRIX
RMT .C        18                   : MDTP         - TEMPERATURE OF MUD
NEUT.         1                    : NEUTRON      - NEUTRON TYPE
RESI.         0                    : RESIST       - RESISTIVITY TYPE
RMC .OHMM     2.5                  : RMC          - RESISTIVITY OF MUD CAKE
RMF .OHMM     1                    : RMF          - RESISTIVITY OF MUD FILTRATE
SUFT.C        -1                   : SUFT         - SURFACE TEMPERATURE
~A  DEPTH     RESD     PHIN     PHID      CAL       GR
# ...
  198.000   12.172    0.452    0.223  220.313   96.159
  198.250   13.876    0.428    0.200  219.383   91.421
  198.500   15.822    0.406    0.183  215.945   85.479
  198.750   15.986    0.397    0.180  214.495   71.799
  199.000   13.297    0.392    0.217  217.025   85.836
  199.250    9.622    0.402    0.236  217.568   98.087
  199.500    8.078    0.374    0.239  217.117   97.521
  199.750    7.303    0.366    0.237  216.684   97.847
  200.000    6.727    0.385    0.238  216.718  102.645
  200.250    6.492    0.376    0.239  216.759  104.163
  200.500    6.439    0.374    0.235  216.822   95.247
  200.750    6.690    0.401    0.230  216.388   94.980
  201.000    7.282    0.392    0.236  216.406   98.582
  201.250    8.223    0.406    0.253  215.955   96.228
  201.500   10.286    0.416    0.267  216.001   92.972
  201.750   12.746    0.387    0.285  215.065   87.336
  202.000   15.651    0.379    0.312  214.608   77.525
  202.250   19.397    0.397    0.325  213.655   65.624
  202.500   21.705    0.410    0.343  212.718   61.187
  202.750   22.348    0.387    0.339  212.759   64.196
  203.000   22.374    0.380    0.323  213.302   61.838
  203.250   22.817    0.411    0.308  213.845   60.673
  203.500   23.711    0.435    0.309  213.891   61.294
  203.750   24.636    0.421    0.308  212.943   65.793
  204.000   26.320    0.411    0.297  210.019   70.594
  204.250   28.384    0.423    0.286  209.072   70.324
  204.500   30.900    0.441    0.300  210.100   64.985
  204.750   32.396    0.446    0.321  217.616   65.020
  205.000   34.620    0.418    0.297  219.142   65.041
  205.250   34.979    0.402    0.305  215.710   64.174
  205.500   34.382    0.369    0.335  215.270   69.270
  205.750   33.791    0.396    0.299  214.819   68.108
  206.000   33.210    0.380    0.292  214.860   64.555
  206.250   32.634    0.368    0.328  215.905   67.869
  206.500   31.787    0.382    0.260  217.442   67.602
  206.750   30.662    0.350    0.216  216.985   66.437
  207.000   30.410    0.359    0.248  213.062   64.971
  207.250   30.740    0.398    0.320  211.121   61.417
  207.500   31.645    0.382    0.323  210.167   62.637
  207.750   34.117    0.358    0.308  208.226   65.352
  208.000   41.499    0.335    0.286  208.278   65.972
  208.250   49.102    0.305    0.190  213.287   62.720
  208.500   51.981    0.245    0.085  219.798   60.661
  208.750   43.631    0.228    0.012  220.844   62.481
  209.000   26.475    0.250    0.021  220.890   68.769
  209.250   22.024    0.266    0.039  220.942   80.729
  209.500   19.726    0.301    0.188  220.976   88.206
  209.750   17.348    0.374    0.221  221.022   93.004
  210.000   16.890    0.385    0.270  221.074   97.209
  210.250   15.997    0.350    0.261  221.143  100.519
  210.500   15.148    0.346    0.247  221.172  102.928
  210.750   14.614    0.379    0.241  221.709  104.745
  211.000   14.099    0.368    0.236  221.755   99.406
  211.250   12.866    0.382    0.230  221.801  101.521
  211.500   13.749    0.380    0.227  221.847  109.005
  211.750   14.823    0.374    0.226  221.916   97.402
  212.000   15.262    0.405    0.220  221.945   97.135
  212.250   15.278    0.448    0.219  221.991  101.638
  212.500   14.876    0.429    0.224  222.043  101.070
  212.750   14.623    0.422    0.227  222.095  103.184
  213.000   14.783    0.408    0.227  222.152  107.978
  213.250   15.356    0.398    0.228  222.175  108.314
  213.500   16.555    0.390    0.232  221.730  106.845
  213.750   17.692    0.381    0.234  221.280  105.978
  214.000   18.550    0.379    0.240  219.338  105.409
  214.250   19.641    0.387    0.258  215.900   98.580
  214.500   20.401    0.365    0.264  212.468   91.751
  214.750   21.005    0.354    0.245  217.494   89.993
  215.000   21.226    0.369    0.224  218.032   90.319
  215.250   21.059    0.386    0.206  216.587   85.278
  215.500   20.700    0.388    0.190  214.646   87.989
  215.750   19.967    0.366    0.236  212.704   91.889
  216.000   19.440    0.362    0.245  209.272   94.301
  216.250   18.929    0.386    0.245  207.336   93.445
  216.500   18.267    0.371    0.246  207.874   94.062
  216.750   17.782    0.367    0.246  207.920   95.878
  217.000   17.645    0.372    0.245  208.468  100.381
  217.250   17.339    0.377    0.241  209.011  103.987
  217.500   17.041    0.388    0.237  211.045  107.595
  217.750   17.542    0.391    0.238  211.594  104.042
  218.000   18.227    0.376    0.243  205.671  101.088
  218.250   18.419    0.363    0.244  208.699   98.436
  218.500   17.943    0.361    0.263  211.235   95.781
  218.750   16.987    0.378    0.274  211.292   93.125
  219.000   15.219    0.390    0.270  212.326   94.640
  219.250   12.892    0.385    0.262  212.869   98.543
  219.500   11.128    0.388    0.255  212.910  103.046
  219.750   11.890    0.384    0.250  213.470  104.571
  220.000   13.429    0.390    0.243  213.505  102.207
  220.250   13.445    0.391    0.239  212.551   96.272
  220.500   12.499    0.395    0.229  211.609   95.409
  220.750   10.991    0.407    0.224  209.673  100.203
  221.000    9.487    0.430    0.258  207.726  107.389
  221.250    7.605    0.415    0.269  205.785   99.666
  221.500    6.939    0.406    0.268  200.862   98.799
  221.750    4.662    0.408    0.264  202.404   97.336
  222.000    4.376    0.433    0.260  201.451  103.028
  222.250    4.806    0.446    0.258  204.975  112.596
  222.500    5.479    0.456    0.257  211.492  118.887
  222.750    6.853    0.456    0.251  217.010  113.251
  223.000    7.670    0.443    0.242  220.037  109.999
  223.250    9.503    0.428    0.230  220.077  102.871
  223.500   12.224    0.403    0.227  214.652   96.039
  223.750   13.932    0.403    0.258  211.717   76.390
  224.000   15.028    0.417    0.235  212.265   74.331
  224.250   14.907    0.401    0.219  214.299   88.370
  224.500   14.650    0.385    0.203  215.842   91.085
  224.750   14.409    0.370    0.234  216.887   92.901
  225.000   13.638    0.362    0.241  218.921   96.506
  225.250   13.777    0.380    0.205  219.955  101.307
  225.500   13.927    0.379    0.170  218.510  105.807
  225.750   13.815    0.379    0.194  217.060  112.691
  226.000   14.351    0.370    0.212  215.656  119.579
  226.250   14.914    0.361    0.221  217.158  111.852
  226.500   15.783    0.381    0.228  215.228   99.362
  226.750   16.864    0.389    0.231  213.772  102.666
  227.000   18.187    0.385    0.236  211.836  106.870
  227.250   19.073    0.388    0.228  210.888  101.528
  227.500   20.002    0.385    0.227  210.432   92.314
  227.750   21.178    0.389    0.237  206.006   86.681
  228.000   22.206    0.384    0.255  206.052   89.388
  228.250   23.501    0.341    0.094  205.613   93.593
  228.500   26.550    0.299    0.054  205.150   80.798
  228.750   31.405    0.273    0.104  205.705   71.587
  229.000   40.019    0.256    0.116  205.751   71.015
  229.250   48.679    0.239    0.101  205.791   69.555
  229.500   60.892    0.241    0.053  206.334   66.900
  229.750   67.520    0.237    0.029  210.852   63.051
  230.000   63.344    0.226   -0.002  215.867   59.498
  230.250   36.021    0.209    0.025  217.900   58.333
  230.500   26.314    0.233    0.084  217.958   69.693
  230.750   23.357    0.272    0.160  217.501   78.665
  231.000   22.741    0.349    0.200  215.069   87.938
  231.250   23.635    0.393    0.256  210.146   89.456
  231.500   25.013    0.400    0.261  208.199   88.291
  231.750   27.476    0.386    0.258  208.742   90.108
  232.000   32.210    0.374    0.209  212.266   85.365
  232.250   27.542    0.358    0.173  216.293   76.151
  232.500   26.083    0.343    0.127  217.333   71.114
  232.750   27.361    0.333    0.102  216.385   66.964
  233.000   30.051    0.322    0.109  216.431   66.097
  233.250   34.257    0.325    0.191  215.483   71.790
  233.500   37.641    0.343    0.251  209.567   72.115
  233.750   39.110    0.341    0.202  213.097   65.584
  234.000   38.437    0.317    0.052  216.119   59.649
  234.250   36.396    0.278    0.036  214.674   68.024
