~VERSION INFORMATION
 VERS.                 2.0:   CWLS LOG ASCII STANDARD -VERSION 2.0
 WRAP.                  NO:   ONE LINE PER DEPTH STEP
~WELL INFORMATION BLOCK
#MNEM.UNIT           DATA                    DESCRIPTION OF MNEMONIC
#---------    -------------------            -------------------------------
# Generated from Intellog Unique Number	CS_73_76/WELL/3228
WELL.         10-01-076-05W4                 : Well_name    - WELL
LOC .         00/10-01-076-05W4/0            : Location     - LOCATION
UWI .         00/10-01-076-05W4/0            : Uwi          - UNIQUE WELL ID
ENTR.         SP                             : Entered      - ENTERED BY
SRVC.         SCHLUMBERGER                   : Scn          - SERVICE COMPANY
STRT.M        228.6                          : top_depth    - START DEPTH
STOP.M        481.35                         : bot_depth    - STOP DEPTH
STEP.M        0.25                           : increment    - STEP LENGTH
 NULL. -999.2500:NULL Value
~CURVE INFORMATION BLOCK
#MNEM UNIT       ERCB CURVE CODE    CURVE DESCRIPTION
#-----------   ------------------   ----------------------------------
DEPT.M        00 001 00 00         : DEPTH        - DEPTH
GR  .API      00 310 00 00         : GR           - GAMMA RAY
DPHI.V/V      00 890 00 00         : PHID         - DENSITY POROSITY (SANDSTONE)
NPHI.V/V      00 330 00 00         : PHIN         - NEUTRON POROSITY (SANDSTONE)
ILD .OHMM     00 120 00 00         : RESD         - DEEP RESISTIVITY (DIL)
~PARAMETER INFORMATION
#MNEM.UNIT           DATA             DESCRIPTION OF MNEMONIC
#---------         -----------     ------------------------------
GL  .M        620.878              : gl           - GROUND LEVEL ELEVATION
EREF.M        624.23               : kb           - ELEVATION OF DEPTH REFERENCE
DATM.M        620.878              : datum        - DATUM ELEVATION
TDD .M        489.204              : tdd          - TOTAL DEPTH DRILLER
RUN .         ONE                  : Run          - RUN NUMBER
ENG .         BILL                 : Engineer     - RECORDING ENGINEER
WIT .         JIM                  : Witness      - WITNESSED BY
MUD .         GEL                  : Mud_type     - MUD TYPE
MATR.         SANDSTONE            : Logunit      - NEUTRON MATRIX
TMAX.C        33.3333              : BHT          - MAXIMUM RECORDED TEMPERATURE
BHTD.M        489.204              : BHTDEP       - MAXIMUM RECORDED TEMPERATURE
MATR.         1                    : LOGUNIT      - NEUTRON MATRIX
RMT .C        25                   : MDTP         - TEMPERATURE OF MUD
NEUT.         1                    : NEUTRON      - NEUTRON TYPE
RESI.         0                    : RESIST       - RESISTIVITY TYPE
RMC .OHMM     0.25                 : RMC          - RESISTIVITY OF MUD CAKE
RMF .OHMM     0.25                 : RMF          - RESISTIVITY OF MUD FILTRATE
SUFT.C        15                   : SUFT         - SURFACE TEMPERATURE
~A  DEPTH       GR     PHID     PHIN     RESD
# ...
  359.100   74.467    0.175    0.380    3.799
  359.350   81.513    0.219    0.415    3.523
  359.600   83.477    0.286    0.444    3.441
  359.850   83.051    0.292    0.478    3.530
  360.100   84.709    0.274    0.487    3.635
  360.350   87.522    0.284    0.483    3.834
  360.600   90.474    0.298    0.473    3.948
  360.850   93.135    0.299    0.452    4.072
  361.100   94.191    0.279    0.448    4.207
  361.350   93.847    0.261    0.457    4.251
  361.600   91.055    0.254    0.458    4.398
  361.850   92.210    0.241    0.445    4.437
  362.100   93.854    0.246    0.439    4.501
  362.350   94.900    0.253    0.448    4.556
  362.600   93.985    0.255    0.455    4.603
  362.850   90.476    0.253    0.456    4.678
  363.100   87.019    0.258    0.445    4.669
  363.350   85.990    0.265    0.438    4.774
  363.600   86.630    0.266    0.445    4.767
  363.850   85.833    0.268    0.457    4.770
  364.100   86.591    0.277    0.455    4.771
  364.350   86.767    0.280    0.448    4.782
  364.600   85.986    0.280    0.437    4.676
  364.850   87.707    0.274    0.438    4.686
  365.100   89.631    0.277    0.441    4.631
  365.350   91.163    0.284    0.449    4.609
  365.600   89.518    0.286    0.457    4.526
  365.850   89.804    0.280    0.455    4.392
  366.100   90.901    0.262    0.459    4.273
  366.350   92.518    0.252    0.467    4.141
  366.600   92.078    0.243    0.462    4.009
  366.850   93.230    0.242    0.460    3.890
  367.100   94.301    0.251    0.465    3.895
  367.350   95.144    0.246    0.482    3.889
  367.600   96.101    0.236    0.490    3.972
  367.850   96.405    0.251    0.502    4.023
  368.100   98.291    0.248    0.509    4.028
  368.350  100.279    0.249    0.509    3.902
  368.600  101.258    0.246    0.498    3.738
  368.850  102.223    0.244    0.497    3.580
  369.100  100.985    0.249    0.495    3.307
  369.350  100.871    0.254    0.497    3.240
  369.600  100.686    0.267    0.498    3.178
  369.850   97.100    0.283    0.505    3.294
  370.100   91.996    0.281    0.522    3.323
  370.350   86.001    0.291    0.534    3.435
  370.600   81.580    0.286    0.519    3.720
  370.850   78.707    0.295    0.506    3.883
  371.100   77.106    0.303    0.509    4.141
  371.350   76.430    0.319    0.499    4.359
  371.600   78.540    0.335    0.488    4.512
  371.850   81.422    0.350    0.481    4.716
  372.100   79.463    0.313    0.465    5.006
  372.350   78.089    0.297    0.449    5.454
  372.600   73.929    0.283    0.441    6.068
  372.850   71.020    0.218    0.420    7.434
  373.100   68.241    0.084    0.369   10.038
  373.350   64.716    0.060    0.258   12.269
  373.600   69.649    0.058    0.252   13.094
  373.850   74.079    0.069    0.257   10.554
  374.100   75.628    0.131    0.332    8.930
  374.350   76.990    0.190    0.388    6.931
  374.600   78.192    0.247    0.428    5.626
  374.850   80.162    0.302    0.474    4.918
  375.100   84.142    0.325    0.495    4.626
  375.350   83.733    0.327    0.497    4.489
  375.600   82.111    0.328    0.492    4.489
  375.850   84.651    0.259    0.474    4.498
  376.100   86.975    0.246    0.464    4.575
  376.350   88.314    0.252    0.467    4.573
  376.600   91.006    0.246    0.467    4.573
  376.850   92.267    0.249    0.464    4.642
  377.100   94.044    0.245    0.478    4.654
  377.350   95.670    0.239    0.474    4.755
  377.600   93.095    0.242    0.468    4.754
  377.850   89.757    0.251    0.470    4.756
  378.100   90.139    0.248    0.464    4.759
  378.350   91.142    0.246    0.459    4.813
  378.600   92.239    0.246    0.455    4.848
  378.850   93.674    0.250    0.451    4.853
  379.100   95.049    0.256    0.445    4.856
  379.350   95.656    0.258    0.452    4.866
  379.600   95.114    0.253    0.456    4.944
  379.850   94.041    0.249    0.459    5.054
  380.100   93.709    0.246    0.459    5.046
  380.350   93.551    0.244    0.455    5.047
  380.600   93.990    0.240    0.442    5.048
  380.850   96.126    0.248    0.442    5.050
  381.100   98.123    0.248    0.441    4.995
  381.350  100.979    0.233    0.430    4.822
  381.600   99.786    0.229    0.428    4.609
  381.850   98.452    0.222    0.436    4.299
  382.100   97.170    0.230    0.443    3.906
  382.350   96.718    0.232    0.437    3.324
  382.600   96.222    0.220    0.453    3.068
  382.850   96.488    0.219    0.464    2.700
  383.100   92.789    0.232    0.471    2.308
  383.350   91.189    0.248    0.479    2.037
  383.600   89.933    0.265    0.508    1.801
  383.850   88.603    0.282    0.547    1.733
  384.100   89.936    0.291    0.555    1.783
  384.350   91.778    0.282    0.547    1.837
  384.600   89.374    0.279    0.538    1.935
  384.850   89.310    0.269    0.540    1.993
  385.100   85.946    0.276    0.545    2.055
  385.350   86.600    0.285    0.540    2.087
  385.600   89.110    0.290    0.530    2.022
  385.850   93.307    0.287    0.539    2.025
  386.100   96.070    0.279    0.547    2.039
  386.350   95.149    0.274    0.542    2.107
  386.600   93.030    0.265    0.533    2.237
  386.850   91.325    0.255    0.529    2.524
  387.100   90.413    0.245    0.523    2.685
  387.350   89.052    0.238    0.507    3.042
  387.600   90.057    0.229    0.486    3.318
  387.850   92.115    0.222    0.468    3.614
  388.100   91.177    0.233    0.452    3.819
  388.350   89.632    0.232    0.452    4.022
  388.600   89.111    0.230    0.447    4.372
  388.850   89.231    0.231    0.439    4.415
  389.100   90.827    0.216    0.425    4.563
  389.350   89.011    0.218    0.426    4.715
  389.600   89.462    0.210    0.430    4.733
  389.850   91.563    0.203    0.424    4.638
  390.100   91.887    0.210    0.421    4.379
  390.350   98.092    0.213    0.430    3.792
  390.600  101.113    0.232    0.461    3.447
  390.850  104.409    0.262    0.487    3.286
  391.100  109.536    0.267    0.499    3.049
  391.350  108.738    0.279    0.514    3.025
  391.600   96.821    0.279    0.531    2.985
  391.850   94.293    0.252    0.478    3.089
  392.100   91.762    0.236    0.451    3.184
  392.350   90.079    0.230    0.450    3.389
  392.600   90.887    0.229    0.462    3.450
  392.850   96.013    0.224    0.469    3.407
  393.100   97.253    0.222    0.485    3.288
  393.350   96.210    0.231    0.481    3.086
  393.600   96.191    0.236    0.479    3.043
  393.850   96.051    0.241    0.491    3.088
  394.100   94.569    0.235    0.496    3.199
  394.350   89.959    0.233    0.502    3.372
  394.600   86.888    0.246    0.488    3.634
  394.850   84.029    0.256    0.466    4.130
  395.100   89.827    0.235    0.456    4.535
  395.350   91.171    0.241    0.457    4.970
  395.600   89.673    0.246    0.453    5.367
  395.850   85.945    0.236    0.446    5.773
  396.100   81.307    0.247    0.439    6.214
  396.350   75.521    0.261    0.424    6.635
  396.600   75.723    0.255    0.415    7.179
  396.850   77.261    0.249    0.406    7.618
  397.100   74.497    0.242    0.406    8.203
  397.350   73.155    0.239    0.412    8.794
  397.600   71.223    0.241    0.404    9.169
  397.850   70.058    0.178    0.383    9.762
  398.100   70.196    0.147    0.352   10.177
  398.350   66.957    0.117    0.332   10.347
  398.600   67.071    0.134    0.347    9.791
  398.850   68.080    0.236    0.393    8.819
  399.100   69.944    0.262    0.424    7.731
  399.350   74.843    0.274    0.432    6.317
  399.600   80.784    0.286    0.436    5.553
  399.850   81.668    0.262    0.445    4.707
  400.100   81.786    0.257    0.451    4.431
  400.350   84.312    0.260    0.458    4.442
  400.600   84.547    0.258    0.469    4.635
  400.850   81.064    0.252    0.481    4.837
  401.100   79.652    0.259    0.461    6.215
  401.350   78.712    0.271    0.434    7.834
  401.600   80.131    0.294    0.413   10.557
  401.850   78.025    0.286    0.403   12.944
  402.100   76.102    0.265    0.384   14.122
  402.350   75.831    0.270    0.373   14.537
