~VERSION INFORMATION
 VERS.                 2.0:   CWLS LOG ASCII STANDARD -VERSION 2.0
 WRAP.                  NO:   ONE LINE PER DEPTH STEP
~WELL INFORMATION BLOCK
#MNEM.UNIT           DATA                    DESCRIPTION OF MNEMONIC
#---------    -------------------            -------------------------------
# Generated from Intellog Unique Number	CC_80_83/WELL/2390
NULL.         -999.25                        : NULL_VALUE
WELL.         GULF RESDELN                   : Well_name    - WELL              
LOC .         10-35-083-06W4                 : Location     - LOCATION          
UWI .         00/10-35-083-06W4/0            : Uwi          - UNIQUE WELL ID    
ENTR.         DW                             : Entered      - ENTERED BY        
SRVC.         SCHLUMBERGER                   : Scn          - SERVICE COMPANY   
DATE.         09 FEB 79                      : Date         - LOG DATE
STRT.M        135                            : top_depth    - START DEPTH       
STOP.M        374.996                        : bot_depth    - STOP DEPTH        
STEP.M        0.3                            : increment    - STEP LENGTH       
~CURVE INFORMATION BLOCK
#MNEM UNIT       ERCB CURVE CODE    CURVE DESCRIPTION
#-----------   ------------------   ----------------------------------
DEPT.M        00 001 00 00         : DEPTH        - DEPTH                       
DPHI.V/V      00 890 00 00         : PHID         - DENSITY POROSITY (LIMESTONE)
NPHI.V/V      00 330 00 00         : PHIN         - NEUTRON POROSITY (LIMESTONE)
GR  .API      00 310 00 00         : GR           - GAMMA RAY                   
ILD .OHMM     00 120 00 00         : RESD         - DEEP RESISTIVITY (DIL)      
~PARAMETER INFORMATION       
#MNEM.UNIT           DATA             DESCRIPTION OF MNEMONIC
#---------         -----------     ------------------------------
GL  .M        542.64               : gl           - GROUND LEVEL ELEVATION      
EREF.M        546.14               : kb           - ELEVATION OF DEPTH REFERENCE
DATM.M        546.14               : datum        - DATUM ELEVATION             
TDD .M        380                  : tdd          - TOTAL DEPTH DRILLER         
RUN .         ONE                  : Run          - RUN NUMBER                  
ENG .         BILL                 : Engineer     - RECORDING ENGINEER          
WIT .         JIM                  : Witness      - WITNESSED BY                
MUD .         GEL                  : Mud_type     - MUD TYPE                    
MATR.         LIMESTONE            : Logunit      - NEUTRON MATRIX              
TMAX.C        25                   : BHT          - MAXIMUM RECORDED TEMPERATURE
BHTD.M        380                  : BHTDEP       - MAXIMUM RECORDED TEMPERATURE
MATR.         1                    : LOGUNIT      - NEUTRON MATRIX              
RMT .C        25                   : MDTP         - TEMPERATURE OF MUD          
NEUT.         1                    : NEUTRON      - NEUTRON TYPE                
RESI.         0                    : RESIST       - RESISTIVITY TYPE            
RMC .OHMM     0.25                 : RMC          - RESISTIVITY OF MUD CAKE     
RMF .OHMM     0.25                 : RMF          - RESISTIVITY OF MUD FILTRATE 
SUFT.C        4                    : SUFT         - SURFACE TEMPERATURE         
~A  DEPTH     PHID     PHIN       GR     RESD
# ...
  343.798    0.239    0.401   83.727    1.513
  344.098    0.212    0.424   90.911    2.076
  344.398    0.175    0.454   88.960    2.453
  344.698    0.192    0.524   83.924    2.634
  344.998    0.225    0.570   73.376    2.573
  345.298    0.235    0.543   56.090    2.376
  345.598    0.253    0.503   36.963    1.816
  345.898    0.270    0.304   31.297    1.585
  346.198    0.199    0.327   31.783    1.436
  346.498    0.194    0.354   66.559    1.484
  346.798    0.180    0.376   67.034    2.240
  347.098    0.205    0.421   63.831    2.405
  347.398    0.232    0.453   50.201    2.139
  347.698    0.242    0.429   37.819    1.635
  347.997    0.224    0.325   26.656    1.136
  348.297    0.211    0.314   24.688    0.992
  348.597    0.227    0.300   25.781    0.882
  348.897    0.259    0.320   31.157    0.846
  349.197    0.231    0.367   43.249    0.842
  349.497    0.224    0.332   33.914    0.888
  349.797    0.154    0.290   30.727    0.990
  350.097    0.162    0.286   32.432    1.213
  350.397    0.165    0.292   56.789    1.460
  350.697    0.169    0.305   66.443    2.004
  350.997    0.174    0.323   73.660    2.321
  351.297    0.186    0.339   73.516    2.401
  351.597    0.197    0.352   67.876    2.017
  351.897    0.227    0.351   54.864    1.513
  352.197    0.251    0.350   49.222    1.294
  352.497    0.279    0.348   53.368    1.241
  352.797    0.293    0.400   73.444    1.359
  353.097    0.310    0.431  110.027    1.730
  353.397    0.304    0.457  101.907    2.121
  353.697    0.290    0.494   96.901    3.321
  353.997    0.030    0.539   88.193    3.504
  354.297    0.059    0.566   81.296    3.692
  354.597    0.109    0.586   81.795    3.403
  354.897    0.127    0.356   88.999    3.393
  355.197    0.061    0.372   88.850    3.441
  355.497    0.000    0.389   81.373    3.699
  355.797    0.005    0.407   73.281    4.367
  356.097    0.000    0.375   66.377    5.559
  356.397    0.000    0.215   60.753    9.052
  356.697    0.004    0.169   54.486   12.664
  356.997    0.012    0.168   49.458   14.671
  357.297    0.009    0.174   54.823   14.302
  357.597    0.009    0.182   60.815   13.987
  357.897    0.010    0.187   57.003   13.402
  358.197    0.009    0.196   60.492   13.108
  358.497    0.012    0.198   62.834   12.553
  358.797    0.017    0.206   63.915   12.279
  359.097    0.011    0.215   65.005   12.017
  359.397    0.000    0.226   69.151   11.720
  359.697    0.000    0.233   74.527   11.685
  359.997    0.004    0.231   76.851   12.284
  360.297    0.020    0.228   74.231   12.703
  360.597    0.026    0.232   71.644   12.897
  360.897    0.017    0.237   70.871   13.093
  361.197    0.016    0.235   71.987   13.041
  361.497    0.016    0.231   71.853   13.002
  361.797    0.010    0.230   69.257   12.683
  362.097    0.009    0.227   69.729   12.646
  362.397    0.009    0.228   73.274   12.847
  362.697    0.017    0.234   74.326   13.254
  362.997    0.028    0.237   72.981   13.474
  363.297    0.026    0.245   73.465   13.918
  363.597    0.023    0.244   75.768   14.149
  363.897    0.023    0.232   75.018   14.332
  364.197    0.022    0.224   74.280   14.301
  364.497    0.018    0.227   73.545   14.224
  364.797    0.018    0.239   73.996   14.142
  365.097    0.018    0.247   73.840   14.100
  365.397    0.018    0.238   70.047   14.050
  365.697    0.017    0.236   68.684   14.245
  365.997    0.020    0.240   69.745   14.471
  366.297    0.025    0.244   69.640   14.944
  366.597    0.028    0.243   68.875   15.185
  366.897    0.025    0.252   69.350   15.384
  367.197    0.016    0.244   70.410   15.355
  367.497    0.015    0.235   70.269   15.284
  367.797    0.020    0.238   70.171   15.504
  368.097    0.024    0.241   67.575   16.021
  368.397    0.027    0.240   65.618   16.250
  368.697    0.026    0.236   66.093   16.523
  368.997    0.026    0.239   67.174   15.838
  369.297    0.029    0.242   65.809   14.894
  369.597    0.031    0.247   65.638   14.544
  369.897    0.030    0.246   68.566   14.215
  370.197    0.036    0.245   72.739   13.637
  370.497    0.043    0.246   73.775   13.085
  370.797    0.049    0.248   71.833   13.021
  371.097    0.025    0.255   66.806   12.976
  371.397    0.000    0.259   58.101   13.420
  371.697    0.004    0.255   49.967   23.555
  371.997    0.000    0.101   41.902   43.753
  372.297    0.000    0.102   28.289   66.028
  372.596    0.000    0.108   22.022   70.897
  372.896    0.000    0.121   22.458   70.582
  373.196    0.000    0.122   24.203   69.029
  373.496    0.006    0.117   27.736   67.339
  373.796    0.011    0.117   23.309   67.107
  374.096    0.001    0.119   23.169   66.822
  374.396    0.000    0.124   24.871   66.490
  374.696    0.000    0.127   25.346   66.249
  374.996    0.000    0.129   27.021   64.785
