~VERSION INFORMATION
 VERS.                 2.0:   CWLS LOG ASCII STANDARD -VERSION 2.0
 WRAP.                  NO:   ONE LINE PER DEPTH STEP
~WELL INFORMATION BLOCK
#MNEM.UNIT           DATA                    DESCRIPTION OF MNEMONIC
#---------    -------------------            -------------------------------
# Generated from Intellog Unique Number	CS_69_70/WELL/894
WELL.         UNIVERSAL EXPLORATIONS         : Well_name    - WELL
LOC .         00/11-23-069-10W4/0            : Location     - LOCATION
UWI .         00/11-23-069-10W4/0            : Uwi          - UNIQUE WELL ID
ENTR.         SP                             : Entered      - ENTERED BY
SRVC.         SCHLUMBERGER                   : Scn          - SERVICE COMPANY
STRT.M        390                            : top_depth    - START DEPTH
STOP.M        610                            : bot_depth    - STOP DEPTH
STEP.M        0.25                           : increment    - STEP LENGTH
 NULL. -999.2500:NULL Value
~CURVE INFORMATION BLOCK
#MNEM UNIT       ERCB CURVE CODE    CURVE DESCRIPTION
#-----------   ------------------   ----------------------------------
DEPT.M        00 001 00 00         : DEPTH        - DEPTH
ILD .OHMM     00 120 00 00         : RESD         - DEEP RESISTIVITY (DIL)
DPHI.V/V      00 890 00 00         : PHID         - DENSITY POROSITY (LIMESTONE)
NPHI.V/V      00 330 00 00         : PHIN         - NEUTRON POROSITY (LIMESTONE)
GR  .API      00 310 00 00         : GR           - GAMMA RAY
~PARAMETER INFORMATION
#MNEM.UNIT           DATA             DESCRIPTION OF MNEMONIC
#---------         -----------     ------------------------------
GL  .M        716.4                : gl           - GROUND LEVEL ELEVATION
EREF.M        719.75               : kb           - ELEVATION OF DEPTH REFERENCE
DATM.M        716.4                : datum        - DATUM ELEVATION
TDD .M        625                  : tdd          - TOTAL DEPTH DRILLER
RUN .         ONE                  : Run          - RUN NUMBER
ENG .         BILL                 : Engineer     - RECORDING ENGINEER
WIT .         JIM                  : Witness      - WITNESSED BY
MUD .         GEL                  : Mud_type     - MUD TYPE
MATR.         LIMESTONE            : Logunit      - NEUTRON MATRIX
TMAX.C        27                   : BHT          - MAXIMUM RECORDED TEMPERATURE
BHTD.M        625                  : BHTDEP       - MAXIMUM RECORDED TEMPERATURE
MATR.         1                    : LOGUNIT      - NEUTRON MATRIX
RMT .C        25                   : MDTP         - TEMPERATURE OF MUD
NEUT.         1                    : NEUTRON      - NEUTRON TYPE
RESI.         0                    : RESIST       - RESISTIVITY TYPE
RMC .OHMM     0.25                 : RMC          - RESISTIVITY OF MUD CAKE
RMF .OHMM     0.25                 : RMF          - RESISTIVITY OF MUD FILTRATE
SUFT.C        15                   : SUFT         - SURFACE TEMPERATURE
~A  DEPTH     RESD     PHID     PHIN       GR
# ...
  520.500    5.014    0.193    0.428   88.755
  520.750    4.968    0.189    0.423   89.548
  521.000    4.714    0.194    0.427   91.563
  521.250    4.464    0.205    0.466   93.824
  521.500    3.973    0.212    0.490   95.901
  521.750    3.707    0.219    0.502   98.283
  522.000    3.413    0.227    0.523   98.342
  522.250    3.130    0.213    0.542   95.282
  522.500    2.915    0.201    0.527   97.542
  522.750    2.704    0.210    0.511   99.314
  523.000    2.570    0.227    0.535  100.412
  523.250    2.366    0.247    0.551  100.593
  523.500    2.114    0.269    0.587   99.062
  523.750    1.972    0.270    0.605   97.714
  524.000    1.914    0.250    0.573   96.122
  524.250    1.854    0.236    0.550   95.325
  524.500    1.893    0.224    0.536   94.344
  524.750    1.948    0.220    0.536   92.569
  525.000    2.038    0.215    0.539   91.527
  525.250    2.145    0.208    0.544   94.093
  525.500    2.253    0.204    0.558   95.925
  525.750    2.407    0.205    0.556   92.193
  526.000    2.610    0.206    0.516   90.050
  526.250    2.794    0.205    0.490   90.354
  526.500    3.099    0.203    0.465   90.779
  526.750    3.330    0.199    0.467   90.899
  527.000    3.605    0.202    0.481   89.491
  527.250    3.674    0.220    0.489   79.399
  527.500    3.794    0.243    0.473   72.915
  527.750    3.874    0.227    0.460   79.761
  528.000    4.023    0.198    0.465   86.118
  528.250    4.250    0.183    0.454   86.116
  528.500    4.447    0.173    0.437   82.812
  528.750    4.689    0.181    0.428   81.892
  529.000    4.870    0.189    0.446   82.379
  529.250    4.935    0.197    0.458   82.805
  529.500    4.974    0.200    0.468   83.720
  529.750    4.956    0.203    0.459   86.163
  530.000    4.774    0.206    0.444   86.345
  530.250    4.712    0.192    0.433   84.263
  530.500    5.130    0.094    0.438   80.164
  530.750    6.101    0.023    0.201   72.090
  531.000    7.577   -0.008    0.181   58.451
  531.250    8.978   -0.009    0.172   46.892
  531.500   10.718   -0.005    0.217   57.652
  531.750   11.867    0.057    0.267   70.368
  532.000   10.562    0.141    0.353   78.560
  532.250    8.333    0.168    0.388   88.648
  532.500    7.223    0.164    0.413   87.545
  532.750    5.940    0.159    0.427   85.769
  533.000    5.287    0.159    0.428   85.706
  533.250    4.867    0.167    0.434   88.149
  533.500    4.688    0.177    0.433   89.431
  533.750    4.542    0.182    0.418   91.141
  534.000    4.466    0.192    0.410   92.973
  534.250    4.426    0.205    0.428   93.643
  534.500    4.426    0.216    0.446   93.519
  534.750    4.435    0.223    0.451   92.110
  535.000    4.470    0.212    0.443   89.234
  535.250    4.470    0.201    0.447   87.886
  535.500    4.421    0.197    0.452   87.273
  535.750    4.372    0.204    0.450   86.170
  536.000    4.292    0.206    0.454   85.067
  536.250    4.276    0.197    0.438   91.424
  536.500    4.269    0.188    0.426  101.083
  536.750    4.270    0.174    0.438  110.926
  537.000    4.263    0.157    0.437   86.770
  537.250    4.223    0.141    0.430   77.411
  537.500    4.107    0.193    0.436   77.837
  537.750    3.978    0.230    0.442   82.972
  538.000    3.861    0.211    0.438   87.433
  538.250    3.811    0.196    0.435   90.978
  538.500    3.797    0.188    0.435   90.119
  538.750    3.812    0.188    0.445   88.955
  539.000    3.886    0.175    0.442   84.611
  539.250    3.923    0.147    0.454   81.368
  539.500    4.036    0.101    0.417   78.369
  539.750    4.192    0.043    0.358   76.349
  540.000    4.305    0.085    0.360   79.588
  540.250    4.314    0.170    0.374   84.783
  540.500    4.032    0.198    0.386   89.612
  540.750    3.847    0.208    0.408   93.034
  541.000    3.496    0.217    0.466   86.305
  541.250    3.053    0.225    0.517   82.328
  541.500    2.627    0.228    0.533   79.513
  541.750    2.373    0.225    0.519   83.485
  542.000    2.156    0.224    0.526   85.868
  542.250    1.993    0.228    0.545   88.128
  542.500    2.089    0.236    0.521   87.820
  542.750    2.331    0.245    0.485   86.717
  543.000    2.566    0.227    0.456   84.941
  543.250    2.973    0.184    0.430   80.536
  543.500    3.212    0.137    0.408   76.192
  543.750    3.510    0.085    0.389   73.561
  544.000    3.764    0.075    0.374   76.799
  544.250    3.843    0.125    0.395   81.138
  544.500    3.822    0.175    0.420   82.971
  544.750    3.703    0.194    0.431   82.174
  545.000    3.710    0.199    0.439   82.783
  545.250    3.810    0.185    0.454   83.514
  545.500    4.025    0.167    0.433   83.390
  545.750    4.398    0.150    0.407   76.967
  546.000    4.663    0.133    0.383   75.558
  546.250    4.963    0.127    0.363   80.570
  546.500    5.145    0.136    0.356   85.398
  546.750    5.263    0.145    0.393   81.482
  547.000    5.127    0.135    0.391   80.135
  547.250    5.129    0.089    0.372   82.151
  547.500    5.101    0.086    0.388   84.044
  547.750    4.941    0.122    0.422   86.365
  548.000    4.291    0.150    0.456   89.971
  548.250    3.476    0.179    0.485   93.148
  548.500    3.249    0.174    0.505   95.103
  548.750    2.919    0.166    0.494   96.018
  549.000    2.718    0.159    0.485   92.530
  549.250    2.698    0.166    0.499   86.596
  549.500    2.693    0.175    0.513   90.691
  549.750    2.709    0.182    0.524   96.376
  550.000    2.730    0.185    0.521  100.104
  550.250    2.751    0.179    0.505  101.752
  550.500    2.746    0.174    0.486  104.990
  550.750    2.732    0.183    0.488  106.945
  551.000    2.676    0.195    0.493  107.493
  551.250    2.511    0.196    0.493  108.897
  551.500    2.405    0.191    0.495  111.157
  551.750    2.316    0.188    0.503  110.666
  552.000    2.286    0.183    0.523  112.804
  552.250    2.304    0.185    0.544  113.597
  552.500    2.466    0.191    0.407  113.595
  552.750    2.798    0.192    0.374   93.597
  553.000    3.322    0.180    0.373   77.695
  553.250    3.951    0.158    0.384   76.653
  553.500    5.153    0.036    0.313   73.532
  553.750    5.695    0.000    0.260   63.257
  554.000    7.059    0.004    0.263   56.712
  554.250    8.653    0.030    0.309   60.439
  554.500    9.967    0.098    0.353   63.617
  554.750   10.588    0.148    0.376   65.327
  555.000   10.200    0.189    0.385   63.919
  555.250    9.936    0.202    0.381   63.672
  555.500    9.697    0.199    0.380   65.137
  555.750    9.536    0.200    0.395   66.296
  556.000    9.448    0.193    0.403   64.582
  556.250    9.397    0.166    0.382   63.724
  556.500    9.120    0.131    0.364   63.476
  556.750    8.589    0.131    0.352   64.147
  557.000    8.257    0.161    0.354   62.677
  557.250    7.689    0.087    0.371   61.024
  557.500    7.434    0.061    0.355   60.410
  557.750    7.040    0.078    0.342   67.990
  558.000    6.755    0.131    0.373   77.894
  558.250    6.446    0.172    0.393   83.885
  558.500    6.411    0.196    0.412   85.533
  558.750    6.759    0.216    0.420   87.488
  559.000    7.541    0.229    0.407   88.342
  559.250    8.287    0.239    0.401   84.731
  559.500    8.937    0.252    0.400   80.938
  559.750    9.040    0.258    0.395   79.345
  560.000    8.339    0.242    0.386   81.912
  560.250    7.882    0.188    0.373   87.168
  560.500    7.521    0.162    0.363   92.914
  560.750    7.369    0.173    0.387   96.764
  561.000    7.496    0.207    0.379   85.021
  561.250    7.756    0.230    0.371   68.631
  561.500    7.890    0.243    0.365   64.960
  561.750    7.862    0.206    0.362   72.662
  562.000    7.760    0.168    0.364   79.325
  562.250    7.546    0.165    0.382   83.970
  562.500    7.462    0.195    0.386   84.395
  562.750    7.663    0.215    0.391   84.822
  563.000    7.929    0.227    0.397   84.514
  563.250    8.081    0.233    0.395   78.213
  563.500    6.926    0.246    0.378   70.689
  563.750    5.579    0.261    0.363   63.961
