~VERSION INFORMATION
 VERS.                 2.0:   CWLS LOG ASCII STANDARD -VERSION 2.0
 WRAP.                  NO:   ONE LINE PER DEPTH STEP
~WELL INFORMATION BLOCK
#MNEM.UNIT           DATA                    DESCRIPTION OF MNEMONIC
#---------    -------------------            -------------------------------
# Generated from Intellog Unique Number	CS_77_79/WELL/1022
WELL.         C.W.W.E. HARDY                 : Well_name    - WELL
LOC .         00/15-07-078-04W4/0            : Location     - LOCATION
UWI .         00/15-07-078-04W4/0            : Uwi          - UNIQUE WELL ID
ENTR.         JHS                            : Entered      - ENTERED BY
SRVC.         SCHLUMBERGER                   : Scn          - SERVICE COMPANY
STRT.M        165                            : top_depth    - START DEPTH
STOP.M        420                            : bot_depth    - STOP DEPTH
STEP.M        0.25                           : increment    - STEP LENGTH
 NULL. -999.2500:NULL Value
~CURVE INFORMATION BLOCK
#MNEM UNIT       ERCB CURVE CODE    CURVE DESCRIPTION
#-----------   ------------------   ----------------------------------
DEPT.M        00 001 00 00         : DEPTH        - DEPTH
DPHI.V/V      00 890 00 00         : PHID         - DENSITY POROSITY (LIMESTONE)
NPHI.V/V      00 330 00 00         : PHIN         - NEUTRON POROSITY (LIMESTONE)
GR  .API      00 310 00 00         : GR           - GAMMA RAY
ILD .OHMM     00 120 00 00         : RESD         - DEEP RESISTIVITY (DIL)
RHOB.KG/M3    00 350 00 00         : DENS         - BULK DENSITY
~PARAMETER INFORMATION
#MNEM.UNIT           DATA             DESCRIPTION OF MNEMONIC
#---------         -----------     ------------------------------
GL  .M        579.2                : gl           - GROUND LEVEL ELEVATION
EREF.M        583.1                : kb           - ELEVATION OF DEPTH REFERENCE
DATM.M        583.1                : datum        - DATUM ELEVATION
TDD .M        425.3                : tdd          - TOTAL DEPTH DRILLER
RUN .         ONE                  : Run          - RUN NUMBER
ENG .         BILL                 : Engineer     - RECORDING ENGINEER
WIT .         JIM                  : Witness      - WITNESSED BY
MUD .         GEL                  : Mud_type     - MUD TYPE
MATR.         LIMESTONE            : Logunit      - NEUTRON MATRIX
TMAX.C        20                   : BHT          - MAXIMUM RECORDED TEMPERATURE
BHTD.M        425.3                : BHTDEP       - MAXIMUM RECORDED TEMPERATURE
MATR.         1                    : LOGUNIT      - NEUTRON MATRIX
RMT .C        25                   : MDTP         - TEMPERATURE OF MUD
NEUT.         1                    : NEUTRON      - NEUTRON TYPE
RESI.         0                    : RESIST       - RESISTIVITY TYPE
RMC .OHMM     0.25                 : RMC          - RESISTIVITY OF MUD CAKE
RMF .OHMM     0.25                 : RMF          - RESISTIVITY OF MUD FILTRATE
SUFT.C        15                   : SUFT         - SURFACE TEMPERATURE
~A  DEPTH     PHID     PHIN       GR     RESD     DENS
# ...
  384.000    0.328    0.387   43.387    3.181 2148.380
  384.250    0.342    0.383   36.617    3.119 2125.020
  384.500    0.350    0.377   31.689    3.002 2112.280
  384.750    0.355    0.379   31.676    2.781 2103.770
  385.000    0.351    0.386   34.739    2.727 2110.100
  385.250    0.345    0.397   37.800    2.675 2120.670
  385.500    0.347    0.410   37.790    2.723 2116.400
  385.750    0.343    0.405   38.394    2.773 2122.730
  386.000    0.322    0.391   42.072    2.878 2158.740
  386.250    0.305    0.384   45.752    2.987 2188.380
  386.500    0.303    0.381   47.583    3.043 2192.590
  386.750    0.316    0.377   37.737    3.098 2169.250
  387.000    0.332    0.372   31.580    3.097 2141.650
  387.250    0.335    0.370   40.175    3.037 2137.380
  387.500    0.327    0.378   49.999    2.978 2150.070
  387.750    0.319    0.387   55.521    2.976 2164.890
  388.000    0.298    0.377   64.730    2.918 2200.890
  388.250    0.272    0.363   73.326    2.971 2245.380
  388.500    0.258    0.360   80.692    3.027 2268.660
  388.750    0.277    0.372   72.690    3.141 2236.830
  389.000    0.298    0.391   55.467    3.260 2200.770
  389.250    0.298    0.402   48.692    3.258 2200.740
  389.500    0.294    0.390   55.444    3.256 2207.070
  389.750    0.308    0.381   48.671    3.253 2183.730
  390.000    0.321    0.373   40.670    3.252 2160.380
  390.250    0.316    0.370   40.658    3.249 2168.830
  390.500    0.294    0.361   45.564    3.309 2206.950
  390.750    0.284    0.360   54.161    3.307 2223.880
  391.000    0.307    0.367   55.377    3.243 2185.690
  391.250    0.326    0.388   49.221    3.120 2151.750
  391.500    0.336    0.398   45.523    3.060 2134.760
  391.750    0.336    0.407   46.125    2.945 2134.720
  392.000    0.334    0.413   49.798    2.833 2138.930
  392.250    0.331    0.413   51.020    2.830 2143.150
  392.500    0.332    0.403   50.396    2.829 2143.120
  392.750    0.327    0.389   48.542    2.881 2151.570
  393.000    0.320    0.382   52.217    2.935 2162.130
  393.250    0.328    0.382   49.131    2.933 2149.380
  393.500    0.335    0.411   46.049    2.986 2136.630
  393.750    0.345    0.416   42.348    2.928 2119.640
  394.000    0.350    0.408   40.493    2.927 2111.140
  394.250    0.353    0.396   40.483    2.816 2106.870
  394.500    0.350    0.390   40.472    2.710 2111.070
  394.750    0.352    0.387   42.919    2.607 2108.930
  395.000    0.353    0.389   43.525    2.556 2106.780
  395.250    0.348    0.392   40.440    2.555 2115.230
  395.500    0.345    0.384   39.199    2.553 2119.440
  395.750    0.347    0.375   42.261    2.551 2117.280
  396.000    0.339    0.373   44.095    2.550 2129.980
  396.250    0.332    0.385   40.394    2.597 2142.660
  396.500    0.328    0.390   39.154    2.595 2148.990
  396.750    0.329    0.378   42.219    2.643 2146.850
  397.000    0.327    0.368   44.053    2.691 2151.060
  397.250    0.314    0.368   44.038    2.741 2172.220
  397.500    0.300    0.373   43.416    2.740 2197.630
  397.750    0.298    0.369   50.167    2.790 2199.720
  398.000    0.312    0.374   55.073    2.841 2176.360
  398.250    0.315    0.391   51.988    2.840 2172.100
  398.500    0.320    0.414   42.757    2.892 2163.590
  398.750    0.325    0.410   38.439    2.945 2155.080
  399.000    0.326    0.401   38.433    2.888 2152.930
  399.250    0.333    0.395   40.881    2.886 2140.180
  399.500    0.328    0.390   42.098    2.884 2148.620
  399.750    0.322    0.385   37.784    2.828 2159.190
  400.000    0.323    0.395   35.314    2.773 2157.050
  400.250    0.333    0.420   33.458    2.719 2140.060
  400.500    0.337    0.430   32.835    2.667 2133.670
  400.750    0.335    0.421   31.594    2.615 2137.880
  401.000    0.336    0.406   41.417    2.613 2135.730
  401.250    0.359    0.392   43.862    2.612 2095.430
  401.500    0.362    0.418   42.626    2.660 2091.160
  401.750    0.346    0.441   40.157    2.760 2118.680
  402.000    0.327    0.439   40.145    2.812 2150.450
  402.250    0.340    0.445   43.822    2.973 2129.220
  402.500    0.345    0.459   47.501    3.086 2120.720
  402.750    0.329    0.448   51.178    3.143 2148.240
  403.000    0.315    0.423   49.938    3.141 2171.530
  403.250    0.324    0.409   36.404    3.139 2156.660
  403.500    0.332    0.417   29.626    3.078 2141.790
  403.750    0.332    0.418   32.078    3.019 2141.760
  404.000    0.341    0.424   40.673    2.849 2126.890
  404.250    0.356    0.440   38.816    2.848 2101.420
  404.500    0.373    0.443   35.119    2.793 2071.720
  404.750    0.399    0.429   31.421    2.739 2027.180
  405.000    0.434    0.420   32.638    2.789 1967.790
  405.250    0.378    0.403   41.849    2.950 2063.150
  405.500    0.264    0.377   51.058    3.120 2258.140
  405.750    0.231    0.345   55.965    3.363 2315.340
  406.000    0.237    0.332   47.962    3.625 2304.710
  406.250    0.272    0.346   35.042    3.834 2245.330
  406.500    0.288    0.352   27.655    3.905 2217.740
  406.750    0.285    0.335   25.800    3.757 2221.950
  407.000    0.272    0.328   32.549    3.685 2245.240
  407.250    0.262    0.321   36.228    3.613 2262.160
  407.500    0.271    0.324   30.683    3.543 2247.300
  407.750    0.279    0.335   28.215    3.540 2232.430
  408.000    0.277    0.338   31.276    3.538 2236.630
  408.250    0.278    0.336   33.726    3.536 2234.490
  408.500    0.279    0.340   36.172    3.466 2232.330
  408.750    0.276    0.341   36.162    3.400 2238.670
  409.000    0.273    0.340   37.996    3.334 2242.880
  409.250    0.273    0.348   35.527    3.332 2242.850
  409.500    0.292    0.354   27.525    3.146 2211.020
  409.750    0.298    0.356   26.281    3.026 2200.400
  410.000    0.299    0.366   23.815    2.969 2198.250
  410.250    0.310    0.365   21.960    2.856 2179.130
  410.500    0.312    0.354   21.945    2.748 2176.980
  410.750    0.307    0.345   21.937    2.747 2185.440
  411.000    0.303    0.358   21.924    2.693 2191.760
  411.250    0.308    0.370   21.914    2.691 2183.250
  411.500    0.319    0.369   21.905    2.689 2164.150
  411.750    0.334    0.369   23.124    2.739 2138.680
  412.000    0.317    0.376   26.186    2.897 2168.330
  412.250    0.261    0.384   46.461    3.123    0.000
  412.500    0.123    0.385   83.333    3.431    0.000
  412.750    0.002    0.385   95.616    4.221    0.000
  413.000    0.000    0.389   82.697    5.295    0.000
  413.250    0.000    0.345   65.473    7.872    0.000
  413.500    0.000    0.297   55.627   11.485    0.000
  413.750    0.000    0.276   56.230   14.404    0.000
  414.000    0.007    0.264   58.062   17.064    0.000
  414.250    0.014    0.255   55.594   18.396    0.000
  414.500    0.010    0.244   53.739   20.204    0.000
  414.750    0.002    0.235   56.183   20.974    0.000
  415.000    0.001    0.228   56.790   22.182    0.000
  415.250    0.001    0.220   55.549   23.462    0.000
  415.500    0.000    0.215   54.311   24.814    0.000
  415.750    0.000    0.213   53.680   26.248    0.000
  416.000    0.000    0.212   54.286   27.243    0.000
  416.250    0.002    0.209   54.889   28.817    0.000
  416.500    0.006    0.208   56.109   29.345    0.000
  416.750    0.008    0.212   57.943   29.325    0.000
  417.000    0.007    0.222   59.160   29.308    0.000
  417.250    0.005    0.228   57.306   28.736    0.000
  417.500    0.005    0.237   57.296   28.184    0.000
  417.750    0.012    0.238   58.512   26.605    0.000
  418.000    0.009    0.239   56.658   26.588    0.000
  418.250    0.000    0.247   57.263   26.569    0.000
  418.500    0.000    0.239   59.098   28.109    0.000
  418.750    0.010    0.221   60.928   30.879    0.000
  419.000    0.028    0.193   61.535   34.567    0.000
  419.250    0.043    0.173   61.523   37.257    0.000
  419.500    0.066    0.173   61.509   39.405    0.000
  419.750    0.058    0.181   61.498   40.136    0.000
  420.000    0.052    0.187   60.877   40.111    0.000
