~VERSION INFORMATION
 VERS.                 2.0:   CWLS LOG ASCII STANDARD -VERSION 2.0
 WRAP.                  NO:   ONE LINE PER DEPTH STEP
~WELL INFORMATION BLOCK
#MNEM.UNIT           DATA                    DESCRIPTION OF MNEMONIC
#---------    -------------------            -------------------------------
# Generated from Intellog Unique Number	CW_73_75/WELL/3525
WELL.         HCO ET AL FRANCIS              : Well_name    - WELL
LOC .         00/11-01-073-21W4/0            : Location     - LOCATION
UWI .         00/11-01-073-21W4/0            : Uwi          - UNIQUE WELL ID
ENTR.         TIM                            : Entered      - ENTERED BY
SRVC.         SCHLUMBERGER                   : Scn          - SERVICE COMPANY
STRT.M        320                            : top_depth    - START DEPTH
STOP.M        575                            : bot_depth    - STOP DEPTH
STEP.M        0.25                           : increment    - STEP LENGTH
 NULL. -999.2500:NULL Value
~CURVE INFORMATION BLOCK
#MNEM UNIT       ERCB CURVE CODE    CURVE DESCRIPTION
#-----------   ------------------   ----------------------------------
DEPT.M        00 001 00 00         : DEPTH        - DEPTH
GR  .API      00 310 00 00         : GR           - GAMMA RAY
CALI.MM       00 280 01 00         : CAL          - CALIPER
NPHI.V/V      00 330 00 00         : PHIN         - NEUTRON POROSITY (SANDSTONE)
DPHI.V/V      00 890 00 00         : PHID         - DENSITY POROSITY (SANDSTONE)
ILD .OHMM     00 120 00 00         : RESD         - DEEP RESISTIVITY (DIL)
~PARAMETER INFORMATION
#MNEM.UNIT           DATA             DESCRIPTION OF MNEMONIC
#---------         -----------     ------------------------------
GL  .M        658.2                : gl           - GROUND LEVEL ELEVATION
EREF.M        661.7                : kb           - ELEVATION OF DEPTH REFERENCE
DATM.M        661.7                : datum        - DATUM ELEVATION
TDD .M        587                  : tdd          - TOTAL DEPTH DRILLER
RUN .         ONE                  : Run          - RUN NUMBER
ENG .         BILL                 : Engineer     - RECORDING ENGINEER
WIT .         JIM                  : Witness      - WITNESSED BY
MUD .         GEL                  : Mud_type     - MUD TYPE
MATR.         SANDSTONE            : Logunit      - NEUTRON MATRIX
TMAX.C        26                   : BHT          - MAXIMUM RECORDED TEMPERATURE
BHTD.M        487                  : BHTDEP       - MAXIMUM RECORDED TEMPERATURE
MATR.         1                    : LOGUNIT      - NEUTRON MATRIX
RMT .C        18                   : MDTP         - TEMPERATURE OF MUD
NEUT.         1                    : NEUTRON      - NEUTRON TYPE
RESI.         0                    : RESIST       - RESISTIVITY TYPE
RMC .OHMM     3.39                 : RMC          - RESISTIVITY OF MUD CAKE
RMF .OHMM     3.39                 : RMF          - RESISTIVITY OF MUD FILTRATE
SUFT.C        5                    : SUFT         - SURFACE TEMPERATURE
~A  DEPTH       GR      CAL     PHIN     PHID     RESD
  320.000  116.878  163.379    0.469    0.208    3.672
  320.250  117.483  163.403    0.464    0.208    3.885
  320.500  115.136  163.427    0.452    0.208    4.681
  320.750  109.248  163.445    0.449    0.211    5.746
  321.000   98.638  162.491    0.447    0.214    7.321
  321.250   83.896  162.509    0.446    0.217    9.325
  321.500   60.886  160.571    0.417    0.220   14.033
  321.750   36.110  159.605    0.336    0.226   18.219
  322.000   27.861  158.652    0.293    0.243   20.760
  322.250   26.695  157.686    0.304    0.281   21.579
  322.500   23.758  156.732    0.328    0.300   21.995
  322.750   18.463  155.778    0.335    0.313   22.431
  323.000   16.113  155.790    0.334    0.312   22.456
  323.250   15.537  154.836    0.306    0.302   22.074
  323.500   16.145  154.854    0.303    0.302   21.693
  323.750   16.156  153.901    0.299    0.286   23.825
  324.000   16.171  153.919    0.288    0.275   26.160
  324.250   16.185  152.965    0.288    0.274   31.537
  324.500   16.790  152.995    0.277    0.270   31.572
  324.750   19.759  153.013    0.279    0.270   31.027
  325.000   22.138  152.059    0.303    0.275   28.843
  325.250   24.510  152.089    0.309    0.291   25.355
  325.500   25.114  152.101    0.316    0.310   22.712
  325.750   25.719  151.147    0.326    0.348   20.726
  326.000   26.914  151.165    0.338    0.382   19.994
  326.250   28.699  151.189    0.346    0.392   19.649
  326.500   29.304  151.219    0.350    0.388   19.670
  326.750   27.547  151.243    0.350    0.380   19.692
  327.000   25.201  152.251    0.345    0.356   18.997
  327.250   21.677  152.280    0.334    0.333   17.994
  327.500   20.511  152.292    0.334    0.339   17.359
  327.750   19.935  153.300    0.350    0.325   16.132
  328.000   20.536  153.330    0.354    0.310   13.172
  328.250   22.325  154.332    0.342    0.311   10.364
  328.500   25.877  155.346    0.322    0.312    8.307
  328.750   42.419  155.364    0.320    0.314    6.910
  329.000   60.144  156.377    0.338    0.312    5.747
  329.250   66.652  157.379    0.401    0.307    5.148
  329.500   64.899  158.393    0.443    0.293    4.968
  329.750   66.680  158.423    0.434    0.287    4.975
  330.000   71.417  159.424    0.438    0.292    4.978
  330.250   74.976  160.444    0.443    0.293    4.983
  330.500   74.987  160.462    0.432    0.287    4.719
  330.750   76.772  160.480    0.404    0.280    4.388
  331.000   80.922  160.510    0.393    0.278    4.232
  331.250   83.884  160.528    0.428    0.279    3.935
  331.500   88.621  160.558    0.446    0.280    3.796
  331.750   88.045  161.566    0.461    0.280    3.871
  332.000   81.566  161.590    0.448    0.282    4.411
  332.250   68.005  161.608    0.399    0.291    5.724
  332.500   39.096  162.615    0.332    0.305    7.568
  332.750   27.896  162.645    0.318    0.319    9.289
  333.000   28.500  163.653    0.325    0.324   10.789
  333.250   31.470  163.677    0.338    0.329   11.415
  333.500   34.432  163.701    0.333    0.322   11.217
  333.750   39.758  163.725    0.329    0.312   10.626
  334.000   43.315  163.743    0.345    0.309    9.518
  334.250   47.461  164.763    0.342    0.313    8.524
  334.500   52.201  164.787    0.368    0.317    7.778
  334.750   55.757  165.800    0.390    0.317    6.968
  335.000   61.083  165.812    0.389    0.281    6.241
  335.250   61.098  165.830    0.383    0.259    5.592
  335.500   60.522  165.860    0.383    0.258    5.199
  335.750   68.803  165.878    0.397    0.265    4.833
  336.000   68.224  165.908    0.411    0.256    4.576
  336.250   58.204  165.938    0.357    0.268    4.580
  336.500   49.364  164.978    0.320    0.289    5.124
  336.750   57.642  164.996    0.330    0.310    5.845
  337.000   68.281  161.097    0.354    0.247    5.958
  337.250   67.119  160.131    0.375    0.203    6.076
  337.500   64.772  159.166    0.385    0.176    6.085
  337.750   67.148  159.190    0.395    0.159    5.978
  338.000   68.339  158.230    0.403    0.185    5.876
  338.250   69.534  158.266    0.391    0.235    5.565
  338.500   73.090  158.284    0.390    0.272    5.078
  338.750   79.010  159.285    0.402    0.280    4.464
  339.000   84.337  159.285    0.426    0.287    3.782
  339.250   89.664  160.335    0.441    0.289    3.205
  339.500   95.581  161.337    0.455    0.286    3.092
  339.750  100.317  162.333    0.475    0.274    3.039
  340.000  103.286  163.346    0.494    0.255    3.100
  340.250  103.301  164.354    0.513    0.234    3.219
  340.500  102.135  165.362    0.516    0.233    3.472
  340.750  100.378  166.369    0.505    0.238    3.744
  341.000   99.799  166.393    0.496    0.247    3.889
  341.250   97.452  167.395    0.480    0.249    4.273
  341.500   95.105  167.431    0.464    0.258    4.439
  341.750   90.988  167.455    0.454    0.262    4.525
  342.000   85.100  166.501    0.447    0.229    4.790
  342.250   78.621  165.529    0.417    0.201    4.975
  342.500   69.782  165.559    0.391    0.181    5.077
  342.750   68.025  165.577    0.408    0.212    5.079
  343.000   68.634  165.607    0.432    0.231    4.992
  343.250   67.468  166.615    0.438    0.257    4.905
  343.500   65.711  167.617    0.426    0.268    4.735
  343.750   66.906  168.624    0.412    0.273    4.652
  344.000   68.101  169.632    0.411    0.283    4.656
  344.250   70.473  170.640    0.418    0.273    4.577
  344.500   79.348  171.654    0.427    0.262    4.416
  344.750   84.671  172.661    0.440    0.251    4.105
  345.000   88.817  173.669    0.434    0.246    3.745
  345.250   90.606  174.683    0.435    0.239    3.680
  345.500   87.666  174.701    0.438    0.234    4.043
  345.750   81.778  174.725    0.437    0.228    4.278
  346.000   75.299  175.738    0.430    0.227    4.529
  346.250   77.084  175.756    0.428    0.228    4.452
  346.500   81.230  176.770    0.427    0.218    4.375
  346.750   80.654  176.794    0.424    0.207    4.297
  347.000   80.672  176.824    0.416    0.212    4.145
  347.250   84.225  175.852    0.400    0.216    3.927
  347.500   88.374  174.893    0.406    0.218    3.787
  347.750   90.750  172.949    0.425    0.217    3.522
  348.000   93.125  170.022    0.439    0.217    3.460
  348.250   93.726  167.100    0.447    0.217    3.337
  348.500   94.925  164.173    0.461    0.218    3.222
  348.750   97.300  162.229    0.471    0.217    3.165
  349.000  102.631  161.270    0.489    0.215    3.053
  349.250  105.002  161.300    0.492    0.217    3.001
  349.500  106.201  161.318    0.485    0.221    2.948
  349.750  103.851  161.348    0.479    0.224    2.845
  350.000   99.143  162.349    0.475    0.231    2.796
  350.250   95.619  162.373    0.480    0.234    2.748
  350.500   93.863  163.381    0.495    0.234    2.700
  350.750   92.697  164.389    0.503    0.236    2.654
  351.000   92.121  164.407    0.502    0.237    2.608
  351.250   92.135  166.404    0.502    0.240    2.563
  351.500   93.921  167.406    0.506    0.243    2.519
  351.750   96.299  169.403    0.511    0.248    2.521
  352.000   96.314  169.427    0.510    0.253    2.477
  352.250   95.141  170.435    0.512    0.255    2.434
  352.500   93.974  170.459    0.524    0.255    2.349
  352.750   95.169  170.483    0.540    0.255    2.224
  353.000   97.548  171.491    0.547    0.259    2.107
  353.250   98.740  172.516    0.531    0.264    2.108
  353.500   99.344  172.534    0.524    0.269    2.112
  353.750   97.588  172.546    0.529    0.253    2.113
  354.000   95.832  172.576    0.521    0.242    2.115
  354.250   94.079  172.600    0.515    0.231    2.118
  354.500   95.864  173.602    0.511    0.221    2.044
  354.750  100.010  173.632    0.524    0.206    2.046
  355.000  101.208  173.656    0.532    0.208    2.011
  355.250   96.497  173.680    0.520    0.238    2.012
  355.500   92.970  173.704    0.509    0.251    1.978
  355.750   95.939  173.734    0.497    0.262    1.980
  356.000   95.950  173.746    0.508    0.268    1.947
  356.250   91.833  173.776    0.530    0.261    1.913
