~VERSION INFORMATION
 VERS.                 2.0:   CWLS LOG ASCII STANDARD -VERSION 2.0
 WRAP.                  NO:   ONE LINE PER DEPTH STEP
~WELL INFORMATION BLOCK
#MNEM.UNIT           DATA                    DESCRIPTION OF MNEMONIC
#---------    -------------------            -------------------------------
# Generated from Intellog Unique Number	CW_76_78/WELL/2812
WELL.         PAN AM UNO-TEX A-1 ROCK 10-35  : Well_name    - WELL
LOC .         00/10-35-076-23W4/0            : Location     - LOCATION
UWI .         00/10-35-076-23W4/0            : Uwi          - UNIQUE WELL ID
ENTR.         JJ                             : Entered      - ENTERED BY
SRVC.         SCHLUMBERGER                   : Scn          - SERVICE COMPANY
DATE.         26 JAN 1966                    : Date         - LOG DATE
STRT.M        725.424                        : top_depth    - START DEPTH
STOP.M        853.424                        : bot_depth    - STOP DEPTH
STEP.M        0.25                           : increment    - STEP LENGTH
 NULL. -999.2500:NULL Value
~CURVE INFORMATION BLOCK
#MNEM UNIT       ERCB CURVE CODE    CURVE DESCRIPTION
#-----------   ------------------   ----------------------------------
DEPT.M        00 001 00 00         : DEPTH        - DEPTH
DELT.US/F     00 520 00 00         : DELT         - SONIC TRAVEL TIME
GR  .API      00 310 00 00         : GR           - GAMMA RAY
CALI.MM       00 280 01 00         : CAL          - CALIPER
ILD .OHMM     00 120 00 00         : RESD         - DEEP RESISTIVITY (DIL)
~PARAMETER INFORMATION
#MNEM.UNIT           DATA             DESCRIPTION OF MNEMONIC
#---------         -----------     ------------------------------
GL  .M        901.355              : gl           - GROUND LEVEL ELEVATION
EREF.M        904.646              : kb           - ELEVATION OF DEPTH REFERENCE
DATM.M        904.646              : datum        - DATUM ELEVATION
TDD .M        857.098              : tdd          - TOTAL DEPTH DRILLER
RUN .         TWO                  : Run          - RUN NUMBER
ENG .         BLACKBURN            : Engineer     - RECORDING ENGINEER
WIT .         SANDERSON            : Witness      - WITNESSED BY
BASE.         EDMONTON             : Branch       - HOME BASE OF LOGGING UNIT
MUD .         GEL-CHEM             : Mud_type     - MUD TYPE
MATR.         SANDSTONE            : Logunit      - NEUTRON MATRIX
TMAX.C        27.7778              : BHT          - MAXIMUM RECORDED TEMPERATURE
BHTD.M        856.793              : BHTDEP       - MAXIMUM RECORDED TEMPERATURE
RMT .C        16.6667              : MDTP         - TEMPERATURE OF MUD
MUDD.KG/M     1116                 : MWT          - MUD DENSITY
NEUT.         1                    : NEUTRON      - NEUTRON TYPE
RESI.         0                    : RESIST       - RESISTIVITY TYPE
RM  .OHMM     5                    : RM           - RESISTIVITY OF MUD
RMC .OHMM     2.97                 : RMC          - RESISTIVITY OF MUD CAKE
RMF .OHMM     5.44                 : RMF          - RESISTIVITY OF MUD FILTRATE
SUFT.C        5                    : SUFT         - SURFACE TEMPERATURE
~A  DEPTH     DELT       GR      CAL     RESD
# ...
  812.424  321.237   91.210  222.276    5.879
  812.674  357.466  100.399  221.512    5.462
  812.924  363.124  105.338  218.424    5.315
  813.174  368.921   92.427  214.062    5.185
  813.424  355.836   69.069  210.862    5.181
  813.674  349.872   52.608  209.143    5.240
  813.924  345.795   45.650  209.018    5.398
  814.174  343.324   41.888  208.996    5.518
  814.424  340.383   41.477  208.868    5.617
  814.674  337.107   44.616  208.528    5.695
  814.924  332.557   49.005  208.399    5.732
  815.174  328.744   57.194  207.633    5.872
  815.424  329.838   61.334  206.449    6.136
  815.674  333.748   60.022  202.931    7.471
  815.924  340.686   56.112  199.419    9.425
  816.174  267.003   50.252  202.571   11.605
  816.424  197.487   46.292  217.683   16.444
  816.674  183.798   44.280  213.531   22.065
  816.924  199.870   43.770  212.770   28.841
  817.174  211.644   43.760  217.507   28.094
  817.424  219.386   39.499  221.082   25.123
  817.674  209.192   32.789  223.389   21.285
  817.924  221.706   30.078  218.390   17.633
  818.174  237.174   34.416  209.269   15.527
  818.424  266.549   39.507  201.413   16.098
  818.674  290.483   48.594  206.578   16.630
  818.924  226.541   46.585  215.128   16.378
  819.174  208.150   38.424  220.923   15.179
  819.424  210.251   32.413  221.108   13.917
  819.674  241.371   34.053  216.538   13.047
  819.924  322.546   44.141  211.330   12.033
  820.174  324.578   52.980  209.827   11.410
  820.424  275.954   55.968  210.225   11.797
  820.674  264.751   57.306  210.520   10.741
  820.924  303.667   58.948  209.758    9.459
  821.174  310.200   65.687  208.995    8.177
  821.424  314.852   68.024  208.759    7.164
  821.674  321.319   69.965  208.845    6.252
  821.924  341.020   74.954  212.633    5.630
  822.174  365.290   85.993  222.027    5.398
  822.424  382.974   97.631  224.439    5.661
  822.674  400.191  105.819  225.051    6.047
  822.924  414.786   97.409  224.603    6.291
  823.174  360.722   94.498  223.523    6.554
  823.424  349.857   89.888  217.998    6.715
  823.674  345.370   76.427  210.885    6.772
  823.924  338.535   71.168  207.687    6.768
  824.174  335.661   73.956  207.666    6.826
  824.424  340.045   82.697  209.863    7.069
  824.674  335.963   82.686  212.906    7.353
  824.924  337.527   83.924  215.111    7.410
  825.174  357.226   91.963  219.428    7.097
  825.424  379.481  100.701  229.458    6.309
  825.674  399.719  100.342  236.207    5.460
  825.924  341.288   85.132  216.925    4.467
  826.174  329.144   68.372  199.017    3.802
  826.424  335.744   51.412  191.482    3.489
  826.674  351.750   45.152  186.591    3.176
  826.924  341.625   38.490  185.827    2.903
  827.174  334.451   36.481  192.472    2.692
  827.424  331.714   40.270  199.116    2.585
  827.674  333.344   38.860  199.727    2.518
  827.924  334.905   36.399  195.897    2.514
  828.174  329.816   34.887  204.339    2.427
  828.424  324.327   35.226  208.336    2.359
  828.674  322.127   36.716  210.538    2.397
  828.924  320.932   38.255  211.677    2.412
  829.174  321.821   40.794  212.074    2.429
  829.424  324.056   43.333  211.631    2.529
  829.674  324.074   45.373  210.760    2.648
  829.924  319.523   48.113  210.106    2.830
  830.174  314.970   54.551  209.661    3.072
  830.424  310.550   58.041  209.639    3.604
  830.674  303.044   50.678  209.719    4.237
  830.924  296.543   47.318  210.751    4.378
  831.174  286.818   48.009  211.895    4.291
  831.424  304.906   52.048  212.298    4.184
  831.674  315.874   58.787  212.275    3.849
  831.924  317.570   54.577  210.242    3.618
  832.174  314.436   35.217  207.360    3.490
  832.424  313.505   23.556  206.494    3.382
  832.674  317.959   24.945  202.131    3.337
  832.924  322.409   29.985  197.876    3.250
  833.174  326.725   34.873  194.678    3.163
  833.424  330.773   38.211  195.079    3.158
  833.674  335.021   39.452  199.290    3.174
  833.924  340.950   40.041  206.146    3.210
  834.174  345.937   41.980  210.566    3.289
  834.424  339.304   44.020  211.283    3.289
  834.674  332.806   46.508  211.156    3.857
  834.924  324.490   52.597  213.881    4.019
  835.174  323.029  117.132  219.578    4.281
  835.424  332.922  120.672  224.952    4.607
  835.674  349.330   99.312  224.505    4.953
  835.924  361.507   69.503  219.402    5.093
  836.174  358.836   53.494  212.397    4.347
  836.424  348.911   44.983  208.137    3.682
  836.674  342.075   35.974  207.267    3.533
  836.924  335.037   27.212  206.931    3.548
  837.174  338.212   36.402  207.011    3.752
  837.424  345.214   53.690  207.835    4.118
  837.674  346.306   60.079  208.977    4.567
  837.924  336.178   70.668  214.880    4.892
  838.174  318.794   89.106  223.961    5.177
  838.424  313.639   72.846  213.250    5.337
  838.674  325.885   59.886  202.646    5.229
  838.924  334.566   53.626  198.071    4.978
  839.174  341.972   63.315  193.392    4.063
  839.424  347.031   51.904  194.111    3.959
  839.674  352.219   41.743  203.080    3.605
  839.924  342.493   37.384  205.808    3.250
  840.174  340.293   35.474  206.741    2.997
  840.424  342.124   30.262  206.927    2.827
  840.674  337.979   27.003  206.899    2.804
  840.924  333.692   25.042  206.885    2.820
  841.174  324.035   24.881  208.126    2.733
  841.424  329.291   26.868  209.059    2.832
  841.674  340.127   29.609  210.098    2.972
  841.924  344.776   33.647  211.450    3.215
  842.174  345.400   39.237  218.411    3.683
  842.424  338.092   60.975  224.105    4.091
  842.674  330.853  131.760  220.696    4.623
  842.924  330.466  124.949  216.435    4.948
  843.174  349.966  114.990  221.493    5.088
  843.424  377.528   99.378  224.541    5.084
  843.674  361.823   89.370  224.943    5.017
  843.924  340.477   81.359  221.853    4.992
  844.174  324.571   83.546  220.136    4.947
  844.424  352.336   88.086  220.746    4.942
  844.674  369.952   92.727  222.629    4.979
  844.924  330.533  100.766  216.045    5.078
  845.174  295.347  104.853  212.425    5.238
  845.424  290.798   99.044  214.837    5.563
  845.674  299.213   91.733  209.735    5.827
  845.924  299.631   98.173  216.167    6.070
  846.174  283.589  104.412  220.801    6.189
  846.424  285.692  100.748  221.619    6.185
  846.674  311.100   95.290  221.602    6.015
  846.924  314.612   71.931  221.155    5.929
  847.174  300.454   64.569  220.707    5.697
  847.424  305.778   64.308  220.580    5.611
  847.674  306.533   65.099  220.665    5.441
  847.924  302.317   66.439  220.324    5.438
  848.174  293.534   61.526  219.770    5.515
  848.424  282.128   55.118  219.324    6.271
  848.674  260.780   47.008  219.091    6.722
  848.924  263.418   35.047  219.066    7.336
  849.174  275.931   31.988  219.361    7.971
  849.424  274.805   32.426  219.548    8.646
  849.674  259.839   33.764  219.954    9.199
  849.924  251.527   36.054  220.779   10.224
  850.174  238.509   39.091  221.071   11.333
  850.424  230.127   42.833  220.095   12.709
  850.674  216.237   47.970  218.382   11.757
  850.924  218.202   52.810  213.068    9.197
  851.174  230.716   54.999  206.059    7.317
  851.424  266.205   53.690  203.814    5.849
  851.674  289.063   47.028  203.684    4.340
  851.924  310.914   43.318  206.201    3.429
  852.174  325.577   40.408  208.722    2.972
  852.424  334.461   38.098  209.544    2.658
  852.674  332.329   37.187  208.780    2.549
  852.924  318.506   40.026  207.276    2.545
  853.174  319.331   46.915  205.452    2.645
  853.424  326.199   55.102  202.575    2.722
