~VERSION INFORMATION
 VERS.                 2.0:   CWLS LOG ASCII STANDARD -VERSION 2.0
 WRAP.                  NO:   ONE LINE PER DEPTH STEP
~WELL INFORMATION BLOCK
#MNEM.UNIT           DATA                    DESCRIPTION OF MNEMONIC
#---------    -------------------            -------------------------------
# Generated from Intellog Unique Number	CS_71_72/WELL/888
WELL.         MAYNARD ET AL TWEEDIE          : Well_name    - WELL
LOC .         00/11-06-072-12W4/0            : Location     - LOCATION
UWI .         00/11-06-072-12W4/0            : Uwi          - UNIQUE WELL ID
ENTR.         SP                             : Entered      - ENTERED BY
SRVC.         SCHLUMBERGER                   : Scn          - SERVICE COMPANY
STRT.M        290                            : top_depth    - START DEPTH
STOP.M        525                            : bot_depth    - STOP DEPTH
STEP.M        0.25                           : increment    - STEP LENGTH
 NULL. -999.2500:NULL Value
~CURVE INFORMATION BLOCK
#MNEM UNIT       ERCB CURVE CODE    CURVE DESCRIPTION
#-----------   ------------------   ----------------------------------
DEPT.M        00 001 00 00         : DEPTH        - DEPTH
ILD .OHMM     00 120 00 00         : RESD         - DEEP RESISTIVITY (DIL)
DPHI.V/V      00 890 00 00         : PHID         - DENSITY POROSITY (LIMESTONE)
NPHI.V/V      00 330 00 00         : PHIN         - NEUTRON POROSITY (LIMESTONE)
GR  .API      00 310 00 00         : GR           - GAMMA RAY
~PARAMETER INFORMATION
#MNEM.UNIT           DATA             DESCRIPTION OF MNEMONIC
#---------         -----------     ------------------------------
GL  .M        620.85               : gl           - GROUND LEVEL ELEVATION
EREF.M        624.2                : kb           - ELEVATION OF DEPTH REFERENCE
DATM.M        620.85               : datum        - DATUM ELEVATION
TDD .M        540                  : tdd          - TOTAL DEPTH DRILLER
RUN .         ONE                  : Run          - RUN NUMBER
ENG .         BILL                 : Engineer     - RECORDING ENGINEER
WIT .         JIM                  : Witness      - WITNESSED BY
MUD .         GEL                  : Mud_type     - MUD TYPE
MATR.         LIMESTONE            : Logunit      - NEUTRON MATRIX
TMAX.C        20                   : BHT          - MAXIMUM RECORDED TEMPERATURE
BHTD.M        540                  : BHTDEP       - MAXIMUM RECORDED TEMPERATURE
MATR.         1                    : LOGUNIT      - NEUTRON MATRIX
RMT .C        25                   : MDTP         - TEMPERATURE OF MUD
NEUT.         1                    : NEUTRON      - NEUTRON TYPE
RESI.         0                    : RESIST       - RESISTIVITY TYPE
RMC .OHMM     0.25                 : RMC          - RESISTIVITY OF MUD CAKE
RMF .OHMM     0.25                 : RMF          - RESISTIVITY OF MUD FILTRATE
SUFT.C        15                   : SUFT         - SURFACE TEMPERATURE
~A  DEPTH     RESD     PHID     PHIN       GR
# ...
  333.500    5.521    0.262    0.474  120.561
  333.750    5.442    0.254    0.475  114.500
  334.000    5.444    0.248    0.460  109.047
  334.250    5.608    0.249    0.457  107.237
  334.500    5.773    0.254    0.459  109.683
  334.750    6.018    0.255    0.470  107.263
  335.000    6.508    0.262    0.459   98.773
  335.250    6.753    0.269    0.450   90.287
  335.500    6.998    0.283    0.454   86.043
  335.750    7.243    0.301    0.456   81.198
  336.000    7.488    0.332    0.452   82.423
  336.250    7.734    0.344    0.444   83.650
  336.500    7.817    0.334    0.439   80.627
  336.750    7.900    0.330    0.432   84.890
  337.000    7.983    0.328    0.442   89.156
  337.250    7.824    0.325    0.454   91.596
  337.500    7.179    0.321    0.461   92.824
  337.750    6.857    0.311    0.479   97.701
  338.000    6.455    0.293    0.497  100.141
  338.250    6.295    0.276    0.506  101.365
  338.500    6.136    0.255    0.512  102.589
  338.750    6.057    0.245    0.508   98.956
  339.000    5.979    0.241    0.504  100.183
  339.250    5.980    0.235    0.509  102.627
  339.500    5.984    0.229    0.504  103.246
  339.750    6.066    0.228    0.503  105.079
  340.000    6.150    0.217    0.503  107.527
  340.250    6.233    0.212    0.496  109.358
  340.500    6.317    0.221    0.490  110.581
  340.750    6.481    0.236    0.478  103.912
  341.000    6.728    0.251    0.474  103.323
  341.250    6.811    0.258    0.470  104.550
  341.500    6.894    0.258    0.470  105.168
  341.750    6.895    0.259    0.470  106.391
  342.000    6.898    0.270    0.473  109.444
  342.250    6.657    0.270    0.479  108.845
  342.500    6.498    0.257    0.486  106.428
  342.750    6.663    0.253    0.492  102.190
  343.000    7.070    0.255    0.492   96.130
  343.250    7.315    0.262    0.482   93.105
  343.500    7.641    0.269    0.470   94.940
  343.750    7.968    0.275    0.459   99.813
  344.000    8.213    0.272    0.464  101.643
  344.250    8.540    0.262    0.466   96.192
  344.500    8.541    0.255    0.451   95.599
  344.750    8.463    0.251    0.445   96.213
  345.000    8.303    0.253    0.439   96.226
  345.250    8.144    0.249    0.441   95.631
  345.500    8.065    0.243    0.451   98.074
  345.750    8.230    0.242    0.459   98.085
  346.000    8.395    0.255    0.447   91.416
  346.250    8.478    0.255    0.442   95.079
  346.500    8.560    0.253    0.438   97.518
  346.750    8.727    0.248    0.432   99.959
  347.000    8.728    0.244    0.431  101.186
  347.250    8.730    0.246    0.431  102.416
  347.500    8.651    0.249    0.442  102.426
  347.750    8.492    0.258    0.453  102.435
  348.000    8.413    0.257    0.462  102.446
  348.250    8.254    0.256    0.454  102.460
  348.500    8.094    0.257    0.444  103.081
  348.750    7.935    0.264    0.447  100.663
  349.000    7.937    0.272    0.449   92.170
  349.250    7.939    0.288    0.448   84.900
  349.500    8.105    0.297    0.438   82.478
  349.750    8.187    0.298    0.428   78.243
  350.000    8.353    0.292    0.421   77.646
  350.250    8.436    0.282    0.416   78.872
  350.500    8.357    0.276    0.427   83.141
  350.750    7.792    0.273    0.451   86.185
  351.000    6.742    0.270    0.465   94.093
  351.250    6.339    0.269    0.474  100.784
  351.500    6.342    0.276    0.473   92.902
  351.750    6.425    0.298    0.462   84.412
  352.000    6.832    0.322    0.449   80.171
  352.250    7.563    0.329    0.444   77.756
  352.500    8.375    0.328    0.445   76.555
  352.750    8.945    0.326    0.447   76.570
  353.000    9.272    0.319    0.451   79.011
  353.250    9.354    0.321    0.456   80.233
  353.500    9.276    0.322    0.458   82.677
  353.750    8.956    0.322    0.458   82.689
  354.000    8.795    0.319    0.459   83.307
  354.250    8.636    0.323    0.459   85.150
  354.500    8.557    0.323    0.461   86.378
  354.750    8.399    0.320    0.467   86.998
  355.000    8.320    0.310    0.473   88.222
  355.250    8.241    0.300    0.465   88.230
  355.500    8.162    0.293    0.452   85.202
  355.750    8.165    0.287    0.468   80.963
  356.000    8.005    0.279    0.466   85.226
  356.250    7.765    0.272    0.463   94.350
  356.500    7.685    0.256    0.457  101.656
  356.750    7.446    0.261    0.449  103.484
  357.000    7.286    0.263    0.445  105.318
  357.250    7.126    0.266    0.449  104.116
  357.500    7.047    0.267    0.452  102.913
  357.750    6.969    0.262    0.457   98.675
  358.000    6.971    0.254    0.458   98.080
  358.250    6.974    0.267    0.458   92.625
  358.500    7.057    0.271    0.455   82.920
  358.750    7.383    0.275    0.437   74.433
  359.000    7.954    0.290    0.423   68.977
  359.250    8.279    0.307    0.409   61.098
  359.500    8.524    0.330    0.406   58.679
  359.750    9.013    0.327    0.406   58.698
  360.000    9.177    0.319    0.407   58.708
  360.250    9.340    0.316    0.408   59.325
  360.500    9.505    0.331    0.409   59.942
  360.750    9.671    0.340    0.409   59.960
  361.000    9.673    0.342    0.412   60.575
  361.250    9.756    0.340    0.418   61.193
  361.500    9.758    0.339    0.426   61.210
  361.750    9.841    0.349    0.432   61.221
  362.000    9.926    0.349    0.438   61.839
  362.250   10.009    0.353    0.434   63.068
  362.500   10.092    0.351    0.422   63.684
  362.750   10.094    0.339    0.419   60.053
  363.000   10.177    0.322    0.414   58.848
  363.250   10.099    0.323    0.410   60.078
  363.500   10.101    0.329    0.409   63.738
  363.750    9.942    0.333    0.411   64.962
  364.000    9.782    0.336    0.414   66.187
  364.250    9.703    0.334    0.418   66.806
  364.500    9.383    0.329    0.422   67.427
  364.750    9.223    0.335    0.426   68.656
  365.000    9.145    0.335    0.430   68.666
  365.250    8.985    0.336    0.433   69.289
  365.500    8.905    0.336    0.436   69.906
  365.750    8.747    0.340    0.438   69.916
  366.000    8.749    0.346    0.439   68.108
  366.250    8.752    0.351    0.440   66.906
  366.500    8.753    0.343    0.439   66.918
  366.750    8.919    0.332    0.436   66.320
  367.000    8.922    0.329    0.438   65.120
  367.250    9.005    0.334    0.444   64.526
  367.500    9.007    0.335    0.448   66.964
  367.750    9.089    0.332    0.447   71.236
  368.000    9.091    0.330    0.445   73.678
  368.250    9.175    0.328    0.451   75.512
  368.500    9.260    0.329    0.454   75.516
  368.750    9.262    0.331    0.452   67.636
  369.000    9.264    0.327    0.451   65.825
  369.250    9.185    0.327    0.451   65.838
  369.500    9.106    0.333    0.452   67.679
  369.750    9.027    0.339    0.453   69.513
  370.000    8.949    0.345    0.447   70.741
  370.250    8.871    0.347    0.440   70.749
  370.500    8.793    0.348    0.435   70.150
  370.750    8.795    0.345    0.432   69.555
  371.000    8.878    0.343    0.425   69.567
  371.250    8.963    0.339    0.419   70.797
  371.500    8.965    0.336    0.417   70.808
  371.750    9.048    0.330    0.415   71.430
  372.000    9.131    0.322    0.420   71.437
  372.250    9.215    0.317    0.432   71.452
  372.500    9.217    0.315    0.437   71.464
  372.750    9.219    0.315    0.431   70.869
  373.000    9.222    0.315    0.425   69.664
  373.250    9.143    0.320    0.422   68.465
  373.500    9.065    0.323    0.428   68.479
  373.750    9.067    0.326    0.433   70.921
  374.000    8.988    0.331    0.436   72.143
  374.250    8.909    0.338    0.442   74.591
  374.500    8.831    0.343    0.444   75.817
  374.750    8.751    0.337    0.440   76.432
  375.000    8.755    0.329    0.437   76.443
  375.250    8.758    0.324    0.443   74.633
  375.500    8.840    0.322    0.446   71.007
  375.750    8.843    0.322    0.446   70.405
  376.000    8.764    0.326    0.443   74.067
  376.250    8.604    0.318    0.441   76.507
  376.500    8.444    0.309    0.443   77.730
  376.750    8.285    0.301    0.447   79.570
