~VERSION INFORMATION
 VERS.                 2.0:   CWLS LOG ASCII STANDARD -VERSION 2.0
 WRAP.                  NO:   ONE LINE PER DEPTH STEP
~WELL INFORMATION BLOCK
#MNEM.UNIT           DATA                    DESCRIPTION OF MNEMONIC
#---------    -------------------            -------------------------------
# Generated from Intellog Unique Number	CS_77_79/WELL/952
WELL.         PARAMOUNT RESOURCES LTD.       : Well_name    - WELL
LOC .         00/10-14-077-10W4/0            : Location     - LOCATION
UWI .         00/10-14-077-10W4/0            : Uwi          - UNIQUE WELL ID
ENTR.         SP                             : Entered      - ENTERED BY
SRVC.         SCHLUMBERGER                   : Scn          - SERVICE COMPANY
STRT.M        210.25                         : top_depth    - START DEPTH
STOP.M        440                            : bot_depth    - STOP DEPTH
STEP.M        0.25                           : increment    - STEP LENGTH
 NULL. -999.2500:NULL Value
~CURVE INFORMATION BLOCK
#MNEM UNIT       ERCB CURVE CODE    CURVE DESCRIPTION
#-----------   ------------------   ----------------------------------
DEPT.M        00 001 00 00         : DEPTH        - DEPTH
ILD .OHMM     00 120 00 00         : RESD         - DEEP RESISTIVITY (DIL)
DPHI.V/V      00 890 00 00         : PHID         - DENSITY POROSITY (LIMESTONE)
NPHI.V/V      00 330 00 00         : PHIN         - NEUTRON POROSITY (LIMESTONE)
GR  .API      00 310 00 00         : GR           - GAMMA RAY
~PARAMETER INFORMATION
#MNEM.UNIT           DATA             DESCRIPTION OF MNEMONIC
#---------         -----------     ------------------------------
GL  .M        632                  : gl           - GROUND LEVEL ELEVATION
EREF.M        635                  : kb           - ELEVATION OF DEPTH REFERENCE
DATM.M        632                  : datum        - DATUM ELEVATION
TDD .M        470                  : tdd          - TOTAL DEPTH DRILLER
RUN .         ONE                  : Run          - RUN NUMBER
ENG .         BILL                 : Engineer     - RECORDING ENGINEER
WIT .         JIM                  : Witness      - WITNESSED BY
MUD .         GEL                  : Mud_type     - MUD TYPE
MATR.         LIMESTONE            : Logunit      - NEUTRON MATRIX
TMAX.C        22                   : BHT          - MAXIMUM RECORDED TEMPERATURE
BHTD.M        470                  : BHTDEP       - MAXIMUM RECORDED TEMPERATURE
MATR.         1                    : LOGUNIT      - NEUTRON MATRIX
RMT .C        25                   : MDTP         - TEMPERATURE OF MUD
NEUT.         1                    : NEUTRON      - NEUTRON TYPE
RESI.         0                    : RESIST       - RESISTIVITY TYPE
RMC .OHMM     0.25                 : RMC          - RESISTIVITY OF MUD CAKE
RMF .OHMM     0.25                 : RMF          - RESISTIVITY OF MUD FILTRATE
SUFT.C        15                   : SUFT         - SURFACE TEMPERATURE
~A  DEPTH     RESD     PHID     PHIN       GR
# ...
  297.250   21.279    0.334    0.396   38.592
  297.500   21.279    0.331    0.397   39.206
  297.750   21.280    0.332    0.407   47.748
  298.000   21.280    0.322    0.402   50.190
  298.250   21.080    0.311    0.381   53.244
  298.500   20.679    0.315    0.377   56.297
  298.750   18.471    0.311    0.389   59.959
  299.000   16.865    0.281    0.392   60.574
  299.250   15.661    0.206    0.345   59.357
  299.500   15.862    0.000    0.116   52.653
  299.750   16.063    0.000    0.174   40.462
  300.000   16.265    0.092    0.257   38.637
  300.250   19.880    0.166    0.345   50.227
  300.500   22.089    0.340    0.387   58.157
  300.750   22.491    0.335    0.407   58.772
  301.000   20.685    0.343    0.406   52.068
  301.250   20.284    0.333    0.421   49.633
  301.500   20.284    0.317    0.420   50.246
  301.750   20.486    0.329    0.407   49.031
  302.000   20.486    0.350    0.384   56.353
  302.250   20.286    0.338    0.415   62.455
  302.500   19.885    0.318    0.426   66.726
  302.750   19.886    0.312    0.414   58.193
  303.000   19.886    0.313    0.406   51.490
  303.250   19.887    0.336    0.386   48.446
  303.500   20.289    0.342    0.384   49.059
  303.750   20.892    0.340    0.430   52.722
  304.000   20.491    0.327    0.317   49.677
  304.250   18.081    0.079    0.242   52.120
  304.500   16.877    0.142    0.242   59.442
  304.750   15.271    0.212    0.324   64.324
  305.000   14.469    0.289    0.373   67.377
  305.250   12.662    0.296    0.387   62.502
  305.500   12.060    0.288    0.404   58.847
  305.750   11.659    0.277    0.419   55.802
  306.000   11.459    0.295    0.430   55.197
  306.250   11.259    0.304    0.448   55.811
  306.500   11.058    0.299    0.443   57.034
  306.750   11.059    0.296    0.431   58.868
  307.000   10.256    0.288    0.421   63.752
  307.250    8.249    0.283    0.410   66.193
  307.500    6.844    0.272    0.427   69.246
  307.750    5.840    0.266    0.477   70.469
  308.000    4.837    0.261    0.497   79.010
  308.250    4.235    0.250    0.473   81.454
  308.500    4.035    0.240    0.461   77.190
  308.750    3.834    0.238    0.455   69.875
  309.000    3.634    0.243    0.464   75.978
  309.250    3.635    0.247    0.495   84.518
  309.500    3.836    0.249    0.497   86.351
  309.750    4.037    0.248    0.482   82.697
  310.000    4.440    0.253    0.473   83.922
  310.250    4.641    0.262    0.468   81.485
  310.500    5.445    0.273    0.520   79.660
  310.750    6.248    0.270    0.516   82.712
  311.000    7.052    0.266    0.408   75.399
  311.250    7.053    0.294    0.394   69.305
  311.500    6.852    0.303    0.393   69.309
  311.750    6.251    0.291    0.392   82.119
  312.000    6.051    0.253    0.419   85.172
  312.250    6.051    0.232    0.454   80.909
  312.500    6.052    0.227    0.452   76.643
  312.750    6.052    0.220    0.432   75.427
  313.000    6.053    0.215    0.421   72.383
  313.250    6.053    0.211    0.379   77.264
  313.500    6.054    0.225    0.388   76.660
  313.750    5.854    0.232    0.399   81.542
  314.000    5.252    0.235    0.426   87.034
  314.250    4.851    0.246    0.434   85.817
  314.500    4.851    0.256    0.435   77.285
  314.750    4.651    0.262    0.462   80.339
  315.000    4.451    0.265    0.485   87.659
  315.250    4.451    0.274    0.514   88.272
  315.500    4.452    0.280    0.531   85.230
  315.750    4.653    0.274    0.540   83.404
  316.000    4.854    0.269    0.559   82.797
  316.250    5.056    0.263    0.545   86.460
  316.500    5.458    0.278    0.531   89.514
  316.750    5.860    0.297    0.511   91.956
  317.000    6.865    0.294    0.500   83.423
  317.250    8.070    0.261    0.384   76.109
  317.500    8.874    0.243    0.403   68.796
  317.750    9.276    0.261    0.393   66.361
  318.000    9.277    0.250    0.384   70.024
  318.250    9.277    0.247    0.406   68.198
  318.500    9.479    0.255    0.411   66.984
  318.750    9.279    0.254    0.406   69.425
  319.000    9.279    0.240    0.412   76.747
  319.250    9.280    0.233    0.401   74.312
  319.500    9.280    0.263    0.398   68.219
  319.750    9.281    0.290    0.409   57.856
  320.000    9.281    0.284    0.406   67.617
  320.250    9.282    0.273    0.405   72.499
  320.500    9.483    0.279    0.404   74.332
  320.750    9.483    0.250    0.400   77.385
  321.000    9.484    0.256    0.390   76.169
  321.250    9.485    0.293    0.388   72.516
  321.500    9.485    0.319    0.392   74.348
  321.750    9.486    0.245    0.394   70.693
  322.000    9.286    0.256    0.387   72.528
  322.250    9.085    0.258    0.378   78.019
  322.500    9.086    0.262    0.387   79.853
  322.750    9.086    0.270    0.386   77.416
  323.000    8.886    0.262    0.370   73.153
  323.250    8.887    0.251    0.377   70.717
  323.500    8.687    0.246    0.393   70.722
  323.750    8.486    0.240    0.396   73.166
  324.000    8.085    0.255    0.381   73.779
  324.250    7.885    0.267    0.387   73.782
  324.500    7.685    0.247    0.382   72.567
  324.750    7.485    0.233    0.393   71.960
  325.000    7.485    0.230    0.424   72.576
  325.250    7.285    0.230    0.428   74.408
  325.500    7.286    0.228    0.427   77.462
  325.750    7.286    0.221    0.379   78.075
  326.000    7.086    0.218    0.377   77.468
  326.250    7.086    0.216    0.393   78.083
  326.500    7.087    0.214    0.428   80.526
  326.750    6.886    0.213    0.411   81.749
  327.000    6.686    0.214    0.384   85.413
  327.250    6.285    0.225    0.402   85.415
  327.500    5.683    0.235    0.401   77.493
  327.750    4.880    0.236    0.435   74.448
  328.000    4.078    0.267    0.462   86.038
  328.250    3.878    0.279    0.486   88.482
  328.500    3.677    0.274    0.536   84.827
  328.750    3.678    0.274    0.560   82.391
  329.000    3.679    0.277    0.547   82.395
  329.250    3.679    0.279    0.591   79.960
  329.500    3.880    0.282    0.597   78.134
  329.750    4.082    0.299    0.574   81.798
  330.000    4.685    0.293    0.542   78.143
  330.250    5.689    0.283    0.504   69.610
  330.500    6.895    0.280    0.394   65.345
  330.750    8.100    0.282    0.356   68.399
  331.000    9.105    0.280    0.340   74.501
  331.250    9.507    0.311    0.353   75.113
  331.500    9.307    0.333    0.334   72.068
  331.750    9.307    0.249    0.288   55.610
  332.000    9.107    0.257    0.283   54.393
  332.250    9.107    0.288    0.316   66.593
  332.500    8.907    0.314    0.333   70.865
  332.750    8.707    0.306    0.312   56.235
  333.000    8.507    0.294    0.379   56.239
  333.250    8.507    0.282    0.378   56.852
  333.500    8.508    0.304    0.379   49.538
  333.750    8.508    0.325    0.369   44.665
  334.000    8.309    0.334    0.358   44.668
  334.250    8.108    0.350    0.385   42.844
  334.500    8.309    0.357    0.395   38.579
  334.750    8.310    0.352    0.397   45.291
  335.000    8.310    0.341    0.386   50.783
  335.250    8.311    0.339    0.379   50.787
  335.500    8.312    0.343    0.372   52.620
  335.750    8.312    0.352    0.367   51.404
  336.000    8.112    0.341    0.364   45.310
  336.250    8.112    0.337    0.379   47.756
  336.500    7.912    0.339    0.391   48.978
  336.750    7.913    0.343    0.391   48.373
  337.000    8.114    0.343    0.386   47.766
  337.250    8.115    0.343    0.381   51.430
  337.500    8.115    0.341    0.370   52.652
  337.750    8.116    0.343    0.375   53.265
  338.000    8.317    0.338    0.402   50.832
  338.250    8.518    0.330    0.410   52.056
  338.500    8.519    0.337    0.404   53.280
  338.750    8.720    0.334    0.397   53.893
  339.000    8.721    0.330    0.390   53.286
  339.250    8.722    0.326    0.379   52.680
  339.500    8.722    0.335    0.373   44.147
  339.750    8.723    0.338    0.376   39.884
  340.000    8.723    0.334    0.378   41.716
  340.250    8.523    0.330    0.384   48.428
  340.500    8.523    0.336    0.383   50.870
