~VERSION INFORMATION
 VERS.                 2.0:   CWLS LOG ASCII STANDARD -VERSION 2.0
 WRAP.                  NO:   ONE LINE PER DEPTH STEP
~WELL INFORMATION BLOCK
#MNEM.UNIT           DATA                    DESCRIPTION OF MNEMONIC
#---------    -------------------            -------------------------------
# Generated from Intellog Unique Number	CW_79_81/WELL/222
WELL.         MEGA ET AL MISTAHAE 10-06      : Well_name    - WELL
LOC .         00/10-06-080-01W5/0            : Location     - LOCATION
UWI .         00/10-06-080-01W5/0            : Uwi          - UNIQUE WELL ID
ENTR.         JJ                             : Entered      - ENTERED BY
SRVC.         COMPUTALOG                     : Scn          - SERVICE COMPANY
DATE.         3 MAR 89                       : Date         - LOG DATE
STRT.M        285                            : top_depth    - START DEPTH
STOP.M        535                            : bot_depth    - STOP DEPTH
STEP.M        0.25                           : increment    - STEP LENGTH
 NULL. -999.2500:NULL Value
~CURVE INFORMATION BLOCK
#MNEM UNIT       ERCB CURVE CODE    CURVE DESCRIPTION
#-----------   ------------------   ----------------------------------
DEPT.M        00 001 00 00         : DEPTH        - DEPTH
DPHI.V/V      00 890 00 00         : PHID         - DENSITY POROSITY (SANDSTONE)
NPHI.V/V      00 330 00 00         : PHIN         - NEUTRON POROSITY (SANDSTONE)
GR  .API      00 310 00 00         : GR           - GAMMA RAY
CALI.MM       00 280 01 00         : CAL          - CALIPER
ILD .OHMM     00 120 00 00         : RESD         - DEEP RESISTIVITY (DIL)
~PARAMETER INFORMATION
#MNEM.UNIT           DATA             DESCRIPTION OF MNEMONIC
#---------         -----------     ------------------------------
GL  .M        605                  : gl           - GROUND LEVEL ELEVATION
EREF.M        608.64               : kb           - ELEVATION OF DEPTH REFERENCE
DATM.M        608.64               : datum        - DATUM ELEVATION
TDD .M        555                  : tdd          - TOTAL DEPTH DRILLER
RUN .         ONE                  : Run          - RUN NUMBER
ENG .         GAIR                 : Engineer     - RECORDING ENGINEER
WIT .         STRONG               : Witness      - WITNESSED BY
BASE.         RED DEER             : Branch       - HOME BASE OF LOGGING UNIT
MUD .         GEL CHEM             : Mud_type     - MUD TYPE
MATR.         SANDSTONE            : Logunit      - NEUTRON MATRIX
TMAX.C        37                   : BHT          - MAXIMUM RECORDED TEMPERATURE
BHTD.M        554.9                : BHTDEP       - MAXIMUM RECORDED TEMPERATURE
RMT .C        19                   : MDTP         - TEMPERATURE OF MUD
MUDD.KG/M     1140                 : MWT          - MUD DENSITY
NEUT.         1                    : NEUTRON      - NEUTRON TYPE
RESI.         0                    : RESIST       - RESISTIVITY TYPE
RM  .OHMM     4.1                  : RM           - RESISTIVITY OF MUD
RMC .OHMM     2.8                  : RMC          - RESISTIVITY OF MUD CAKE
RMF .OHMM     4.3                  : RMF          - RESISTIVITY OF MUD FILTRATE
SUFT.C        5                    : SUFT         - SURFACE TEMPERATURE
~A  DEPTH     PHID     PHIN       GR      CAL     RESD
# ...
  467.500    0.098    0.297   72.560  164.645   19.036
  467.750    0.164    0.323   80.295  165.999   16.686
  468.000    0.174    0.361   84.672  166.440   14.627
  468.250    0.170    0.378   89.357  166.584   13.433
  468.500    0.173    0.388   88.770  166.365   12.226
  468.750    0.175    0.386   84.708  165.988   11.786
  469.000    0.169    0.384   85.994  165.314   11.178
  469.250    0.166    0.389   89.083  164.892   10.838
  469.500    0.171    0.394   90.901  164.615   10.528
  469.750    0.169    0.403   89.013  164.367   10.322
  470.000    0.158    0.421   87.751  164.445   10.123
  470.250    0.151    0.419   87.976  166.158    9.943
  470.500    0.140    0.409   86.212  166.624    9.698
  470.750    0.141    0.396   85.183  167.606    9.544
  471.000    0.156    0.384   87.599  167.477    9.323
  471.250    0.162    0.377   89.974  166.093    9.143
  471.500    0.162    0.374   94.295  164.796    8.982
  471.750    0.156    0.387   94.463  163.932    8.742
  472.000    0.139    0.403   90.825  163.386    8.508
  472.250    0.123    0.419   88.702  163.555    8.202
  472.500    0.119    0.412   91.474  164.851    7.894
  472.750    0.134    0.401   97.762  166.956    7.785
  473.000    0.150    0.398  103.953  169.916    8.090
  473.250    0.162    0.387  107.892  172.773    8.515
  473.500    0.166    0.373  111.767  173.243    9.445
  473.750    0.153    0.363  108.456  166.487   10.074
  474.000    0.127    0.359   98.627  163.154   10.848
  474.250    0.064    0.355   90.411  162.604   11.249
  474.500    0.081    0.346   90.026  162.545   11.450
  474.750    0.112    0.334   92.724  162.594   11.484
  475.000    0.120    0.312   96.063  162.585   11.407
  475.250    0.120    0.311   99.440  162.535   10.917
  475.500    0.123    0.333  100.646  162.580   10.122
  475.750    0.127    0.370  105.093  163.149    8.940
  476.000    0.137    0.387  113.212  165.271    7.954
  476.250    0.144    0.396  118.623  168.334    7.118
  476.500    0.154    0.386  118.672  167.285    7.231
  476.750    0.153    0.374  108.347  165.876    7.683
  477.000    0.145    0.367  101.053  164.504    8.428
  477.250    0.142    0.369   95.943  163.835    9.402
  477.500    0.145    0.372   96.723  162.133   10.725
  477.750    0.132    0.368   98.940  159.815   11.986
  478.000    0.123    0.347   84.582  157.700   13.855
  478.250    0.183    0.320   76.046  156.432   15.687
  478.500    0.237    0.300   62.996  156.411   18.133
  478.750    0.262    0.282   52.237  157.257   20.530
  479.000    0.283    0.266   48.550  157.842   21.900
  479.250    0.298    0.274   46.476  158.139   18.319
  479.500    0.267    0.295   48.629  158.811   14.168
  479.750    0.240    0.314   54.181  159.269   10.859
  480.000    0.232    0.323   48.514  159.140    9.446
  480.250    0.252    0.333   35.333  159.206    8.111
  480.500    0.275    0.329   25.317  159.061    7.150
  480.750    0.289    0.320   25.622  159.093    6.856
  481.000    0.290    0.332   27.083  159.146    6.980
  481.250    0.286    0.330   27.060  159.443    7.917
  481.500    0.295    0.323   25.350  159.995    9.253
  481.750    0.299    0.310   22.969  160.581   10.978
  482.000    0.298    0.309   24.497  161.481   13.026
  482.250    0.297    0.316   26.573  162.260   17.484
  482.500    0.292    0.323   27.346  162.512   24.359
  482.750    0.292    0.334   26.396  162.581   43.350
  483.000    0.299    0.346   24.885  162.333   60.972
  483.250    0.304    0.347   25.293  161.712   67.126
  483.500    0.306    0.345   27.560  161.134   67.698
  483.750    0.301    0.342   29.167  160.852   67.895
  484.000    0.285    0.336   29.804  160.501   67.945
  484.250    0.284    0.332   30.403  161.000   68.271
  484.500    0.289    0.339   30.945  161.656   67.462
  484.750    0.291    0.339   31.217  162.452   66.519
  485.000    0.289    0.337   31.254  163.025   64.989
  485.250    0.286    0.324   30.505  163.619   63.824
  485.500    0.287    0.328   30.517  163.800   61.088
  485.750    0.288    0.335   31.810  164.283   58.680
  486.000    0.281    0.334   34.198  164.414   56.264
  486.250    0.273    0.332   33.806  164.265   53.060
  486.500    0.273    0.344   33.836  163.537   50.861
  486.750    0.273    0.346   35.243  162.868   46.202
  487.000    0.268    0.340   38.000  162.202   42.669
  487.250    0.260    0.348   42.390  161.632   38.040
  487.500    0.258    0.353   44.974  161.458   34.295
  487.750    0.261    0.351   47.169  162.675   31.262
  488.000    0.259    0.344   49.123  163.686   27.556
  488.250    0.252    0.334   51.595  164.354   24.794
  488.500    0.241    0.333   53.352  164.440   21.018
  488.750    0.230    0.342   55.747  164.048   18.805
  489.000    0.223    0.352   61.443  162.449   16.954
  489.250    0.219    0.369   65.870  159.215   15.513
  489.500    0.218    0.360   66.784  158.966   14.491
  489.750    0.184    0.341   62.222  161.712   14.156
  490.000    0.174    0.329   57.239  161.554   13.727
  490.250    0.195    0.333   55.475  160.187   13.359
  490.500    0.211    0.330   54.766  159.641   13.002
  490.750    0.224    0.326   54.745  159.198   12.677
  491.000    0.228    0.328   53.667  158.628   12.157
  491.250    0.228    0.335   51.707  157.752   11.854
  491.500    0.229    0.343   52.864  156.541   11.516
  491.750    0.233    0.346   54.895  157.061   11.207
  492.000    0.225    0.341   55.668  157.721   10.767
  492.250    0.216    0.331   56.034  158.897   10.596
  492.500    0.208    0.326   56.856  160.787   10.646
  492.750    0.210    0.327   58.382  161.138   10.838
  493.000    0.209    0.326   61.345  161.637   11.092
  493.250    0.202    0.324   64.231  161.479   11.547
  493.500    0.181    0.322   64.582  161.293   11.688
  493.750    0.158    0.324   66.537  161.086   11.061
  494.000    0.186    0.340   70.924  161.003   10.294
  494.250    0.196    0.352   77.720  160.485   10.189
  494.500    0.194    0.367   82.279  160.072   10.275
  494.750    0.197    0.376   75.742  159.431   10.324
  495.000    0.199    0.385   71.740  159.567   10.392
  495.250    0.192    0.382   72.582  162.122   10.341
  495.500    0.183    0.377   76.596  164.042   10.259
  495.750    0.188    0.369   76.699  161.204   10.192
  496.000    0.200    0.362   78.585  159.502   10.162
  496.250    0.203    0.366   76.887  159.692   10.151
  496.500    0.208    0.359   72.082  159.546    9.936
  496.750    0.198    0.352   74.664  158.786   10.380
  497.000    0.187    0.344   78.982  158.248   11.197
  497.250    0.192    0.346   81.380  158.004   12.214
  497.500    0.182    0.332   75.403  158.227   12.044
  497.750    0.169    0.322   64.199  158.915   11.569
  498.000    0.100    0.309   59.647  159.584   10.527
  498.250    0.144    0.301   76.185  161.198    9.349
  498.500    0.158    0.331   87.778  163.633    8.335
  498.750    0.155    0.369   96.731  164.207    7.278
  499.000    0.152    0.402  100.304  164.078    6.500
  499.250    0.166    0.418  102.893  166.712    6.244
  499.500    0.174    0.425  106.720  168.111    6.478
  499.750    0.175    0.422  107.067  167.871    6.680
  500.000    0.169    0.416  103.251  165.868    6.837
  500.250    0.160    0.407   94.851  164.198    7.265
  500.500    0.156    0.399   85.770  163.302    7.620
  500.750    0.182    0.391   80.462  162.971    7.800
  501.000    0.215    0.378   81.996  163.416    7.748
  501.250    0.243    0.402   87.672  163.415    7.598
  501.500    0.277    0.456   95.156  163.547    7.634
  501.750    0.310    0.501   91.043  163.534    7.889
  502.000    0.340    0.467   84.925  163.384    8.212
  502.250    0.248    0.421   81.872  163.342    8.297
  502.500    0.218    0.405   82.221  163.780    8.030
  502.750    0.204    0.399   83.859  165.080    7.814
  503.000    0.194    0.425   89.601  168.465    7.367
  503.250    0.227    0.480   96.338  171.314    7.117
  503.500    0.212    0.468   86.697  170.446    6.812
  503.750    0.177    0.434   80.534  162.224    6.304
