~VERSION INFORMATION
 VERS.                 2.0:   CWLS LOG ASCII STANDARD -VERSION 2.0
 WRAP.                  NO:   ONE LINE PER DEPTH STEP
~WELL INFORMATION BLOCK
#MNEM.UNIT           DATA                    DESCRIPTION OF MNEMONIC
#---------    -------------------            -------------------------------
# Generated from Intellog Unique Number	CC_80_83/WELL/2411
NULL.         -999.25                        : NULL_VALUE
WELL.         BVX ET AL HOUSE                : Well_name    - WELL
LOC .         11-27-083-15W4                 : Location     - LOCATION          
UWI .         00/11-27-083-15W400            : Uwi          - UNIQUE WELL ID    
ENTR.         DW                             : Entered      - ENTERED BY        
SRVC.         SCHLUMBERGER                   : Scn          - SERVICE COMPANY   
DATE.         09 MAR 80                      : Date         - LOG DATE
STRT.M        100                            : top_depth    - START DEPTH       
STOP.M        291.1                          : bot_depth    - STOP DEPTH        
STEP.M        0.3                            : increment    - STEP LENGTH       
~CURVE INFORMATION BLOCK
#MNEM UNIT       ERCB CURVE CODE    CURVE DESCRIPTION
#-----------   ------------------   ----------------------------------
DEPT.M        00 001 00 00         : DEPTH        - DEPTH                       
DPHI.V/V      00 890 00 00         : PHID         - DENSITY POROSITY (LIMESTONE)
NPHI.V/V      00 330 00 00         : PHIN         - NEUTRON POROSITY (LIMESTONE)
GR  .API      00 310 00 00         : GR           - GAMMA RAY                   
ILD .OHMM     00 120 00 00         : RESD         - DEEP RESISTIVITY (DIL)      
~PARAMETER INFORMATION       
#MNEM.UNIT           DATA             DESCRIPTION OF MNEMONIC
#---------         -----------     ------------------------------
GL  .M        549.8                : gl           - GROUND LEVEL ELEVATION      
EREF.M        552.8                : kb           - ELEVATION OF DEPTH REFERENCE
DATM.M        552.8                : datum        - DATUM ELEVATION             
TDD .M        290                  : tdd          - TOTAL DEPTH DRILLER         
RUN .         ONE                  : Run          - RUN NUMBER                  
ENG .         BILL                 : Engineer     - RECORDING ENGINEER          
WIT .         JIM                  : Witness      - WITNESSED BY                
MUD .         GEL                  : Mud_type     - MUD TYPE                    
MATR.         LIMESTONE            : Logunit      - NEUTRON MATRIX              
TMAX.C        20                   : BHT          - MAXIMUM RECORDED TEMPERATURE
BHTD.M        290                  : BHTDEP       - MAXIMUM RECORDED TEMPERATURE
MATR.         1                    : LOGUNIT      - NEUTRON MATRIX              
RMT .C        25                   : MDTP         - TEMPERATURE OF MUD          
NEUT.         1                    : NEUTRON      - NEUTRON TYPE                
RESI.         0                    : RESIST       - RESISTIVITY TYPE            
RMC .OHMM     0.25                 : RMC          - RESISTIVITY OF MUD CAKE     
RMF .OHMM     0.25                 : RMF          - RESISTIVITY OF MUD FILTRATE 
SUFT.C        15                   : SUFT         - SURFACE TEMPERATURE         
~A  DEPTH     PHID     PHIN       GR     RESD
# ...
  256.602    0.218    0.501  115.823    5.312
  256.902    0.236    0.493  115.198    4.481
  257.202    0.209    0.479  112.101    3.572
  257.502    0.203    0.458  108.389    3.505
  257.802    0.208    0.472  100.974    3.438
  258.102    0.204    0.458   92.325    3.850
  258.401    0.154    0.434   85.527    5.108
  258.701    0.121    0.376   83.049    8.500
  259.001    0.123    0.363   87.361   11.494
  259.301    0.206    0.394   96.609   15.541
  259.601    0.191    0.423   98.454   16.755
  259.901    0.180    0.440   98.445   15.828
  260.201    0.224    0.430   98.433   14.955
  260.501    0.229    0.425  100.277   13.350
  260.801    0.208    0.420  104.589   12.378
  261.101    0.199    0.444  107.051   10.640
  261.401    0.203    0.435  105.192   10.637
  261.701    0.218    0.418   98.393   10.636
  262.001    0.213    0.416   82.950   10.047
  262.301    0.254    0.444   76.154    9.315
  262.601    0.268    0.444   58.862    7.710
  262.901    0.272    0.433   53.296    7.709
  263.201    0.282    0.433   56.375    8.156
  263.501    0.289    0.451   61.305    8.794
  263.801    0.295    0.438   63.148   10.225
  264.101    0.259    0.434   64.374   13.065
  264.401    0.284    0.438   66.832   18.344
  264.701    0.273    0.443   70.527   19.045
  265.001    0.256    0.419   72.373   18.334
  265.301    0.244    0.450   75.451   17.323
  265.601    0.280    0.468   80.379   15.175
  265.901    0.282    0.483   85.308   13.046
  266.201    0.257    0.482   89.621   11.006
  266.501    0.242    0.476  100.722    8.940
  266.801    0.217    0.458  103.184    7.981
  267.101    0.192    0.443  100.087    7.684
  267.401    0.189    0.443  100.079    7.123
  267.701    0.207    0.447  110.563    6.360
  268.001    0.233    0.445  116.112    5.466
  268.301    0.234    0.466  118.572    5.465
  268.601    0.239    0.491  112.389    5.464
  268.901    0.244    0.469  110.529    5.361
  269.201    0.245    0.487  109.901    4.970
  269.501    0.228    0.518  107.427    4.437
  269.801    0.221    0.542  102.479    3.961
  270.101    0.215    0.542  108.026    3.742
  270.401    0.263    0.493  114.807    3.404
  270.701    0.253    0.492  119.737    3.403
  271.001    0.233    0.502  117.257    3.468
  271.301    0.228    0.517  113.547    3.668
  271.601    0.221    0.512  103.043    3.738
  271.901    0.216    0.471   97.480    3.808
  272.201    0.223    0.441   83.275    3.879
  272.501    0.242    0.410   64.130    4.028
  272.801    0.307    0.400   60.418    4.772
  273.101    0.317    0.421   57.323    5.549
  273.401    0.306    0.435   52.993   10.539
  273.701    0.303    0.435   49.898   35.253
  274.001    0.317    0.406   48.651   40.984
  274.301    0.301    0.402   48.645   41.759
  274.601    0.301    0.400   49.869   43.354
  274.901    0.310    0.397   51.717   47.635
  275.201    0.318    0.391   52.324   60.861
  275.501    0.319    0.389   51.079   77.765
  275.801    0.318    0.393   51.690   87.070
  276.101    0.317    0.395   54.148   92.121
  276.401    0.307    0.400   57.846   88.685
  276.701    0.302    0.407   66.478   77.695
  277.001    0.295    0.423   73.259   57.430
  277.301    0.289    0.430   69.547   41.659
  277.601    0.290    0.429   67.685   26.480
  277.901    0.290    0.418   70.146   23.196
  278.201    0.275    0.410   73.841   23.192
  278.501    0.268    0.408   77.537   23.187
  278.801    0.274    0.410   83.700   25.000
  279.101    0.264    0.408   88.628   26.447
  279.401    0.252    0.408   91.708   25.948
  279.701    0.240    0.417   92.316   24.057
  280.001    0.247    0.430   89.221   19.543
  280.301    0.263    0.426   87.361   15.579
  280.601    0.264    0.404   90.439   14.998
  280.901    0.257    0.385   87.342   14.713
  281.201    0.255    0.418   81.162   14.435
  281.501    0.257    0.413   73.129   13.897
  281.801    0.261    0.397   68.798   14.159
  282.101    0.245    0.387   75.580   18.436
  282.401    0.225    0.316   91.621   24.929
  282.701    0.200    0.341  100.254   34.350
  283.000    0.197    0.375   98.392   34.997
  283.300    0.212    0.366   90.977   30.657
  283.600    0.238    0.358   86.648   22.663
  283.900    0.234    0.362   79.848   20.232
  284.200    0.222    0.370   76.753   21.005
  284.500    0.235    0.370   87.856   23.964
  284.800    0.236    0.384   90.933   25.356
  285.100    0.211    0.382   85.986   24.873
  285.400    0.205    0.400   85.977   24.404
  285.700    0.244    0.407   90.904   23.496
  286.000    0.243    0.369   92.751   23.050
  286.300    0.227    0.330   91.506   23.485
  286.600    0.248    0.334   89.030   24.845
  286.900    0.271    0.338   85.316   28.346
  287.200    0.292    0.341   84.688   31.738
  287.500    0.294    0.346   85.300   34.219
  287.800    0.276    0.348   91.462   35.526
  288.100    0.223    0.347   91.454   34.857
  288.400    0.196    0.339   94.534   29.406
  288.700    0.184    0.335  113.042   16.378
  289.000    0.180    0.334  109.946   14.898
  289.300    0.168    0.337  100.062   14.896
  289.600    0.140    0.342   97.584   15.464
  289.900    0.097    0.347  100.662   15.755
  290.200    0.082    0.357  102.504   16.053
  290.500    0.063    0.367  102.496   15.749
  290.800    0.053    0.379  102.488   15.745
  291.100    0.056    0.404  101.862   16.040
