~VERSION INFORMATION
 VERS.                 2.0:   CWLS LOG ASCII STANDARD -VERSION 2.0
 WRAP.                  NO:   ONE LINE PER DEPTH STEP
~WELL INFORMATION BLOCK
#MNEM.UNIT           DATA                    DESCRIPTION OF MNEMONIC
#---------    -------------------            -------------------------------
# Generated from Intellog Unique Number	CC_80_83/WELL/2377
NULL.         -999.25                        : NULL_VALUE
WELL.         ARCO ET AL PICKFORD            : Well_name    - WELL              
LOC .         10-27-080-06W4                 : Location     - LOCATION          
UWI .         00/10-27-080-06W400            : Uwi          - UNIQUE WELL ID    
ENTR.         RJA                            : Entered      - ENTERED BY        
SRVC.         SCHLUMBERGER                   : Scn          - SERVICE COMPANY   
DATE.         23 FEB 70                      : Date         - LOG DATE
STRT.M        103.632                        : top_depth    - START DEPTH       
STOP.M        312.115                        : bot_depth    - STOP DEPTH        
STEP.M        0.305                          : increment    - STEP LENGTH       
~CURVE INFORMATION BLOCK
#MNEM UNIT       ERCB CURVE CODE    CURVE DESCRIPTION
#-----------   ------------------   ----------------------------------
DEPT.M        00 001 00 00         : DEPTH        - DEPTH                       
NPHI.V/V      00 330 00 00         : PHIN         - NEUTRON POROSITY (LIMESTONE)
DPHI.V/V      00 890 00 00         : PHID         - DENSITY POROSITY (LIMESTONE)
GR  .API      00 310 00 00         : GR           - GAMMA RAY                   
ILD .OHMM     00 120 00 00         : RESD         - DEEP RESISTIVITY (DIL)      
~PARAMETER INFORMATION       
#MNEM.UNIT           DATA             DESCRIPTION OF MNEMONIC
#---------         -----------     ------------------------------
GL  .M        508.955              : gl           - GROUND LEVEL ELEVATION      
EREF.M        512.064              : kb           - ELEVATION OF DEPTH REFERENCE
DATM.M        512.064              : datum        - DATUM ELEVATION             
TDD .M        319.126              : tdd          - TOTAL DEPTH DRILLER         
RUN .         ONE                  : Run          - RUN NUMBER                  
ENG .         BILL                 : Engineer     - RECORDING ENGINEER          
WIT .         JIM                  : Witness      - WITNESSED BY                
MUD .         GEL                  : Mud_type     - MUD TYPE                    
MATR.         LIMESTONE            : Logunit      - NEUTRON MATRIX              
TMAX.C        22.2222              : BHT          - MAXIMUM RECORDED TEMPERATURE
BHTD.M        319.126              : BHTDEP       - MAXIMUM RECORDED TEMPERATURE
MATR.         1                    : LOGUNIT      - NEUTRON MATRIX              
RMT .C        25                   : MDTP         - TEMPERATURE OF MUD          
NEUT.         0                    : NEUTRON      - NEUTRON TYPE                
RESI.         0                    : RESIST       - RESISTIVITY TYPE            
RMC .OHMM     0.25                 : RMC          - RESISTIVITY OF MUD CAKE     
RMF .OHMM     0.25                 : RMF          - RESISTIVITY OF MUD FILTRATE 
SUFT.C        4                    : SUFT         - SURFACE TEMPERATURE         
~A  DEPTH     PHIN     PHID       GR     RESD
# ...
  262.736    0.296    0.278   33.205  412.878
  263.040    0.295    0.290   46.101  378.397
  263.345    0.273    0.294   55.792  221.020
  263.650    0.272    0.287   58.352  160.772
  263.955    0.275    0.278   82.712  138.623
  264.260    0.254    0.266   82.567  102.780
  264.564    0.250    0.268   65.662   51.923
  264.869    0.269    0.259   98.658   37.917
  265.174    0.279    0.250   99.525   29.265
  265.479    0.253    0.231   90.874   29.005
  265.784    0.239    0.234   97.276   22.817
  266.088    0.261    0.237   95.055   16.222
  266.393    0.270    0.228   90.304   13.881
  266.698    0.273    0.203   91.928   23.299
  267.003    0.292    0.208   88.065   41.651
  267.308    0.297    0.275   78.147  368.008
  267.613    0.291    0.300   52.736  618.911
  267.917    0.288    0.304   42.068  441.712
  268.222    0.280    0.298   33.863  464.520
  268.527    0.275    0.288   35.789  583.326
  268.832    0.276    0.267   36.910  303.811
  269.137    0.276    0.273   33.102  105.981
  269.441    0.249    0.283   30.249   69.409
  269.746    0.276    0.282   48.504   45.633
  270.051    0.277    0.270   48.736   31.954
  270.356    0.287    0.280   45.123   27.392
  270.661    0.300    0.264   59.405   27.672
  270.965    0.281    0.246   63.420   42.791
  271.270    0.272    0.249   55.962   63.086
  271.575    0.253    0.283   46.119   75.957
  271.880    0.256    0.288   36.899   64.128
  272.185    0.271    0.271   37.945   28.291
  272.489    0.264    0.223   76.238   12.770
  272.794    0.264    0.171   82.455    9.541
  273.099    0.270    0.166   90.119    7.449
  273.404    0.269    0.172   99.178    6.788
  273.709    0.273    0.182  102.620    6.378
  274.014    0.291    0.205   99.265    6.272
  274.318    0.290    0.185   96.845    6.520
  274.623    0.306    0.176  100.921    6.923
  274.928    0.312    0.164   95.181    7.307
  275.233    0.295    0.180   94.457    7.846
  275.538    0.283    0.193   88.457    8.409
  275.842    0.294    0.171   90.384    8.792
  276.147    0.294    0.186   81.549    8.484
  276.452    0.314    0.196   79.760    8.063
  276.757    0.298    0.194   84.089    8.037
  277.062    0.291    0.171   93.328    8.354
  277.366    0.282    0.174   89.908    8.636
  277.671    0.291    0.210   77.228    8.021
  277.976    0.307    0.199   94.593    7.365
  278.281    0.317    0.181   94.697    7.656
  278.586    0.327    0.205   88.507    8.129
  278.890    0.310    0.205   85.210    8.273
  279.195    0.303    0.198   81.537    8.246
  279.500    0.317    0.207   85.481    8.722
  279.805    0.316    0.190   93.085    8.465
  280.110    0.311    0.195   91.809    8.029
  280.415    0.290    0.220   85.496    7.987
  280.719    0.286    0.200   90.570    7.663
  281.024    0.281    0.204   91.495    7.921
  281.329    0.278    0.217   91.791    8.605
  281.634    0.295    0.203   81.881    8.808
  281.939    0.278    0.194   79.465    8.468
  282.243    0.282    0.199   94.066    8.586
  282.548    0.298    0.180   90.450    8.909
  282.853    0.285    0.193   85.770    8.729
  283.158    0.290    0.191  102.570    8.186
  283.463    0.303    0.185  104.071    7.929
  283.767    0.306    0.199   96.235    8.025
  284.072    0.307    0.210   97.913    8.439
  284.377    0.301    0.222   81.636    9.079
  284.682    0.310    0.238   67.759   10.645
  284.987    0.310    0.249   79.144   11.215
  285.291    0.315    0.222   81.642   11.725
  285.596    0.304    0.228   80.048   12.907
  285.901    0.324    0.269   71.964   14.099
  286.206    0.321    0.287   64.946   16.498
  286.511    0.307    0.284   58.375   20.096
  286.816    0.300    0.272   54.824   26.169
  287.120    0.314    0.275   59.025   37.780
  287.425    0.324    0.304   43.319   68.441
  287.730    0.331    0.302   28.052  221.549
  288.035    0.320    0.292   26.958  263.736
  288.340    0.312    0.291   24.545  194.809
  288.644    0.294    0.302   29.313  121.874
  288.949    0.303    0.324   30.501   64.338
  289.254    0.301    0.335   37.026   48.808
  289.559    0.302    0.324   52.065   40.276
  289.864    0.324    0.328   52.554   37.407
  290.168    0.333    0.294   44.904   41.571
  290.473    0.323    0.312   43.753   28.180
  290.778    0.342    0.325   43.733   19.102
  291.083    0.352    0.296   55.372   16.532
  291.388    0.321    0.262   61.529   18.374
  291.692    0.308    0.268   47.455   15.276
  291.997    0.346    0.314   44.733    9.742
  292.302    0.343    0.331   49.932    7.591
  292.607    0.329    0.329   45.631    6.582
  292.912    0.326    0.319   40.761    5.999
  293.217    0.341    0.303   46.785    5.582
  293.521    0.339    0.295   52.381    5.117
  293.826    0.302    0.287   51.345    4.965
  294.131    0.282    0.298   40.050    4.764
  294.436    0.299    0.318   36.629    4.553
  294.741    0.326    0.322   36.668    4.495
  295.045    0.327    0.318   41.435    4.430
  295.350    0.300    0.332   40.344    4.391
  295.655    0.333    0.306   38.435    4.393
  295.960    0.346    0.312   44.652    4.463
  296.265    0.339    0.310   45.455    4.605
  296.569    0.305    0.291   52.491    4.870
  296.874    0.330    0.278   72.631    5.062
  297.179    0.310    0.239   74.689    5.065
  297.484    0.296    0.252   74.110    4.731
  297.789    0.324    0.285   68.791    4.345
  298.093    0.320    0.312   51.761    4.208
  298.398    0.305    0.322   45.261    4.358
  298.703    0.309    0.336   45.928    4.708
  299.008    0.320    0.312   53.908    4.884
  299.313    0.310    0.268   61.138    5.136
  299.618    0.293    0.257   63.947    5.187
  299.922    0.299    0.268   57.440    5.006
  300.227    0.311    0.310   43.559    4.614
  300.532    0.337    0.335   34.150    4.427
  300.837    0.328    0.327   30.535    4.717
  301.142    0.312    0.340   25.979    5.254
  301.446    0.283    0.318   28.233    6.449
  301.751    0.284    0.305   28.656    7.016
  302.056    0.303    0.316   24.974    8.384
  302.361    0.316    0.315   22.060   10.252
  302.666    0.299    0.306   25.756   12.582
  302.970    0.298    0.323   28.443   15.680
  303.275    0.320    0.317   28.995   17.033
  303.580    0.299    0.295   30.295   11.546
  303.885    0.297    0.286   33.552    9.729
  304.190    0.318    0.281   40.147    7.921
  304.494    0.316    0.273   59.596    6.613
  304.799    0.293    0.259   77.473    6.307
  305.104    0.299    0.235   81.924    5.858
  305.409    0.292    0.235   69.501    6.066
  305.714    0.311    0.247   67.460    6.465
  306.019    0.326    0.231   85.460    6.863
  306.323    0.301    0.186   94.510    7.731
  306.628    0.273    0.195   90.271    8.206
  306.933    0.279    0.201   80.676    8.322
  307.238    0.268    0.197   77.185    7.985
  307.543    0.282    0.169   88.445    7.974
  307.847    0.238    0.121   90.126    8.307
  308.152    0.237    0.120   88.530    8.406
  308.457    0.252    0.141   82.085    8.476
  308.762    0.263    0.165   79.421    8.627
  309.067    0.274    0.147   86.520    8.199
  309.371    0.276    0.156   78.118    7.571
  309.676    0.278    0.169   54.911    7.114
  309.981    0.285    0.191   44.372    6.997
  310.286    0.303    0.212   49.021    7.414
  310.591    0.272    0.168   52.775    8.255
  310.895    0.245    0.125   58.806    9.846
  311.200    0.222    0.109   58.092   12.132
  311.505    0.157    0.056   50.003   14.636
  311.810    0.131    0.003   47.654   16.996
  312.115    0.134    0.000   47.005   18.674
