~VERSION INFORMATION
 VERS.                 2.0:   CWLS LOG ASCII STANDARD -VERSION 2.0
 WRAP.                  NO:   ONE LINE PER DEPTH STEP
~WELL INFORMATION BLOCK
#MNEM.UNIT           DATA                    DESCRIPTION OF MNEMONIC
#---------    -------------------            -------------------------------
# Generated from Intellog Unique Number	CS_73_76/WELL/4865
WELL.         ANDERSON EXPLORATION LTD.      : Well_name    - WELL
LOC .         00/14-33-076-03W4/0            : Location     - LOCATION
UWI .         00/14-33-076-03W4/0            : Uwi          - UNIQUE WELL ID
ENTR.         JO                             : Entered      - ENTERED BY
SRVC.         COMPUTALOG                     : Scn          - SERVICE COMPANY
DATE.         05/25/92                       : Date         - LOG DATE
STRT.M        200                            : top_depth    - START DEPTH
STOP.M        465                            : bot_depth    - STOP DEPTH
STEP.M        0.25                           : increment    - STEP LENGTH
 NULL. -999.2500:NULL Value
~CURVE INFORMATION BLOCK
#MNEM UNIT       ERCB CURVE CODE    CURVE DESCRIPTION
#-----------   ------------------   ----------------------------------
DEPT.M        00 001 00 00         : DEPTH        - DEPTH
ILD .OHMM     00 120 00 00         : RESD         - DEEP RESISTIVITY (DIL)
DPHI.V/V      00 890 00 00         : PHID         - DENSITY POROSITY (SANDSTONE)
NPHI.V/V      00 330 00 00         : PHIN         - NEUTRON POROSITY (SANDSTONE)
GR  .API      00 310 00 00         : GR           - GAMMA RAY
~PARAMETER INFORMATION
#MNEM.UNIT           DATA             DESCRIPTION OF MNEMONIC
#---------         -----------     ------------------------------
GL  .M        584.6                : gl           - GROUND LEVEL ELEVATION
EREF.M        588.2                : kb           - ELEVATION OF DEPTH REFERENCE
DATM.M        588.2                : datum        - DATUM ELEVATION
TDD .M        471.2                : tdd          - TOTAL DEPTH DRILLER
RUN .         ONE                  : Run          - RUN NUMBER
ENG .         BILL                 : Engineer     - RECORDING ENGINEER
WIT .         JIM                  : Witness      - WITNESSED BY
MUD .         GEL                  : Mud_type     - MUD TYPE
MATR.         SANDSTONE            : Logunit      - NEUTRON MATRIX
TMAX.C        20                   : BHT          - MAXIMUM RECORDED TEMPERATURE
BHTD.M        471.2                : BHTDEP       - MAXIMUM RECORDED TEMPERATURE
MATR.         1                    : LOGUNIT      - NEUTRON MATRIX
RMT .C        16                   : MDTP         - TEMPERATURE OF MUD
NEUT.         1                    : NEUTRON      - NEUTRON TYPE
RESI.         0                    : RESIST       - RESISTIVITY TYPE
RMC .OHMM     2.7                  : RMC          - RESISTIVITY OF MUD CAKE
RMF .OHMM     3.4                  : RMF          - RESISTIVITY OF MUD FILTRATE
SUFT.C        15                   : SUFT         - SURFACE TEMPERATURE
~A  DEPTH     RESD     PHID     PHIN       GR
# ...
  330.500   16.424    0.294    0.438   73.775
  330.750   17.375    0.303    0.434   73.781
  331.000   18.040    0.305    0.428   72.017
  331.250   18.381    0.298    0.413   73.202
  331.500   18.381    0.301    0.413   77.927
  331.750   18.040    0.310    0.425   81.471
  332.000   17.375    0.317    0.446   85.014
  332.250   16.735    0.321    0.445   82.071
  332.500   16.119    0.322    0.446   74.412
  332.750   14.954    0.320    0.456   70.879
  333.000   13.873    0.316    0.454   73.245
  333.250   13.362    0.314    0.448   76.201
  333.500   13.114    0.311    0.444   76.793
  333.750   12.631    0.301    0.443   76.799
  334.000   12.631    0.263    0.443   77.396
  334.250   12.396    0.245    0.441   79.171
  334.500   12.396    0.227    0.462   80.944
  334.750   12.396    0.228    0.459   83.900
  335.000   12.396    0.235    0.451   86.853
  335.250   12.396    0.239    0.444   90.988
  335.500   12.396    0.248    0.438   92.761
  335.750   12.631    0.253    0.425   93.946
  336.000   12.631    0.239    0.425   92.773
  336.250   12.631    0.228    0.445   91.009
  336.500   12.166    0.233    0.454   93.374
  336.750   11.940    0.241    0.445   90.431
  337.000   11.077    0.249    0.431   91.026
  337.250   10.471    0.255    0.425   91.032
  337.500    9.714    0.255    0.440   88.679
  337.750    9.012    0.250    0.451   88.098
  338.000    8.052    0.243    0.450   89.871
  338.250    7.195    0.236    0.449   94.006
  338.500    6.429    0.239    0.459   91.652
  338.750    5.964    0.245    0.476   88.709
  339.000    5.231    0.252    0.477   91.075
  339.250    4.674    0.259    0.486   92.848
  339.500    4.502    0.265    0.542   95.804
  339.750    4.418    0.270    0.564   98.168
  340.000    4.255    0.272    0.544   99.352
  340.250    4.176    0.275    0.532   99.949
  340.500    4.176    0.282    0.551   98.775
  340.750    4.255    0.285    0.568   97.601
  341.000    4.502    0.277    0.571   98.785
  341.250    5.133    0.269    0.569  101.150
  341.500    5.430    0.266    0.569  106.464
  341.750    6.429    0.267    0.543  107.648
  342.000    7.061    0.281    0.530  101.167
  342.250    7.756    0.296    0.483   94.686
  342.500    9.714    0.321    0.468   87.618
  342.750   12.870    0.328    0.443   85.262
  343.000   13.615    0.323    0.428   80.551
  343.250   14.403    0.312    0.445   75.839
  343.500   14.954    0.289    0.443   76.434
  343.750   15.237    0.251    0.430   79.980
  344.000   15.237    0.193    0.422   78.216
  344.250   15.237    0.190    0.425   73.503
  344.500   14.403    0.206    0.427   68.201
  344.750   13.615    0.299    0.437   69.976
  345.000   12.870    0.294    0.446   75.879
  345.250   12.396    0.291    0.451   80.014
  345.500   11.500    0.288    0.456   77.659
  345.750   11.286    0.279    0.461   76.487
  346.000   11.286    0.231    0.448   81.799
  346.250   11.286    0.230    0.433   87.112
  346.500   11.286    0.233    0.433   90.066
  346.750   11.286    0.238    0.435   89.482
  347.000   11.286    0.231    0.431   88.308
  347.250   11.286    0.225    0.434   90.083
  347.500   11.286    0.221    0.454   92.448
  347.750   11.286    0.222    0.467   94.223
  348.000   11.286    0.225    0.454   95.998
  348.250   11.286    0.230    0.456   87.157
  348.500   11.286    0.235    0.470   88.345
  348.750   11.286    0.241    0.463   86.581
  349.000   11.286    0.248    0.451   83.638
  349.250   11.286    0.251    0.457   81.874
  349.500   11.286    0.277    0.452   81.290
  349.750   11.286    0.231    0.434   81.297
  350.000   11.286    0.246    0.422   83.072
  350.250   10.871    0.261    0.419   86.025
  350.500   10.471    0.273    0.424   87.800
  350.750   10.085    0.275    0.429   81.320
  351.000    8.680    0.244    0.433   80.145
  351.250    7.331    0.217    0.442   83.099
  351.500    6.192    0.216    0.473   86.643
  351.750    5.330    0.221    0.480   90.187
  352.000    4.674    0.228    0.505   89.603
  352.250    4.255    0.244    0.519   87.251
  352.500    3.874    0.269    0.541   89.026
  352.750    3.732    0.283    0.547   90.213
  353.000    3.594    0.277    0.538   90.216
  353.250    3.594    0.280    0.532   87.862
  353.500    3.527    0.285    0.501   85.511
  353.750    3.462    0.288    0.489   86.697
  354.000    3.462    0.289    0.474   85.522
  354.250    3.527    0.281    0.499   79.631
  354.500    3.594    0.270    0.515   77.867
  354.750    3.802    0.263    0.545   82.001
  355.000    4.022    0.258    0.491   86.135
  355.250    4.176    0.253    0.448   90.268
  355.500    4.336    0.247    0.438   89.096
  355.750    4.762    0.237    0.433   86.743
  356.000    5.330    0.216    0.427   85.568
  356.250    5.745    0.219    0.414   83.804
  356.500    6.675    0.229    0.418   82.631
  356.750    7.331    0.235    0.425   79.689
  357.000    7.612    0.238    0.425   81.464
  357.250    7.756    0.244    0.426   83.829
  357.500    8.052    0.237    0.439   85.603
  357.750    7.903    0.224    0.445   86.199
  358.000    7.612    0.215    0.441   87.974
  358.250    7.195    0.215    0.440   90.338
  358.500    6.801    0.245    0.439   86.804
  358.750    6.077    0.259    0.441   85.632
  359.000    5.745    0.248    0.455   88.588
  359.250    5.638    0.250    0.469   92.721
  359.500    5.533    0.253    0.486   96.264
  359.750    5.430    0.243    0.470   99.219
  360.000    5.430    0.222    0.440   94.506
  360.250    5.430    0.207    0.471   91.563
  360.500    5.430    0.208    0.473   90.391
  360.750    5.330    0.215    0.467   92.754
  361.000    5.330    0.223    0.464   94.530
  361.250    5.330    0.225    0.497   94.536
  361.500    5.330    0.220    0.517   92.774
  361.750    5.330    0.210    0.527   92.777
  362.000    5.330    0.205    0.496   96.322
  362.250    5.133    0.213    0.458   99.276
  362.500    5.038    0.210    0.467   99.282
  362.750    5.231    0.209    0.434   94.570
  363.000    5.533    0.219    0.410   91.036
  363.250    6.551    0.221    0.419   88.683
  363.500    9.356    0.220    0.411   88.099
  363.750    9.714    0.238    0.393   87.515
  364.000   11.286    0.257    0.321   83.982
  364.250   12.631    0.280    0.301   68.067
  364.500   14.136    0.288    0.309   65.123
  364.750   16.119    0.247    0.339   65.129
  365.000   17.704    0.163    0.337   68.084
  365.250   18.729    0.138    0.332   71.630
  365.500   19.084    0.108    0.328   70.456
  365.750   18.729    0.100    0.333   68.691
  366.000   18.040    0.061    0.332   64.569
  366.250   17.704    0.106    0.321   62.215
  366.500   17.375    0.240    0.313   64.580
  366.750   16.119    0.282    0.324   68.714
  367.000   14.954    0.314    0.311   74.617
  367.250   12.631    0.332    0.338   76.984
  367.500   10.871    0.319    0.373   75.219
  367.750    8.205    0.299    0.389   71.095
  368.000    6.675    0.297    0.416   61.666
  368.250    6.077    0.270    0.428   72.286
  368.500    5.964    0.265    0.390   85.266
  368.750    6.077    0.325    0.323   84.092
  369.000    6.551    0.322    0.310   71.124
  369.250    6.930    0.312    0.324   54.618
  369.500    7.756    0.297    0.334   38.701
  369.750    8.205    0.286    0.324   48.732
  370.000    8.844    0.276    0.315   65.839
  370.250    9.533    0.263    0.353   70.566
  370.500    9.714    0.253    0.384   71.751
  370.750    9.182    0.257    0.396   76.473
  371.000    8.844    0.293    0.391   83.555
  371.250    8.360    0.266    0.384   94.765
  371.500    8.205    0.252    0.391   89.463
  371.750    8.360    0.221    0.392   85.343
  372.000    8.680    0.210    0.386   88.885
  372.250    9.012    0.238    0.360   90.660
  372.500    9.356    0.225    0.357   83.589
  372.750    9.898    0.202    0.350   78.287
  373.000   10.471    0.179    0.351   85.959
  373.250   10.669    0.181    0.350   93.042
  373.500   11.286    0.186    0.341   95.408
  373.750   11.500    0.186    0.370   88.335
