~VERSION INFORMATION
 VERS.                 2.0:   CWLS LOG ASCII STANDARD -VERSION 2.0
 WRAP.                  NO:   ONE LINE PER DEPTH STEP
~WELL INFORMATION BLOCK
#MNEM.UNIT           DATA                    DESCRIPTION OF MNEMONIC
#---------    -------------------            -------------------------------
# Generated from Intellog Unique Number	CS_77_79/WELL/928
WELL.         NORCEN ENERGY RESOURCES        : Well_name    - WELL
LOC .         00/10-02-077-12W4/0            : Location     - LOCATION
UWI .         00/10-02-077-12W4/0            : Uwi          - UNIQUE WELL ID
ENTR.         SP                             : Entered      - ENTERED BY
SRVC.         SCHLUMBERGER                   : Scn          - SERVICE COMPANY
STRT.M        260                            : top_depth    - START DEPTH
STOP.M        520                            : bot_depth    - STOP DEPTH
STEP.M        0.25                           : increment    - STEP LENGTH
 NULL. -999.2500:NULL Value
~CURVE INFORMATION BLOCK
#MNEM UNIT       ERCB CURVE CODE    CURVE DESCRIPTION
#-----------   ------------------   ----------------------------------
DEPT.M        00 001 00 00         : DEPTH        - DEPTH
ILD .OHMM     00 120 00 00         : RESD         - DEEP RESISTIVITY (DIL)
DPHI.V/V      00 890 00 00         : PHID         - DENSITY POROSITY (LIMESTONE)
NPHI.V/V      00 330 00 00         : PHIN         - NEUTRON POROSITY (LIMESTONE)
GR  .API      00 310 00 00         : GR           - GAMMA RAY
~PARAMETER INFORMATION
#MNEM.UNIT           DATA             DESCRIPTION OF MNEMONIC
#---------         -----------     ------------------------------
GL  .M        662.7                : gl           - GROUND LEVEL ELEVATION
EREF.M        666                  : kb           - ELEVATION OF DEPTH REFERENCE
DATM.M        662.7                : datum        - DATUM ELEVATION
TDD .M        531                  : tdd          - TOTAL DEPTH DRILLER
RUN .         ONE                  : Run          - RUN NUMBER
ENG .         BILL                 : Engineer     - RECORDING ENGINEER
WIT .         JIM                  : Witness      - WITNESSED BY
MUD .         GEL                  : Mud_type     - MUD TYPE
MATR.         LIMESTONE            : Logunit      - NEUTRON MATRIX
TMAX.C        15.5                 : BHT          - MAXIMUM RECORDED TEMPERATURE
BHTD.M        531                  : BHTDEP       - MAXIMUM RECORDED TEMPERATURE
MATR.         1                    : LOGUNIT      - NEUTRON MATRIX
RMT .C        25                   : MDTP         - TEMPERATURE OF MUD
NEUT.         1                    : NEUTRON      - NEUTRON TYPE
RESI.         0                    : RESIST       - RESISTIVITY TYPE
RMC .OHMM     0.25                 : RMC          - RESISTIVITY OF MUD CAKE
RMF .OHMM     0.25                 : RMF          - RESISTIVITY OF MUD FILTRATE
SUFT.C        15                   : SUFT         - SURFACE TEMPERATURE
~A  DEPTH     RESD     PHID     PHIN       GR
# ...
  434.000    5.701    0.200    0.434   92.070
  434.250    5.810    0.191    0.437   87.193
  434.500    5.397    0.166    0.448   87.780
  434.750    5.012    0.150    0.444   90.801
  435.000    4.655    0.166    0.410   95.033
  435.250    4.243    0.208    0.400   96.841
  435.500    4.014    0.229    0.417   98.035
  435.750    3.942    0.248    0.424   96.196
  436.000    3.943    0.234    0.438   94.968
  436.250    3.946    0.235    0.423   93.125
  436.500    3.947    0.243    0.441   92.505
  436.750    4.097    0.250    0.463   91.882
  437.000    4.415    0.244    0.475   93.077
  437.250    4.846    0.239    0.478   93.062
  437.500    5.420    0.218    0.463   91.215
  437.750    5.839    0.209    0.473   89.375
  438.000    6.292    0.204    0.462   88.144
  438.250    6.655    0.222    0.437   87.525
  438.500    6.909    0.209    0.427   86.905
  438.750    7.726    0.192    0.450   87.495
  439.000    8.483    0.200    0.462   86.874
  439.250    8.805    0.191    0.457   77.144
  439.500    9.313    0.169    0.429   75.304
  439.750    9.317    0.157    0.410   77.716
  440.000    8.815    0.197    0.388   81.343
  440.250    7.888    0.215    0.373   83.144
  440.500    7.464    0.220    0.373   86.771
  440.750    7.195    0.204    0.390   89.186
  441.000    7.332    0.193    0.412   89.775
  441.250    7.612    0.191    0.423   89.756
  441.500    8.051    0.199    0.413   88.525
  441.750    8.838    0.209    0.410   83.045
  442.000   10.258    0.204    0.414   76.955
  442.250   11.259    0.226    0.393   74.508
  442.500   12.590    0.235    0.364   72.671
  442.750   13.567    0.272    0.357   73.264
  443.000   14.086    0.295    0.353   73.845
  443.250   14.091    0.284    0.357   74.442
  443.500   14.096    0.273    0.369   73.821
  443.750   14.366    0.237    0.376   73.188
  444.000   14.640    0.234    0.384   72.564
  444.250   14.919    0.240    0.393   72.554
  444.500   15.494    0.253    0.403   72.537
  444.750   15.499    0.257    0.409   72.521
  445.000   15.795    0.249    0.411   73.715
  445.250   16.096    0.251    0.405   75.519
  445.500   16.711    0.260    0.411   76.717
  445.750   16.715    0.270    0.426   80.953
  446.000   17.354    0.305    0.429   85.792
  446.250   18.698    0.316    0.421   90.633
  446.500   20.526    0.305    0.433   83.326
  446.750   21.707    0.288    0.419   80.279
  447.000   23.831    0.285    0.409   71.758
  447.250   25.676    0.305    0.407   67.496
  447.500   24.295    0.306    0.403   62.616
  447.750   21.745    0.309    0.402   67.460
  448.000   20.570    0.285    0.413   72.905
  448.250   19.106    0.266    0.427   76.526
  448.500   17.745    0.244    0.431   78.335
  448.750   17.102    0.239    0.430   80.143
  449.000   16.181    0.248    0.430   81.948
  449.250   14.481    0.263    0.431   84.361
  449.500   12.256    0.254    0.432   89.202
  449.750   10.766    0.249    0.438  100.110
  450.000   10.187    0.240    0.420  105.560
  450.250   10.576    0.228    0.413  104.326
  450.500   12.275    0.230    0.417   99.454
  450.750   16.224    0.277    0.419   93.973
  451.000   19.906    0.317    0.425   78.775
  451.250   33.495    0.349    0.426   71.472
  451.500   41.103    0.366    0.427   65.987
  451.750   43.473    0.366    0.425   61.724
  452.000   41.131    0.351    0.398   58.675
  452.250   34.181    0.335    0.392   55.011
  452.500   32.336    0.326    0.409   53.175
  452.750   30.591    0.334    0.392   50.124
  453.000   28.417    0.333    0.388   48.284
  453.250   27.386    0.319    0.374   51.302
  453.500   25.437    0.299    0.365   55.533
  453.750   24.520    0.299    0.376   59.766
  454.000   24.531    0.304    0.382   64.002
  454.250   24.536    0.307    0.386   69.448
  454.500   25.952    0.298    0.393   71.863
  454.750   28.489    0.275    0.396   69.415
  455.000   30.694    0.279    0.397   64.536
  455.250   34.327    0.291    0.397   59.666
  455.500   36.302    0.308    0.394   52.973
  455.750   38.400    0.331    0.391   48.099
  456.000   39.132    0.323    0.389   60.226
  456.250   37.718    0.303    0.383   65.671
  456.500   35.031    0.290    0.386   65.048
  456.750   33.154    0.285    0.386   63.212
  457.000   31.956    0.297    0.384   56.515
  457.250   31.378    0.322    0.375   56.498
  457.500   30.239    0.285    0.374   60.731
  457.750   24.208    0.235    0.377   64.965
  458.000   20.115    0.211    0.365   70.411
  458.250   19.029    0.194    0.367   74.039
  458.500   17.673    0.205    0.395   74.021
  458.750   19.402    0.233    0.421   72.791
  459.000   20.903    0.254    0.426   69.739
  459.250   25.181    0.309    0.419   60.005
  459.500   28.686    0.341    0.414   59.383
  459.750   35.197    0.342    0.408   65.437
  460.000   46.523    0.307    0.365   66.634
  460.250   65.009    0.296    0.408   59.939
  460.500   89.177    0.279    0.422   53.240
  460.750  105.437    0.324    0.422   48.361
  461.000  129.378    0.329    0.396   45.919
  461.250  142.016    0.332    0.392   44.086
  461.500  147.451    0.345    0.399   44.066
  461.750  144.785    0.349    0.401   45.874
  462.000  124.858    0.352    0.401   47.676
  462.250  105.669    0.356    0.392   45.839
  462.500   83.036    0.359    0.381   50.069
  462.750   65.251    0.362    0.377   53.086
  463.000   50.333    0.367    0.377   54.896
  463.250   38.823    0.363    0.381   59.124
  463.500   32.858    0.356    0.390   63.354
  463.750   27.812    0.336    0.398   66.986
  464.000   26.810    0.324    0.394   74.865
  464.250   26.322    0.306    0.400   77.883
  464.500   27.330    0.267    0.410   78.471
  464.750   29.450    0.241    0.425   77.243
  465.000   30.011    0.256    0.425   76.614
  465.250   24.933    0.268    0.386   80.845
  465.500   18.532    0.275    0.402   83.869
  465.750   15.112    0.300    0.414   88.101
  466.000   12.556    0.291    0.408   92.935
  466.250   11.030    0.272    0.391   95.351
  466.500   10.243    0.252    0.383   98.975
  466.750    9.514    0.225    0.379  101.998
  467.000    9.342    0.190    0.382  105.628
  467.250    9.701    0.193    0.389  109.254
  467.500   10.072    0.198    0.405  112.269
  467.750   10.457    0.236    0.417  111.646
  468.000   11.059    0.249    0.401  104.953
  468.250   11.696    0.261    0.414   97.039
  468.500   13.828    0.271    0.423   97.023
  468.750   13.578    0.283    0.414   95.795
  469.000   12.379    0.270    0.395   97.595
  469.250   11.286    0.241    0.377  101.221
  469.500   10.680    0.227    0.367  104.847
  469.750   10.683    0.225    0.363  106.654
  470.000   10.886    0.227    0.364  103.603
  470.250   12.402    0.230    0.376   94.475
  470.500   20.483    0.253    0.375   87.177
  470.750   30.833    0.277    0.381   65.906
  471.000   41.513    0.294    0.411   53.749
  471.250   52.870    0.318    0.404   44.011
  471.500   66.090    0.329    0.391   42.179
  471.750   79.606    0.341    0.382   41.552
  472.000   90.699    0.346    0.400   41.539
  472.250   95.923    0.346    0.403   42.735
  472.500  101.466    0.334    0.380   34.823
  472.750  105.349    0.329    0.369   34.809
  473.000  105.381    0.328    0.374   34.788
  473.250  105.408    0.339    0.376   38.413
  473.500  101.630    0.343    0.374   36.580
  473.750   99.792    0.345    0.369   33.525
  474.000   97.978    0.347    0.363   32.295
  474.250   92.710    0.339    0.363   29.845
  474.500   89.356    0.333    0.368   29.832
  474.750   82.995    0.316    0.372   29.801
  475.000   83.029    0.346    0.391   32.914
  475.250   79.989    0.350    0.387   34.719
  475.500   77.062    0.350    0.382   36.522
  475.750   71.528    0.343    0.370   38.943
  476.000   65.169    0.316    0.363   39.532
  476.250   57.215    0.309    0.369   38.288
  476.500   51.174    0.323    0.377   36.434
  476.750   44.102    0.332    0.377   37.023
  477.000   38.007    0.326    0.391   37.600
  477.250   20.590    0.335    0.389   38.189
