~VERSION INFORMATION
 VERS.                 2.0:   CWLS LOG ASCII STANDARD -VERSION 2.0
 WRAP.                  NO:   ONE LINE PER DEPTH STEP
~WELL INFORMATION BLOCK
#MNEM.UNIT           DATA                    DESCRIPTION OF MNEMONIC
#---------    -------------------            -------------------------------
# Generated from Intellog Unique Number	CW_79_81/WELL/2486
WELL.         11-26-080-24W4                 : Well_name    - WELL
LOC .         00/11-26-080-24W4/0            : Location     - LOCATION
UWI .         00/11-26-080-24W4/0            : Uwi          - UNIQUE WELL ID
ENTR.         MAX                            : Entered      - ENTERED BY
SRVC.         COMPUTALOG                     : Scn          - SERVICE COMPANY
STRT.M        225                            : top_depth    - START DEPTH
STOP.M        450                            : bot_depth    - STOP DEPTH
STEP.M        0.25                           : increment    - STEP LENGTH
 NULL. -999.2500:NULL Value
~CURVE INFORMATION BLOCK
#MNEM UNIT       ERCB CURVE CODE    CURVE DESCRIPTION
#-----------   ------------------   ----------------------------------
DEPT.M        00 001 00 00         : DEPTH        - DEPTH
ILD .OHMM     00 120 00 00         : RESD         - DEEP RESISTIVITY (DIL)
NPHI.V/V      00 330 00 00         : PHIN         - NEUTRON POROSITY (SANDSTONE)
DPHI.V/V      00 890 00 00         : PHID         - DENSITY POROSITY (SANDSTONE)
GR  .API      00 310 00 00         : GR           - GAMMA RAY
CALI.MM       00 280 01 00         : CAL          - CALIPER
~PARAMETER INFORMATION
#MNEM.UNIT           DATA             DESCRIPTION OF MNEMONIC
#---------         -----------     ------------------------------
GL  .M        568.3                : gl           - GROUND LEVEL ELEVATION
EREF.M        572.95               : kb           - ELEVATION OF DEPTH REFERENCE
DATM.M        568.3                : datum        - DATUM ELEVATION
TDD .M        450                  : tdd          - TOTAL DEPTH DRILLER
RUN .         ONE                  : Run          - RUN NUMBER
ENG .         BILL                 : Engineer     - RECORDING ENGINEER
WIT .         JIM                  : Witness      - WITNESSED BY
MUD .         GEL                  : Mud_type     - MUD TYPE
MATR.         SANDSTONE            : Logunit      - NEUTRON MATRIX
TMAX.C        34                   : BHT          - MAXIMUM RECORDED TEMPERATURE
BHTD.M        450                  : BHTDEP       - MAXIMUM RECORDED TEMPERATURE
MATR.         1                    : LOGUNIT      - NEUTRON MATRIX
RMT .C        15.5                 : MDTP         - TEMPERATURE OF MUD
NEUT.         1                    : NEUTRON      - NEUTRON TYPE
RESI.         0                    : RESIST       - RESISTIVITY TYPE
RMC .OHMM     1.9                  : RMC          - RESISTIVITY OF MUD CAKE
RMF .OHMM     4.5                  : RMF          - RESISTIVITY OF MUD FILTRATE
SUFT.C        -20                  : SUFT         - SURFACE TEMPERATURE
~A  DEPTH     RESD     PHIN     PHID       GR      CAL
# ...
  261.500   19.380    0.377    0.318   45.188  224.037
  261.750   19.964    0.375    0.325   43.017  223.821
  262.000   20.678    0.385    0.329   41.446  223.806
  262.250   21.923    0.421    0.331   40.855  223.789
  262.500   22.615    0.421    0.337   40.345  223.773
  262.750   22.952    0.402    0.350   40.577  223.758
  263.000   23.553    0.398    0.357   40.987  223.742
  263.250   23.998    0.402    0.359   41.698  223.928
  263.500   24.177    0.408    0.360   42.591  224.414
  263.750   24.431    0.401    0.363   43.401  225.196
  264.000   24.812    0.399    0.363   43.893  225.182
  264.250   24.997    0.401    0.364   44.365  225.165
  264.500   25.182    0.403    0.364   46.277  225.150
  264.750   25.276    0.405    0.365   48.431  224.936
  265.000   25.321    0.407    0.367   49.744  224.620
  265.250   25.549    0.410    0.369   49.152  224.520
  265.500   25.747    0.406    0.369   48.641  224.089
  265.750   25.746    0.403    0.363   49.353  223.670
  266.000   25.744    0.403    0.360   50.967  223.555
  266.250   25.455    0.402    0.361   51.919  223.542
  266.500   24.893    0.403    0.366   51.489  223.427
  266.750   24.306    0.420    0.374   49.546  222.837
  267.000   24.118    0.420    0.376   48.286  221.989
  267.250   24.117    0.408    0.377   47.797  221.576
  267.500   24.386    0.405    0.381   47.848  221.161
  267.750   24.750    0.413    0.388   48.319  220.946
  268.000   25.120    0.427    0.394   49.332  220.932
  268.250   25.536    0.440    0.393   51.343  220.998
  268.500   25.734    0.426    0.389   51.834  221.398
  268.750   25.352    0.427    0.388   52.546  221.784
  269.000   24.696    0.426    0.388   52.897  222.171
  269.250   23.971    0.423    0.387   52.768  222.557
  269.500   23.357    0.421    0.387   52.279  222.941
  269.750   23.011    0.440    0.389   51.936  223.407
  270.000   23.011    0.451    0.394   52.679  223.810
  270.250   23.354    0.447    0.394   53.631  224.195
  270.500   24.098    0.442    0.391   54.584  224.280
  270.750   25.100    0.435    0.387   54.935  224.265
  271.000   26.202    0.429    0.383   54.144  224.249
  271.250   27.406    0.423    0.384   51.580  224.232
  271.500   28.492    0.423    0.386   50.823  224.216
  271.750   29.132    0.435    0.384   49.612  223.800
  272.000   28.482    0.433    0.381   47.681  222.784
  272.250   27.335    0.429    0.381   47.551  221.769
  272.500   26.296    0.428    0.384   49.525  221.055
  272.750   25.676    0.425    0.385   52.227  220.636
  273.000   25.476    0.421    0.382   54.970  220.618
  273.250   26.242    0.408    0.381   55.681  220.604
  273.500   26.587    0.399    0.382   56.213  220.891
  273.750   26.686    0.395    0.383   56.806  221.277
  274.000   26.734    0.395    0.381   57.818  221.662
  274.250   26.933    0.398    0.376   60.178  222.212
  274.500   26.932    0.401    0.369   62.419  223.028
  274.750   26.930    0.427    0.363   60.010  223.413
  275.000   27.080    0.432    0.362   56.518  224.100
  275.250   27.382    0.433    0.360   53.986  224.686
  275.500   27.689    0.435    0.356   53.016  224.971
  275.750   27.688    0.429    0.356   52.767  225.037
  276.000   27.687    0.402    0.361   52.756  225.438
  276.250   27.685    0.386    0.364   50.345  225.823
  276.500   27.839    0.384    0.362   48.656  226.208
  276.750   28.046    0.388    0.360   48.166  226.593
  277.000   28.254    0.395    0.359   48.697  226.978
  277.250   28.464    0.400    0.356   49.456  227.446
  277.500   28.463    0.391    0.353   49.699  227.850
  277.750   28.674    0.389    0.350   50.168  229.034
  278.000   28.726    0.393    0.346   49.740  229.920
  278.250   28.832    0.399    0.343   48.770  230.107
  278.500   29.046    0.404    0.341   48.160  229.691
  278.750   29.307    0.406    0.347   49.902  229.186
  279.000   29.534    0.413    0.355   52.645  228.757
  279.250   29.533    0.403    0.353   53.837  228.339
  279.500   29.203    0.402    0.352   55.030  228.226
  279.750   28.878    0.405    0.352   56.943  227.811
  280.000   28.663    0.410    0.354   59.035  227.096
  280.250   28.494    0.410    0.353   58.405  226.678
  280.500   28.714    0.403    0.348   52.890  226.662
  280.750   29.578    0.397    0.343   48.556  226.649
  281.000   31.309    0.407    0.339   48.007  226.033
  281.250   32.280    0.415    0.335   49.079  224.616
  281.500   31.858    0.416    0.328   50.330  223.100
  281.750   30.732    0.408    0.323   51.242  223.083
  282.000   29.795    0.400    0.336   52.232  223.067
  282.250   29.134    0.387    0.337   52.464  222.653
  282.500   28.811    0.377    0.338   52.336  222.237
  282.750   28.811    0.380    0.342   51.967  222.021
  283.000   29.078    0.397    0.350   52.257  222.005
  283.250   29.559    0.421    0.352   55.240  221.906
  283.500   29.788    0.416    0.348   56.983  221.473
  283.750   29.787    0.418    0.343   54.331  221.053
  284.000   30.118    0.419    0.337   53.122  221.239
  284.250   30.681    0.412    0.334   52.873  221.426
  284.500   31.430    0.399    0.333   53.103  221.412
  284.750   32.331    0.393    0.332   53.782  221.478
  285.000   32.081    0.395    0.330   56.027  221.877
  285.250   31.135    0.402    0.326   56.978  222.264
  285.500   30.219    0.413    0.326   55.227  222.650
  285.750   29.443    0.421    0.326   53.416  223.037
  286.000   28.793    0.425    0.324   52.806  223.423
  286.250   27.981    0.425    0.326   53.277  223.888
  286.500   27.129    0.421    0.331   53.267  224.287
  286.750   26.132    0.414    0.338   52.538  225.076
  287.000   25.462    0.408    0.344   51.808  225.559
  287.250   25.461    0.405    0.345   51.438  225.744
  287.500   26.035    0.408    0.343   51.130  225.831
  287.750   26.705    0.426    0.342   50.169  226.214
  288.000   27.122    0.440    0.347   51.410  226.195
  288.250   26.323    0.439    0.347   52.844  226.181
  288.500   25.548    0.432    0.344   51.394  226.468
  288.750   24.892    0.424    0.343   50.183  227.055
  289.000   24.343    0.419    0.347   50.534  228.040
  289.250   23.732    0.419    0.360   52.215  230.039
  289.500   23.366    0.418    0.368   53.455  232.110
  289.750   22.848    0.421    0.369   53.447  232.496
  290.000   22.342    0.428    0.371   53.078  231.681
  290.250   21.931    0.431    0.373   52.469  229.863
  290.500   21.606    0.426    0.376   51.620  227.747
  290.750   21.254    0.415    0.378   50.657  226.447
  291.000   21.089    0.417    0.377   51.899  226.014
  291.250   20.621    0.425    0.374   51.891  225.598
  291.500   19.937    0.429    0.371   52.783  225.483
  291.750   19.355    0.435    0.368   53.975  225.467
  292.000   18.855    0.442    0.366   54.746  225.452
  292.250   18.084    0.449    0.359   54.106  225.518
  292.500   17.668    0.460    0.346   53.346  225.918
  292.750   17.406    0.471    0.340   54.057  225.905
  293.000   17.341    0.474    0.335   56.389  225.890
  293.250   17.341    0.471    0.336   58.303  225.874
  293.500   17.308    0.466    0.344   58.596  225.860
  293.750   17.044    0.460    0.359   57.053  225.758
  294.000   16.397    0.455    0.356   57.794  225.325
  294.250   15.559    0.451    0.344   56.584  225.313
  294.500   14.682    0.453    0.334   56.636  225.298
  294.750   13.833    0.461    0.325   57.587  225.283
  295.000   13.011    0.467    0.317   59.260  225.169
  295.250   11.999    0.448    0.303   62.302  224.833
  295.500   11.196    0.442    0.279   65.544  225.232
  295.750   10.544    0.448    0.258   68.180  225.619
  296.000    9.091    0.448    0.244   70.632  226.606
  296.250    7.981    0.444    0.247   71.103  227.992
  296.500    7.435    0.443    0.262   69.354  229.277
  296.750    7.524    0.449    0.278   66.451  229.661
  297.000    8.008    0.441    0.294   65.190  229.646
  297.250    9.069    0.435    0.314   65.179  229.631
  297.500    9.590    0.436    0.315   66.071  229.315
  297.750    9.662    0.442    0.308   66.904  228.899
