~VERSION INFORMATION
 VERS.                 2.0:   CWLS LOG ASCII STANDARD -VERSION 2.0
 WRAP.                  NO:   ONE LINE PER DEPTH STEP
~WELL INFORMATION BLOCK
#MNEM.UNIT           DATA                    DESCRIPTION OF MNEMONIC
#---------    -------------------            -------------------------------
# Generated from Intellog Unique Number	CW_82_90/WELL/994
WELL.         11-14-084-24W4                 : Well_name    - WELL
LOC .         00/11-14-084-24W4/0            : Location     - LOCATION
UWI .         00/11-14-084-24W4/0            : Uwi          - UNIQUE WELL ID
ENTR.         JAYE                           : Entered      - ENTERED BY
SRVC.         SCHLUMBERGER                   : Scn          - SERVICE COMPANY
DATE.         3 FEB 76                       : Date         - LOG DATE
STRT.M        182.88                         : top_depth    - START DEPTH
STOP.M        390.13                         : bot_depth    - STOP DEPTH
STEP.M        0.25                           : increment    - STEP LENGTH
 NULL. -999.2500:NULL Value
~CURVE INFORMATION BLOCK
#MNEM UNIT       ERCB CURVE CODE    CURVE DESCRIPTION
#-----------   ------------------   ----------------------------------
DEPT.M        00 001 00 00         : DEPTH        - DEPTH
CALI.MM       00 280 01 00         : CAL          - CALIPER
GR  .API      00 310 00 00         : GR           - GAMMA RAY
NPHI.V/V      00 330 00 00         : PHIN         - NEUTRON POROSITY (SANDSTONE)
DPHI.V/V      00 890 00 00         : PHID         - DENSITY POROSITY (SANDSTONE)
ILD .OHMM     00 120 00 00         : RESD         - DEEP RESISTIVITY (DIL)
~PARAMETER INFORMATION
#MNEM.UNIT           DATA             DESCRIPTION OF MNEMONIC
#---------         -----------     ------------------------------
GL  .M        562.356              : gl           - GROUND LEVEL ELEVATION
EREF.M        565.099              : kb           - ELEVATION OF DEPTH REFERENCE
DATM.M        562.356              : datum        - DATUM ELEVATION
TDD .M        399.288              : tdd          - TOTAL DEPTH DRILLER
RUN .         ONE                  : Run          - RUN NUMBER
MATR.         SANDSTONE            : Logunit      - NEUTRON MATRIX
TMAX.C        17.2222              : BHT          - MAXIMUM RECORDED TEMPERATURE
BHTD.M        399.288              : BHTDEP       - MAXIMUM RECORDED TEMPERATURE
RMT .C        7.22222              : MDTP         - TEMPERATURE OF MUD
MUDD.KG/M     0                    : MWT          - MUD DENSITY
NEUT.         1                    : NEUTRON      - NEUTRON TYPE
RESI.         0                    : RESIST       - RESISTIVITY TYPE
RM  .OHMM     6.7                  : RM           - RESISTIVITY OF MUD
RMC .OHMM     0                    : RMC          - RESISTIVITY OF MUD CAKE
RMF .OHMM     0                    : RMF          - RESISTIVITY OF MUD FILTRATE
SUFT.C        -17.7778             : SUFT         - SURFACE TEMPERATURE
~A  DEPTH      CAL       GR     PHIN     PHID     RESD
  182.880  213.326   88.909    0.526    0.244    2.335
  183.130  216.975   89.593    0.541    0.239    2.320
  183.380  228.405   90.952    0.558    0.250    2.319
  183.630  218.356   91.267    0.539    0.268    2.330
  183.880  220.659   89.684    0.517    0.256    2.358
  184.130  222.438   89.019    0.524    0.254    2.388
  184.380  223.700   90.929    0.530    0.261    2.431
  184.630  224.757   93.083    0.535    0.251    2.493
  184.880  225.912   95.300    0.536    0.234    2.581
  185.130  229.249   96.289    0.524    0.240    2.633
  185.380  232.065   94.707    0.511    0.235    2.675
  185.630  223.577   93.551    0.504    0.220    2.801
  185.880  221.517   90.987    0.504    0.211    3.016
  186.130  220.808   90.752    0.517    0.206    3.116
  186.380  220.822   90.885    0.540    0.198    3.196
  186.630  220.321   91.569    0.523    0.205    3.236
  186.880  216.810   93.234    0.518    0.216    3.144
  187.130  215.582   98.331    0.517    0.219    3.061
  187.380  216.014   96.745    0.515    0.219    3.082
  187.630  218.831   93.201    0.543    0.228    3.131
  187.880  221.650   73.358    0.541    0.217    3.383
  188.130  222.806   67.057    0.472    0.182    4.083
  188.380  212.967   53.035    0.328    0.168    5.201
  188.630  210.702   48.327    0.338    0.205   10.165
  188.880  208.435   45.641    0.355    0.215   13.646
  189.130  205.858   41.730    0.377    0.244   19.411
  189.380  204.631   40.636    0.392    0.262   26.698
  189.630  204.545   42.179    0.407    0.324   29.730
  189.880  204.664   42.739    0.421    0.310   30.669
  190.130  205.510   41.156    0.423    0.310   31.338
  190.380  206.252   38.530    0.415    0.299   31.962
  190.630  206.373   39.276    0.406    0.312   32.539
  190.880  205.872   40.083    0.402    0.316   32.876
  191.130  205.682   39.848    0.408    0.315   33.473
  191.380  205.592   39.489    0.417    0.318   34.080
  191.630  204.779   39.621    0.426    0.316   34.436
  191.880  204.692   41.594    0.433    0.309   34.599
  192.130  204.293   42.276    0.426    0.325   34.507
  192.380  204.417   43.144    0.421    0.308   34.673
  192.630  204.226   43.339    0.437    0.289   35.103
  192.880  204.346   42.367    0.444    0.307   35.544
  193.130  203.946   41.029    0.447    0.311   35.447
  193.380  203.963   41.407    0.443    0.312   35.210
  193.630  203.874   42.273    0.427    0.320   35.005
  193.880  204.306   41.060    0.417    0.313   35.023
  194.130  204.634   40.088    0.415    0.324   34.938
  194.380  204.757   39.118    0.418    0.330   35.234
  194.630  205.083   38.514    0.422    0.339   35.798
  194.880  205.204   37.728    0.419    0.330   36.932
  195.130  205.427   37.371    0.411    0.324   37.587
  195.380  206.067   37.565    0.421    0.321   37.630
  195.630  205.879   37.819    0.430    0.317   36.978
  195.880  205.790   37.828    0.424    0.310   36.463
  196.130  205.704   38.021    0.407    0.303   34.771
  196.380  204.996   38.950    0.402    0.313   33.094
  196.630  204.698   40.310    0.407    0.316   30.857
  196.880  204.822   40.992    0.409    0.315   27.666
  197.130  204.835   42.043    0.404    0.314   24.117
  197.380  205.164   41.379    0.401    0.313   21.706
  197.630  205.595   38.203    0.403    0.314   23.596
  197.880  205.507   37.540    0.409    0.311   25.447
  198.130  205.731   38.100    0.414    0.306   29.644
  198.380  205.956   38.355    0.419    0.292   33.443
  198.630  206.389   38.793    0.417    0.268   33.796
  198.880  206.715   39.294    0.406    0.251   31.390
  199.130  207.148   39.305    0.408    0.247   28.087
  199.380  207.475   39.926    0.416    0.266   25.856
  199.630  207.491   41.653    0.407    0.279   25.351
  199.880  207.612   43.194    0.407    0.314   25.814
  200.130  207.733   44.307    0.401    0.314   26.423
  200.380  207.228   44.316    0.389    0.314   28.294
  200.630  206.935   43.100    0.385    0.309   30.123
  200.880  206.744   40.415    0.393    0.299   32.138
  201.130  205.830   39.077    0.409    0.308   33.771
  201.380  205.636   38.535    0.417    0.305   34.834
  201.630  205.445   38.544    0.419    0.296   35.466
  201.880  205.255   41.190    0.416    0.296   35.772
  202.130  205.481   42.241    0.409    0.313   35.536
  202.380  205.909   40.718    0.411    0.316   35.786
  202.630  206.342   39.809    0.407    0.314   35.813
  202.880  206.566   39.513    0.406    0.307   35.455
  203.130  206.687   39.522    0.408    0.306   35.165
  203.380  207.117   39.409    0.413    0.305   34.812
  203.630  207.445   39.787    0.420    0.305   34.716
  203.880  207.674   40.165    0.433    0.300   34.550
  204.130  207.790   40.910    0.432    0.307   33.827
  204.380  207.495   42.392    0.428    0.315   33.109
  204.630  207.203   44.300    0.433    0.310   31.865
  204.880  206.906   46.455    0.437    0.305   29.604
  205.130  206.820   48.608    0.425    0.302   26.343
  205.380  206.837   50.701    0.416    0.303   18.181
  205.630  206.855   53.470    0.411    0.293   13.345
  205.880  207.076   55.563    0.415    0.275   10.343
  206.130  207.509   59.676    0.425    0.241   10.729
  206.380  207.735   65.507    0.418    0.238   11.296
  206.630  207.749   61.167    0.442    0.233   12.207
  206.880  207.454   51.250    0.433    0.249   13.620
  207.130  205.709   52.057    0.421    0.275   14.393
  207.380  208.215   56.846    0.434    0.277   14.818
  207.630  209.166   59.858    0.443    0.261   14.916
  207.880  209.080   60.175    0.448    0.265   13.175
  208.130  207.849   57.304    0.441    0.262   11.616
  208.380  208.075   61.727    0.427    0.251   10.127
  208.630  209.128   68.537    0.416    0.234    9.389
  208.880  210.182   74.245    0.427    0.219    8.739
  209.130  210.822   78.177    0.449    0.214    8.333
  209.380  211.255   78.493    0.455    0.225    8.679
  209.630  211.995   74.213    0.445    0.222    9.105
  209.880  213.780   70.853    0.433    0.215    9.442
  210.130  214.623   68.290    0.432    0.231   10.279
  210.380  212.982   65.236    0.438    0.241   12.174
  210.630  212.269   61.876    0.438    0.248   14.338
  210.880  211.248   58.883    0.427    0.254   13.957
  211.130  211.269   58.096    0.412    0.286    8.691
  211.380  210.971   68.462    0.407    0.281    6.440
  211.630  211.301   73.005    0.416    0.270    4.781
  211.880  212.146   87.782    0.430    0.259    4.742
  212.130  214.859   86.812    0.459    0.250    5.700
  212.380  216.121   70.951    0.465    0.223    7.454
  212.630  215.516   55.336    0.465    0.244   13.444
  212.880  213.251   53.386    0.451    0.278   18.456
  213.130  208.809   54.071    0.437    0.301   25.153
  213.380  207.785   53.834    0.418    0.328   26.877
  213.630  207.697   53.415    0.415    0.322   27.934
  213.880  207.407   53.609    0.416    0.311   28.232
  214.130  207.316   53.129    0.419    0.303   28.311
  214.380  207.539   51.975    0.423    0.297   28.235
  214.630  207.560   50.881    0.423    0.296   28.056
  214.880  207.471   51.076    0.420    0.312   27.974
  215.130  207.696   51.760    0.415    0.318   28.011
  215.380  207.399   52.872    0.413    0.322   28.301
  215.630  206.794   54.475    0.409    0.326   28.593
  215.880  206.810   55.466    0.414    0.330   28.314
  216.130  207.243   56.090    0.428    0.336   27.400
  216.380  207.362   56.403    0.431    0.340   26.175
  216.630  206.445   57.639    0.419    0.342   26.008
  216.880  205.215   59.487    0.425    0.338   25.700
  217.130  203.469   61.030    0.421    0.328   25.391
  217.380  202.659   61.958    0.423    0.320   25.088
  217.630  202.463   62.948    0.438    0.300   23.973
  217.880  202.068   63.204    0.442    0.303   22.687
  218.130  202.706   64.070    0.434    0.325   20.224
  218.380  203.656   67.756    0.428    0.324   13.984
  218.630  204.397   69.665    0.431    0.314    5.915
  218.880  206.493   75.252    0.450    0.302    4.424
  219.130  207.858   80.285    0.480    0.277    4.056
