~VERSION INFORMATION
 VERS.                 2.0:   CWLS LOG ASCII STANDARD -VERSION 2.0
 WRAP.                  NO:   ONE LINE PER DEPTH STEP
~WELL INFORMATION BLOCK
#MNEM.UNIT           DATA                    DESCRIPTION OF MNEMONIC
#---------    -------------------            -------------------------------
# Generated from Intellog Unique Number	CS_73_76/WELL/2187
WELL.         PEX MARGIE                     : Well_name    - WELL
LOC .         00/10-11-074-09W4/0            : Location     - LOCATION
UWI .         00/10-11-074-09W4/0            : Uwi          - UNIQUE WELL ID
ENTR.         SP                             : Entered      - ENTERED BY
SRVC.         SCHLUMBERGER                   : Scn          - SERVICE COMPANY
STRT.M        285                            : top_depth    - START DEPTH
STOP.M        500                            : bot_depth    - STOP DEPTH
STEP.M        0.25                           : increment    - STEP LENGTH
 NULL. -999.2500:NULL Value
~CURVE INFORMATION BLOCK
#MNEM UNIT       ERCB CURVE CODE    CURVE DESCRIPTION
#-----------   ------------------   ----------------------------------
DEPT.M        00 001 00 00         : DEPTH        - DEPTH
ILD .OHMM     00 120 00 00         : RESD         - DEEP RESISTIVITY (DIL)
DPHI.V/V      00 890 00 00         : PHID         - DENSITY POROSITY (LIMESTONE)
NPHI.V/V      00 330 00 00         : PHIN         - NEUTRON POROSITY (LIMESTONE)
GR  .API      00 310 00 00         : GR           - GAMMA RAY
~PARAMETER INFORMATION
#MNEM.UNIT           DATA             DESCRIPTION OF MNEMONIC
#---------         -----------     ------------------------------
GL  .M        659.5                : gl           - GROUND LEVEL ELEVATION
EREF.M        663.3                : kb           - ELEVATION OF DEPTH REFERENCE
DATM.M        659.5                : datum        - DATUM ELEVATION
TDD .M        609                  : tdd          - TOTAL DEPTH DRILLER
RUN .         ONE                  : Run          - RUN NUMBER
ENG .         BILL                 : Engineer     - RECORDING ENGINEER
WIT .         JIM                  : Witness      - WITNESSED BY
MUD .         GEL                  : Mud_type     - MUD TYPE
MATR.         LIMESTONE            : Logunit      - NEUTRON MATRIX
TMAX.C        22.5                 : BHT          - MAXIMUM RECORDED TEMPERATURE
BHTD.M        609                  : BHTDEP       - MAXIMUM RECORDED TEMPERATURE
MATR.         1                    : LOGUNIT      - NEUTRON MATRIX
RMT .C        25                   : MDTP         - TEMPERATURE OF MUD
NEUT.         1                    : NEUTRON      - NEUTRON TYPE
RESI.         0                    : RESIST       - RESISTIVITY TYPE
RMC .OHMM     0.25                 : RMC          - RESISTIVITY OF MUD CAKE
RMF .OHMM     0.25                 : RMF          - RESISTIVITY OF MUD FILTRATE
SUFT.C        15                   : SUFT         - SURFACE TEMPERATURE
~A  DEPTH     RESD     PHID     PHIN       GR
  285.000    3.112    0.239    0.531   88.665
  285.250    3.231    0.239    0.528   86.844
  285.500    3.354    0.236    0.523   82.595
  285.750    3.482    0.223    0.521   81.382
  286.000    3.548    0.194    0.509   80.168
  286.250    3.753    0.150    0.492   78.348
  286.500    4.046    0.158    0.485   78.957
  286.750    4.122    0.188    0.476   84.424
  287.000    4.199    0.200    0.471   85.033
  287.250    4.041    0.207    0.474   82.605
  287.500    3.964    0.215    0.491   81.392
  287.750    3.673    0.218    0.507   85.037
  288.000    3.535    0.229    0.517   86.860
  288.250    3.276    0.237    0.502   87.469
  288.500    3.214    0.232    0.493   86.256
  288.750    3.152    0.232    0.491   85.042
  289.000    3.334    0.237    0.474   84.437
  289.250    3.462    0.238    0.479   83.223
  289.500    3.662    0.232    0.501   85.047
  289.750    3.802    0.223    0.503   89.906
  290.000    3.874    0.217    0.502   94.159
  290.250    3.727    0.216    0.507   94.767
  290.500    3.588    0.222    0.521   92.340
  290.750    3.519    0.225    0.524   88.091
  291.000    3.452    0.228    0.520   87.484
  291.250    3.516    0.233    0.509   85.664
  291.500    3.791    0.234    0.493   82.022
  291.750    3.862    0.222    0.485   80.201
  292.000    3.934    0.209    0.481   82.025
  292.250    3.859    0.211    0.490   82.633
  292.500    3.785    0.222    0.513   82.634
  292.750    4.159    0.217    0.521   77.777
  293.000    4.746    0.109    0.412   72.921
  293.250    6.544    0.135    0.402   72.922
  293.500    8.366    0.216    0.404   77.782
  293.750   10.694    0.237    0.401   78.390
  294.000   12.205    0.261    0.401   77.177
  294.250   13.412    0.264    0.406   79.000
  294.500   14.736    0.265    0.412   83.253
  294.750   15.012    0.261    0.428   89.327
  295.000   13.395    0.248    0.431   95.402
  295.250   12.649    0.234    0.417   97.225
  295.500   12.887    0.220    0.421   97.833
  295.750   13.125    0.217    0.404   90.547
  296.000   14.976    0.250    0.404   78.403
  296.250   16.147    0.281    0.421   64.437
  296.500   17.409    0.310    0.394   55.329
  296.750   18.420    0.313    0.384   41.362
  297.000   19.491    0.309    0.382   38.328
  297.250   19.856    0.306    0.382   38.328
  297.500   20.610    0.304    0.384   34.687
  297.750   20.602    0.307    0.390   33.473
  298.000   20.209    0.313    0.390   35.297
  298.250   19.451    0.318    0.388   37.120
  298.500   18.369    0.323    0.385   39.550
  298.750   16.704    0.326    0.383   48.054
  299.000   15.481    0.318    0.384   55.343
  299.250   13.813    0.294    0.398   63.239
  299.500   12.800    0.269    0.396   69.314
  299.750   14.066    0.248    0.410   69.922
  300.000   14.602    0.279    0.426   68.102
  300.250   14.595    0.290    0.400   65.067
  300.500   14.314    0.301    0.391   63.853
  300.750   14.040    0.291    0.402   65.069
  301.000   14.036    0.271    0.413   68.107
  301.250   13.765    0.232    0.423   69.931
  301.500   13.762    0.189    0.434   71.146
  301.750   13.754    0.216    0.421   74.185
  302.000   13.749    0.242    0.410   73.579
  302.250   14.007    0.261    0.404   72.365
  302.500   14.540    0.270    0.415   69.937
  302.750   15.675    0.282    0.434   65.688
  303.000   15.970    0.297    0.413   60.224
  303.250   16.578    0.302    0.390   57.796
  303.500   16.888    0.296    0.388   57.190
  303.750   16.880    0.287    0.401   55.977
  304.000   16.874    0.279    0.413   49.298
  304.250   16.868    0.302    0.428   43.227
  304.500   17.843    0.323    0.440   37.762
  304.750   18.180    0.329    0.420   32.906
  305.000   19.230    0.320    0.399   29.870
  305.250   19.591    0.317    0.400   28.657
  305.500   20.340    0.325    0.411   30.480
  305.750   21.110    0.330    0.395   30.482
  306.000   21.105    0.318    0.389   31.698
  306.250   21.498    0.313    0.398   32.306
  306.500   21.090    0.314    0.393   33.523
  306.750   20.683    0.334    0.388   33.525
  307.000   20.678    0.342    0.393   33.526
  307.250   20.277    0.325    0.398   32.920
  307.500   20.273    0.309    0.393   32.314
  307.750   19.146    0.315    0.391   34.744
  308.000   18.428    0.320    0.395   42.641
  308.250   16.133    0.319    0.402   49.322
  308.500   14.394    0.308    0.410   57.218
  308.750   13.596    0.292    0.401   65.722
  309.000   12.838    0.264    0.385   74.225
  309.250   12.832    0.233    0.390   73.619
  309.500   12.828    0.220    0.401   66.334
  309.750   12.824    0.195    0.400   59.047
  310.000   11.661    0.184    0.380   55.405
  310.250   10.017    0.191    0.355   62.694
  310.500    9.110    0.220    0.361   89.416
  310.750    8.285    0.215    0.413   93.061
  311.000    6.984    0.199    0.459   93.670
  311.250    6.232    0.169    0.463   94.279
  311.500    5.456    0.163    0.470   96.709
  311.750    4.777    0.178    0.482  100.962
  312.000    4.427    0.190    0.498  102.178
  312.250    4.025    0.196    0.529  102.179
  312.500    3.875    0.190    0.556  101.574
  312.750    3.659    0.187    0.572  101.575
  313.000    3.391    0.191    0.539  102.183
  313.250    3.390    0.221    0.526  102.185
  313.500    4.172    0.252    0.536   97.328
  313.750    5.234    0.264    0.506   82.754
  314.000    7.495    0.258    0.440   71.217
  314.250    9.952    0.248    0.421   66.967
  314.500   10.935    0.238    0.420   64.540
  314.750   10.725    0.239    0.415   65.755
  315.000    9.939    0.212    0.410   71.830
  315.250    9.211    0.198    0.421   83.370
  315.500    8.536    0.187    0.438   87.015
  315.750    7.910    0.183    0.453   83.980
  316.000    7.759    0.189    0.434   80.945
  316.250    8.054    0.206    0.416   74.874
  316.500    8.522    0.216    0.400   72.446
  316.750    8.847    0.220    0.384   75.484
  317.000    9.011    0.206    0.384   85.809
  317.250    8.194    0.184    0.426   93.705
  317.500    6.908    0.158    0.443   99.172
  317.750    6.402    0.168    0.453  105.247
  318.000    5.821    0.177    0.470  107.677
  318.250    5.395    0.171    0.476  110.108
  318.500    5.095    0.174    0.475  112.539
  318.750    4.721    0.184    0.461  114.361
  319.000    4.810    0.187    0.447  115.578
  319.250    5.700    0.187    0.456  113.150
  319.500    6.384    0.206    0.450  110.115
  319.750    9.676    0.220    0.431  104.043
  320.000   11.687    0.229    0.425   93.721
  320.250   13.333    0.266    0.416   83.398
  320.500   13.842    0.292    0.425   78.541
  320.750   14.102    0.310    0.440   77.328
  321.000   13.833    0.303    0.437   76.115
  321.250   12.818    0.279    0.429   77.938
  321.500   12.107    0.243    0.421   80.368
  321.750   11.219    0.236    0.412   80.977
  322.000   11.005    0.240    0.432   82.801
  322.250   11.211    0.244    0.437   85.231
  322.500   12.553    0.250    0.436   82.803
  322.750   13.792    0.277    0.423   71.874
  323.000   14.319    0.298    0.389   54.263
  323.250   14.866    0.309    0.380   41.512
  323.500   15.432    0.317    0.382   34.833
  323.750   15.719    0.302    0.389   39.086
  324.000   16.012    0.290    0.395   41.516
  324.250   16.005    0.276    0.412   46.376
  324.500   15.998    0.259    0.406   48.806
  324.750   16.298    0.243    0.389   47.593
  325.000   16.293    0.275    0.384   49.417
  325.250   16.287    0.309    0.391   52.454
  325.500   16.279    0.314    0.399   54.278
  325.750   15.666    0.314    0.410   54.279
  326.000   15.079    0.304    0.420   63.997
  326.250   14.241    0.291    0.410   69.464
  326.500   13.707    0.272    0.371   74.324
  326.750   13.194    0.240    0.373   77.969
  327.000   12.223    0.228    0.379   79.185
  327.250   11.990    0.212    0.372   81.008
  327.500   11.761    0.206    0.372   85.261
  327.750   11.536    0.205    0.405   87.084
  328.000   11.104    0.210    0.422   87.085
  328.250   10.891    0.217    0.405   87.694
