~VERSION INFORMATION
 VERS.                 2.0:   CWLS LOG ASCII STANDARD -VERSION 2.0
 WRAP.                  NO:   ONE LINE PER DEPTH STEP
~WELL INFORMATION BLOCK
#MNEM.UNIT           DATA                    DESCRIPTION OF MNEMONIC
#---------    -------------------            -------------------------------
# Generated from Intellog Unique Number	CX_WELLS/WELL/3315
WELL.         PCL SURMONT                    : Well_name    - WELL
LOC .         00/11-24-084-06W4/0            : Location     - LOCATION
UWI .         00/11-24-084-06W4/0            : Uwi          - UNIQUE WELL ID
ENTR.         T                              : Entered      - ENTERED BY
SRVC.         SCHLUMBERGER                   : Scn          - SERVICE COMPANY
STRT.M        75                             : top_depth    - START DEPTH
STOP.M        260                            : bot_depth    - STOP DEPTH
STEP.M        0.25                           : increment    - STEP LENGTH
 NULL. -999.2500:NULL Value
~CURVE INFORMATION BLOCK
#MNEM UNIT       ERCB CURVE CODE    CURVE DESCRIPTION
#-----------   ------------------   ----------------------------------
DEPT.M        00 001 00 00         : DEPTH        - DEPTH
GR  .API      00 310 00 00         : GR           - GAMMA RAY
NPHI.V/V      00 330 00 00         : PHIN         - NEUTRON POROSITY (SANDSTONE)
DPHI.V/V      00 890 00 00         : PHID         - DENSITY POROSITY (SANDSTONE)
ILD .OHMM     00 120 00 00         : RESD         - DEEP RESISTIVITY (DIL)
~PARAMETER INFORMATION
#MNEM.UNIT           DATA             DESCRIPTION OF MNEMONIC
#---------         -----------     ------------------------------
GL  .M        465                  : gl           - GROUND LEVEL ELEVATION
EREF.M        469                  : kb           - ELEVATION OF DEPTH REFERENCE
DATM.M        469                  : datum        - DATUM ELEVATION
TDD .M        276                  : tdd          - TOTAL DEPTH DRILLER
RUN .         ONE                  : Run          - RUN NUMBER
ENG .         BILL                 : Engineer     - RECORDING ENGINEER
WIT .         JIM                  : Witness      - WITNESSED BY
MUD .         GEL                  : Mud_type     - MUD TYPE
MATR.         SANDSTONE            : Logunit      - NEUTRON MATRIX
TMAX.C        12                   : BHT          - MAXIMUM RECORDED TEMPERATURE
BHTD.M        276                  : BHTDEP       - MAXIMUM RECORDED TEMPERATURE
MATR.         1                    : LOGUNIT      - NEUTRON MATRIX
RMT .C        12                   : MDTP         - TEMPERATURE OF MUD
NEUT.         1                    : NEUTRON      - NEUTRON TYPE
RESI.         5                    : RESIST       - RESISTIVITY TYPE
RMC .OHMM     1.8                  : RMC          - RESISTIVITY OF MUD CAKE
RMF .OHMM     4.5                  : RMF          - RESISTIVITY OF MUD FILTRATE
SUFT.C        4                    : SUFT         - SURFACE TEMPERATURE
~A  DEPTH       GR     PHIN     PHID     RESD
# ...
  162.000   76.237    0.453    0.278    4.727
  162.250   77.552    0.438    0.269    5.117
  162.500   80.109    0.411    0.266    5.641
  162.750   82.665    0.391    0.298    5.981
  163.000   83.980    0.374    0.310    6.595
  163.250   82.169    0.359    0.328    7.138
  163.500   74.783    0.344    0.334    7.577
  163.750   69.901    0.318    0.322    7.904
  164.000   68.108    0.313    0.322    8.219
  164.250   66.315    0.341    0.329    8.584
  164.500   65.161    0.354    0.315    8.319
  164.750   65.818    0.357    0.300    8.044
  165.000   67.771    0.373    0.289    7.915
  165.250   68.464    0.379    0.284    7.662
  165.500   67.275    0.383    0.279    7.563
  165.750   66.121    0.394    0.285    7.458
  166.000   65.553    0.401    0.291    7.490
  166.250   65.021    0.397    0.287    7.523
  166.500   64.470    0.389    0.276    7.556
  166.750   64.542    0.366    0.252    7.739
  167.000   63.370    0.350    0.197    7.926
  167.250   60.316    0.361    0.231    7.944
  167.500   57.281    0.381    0.252    7.979
  167.750   59.855    0.389    0.154    8.023
  168.000   61.169    0.373    0.194    7.477
  168.250   61.880    0.334    0.229    6.976
  168.500   63.194    0.340    0.236    6.630
  168.750   65.733    0.371    0.236    6.545
  169.000   75.747    0.402    0.235    6.336
  169.250   85.158    0.404    0.235    6.364
  169.500   82.122    0.382    0.234    6.282
  169.750   79.725    0.382    0.234    6.302
  170.000   80.418    0.380    0.237    6.448
  170.250   79.868    0.377    0.236    6.469
  170.500   78.696    0.373    0.234    6.618
  170.750   79.389    0.370    0.234    6.771
  171.000   79.460    0.372    0.243    6.435
  171.250   82.621    0.388    0.251    5.787
  171.500   86.456    0.404    0.256    5.109
  171.750   80.899    0.423    0.253    4.674
  172.000   74.135    0.454    0.262    3.978
  172.250   70.495    0.471    0.275    3.512
  172.500   70.566    0.469    0.287    3.217
  172.750   70.638    0.468    0.293    3.546
  173.000   70.709    0.475    0.281    3.830
  173.250   70.177    0.472    0.270    4.306
  173.500   70.212    0.445    0.268    4.566
  173.750   69.662    0.437    0.268    4.857
  174.000   67.887    0.436    0.263    4.964
  174.250   66.094    0.410    0.258    4.980
  174.500   66.165    0.400    0.253    5.013
  174.750   69.983    0.388    0.251    5.024
  175.000   73.782    0.371    0.249    4.954
  175.250   73.836    0.368    0.249    4.976
  175.500   73.943    0.366    0.258    4.906
  175.750   73.978    0.398    0.260    4.848
  176.000   74.050    0.433    0.251    4.859
  176.250   73.517    0.429    0.249    4.618
  176.500   76.074    0.428    0.248    4.394
  176.750   78.631    0.439    0.255    3.955
  177.000   79.963    0.440    0.256    3.821
  177.250   80.034    0.437    0.252    3.569
  177.500   80.106    0.434    0.251    3.395
  177.750   78.934    0.434    0.248    3.341
  178.000   77.159    0.443    0.248    3.294
  178.250   75.970    0.450    0.243    3.308
  178.500   75.402    0.443    0.241    3.330
  178.750   74.852    0.436    0.237    3.338
  179.000   74.923    0.435    0.235    3.356
  179.250   75.615    0.436    0.238    3.367
  179.500   77.551    0.428    0.248    3.385
  179.750   78.244    0.433    0.250    3.464
  180.000   78.315    0.433    0.245    3.613
  180.250   79.629    0.431    0.240    3.697
  180.500   82.843    0.437    0.238    3.778
  180.750   84.157    0.436    0.236    3.946
  181.000   82.986    0.411    0.232    4.037
  181.250   79.310    0.405    0.235    4.121
  181.500   75.032    0.391    0.241    4.379
  181.750   78.228    0.399    0.241    4.485
  182.000   78.281    0.405    0.210    4.509
  182.250   77.749    0.395    0.196    4.519
  182.500   77.199    0.380    0.147    4.709
  182.750   75.388    0.351    0.201    5.092
  183.000   71.731    0.329    0.251    5.614
  183.250   65.588    0.321    0.285    6.183
  183.500   63.156    0.321    0.287    6.450
  183.750   62.605    0.322    0.280    6.599
  184.000   61.434    0.323    0.278    6.628
  184.250   61.541    0.324    0.277    6.528
  184.500   63.494    0.325    0.276    6.437
  184.750   63.530    0.325    0.271    6.006
  185.000   63.601    0.332    0.268    5.604
  185.250   63.672    0.348    0.274    5.526
  185.500   66.229    0.362    0.290    5.865
  185.750   69.408    0.366    0.315    6.240
  186.000   72.000    0.349    0.348    6.495
  186.250   69.550    0.298    0.362    6.645
  186.500   63.407    0.309    0.356    6.925
  186.750   57.886    0.325    0.335    7.216
  187.000   58.578    0.328    0.340    7.248
  187.250   59.910    0.279    0.354    7.280
  187.500   58.739    0.251    0.373    7.186
  187.750   56.324    0.210    0.392    6.949
  188.000   53.271    0.203    0.385    6.263
  188.250   52.721    0.235    0.362    5.939
  188.500   54.656    0.283    0.342    5.341
  188.750   65.309    0.354    0.299    4.803
  189.000   70.352    0.358    0.252    4.649
  189.250   71.684    0.366    0.248    4.670
  189.500   71.773    0.373    0.243    4.695
  189.750   73.051    0.371    0.236    4.809
  190.000   75.022    0.363    0.226    4.819
  190.250   74.455    0.358    0.228    4.841
  190.500   73.922    0.353    0.232    4.862
  190.750   73.976    0.348    0.233    4.888
  191.000   75.308    0.347    0.233    4.905
  191.250   76.018    0.344    0.232    4.932
  191.500   76.693    0.343    0.229    4.948
  191.750   76.161    0.345    0.225    4.969
  192.000   76.196    0.350    0.213    4.906
  192.250   75.043    0.352    0.207    4.927
  192.500   75.132    0.349    0.211    4.858
  192.750   75.789    0.347    0.212    4.791
  193.000   75.860    0.349    0.215    4.724
  193.250   73.445    0.355    0.219    4.573
  193.500   71.670    0.356    0.220    4.427
  193.750   72.984    0.355    0.222    4.285
  194.000   73.677    0.351    0.225    4.148
  194.250   73.127    0.348    0.229    4.016
  194.500   73.820    0.343    0.231    3.888
  194.750   75.152    0.341    0.225    3.763
  195.000   75.862    0.341    0.238    3.711
  195.250   75.276    0.339    0.243    3.527
  195.500   74.744    0.337    0.232    3.352
  195.750   76.662    0.336    0.226    3.127
  196.000   78.597    0.335    0.217    3.080
  196.250   76.822    0.335    0.215    3.094
  196.500   75.047    0.335    0.211    3.224
  196.750   73.840    0.335    0.208    3.422
  197.000   73.289    0.335    0.206    3.441
  197.250   72.118    0.333    0.213    3.331
  197.500   69.704    0.333    0.223    3.281
  197.750   67.910    0.333    0.229    3.061
  198.000   71.107    0.338    0.237    2.964
  198.250   73.042    0.349    0.246    2.869
  198.500   73.735    0.355    0.254    2.777
  198.750   72.563    0.361    0.260    2.691
  199.000   70.788    0.373    0.267    2.603
  199.250   68.977    0.369    0.282    2.519
  199.500   67.202    0.358    0.291    2.484
  199.750   66.031    0.350    0.264    2.452
  200.000   65.480    0.338    0.261    2.418
  200.250   60.545    0.345    0.253    2.431
  200.500   61.255    0.352    0.252    2.392
  200.750   67.541    0.360    0.256    2.359
  201.000   69.476    0.355    0.259    2.286
  201.250   70.169    0.342    0.269    2.211
  201.500   65.269    0.330    0.285    2.069
  201.750   57.262    0.323    0.290    2.034
  202.000   59.197    0.328    0.281    1.969
  202.250   64.240    0.333    0.281    1.809
  202.500   60.582    0.333    0.287    1.750
  202.750   44.479    0.335    0.294    1.690
  203.000   39.579    0.335    0.297    1.665
  203.250   34.679    0.335    0.299    1.582
  203.500   34.768    0.333    0.300    1.531
  203.750   36.082    0.333    0.287    1.455
  204.000   38.017    0.333    0.277    1.409
  204.250   44.303    0.333    0.285    1.316
  204.500   59.288    0.334    0.288    1.273
  204.750   81.784    0.345    0.294    1.211
  205.000   81.234    0.356    0.299    1.152
  205.250   82.530    0.351    0.303    1.114
