~VERSION INFORMATION
 VERS.                 2.0:   CWLS LOG ASCII STANDARD -VERSION 2.0
 WRAP.                  NO:   ONE LINE PER DEPTH STEP
~WELL INFORMATION BLOCK
#MNEM.UNIT           DATA                    DESCRIPTION OF MNEMONIC
#---------    -------------------            -------------------------------
# Generated from Intellog Unique Number	CS_69_70/WELL/857
NULL.         -999.25                        : NULL_VALUE
WELL.         BVX HART LAKE                  : Well_name    - WELL              
LOC .         00/10-02-070-11W4/0            : Location     - LOCATION          
UWI .         00/10-02-070-11W4/0            : Uwi          - UNIQUE WELL ID    
ENTR.         SP                             : Entered      - ENTERED BY        
SRVC.         SCHLUMBERGER                   : Scn          - SERVICE COMPANY   
STRT.M        275                            : top_depth    - START DEPTH       
STOP.M        480                            : bot_depth    - STOP DEPTH        
STEP.M        0.25                           : increment    - STEP LENGTH       
~CURVE INFORMATION BLOCK
#MNEM UNIT       ERCB CURVE CODE    CURVE DESCRIPTION
#-----------   ------------------   ----------------------------------
DEPT.M        00 001 00 00         : DEPTH        - DEPTH                       
ILD .OHMM     00 120 00 00         : RESD         - DEEP RESISTIVITY (DIL)      
GR  .API      00 310 00 00         : GR           - GAMMA RAY                   
NPHI.V/V      00 330 00 00         : PHIN         - NEUTRON POROSITY (LIMESTONE)
DPHI.V/V      00 890 00 00         : PHID         - DENSITY POROSITY (LIMESTONE)
~PARAMETER INFORMATION       
#MNEM.UNIT           DATA             DESCRIPTION OF MNEMONIC
#---------         -----------     ------------------------------
GL  .M        604.1                : gl           - GROUND LEVEL ELEVATION      
EREF.M        606.85               : kb           - ELEVATION OF DEPTH REFERENCE
DATM.M        604.1                : datum        - DATUM ELEVATION             
TDD .M        481.2                : tdd          - TOTAL DEPTH DRILLER         
RUN .         ONE                  : Run          - RUN NUMBER                  
ENG .         BILL                 : Engineer     - RECORDING ENGINEER          
WIT .         JIM                  : Witness      - WITNESSED BY                
MUD .         GEL                  : Mud_type     - MUD TYPE                    
MATR.         LIMESTONE            : Logunit      - NEUTRON MATRIX              
TMAX.C        21                   : BHT          - MAXIMUM RECORDED TEMPERATURE
BHTD.M        481.2                : BHTDEP       - MAXIMUM RECORDED TEMPERATURE
MATR.         1                    : LOGUNIT      - NEUTRON MATRIX              
RMT .C        25                   : MDTP         - TEMPERATURE OF MUD          
NEUT.         1                    : NEUTRON      - NEUTRON TYPE                
RESI.         0                    : RESIST       - RESISTIVITY TYPE            
RMC .OHMM     0.25                 : RMC          - RESISTIVITY OF MUD CAKE     
RMF .OHMM     0.25                 : RMF          - RESISTIVITY OF MUD FILTRATE 
SUFT.C        15                   : SUFT         - SURFACE TEMPERATURE         
~A  DEPTH     RESD       GR     PHIN     PHID
# ...
  362.000    6.848   69.048    0.451    0.261
  362.250    6.784   70.082    0.449    0.269
  362.500    6.708   72.145    0.438    0.282
  362.750    6.669   73.662    0.435    0.271
  363.000    6.631   74.635    0.443    0.266
  363.250    6.593   75.066    0.456    0.282
  363.500    6.519   75.314    0.465    0.290
  363.750    6.470   75.684    0.462    0.276
  364.000    6.433   75.874    0.457    0.261
  364.250    6.384   76.305    0.456    0.267
  364.500    6.324   76.371    0.454    0.267
  364.750    6.276   76.320    0.453    0.259
  365.000    6.241   75.418    0.451    0.269
  365.250    6.194   72.465    0.446    0.286
  365.500    6.146   73.017    0.440    0.300
  365.750    6.146   77.494    0.439    0.281
  366.000    6.088   81.126    0.446    0.269
  366.250    6.042   83.550    0.454    0.265
  366.500    5.985   82.953    0.464    0.259
  366.750    5.984   78.973    0.460    0.265
  367.000    5.983   75.356    0.460    0.279
  367.250    6.071   73.792    0.461    0.286
  367.500    6.207   74.344    0.454    0.293
  367.750    6.440   74.230    0.445    0.298
  368.000    6.645   74.177    0.439    0.286
  368.250    6.831   74.607    0.433    0.299
  368.500    6.957   78.844    0.428    0.287
  368.750    7.073   82.414    0.447    0.258
  369.000    7.205   85.080    0.466    0.274
  369.250    7.365   84.241    0.482    0.260
  369.500    7.488   80.020    0.460    0.246
  369.750    7.656   79.000    0.442    0.245
  370.000    7.958   79.733    0.435    0.247
  370.250    8.569   80.706    0.434    0.258
  370.500    9.279   82.828    0.429    0.269
  370.750   10.235   84.164    0.428    0.282
  371.000   11.165   80.184    0.433    0.295
  371.250   11.372   75.540    0.431    0.288
  371.500   10.173   75.909    0.427    0.272
  371.750    9.254   79.361    0.438    0.268
  372.000    8.418   80.757    0.449    0.271
  372.250    7.743   78.590    0.455    0.288
  372.500    7.268   76.361    0.450    0.296
  372.750    7.107   77.879    0.444    0.283
  373.000    7.106   80.484    0.441    0.247
  373.250    7.158   81.398    0.445    0.251
  373.500    7.236   79.595    0.465    0.269
  373.750    7.289   78.815    0.475    0.276
  374.000    7.329   78.944    0.468    0.253
  374.250    7.382   78.890    0.460    0.223
  374.500    7.435   78.474    0.445    0.214
  374.750    7.407   76.367    0.435    0.208
  375.000    7.378   71.904    0.395    0.196
  375.250    7.295   66.776    0.309    0.106
  375.500    7.147   66.058    0.296    0.113
  375.750    7.001   78.027    0.401    0.195
  376.000    6.683   82.988    0.428    0.223
  376.250    6.379   82.331    0.444    0.228
  376.500    6.226   80.951    0.461    0.246
  376.750    5.998   80.351    0.473    0.271
  377.000    5.800   80.238    0.484    0.259
  377.250    5.714   81.333    0.474    0.229
  377.500    5.608   82.972    0.460    0.225
  377.750    5.566   86.243    0.450    0.241
  378.000    5.555   88.181    0.446    0.249
  378.250    5.522   90.847    0.449    0.241
  378.500    5.471   93.213    0.445    0.229
  378.750    5.460   93.942    0.442    0.223
  379.000    5.338   94.433    0.444    0.224
  379.250    5.289   94.441    0.444    0.231
  379.500    5.152   94.449    0.457    0.231
  379.750    4.696   94.395    0.474    0.218
  380.000    4.279   93.497    0.484    0.217
  380.250    4.223   92.597    0.477    0.228
  380.500    4.382   88.683    0.470    0.228
  380.750    4.640   88.322    0.466    0.230
  381.000    4.788   87.484    0.475    0.231
  381.250    4.959   86.765    0.478    0.219
  381.500    5.079   86.531    0.469    0.219
  381.750    5.088   89.439    0.464    0.222
  382.000    4.723   91.016    0.472    0.222
  382.250    3.938   89.151    0.480    0.229
  382.500    3.146   91.514    0.476    0.241
  382.750    2.463   94.119    0.470    0.254
  383.000    2.088   96.482    0.497    0.265
  383.250    1.889   97.094    0.540    0.273
  383.500    1.850   96.075    0.572    0.276
  383.750    2.007   95.356    0.559    0.270
  384.000    2.255   91.981    0.541    0.250
  384.250    2.442   89.874    0.525    0.217
  384.500    2.729   89.881    0.509    0.224
  384.750    3.055   90.492    0.513    0.208
  385.000    3.616   89.956    0.510    0.226
  385.250    3.952   87.909    0.473    0.237
  385.500    4.343   87.192    0.449    0.227
  385.750    4.548   89.194    0.446    0.241
  386.000    4.589   91.133    0.459    0.239
  386.250    4.555   93.738    0.472    0.236
  386.500    4.372   89.516    0.483    0.245
  386.750    4.228   82.214    0.491    0.253
  387.000    4.142   77.509    0.500    0.257
  387.250    4.110   75.039    0.513    0.275
  387.500    4.156   81.813    0.495    0.283
  387.750    4.225   86.049    0.486    0.262
  388.000    4.248   82.975    0.496    0.257
  388.250    4.382   75.371    0.483    0.260
  388.500    4.407   72.054    0.494    0.259
  388.750    4.497   68.861    0.483    0.281
  389.000    4.614   66.694    0.470    0.305
  389.250    4.682   70.989    0.484    0.318
  389.500    4.725   74.017    0.474    0.318
  389.750    4.760   75.112    0.471    0.314
  390.000    4.767   73.912    0.477    0.292
  390.250    4.758   70.535    0.466    0.282
  390.500    4.713   67.159    0.456    0.293
  390.750    4.669   64.207    0.465    0.291
  391.000    4.616   61.979    0.470    0.284
  391.250    4.556   60.174    0.449    0.306
  391.500    4.581   59.880    0.445    0.319
  391.750    4.896   61.759    0.444    0.326
  392.000    5.391   63.337    0.441    0.328
  392.250    6.228   66.968    0.437    0.324
  392.500    7.537   71.929    0.441    0.307
  392.750   10.521   75.140    0.438    0.231
  393.000   13.386   76.535    0.338    0.153
  393.250   13.685   73.643    0.310    0.083
  393.500   13.234   66.824    0.286    0.053
  393.750   10.475   62.058    0.281    0.055
  394.000    8.079   60.193    0.277    0.081
  394.250    5.971   62.376    0.290    0.150
  394.500    4.753   70.237    0.346    0.186
  394.750    4.097   76.829    0.408    0.231
  395.000    3.782   79.797    0.448    0.248
  395.250    3.590   79.198    0.459    0.254
  395.500    3.511   75.218    0.452    0.257
  395.750    3.458   78.308    0.452    0.258
  396.000    3.662   80.127    0.463    0.254
  396.250    3.850   80.436    0.470    0.256
  396.500    3.899   76.395    0.459    0.265
  396.750    3.928   76.644    0.462    0.252
  397.000    3.949   79.129    0.472    0.249
  397.250    3.579   81.009    0.479    0.257
  397.500    3.605   82.164    0.466    0.257
  397.750    3.651   82.232    0.453    0.243
  398.000    3.678   82.843    0.453    0.229
  398.250    3.636   83.635    0.448    0.218
  398.500    3.530   82.555    0.441    0.213
  398.750    3.420   80.932    0.434    0.216
  399.000    3.289   82.632    0.430    0.219
  399.250    3.133   83.967    0.446    0.225
  399.500    3.019   85.304    0.458    0.230
  399.750    2.892   84.888    0.460    0.237
  400.000    2.854   82.297    0.472    0.252
  400.250    2.817   81.459    0.473    0.257
  400.500    2.817   81.467    0.470    0.245
  400.750    2.848   81.715    0.485    0.223
  401.000    2.922   82.568    0.495    0.227
  401.250    3.004   83.844    0.498    0.235
  401.500    3.060   85.484    0.490    0.230
  401.750    3.128   85.610    0.492    0.239
  402.000    3.186   84.953    0.497    0.248
  402.250    3.227   84.115    0.513    0.243
  402.500    3.244   83.640    0.524    0.250
  402.750    3.317   84.130    0.513    0.257
  403.000    3.359   84.983    0.498    0.232
  403.250    3.441   86.138    0.484    0.241
  403.500    3.485   86.387    0.480    0.246
  403.750    3.543   86.575    0.476    0.238
  404.000    3.543   87.368    0.467    0.233
  404.250    3.426   88.465    0.463    0.224
  404.500    3.319   89.013    0.455    0.221
  404.750    3.227   90.290    0.450    0.222
  405.000    3.121   91.323    0.470    0.221
  405.250    3.057   92.600    0.488    0.235
