~VERSION INFORMATION
 VERS.                 2.0:   CWLS LOG ASCII STANDARD -VERSION 2.0
 WRAP.                  NO:   ONE LINE PER DEPTH STEP
~WELL INFORMATION BLOCK
#MNEM.UNIT           DATA                    DESCRIPTION OF MNEMONIC
#---------    -------------------            -------------------------------
# Generated from Intellog Unique Number	CW_76_78/WELL/994
WELL.         11-06-076-22W4                 : Well_name    - WELL
LOC .         00/11-06-076-22W4/0            : Location     - LOCATION
UWI .         00/11-06-076-22W4/0            : Uwi          - UNIQUE WELL ID
ENTR.         JAYE                           : Entered      - ENTERED BY
SRVC.         SCHLUMBERGER                   : Scn          - SERVICE COMPANY
DATE.         19 DEC 72                      : Date         - LOG DATE
STRT.M        405.384                        : top_depth    - START DEPTH
STOP.M        643.134                        : bot_depth    - STOP DEPTH
STEP.M        0.25                           : increment    - STEP LENGTH
 NULL. -999.2500:NULL Value
~CURVE INFORMATION BLOCK
#MNEM UNIT       ERCB CURVE CODE    CURVE DESCRIPTION
#-----------   ------------------   ----------------------------------
DEPT.M        00 001 00 00         : DEPTH        - DEPTH
ILD .OHMM     00 120 00 00         : RESD         - DEEP RESISTIVITY (DIL)
NPHI.V/V      00 330 00 00         : PHIN         - NEUTRON POROSITY (SANDSTONE)
DPHI.V/V      00 890 00 00         : PHID         - DENSITY POROSITY (SANDSTONE)
GR  .API      00 310 00 00         : GR           - GAMMA RAY
CALI.MM       00 280 01 00         : CAL          - CALIPER
~PARAMETER INFORMATION
#MNEM.UNIT           DATA             DESCRIPTION OF MNEMONIC
#---------         -----------     ------------------------------
GL  .M        697.809              : gl           - GROUND LEVEL ELEVATION
EREF.M        701.04               : kb           - ELEVATION OF DEPTH REFERENCE
DATM.M        697.809              : datum        - DATUM ELEVATION
TDD .M        644.957              : tdd          - TOTAL DEPTH DRILLER
RUN .         ONE                  : Run          - RUN NUMBER
MATR.         SANDSTONE            : Logunit      - NEUTRON MATRIX
TMAX.C        30                   : BHT          - MAXIMUM RECORDED TEMPERATURE
BHTD.M        644.957              : BHTDEP       - MAXIMUM RECORDED TEMPERATURE
RMT .C        17.7778              : MDTP         - TEMPERATURE OF MUD
MUDD.KG/M     0                    : MWT          - MUD DENSITY
NEUT.         1                    : NEUTRON      - NEUTRON TYPE
RESI.         0                    : RESIST       - RESISTIVITY TYPE
RM  .OHMM     2.33                 : RM           - RESISTIVITY OF MUD
RMC .OHMM     0                    : RMC          - RESISTIVITY OF MUD CAKE
RMF .OHMM     2.71                 : RMF          - RESISTIVITY OF MUD FILTRATE
SUFT.C        -17.7778             : SUFT         - SURFACE TEMPERATURE
~A  DEPTH     RESD     PHIN     PHID       GR      CAL
# ...
  587.884    8.478    0.413    0.170   74.629  255.546
  588.134    7.148    0.383    0.127   72.912  234.938
  588.384    6.380    0.352    0.078   72.661  232.134
  588.634    6.139    0.341    0.078   73.329  235.230
  588.884    6.619    0.339    0.067   74.301  236.774
  589.134    7.907    0.360    0.106   75.884  237.489
  589.384   11.470    0.381    0.121   76.919  239.343
  589.634   14.909    0.361    0.125   77.707  243.991
  589.884   23.497    0.377    0.091   78.803  248.432
  590.134   33.716    0.393    0.129   79.469  249.147
  590.384   37.295    0.413    0.180   73.474  241.168
  590.634   36.222    0.382    0.208   66.438  230.187
  590.884   34.157    0.389    0.228   59.220  223.657
  591.134   31.978    0.377    0.264   43.078  223.027
  591.384   29.931    0.366    0.253   37.388  222.602
  591.634   27.867    0.358    0.268   35.181  222.386
  591.884   25.431    0.367    0.251   37.009  222.481
  592.134   23.295    0.384    0.262   39.020  223.298
  592.384   22.004    0.399    0.275   39.688  224.013
  592.634   20.823    0.404    0.258   39.865  224.728
  592.884   19.668    0.396    0.254   39.432  225.548
  593.134   18.177    0.379    0.253   38.999  226.264
  593.384   16.554    0.377    0.270   38.504  226.565
  593.634   15.027    0.374    0.255   38.254  227.073
  593.884   13.759    0.379    0.284   38.005  227.373
  594.134   12.482    0.376    0.267   38.060  227.673
  594.384   11.022    0.376    0.252   39.093  227.977
  594.634   10.017    0.375    0.258   40.127  228.276
  594.884    9.190    0.359    0.273   41.039  228.370
  595.134    8.587    0.370    0.265   41.950  228.363
  595.384    8.128    0.381    0.241   42.739  228.248
  595.634    7.651    0.371    0.222   43.710  227.926
  595.884    7.127    0.364    0.248   44.318  227.609
  596.134    6.832    0.362    0.252   45.168  227.184
  596.384    6.608    0.372    0.256   46.140  227.072
  596.634    6.440    0.381    0.235   47.174  226.857
  596.884    6.254    0.362    0.237   48.513  226.744
  597.134    6.109    0.356    0.250   49.608  226.630
  597.384    6.019    0.357    0.247   49.969  226.412
  597.634    5.986    0.359    0.218   50.452  226.404
  597.884    5.953    0.375    0.240   51.059  226.809
  598.134    5.997    0.387    0.247   51.970  227.108
  598.384    6.277    0.393    0.229   52.758  227.413
  598.634    6.682    0.393    0.226   53.304  227.919
  598.884    7.098    0.370    0.240   53.909  228.428
  599.134    7.571    0.368    0.229   54.515  228.834
  599.384    7.697    0.380    0.237   54.998  229.548
  599.634    7.626    0.371    0.217   55.298  230.262
  599.884    7.555    0.358    0.235   55.599  230.876
  600.134    7.487    0.350    0.221   56.203  231.485
  600.384    7.460    0.336    0.209   56.443  231.891
  600.634    7.473    0.339    0.195   56.682  232.296
  600.884    7.488    0.350    0.178   56.982  232.907
  601.134    7.458    0.338    0.149   57.159  233.521
  601.384    7.514    0.351    0.180   57.521  234.029
  601.634    7.627    0.366    0.204   58.188  234.743
  601.884    7.683    0.367    0.204   59.038  235.458
  602.134    7.695    0.349    0.174   60.072  236.174
  602.384    7.642    0.352    0.169   61.900  236.579
  602.634    7.583    0.342    0.186   64.768  236.673
  602.884    7.556    0.328    0.170   66.840  237.078
  603.134    7.653    0.335    0.157   68.608  237.275
  603.384    7.782    0.341    0.146   70.924  236.127
  603.634    7.897    0.331    0.141   72.692  234.669
  603.884    7.985    0.327    0.130   75.254  233.522
  604.134    8.071    0.340    0.133   77.388  232.373
  604.384    8.190    0.345    0.142   77.077  231.536
  604.634    8.434    0.340    0.136   74.382  231.010
  604.884    8.797    0.343    0.148   74.498  230.378
  605.134    9.009    0.353    0.143   77.365  229.747
  605.384    9.128    0.343    0.169   81.517  230.255
  605.634    9.193    0.338    0.146   78.393  230.660
  605.884    9.227    0.346    0.137   76.310  231.067
  606.134    9.280    0.357    0.147   75.143  231.573
  606.384    9.314    0.366    0.173   76.421  231.562
  606.634    9.380    0.377    0.157   78.738  231.553
  606.884    9.715    0.386    0.129   83.317  231.234
  607.134   10.003    0.365    0.114   87.896  231.226
  607.384    9.877    0.349    0.131   85.690  231.320
  607.634    9.714    0.339    0.138   82.261  231.516
  607.884    9.349    0.331    0.142   79.261  231.922
  608.134    8.947    0.331    0.109   75.832  232.224
  608.384    8.622    0.328    0.130   67.697  232.422
  608.634    8.329    0.299    0.143   60.051  232.204
  608.884    8.421    0.276    0.160   39.752  231.883
  609.134    9.079    0.204    0.120   29.110  231.566
  609.384   10.493    0.174    0.045   25.498  230.521
  609.634   13.051    0.132    0.014   24.637  229.890
  609.884   16.746    0.078    0.025   26.526  229.571
  610.134   23.552    0.092    0.011   28.538  229.561
  610.384   47.534    0.114    0.008   31.711  229.966
  610.634   74.489    0.158    0.011   36.840  230.370
  610.884   85.623    0.216    0.101   44.170  230.672
  611.134   75.589    0.272    0.134   53.700  230.766
  611.384   61.223    0.280    0.138   57.729  230.653
  611.634   45.403    0.290    0.140   54.912  230.334
  611.884   34.359    0.307    0.170   52.950  229.496
  612.134   26.778    0.334    0.186   51.416  229.383
  612.384   25.255    0.382    0.193   49.210  229.478
  612.634   23.900    0.329    0.245   46.149  229.675
  612.884   21.371    0.341    0.265   43.270  229.459
  613.134   18.832    0.403    0.283   51.822  229.656
  613.384   17.597    0.598    0.296   71.316  229.958
  613.634   15.620    0.624    0.311   79.562  230.258
  613.884   13.739    0.570    0.215   85.791  230.559
  614.134   11.313    0.491    0.205   89.269  230.758
  614.384    8.882    0.470    0.205   88.470  231.680
  614.634    7.011    0.430    0.214   87.364  232.602
  614.884    6.647    0.411    0.241   86.075  233.938
  615.134    7.300    0.406    0.222   81.424  235.378
  615.384    8.133    0.414    0.178   80.134  236.714
  615.634    8.240    0.449    0.114   83.736  237.948
  615.884    7.142    0.493    0.112   92.716  239.283
  616.134    6.201    0.554    0.149   97.844  240.103
  616.384    5.465    0.587    0.228   96.066  233.365
  616.634    5.268    0.617    0.282   88.603  228.594
  616.884    5.306    0.640    0.305   80.529  225.376
  617.134    5.356    0.408    0.284   70.927  223.400
  617.384    5.414    0.391    0.273   63.831  221.942
  617.634    5.465    0.377    0.262   61.014  219.655
  617.884    5.504    0.358    0.247   58.991  217.161
  618.134    5.514    0.328    0.219   56.480  214.565
  618.384    5.595    0.618    0.396   55.679  213.003
  618.634    6.190    0.611    0.461   55.429  212.373
  618.884    7.065    0.567    0.539   55.118  212.467
  619.134    7.685    0.514    0.367   54.502  212.457
  619.384    8.578    0.418    0.296   53.273  212.861
  619.634    8.770    0.414    0.301   51.434  213.681
  619.884    7.856    0.409    0.316   48.311  215.016
  620.134    6.697    0.397    0.310   44.332  215.939
  620.384    5.606    0.389    0.301   42.677  216.862
  620.634    4.533    0.381    0.299   44.260  217.680
  620.884    3.921    0.369    0.300   47.067  218.498
  621.134    3.235    0.371    0.289   50.545  219.215
  621.384    2.861    0.405    0.288   55.552  220.652
  621.634    2.664    0.390    0.265   62.943  221.370
  621.884    2.723    0.541    0.241   72.167  221.878
  622.134    3.090    0.578    0.260   81.636  222.695
  622.384    3.598    0.552    0.292   84.809  222.893
  622.634    4.068    0.469    0.243   76.246  222.781
  622.884    4.557    0.377    0.211   66.338  222.564
  623.134    4.798    0.341    0.215   58.509  222.451
  623.384    4.772    0.335    0.228   49.701  222.233
  623.634    4.626    0.364    0.218   59.292  221.812
  623.884    4.575    0.378    0.213   71.023  221.284
  624.134    4.651    0.368    0.231   71.751  220.965
