~VERSION INFORMATION
 VERS.                 2.0:   CWLS LOG ASCII STANDARD -VERSION 2.0
 WRAP.                  NO:   ONE LINE PER DEPTH STEP
~WELL INFORMATION BLOCK
#MNEM.UNIT           DATA                    DESCRIPTION OF MNEMONIC
#---------    -------------------            -------------------------------
# Generated from Intellog Unique Number	CC_80_83/WELL/2383
NULL.         -999.25                        : NULL_VALUE
WELL.         SIEBENS PONY                   : Well_name    - WELL
LOC .         10-29-080-09W4                 : Location     - LOCATION          
UWI .         00/10-29-080-09W400            : Uwi          - UNIQUE WELL ID    
ENTR.         DW                             : Entered      - ENTERED BY        
SRVC.         SCHLUMBERGER                   : Scn          - SERVICE COMPANY   
DATE.         02 FEB 75                      : Date         - LOG DATE
STRT.M        265.176                        : top_depth    - START DEPTH       
STOP.M        484.639                        : bot_depth    - STOP DEPTH        
STEP.M        0.305                          : increment    - STEP LENGTH       
~CURVE INFORMATION BLOCK
#MNEM UNIT       ERCB CURVE CODE    CURVE DESCRIPTION
#-----------   ------------------   ----------------------------------
DEPT.M        00 001 00 00         : DEPTH        - DEPTH                       
DPHI.V/V      00 890 00 00         : PHID         - DENSITY POROSITY (LIMESTONE)
NPHI.V/V      00 330 00 00         : PHIN         - NEUTRON POROSITY (LIMESTONE)
GR  .API      00 310 00 00         : GR           - GAMMA RAY                   
ILD .OHMM     00 120 00 00         : RESD         - DEEP RESISTIVITY (DIL)      
~PARAMETER INFORMATION       
#MNEM.UNIT           DATA             DESCRIPTION OF MNEMONIC
#---------         -----------     ------------------------------
GL  .M        698.906              : gl           - GROUND LEVEL ELEVATION      
EREF.M        702.564              : kb           - ELEVATION OF DEPTH REFERENCE
DATM.M        702.564              : datum        - DATUM ELEVATION             
TDD .M        496.824              : tdd          - TOTAL DEPTH DRILLER         
RUN .         ONE                  : Run          - RUN NUMBER                  
ENG .         BILL                 : Engineer     - RECORDING ENGINEER          
WIT .         JIM                  : Witness      - WITNESSED BY                
MUD .         GEL                  : Mud_type     - MUD TYPE                    
MATR.         LIMESTONE            : Logunit      - NEUTRON MATRIX              
TMAX.C        23.3333              : BHT          - MAXIMUM RECORDED TEMPERATURE
BHTD.M        496.824              : BHTDEP       - MAXIMUM RECORDED TEMPERATURE
MATR.         1                    : LOGUNIT      - NEUTRON MATRIX              
RMT .C        25                   : MDTP         - TEMPERATURE OF MUD          
NEUT.         1                    : NEUTRON      - NEUTRON TYPE                
RESI.         0                    : RESIST       - RESISTIVITY TYPE            
RMC .OHMM     0.25                 : RMC          - RESISTIVITY OF MUD CAKE     
RMF .OHMM     0.25                 : RMF          - RESISTIVITY OF MUD FILTRATE 
SUFT.C        15                   : SUFT         - SURFACE TEMPERATURE         
~A  DEPTH     PHID     PHIN       GR     RESD
# ...
  424.287    0.224    0.489  101.913    4.159
  424.591    0.227    0.506  104.319    3.789
  424.896    0.230    0.534  106.728    3.516
  425.201    0.208    0.534  110.946    3.449
  425.506    0.204    0.529  109.126    3.447
  425.811    0.230    0.526  101.269    3.382
  426.115    0.248    0.515  100.661    3.318
  426.420    0.231    0.510  104.880    3.315
  426.725    0.226    0.530  109.702    3.313
  427.030    0.215    0.514  112.712    3.311
  427.335    0.212    0.501  111.496    3.434
  427.639    0.208    0.509  107.263    3.496
  427.944    0.209    0.518  104.239    3.904
  428.249    0.223    0.524  101.210    4.441
  428.554    0.220    0.506  101.809    4.869
  428.859    0.203    0.480  104.216    5.437
  429.164    0.225    0.473  103.606    5.744
  429.468    0.199    0.473  101.787    5.635
  429.773    0.155    0.457  102.986    5.528
  430.078    0.135    0.442  105.997    5.523
  430.383    0.191    0.464  107.198    5.520
  430.688    0.202    0.487  104.170    5.726
  430.992    0.185    0.478   98.128    6.049
  431.297    0.150    0.459  101.139    6.754
  431.602    0.170    0.461   99.925    7.268
  431.907    0.192    0.461   88.447    7.968
  432.212    0.211    0.450   76.971    8.735
  432.516    0.291    0.440   64.891    9.576
  432.821    0.307    0.433   64.278   10.499
  433.126    0.315    0.432   65.478   11.941
  433.431    0.323    0.426   68.489   13.093
  433.736    0.333    0.403   73.916   14.621
  434.040    0.321    0.421   81.756   14.883
  434.345    0.279    0.438   85.370   15.436
  434.650    0.248    0.408   79.325   17.888
  434.955    0.238    0.385   76.300   21.913
  435.260    0.238    0.379   82.933   28.375
  435.565    0.232    0.375   86.548   39.564
  435.869    0.242    0.370   84.730   53.166
  436.174    0.268    0.384   67.820   67.584
  436.479    0.286    0.403   58.154   82.788
  436.784    0.293    0.412   52.110   94.174
  437.089    0.282    0.395   47.274  103.232
  437.393    0.297    0.387   46.059  107.057
  437.698    0.307    0.389   46.051  106.963
  438.003    0.293    0.384   40.007  103.048
  438.308    0.275    0.386   38.190   93.882
  438.613    0.276    0.398   44.219   75.134
  438.917    0.314    0.403   50.248   62.395
  439.222    0.292    0.406   50.844   60.093
  439.527    0.280    0.408   44.799   64.676
  439.832    0.289    0.403   38.755   83.738
  440.137    0.299    0.391   35.729   90.126
  440.441    0.295    0.382   36.930   93.450
  440.746    0.268    0.366   42.355   85.148
  441.051    0.261    0.355   45.971   69.415
  441.356    0.272    0.383   46.565   56.594
  441.661    0.281    0.390   44.748   47.005
  441.966    0.279    0.396   50.173   38.321
  442.270    0.236    0.389   60.428   32.425
  442.575    0.225    0.395   58.608   30.092
  442.880    0.226    0.397   57.394   27.926
  443.185    0.201    0.296   64.028   23.191
  443.490    0.168    0.315  105.067   16.007
  443.794    0.160    0.381  114.719   11.679
  444.099    0.174    0.442  120.747    8.365
  444.404    0.156    0.480  120.737    7.482
  444.709    0.145    0.492  118.317    6.942
  445.014    0.154    0.492  112.878    6.936
  445.318    0.182    0.471  110.455    7.063
  445.623    0.182    0.450  115.275    7.460
  445.928    0.174    0.459  116.476    7.596
  446.233    0.190    0.459  114.660    8.023
  446.538    0.196    0.450  111.030    8.169
  446.842    0.182    0.446  108.608    8.013
  447.147    0.167    0.450  108.600    7.863
  447.452    0.155    0.450  107.386    7.713
  447.757    0.159    0.444  109.187    7.429
  448.062    0.171    0.452  109.783    6.893
  448.367    0.178    0.454  110.379    6.640
  448.671    0.168    0.462  112.184    6.512
  448.976    0.170    0.467  116.402    6.630
  449.281    0.182    0.471  115.792    6.876
  449.586    0.196    0.475  109.747    7.001
  449.891    0.181    0.434  112.757    7.127
  450.195    0.150    0.451  115.166    7.123
  450.500    0.177    0.463  115.158    7.118
  450.805    0.160    0.468  113.341    7.112
  451.110    0.207    0.461  112.727    7.109
  451.415    0.182    0.451  112.721    7.104
  451.719    0.159    0.470  112.714    7.099
  452.024    0.170    0.467  106.670    7.226
  452.329    0.170    0.460  104.852    7.357
  452.634    0.157    0.448  106.655    7.354
  452.939    0.195    0.442  111.477    7.348
  453.243    0.161    0.440  120.525    7.343
  453.548    0.172    0.455  125.346    7.203
  453.853    0.192    0.467  119.906    7.199
  454.158    0.166    0.465  115.070    7.196
  454.463    0.151    0.450  113.250    7.189
  454.768    0.153    0.439  119.281    7.187
  455.072    0.156    0.449  128.328    7.316
  455.377    0.176    0.467  128.924    7.729
  455.682    0.191    0.472  121.673    8.316
  455.987    0.165    0.421  110.799    8.785
  456.292    0.167    0.434  107.171    9.280
  456.596    0.175    0.432  102.938    9.624
  456.901    0.185    0.409   99.912    9.800
  457.206    0.193    0.414  104.113   10.083
  457.511    0.189    0.429  105.912   10.078
  457.816    0.181    0.429  110.142    9.890
  458.120    0.159    0.447  113.158    9.180
  458.425    0.144    0.459  114.361    8.681
  458.730    0.171    0.431  108.886    8.677
  459.035    0.177    0.407   89.459    8.834
  459.340    0.153    0.409   94.298    9.162
  459.645    0.176    0.429   96.708    9.860
  459.949    0.209    0.411   91.838   10.417
  460.254    0.210    0.409   96.071   10.606
  460.559    0.193    0.422   99.086   10.603
  460.864    0.179    0.422   97.254   10.213
  461.169    0.163    0.433  103.908    9.838
  461.473    0.161    0.442  104.498    9.652
  461.778    0.177    0.437   99.627    9.647
  462.083    0.167    0.431   99.611    9.824
  462.388    0.193    0.429  100.814   10.189
  462.693    0.202    0.436  101.404   10.964
  462.997    0.203    0.429  100.175   11.585
  463.302    0.192    0.425   97.127   12.700
  463.607    0.218    0.421   81.343   13.171
  463.912    0.225    0.411   77.688   13.165
  464.217    0.209    0.406   89.802   12.222
  464.521    0.184    0.433  101.915   10.732
  464.826    0.173    0.435  107.361    9.781
  465.131    0.164    0.444  106.739    9.597
  465.436    0.156    0.455  103.690   10.328
  465.741    0.219    0.453   94.578   12.651
  466.046    0.235    0.435   82.431   13.616
  466.350    0.219    0.392   86.054   14.121
  466.655    0.188    0.408   97.562   12.633
  466.960    0.166    0.405  110.891   11.095
  467.265    0.188    0.425  118.152   10.885
  467.570    0.189    0.452  113.285   12.384
  467.874    0.212    0.474  105.385   14.620
  468.179    0.244    0.456   76.862   17.908
  468.484    0.215    0.410   83.515   19.997
  468.789    0.180    0.415   84.108   23.177
  469.094    0.253    0.408   78.028   41.858
  469.398    0.285    0.482   66.490   70.205
  469.703    0.315    0.474   31.902   74.175
  470.008    0.329    0.418   31.888   62.779
  470.313    0.325    0.392   40.969   32.250
  470.618    0.287    0.381   56.117   19.568
  470.922    0.206    0.367   74.297   14.284
  471.227    0.185    0.373  119.767   11.648
  471.532    0.190    0.379  119.146   11.431
  471.837    0.210    0.391  114.886   11.638
  472.142    0.256    0.430   95.461   12.996
  472.447    0.216    0.437   97.869   13.731
  472.751    0.204    0.440  102.102   12.747
  473.056    0.260    0.447  113.004   10.787
  473.361    0.215    0.441  117.838   10.013
  473.666    0.215    0.440  115.398   10.009
  473.971    0.253    0.448   80.206   12.489
  474.275    0.295    0.484   55.324   20.565
  474.580    0.289    0.433   41.358   36.458
  474.885    0.297    0.401   44.371   53.730
  475.190    0.309    0.442   47.999   90.125
  475.495    0.325    0.450   56.472   82.121
  475.799    0.310    0.428   63.736   70.801
  476.104    0.302    0.421   66.145   56.677
  476.409    0.296    0.421   63.095   51.654
  476.714    0.305    0.409   49.133   47.067
  477.019    0.307    0.411   44.867   50.661
