~VERSION INFORMATION
 VERS.                 2.0:   CWLS LOG ASCII STANDARD -VERSION 2.0
 WRAP.                  NO:   ONE LINE PER DEPTH STEP
~WELL INFORMATION BLOCK
#MNEM.UNIT           DATA                    DESCRIPTION OF MNEMONIC
#---------    -------------------            -------------------------------
# Generated from Intellog Unique Number	CW_73_75/WELL/1043
WELL.         ENSERCH ET AL MARTEN H 11-20   : Well_name    - WELL
LOC .         00/11-20-074-23W4/0            : Location     - LOCATION
UWI .         00/11-20-074-23W4/0            : Uwi          - UNIQUE WELL ID
ENTR.         JAYE                           : Entered      - ENTERED BY
SRVC.         SCHLUMBERGER                   : Scn          - SERVICE COMPANY
DATE.         3 MAR 76                       : Date         - LOG DATE
STRT.M        411.48                         : top_depth    - START DEPTH
STOP.M        624.73                         : bot_depth    - STOP DEPTH
STEP.M        0.25                           : increment    - STEP LENGTH
 NULL. -999.2500:NULL Value
~CURVE INFORMATION BLOCK
#MNEM UNIT       ERCB CURVE CODE    CURVE DESCRIPTION
#-----------   ------------------   ----------------------------------
DEPT.M        00 001 00 00         : DEPTH        - DEPTH
ILD .OHMM     00 120 00 00         : RESD         - DEEP RESISTIVITY (DIL)
DPHI.V/V      00 890 00 00         : PHID         - DENSITY POROSITY (SANDSTONE)
NPHI.V/V      00 330 00 00         : PHIN         - NEUTRON POROSITY (SANDSTONE)
GR  .API      00 310 00 00         : GR           - GAMMA RAY
CALI.MM       00 280 01 00         : CAL          - CALIPER
~PARAMETER INFORMATION
#MNEM.UNIT           DATA             DESCRIPTION OF MNEMONIC
#---------         -----------     ------------------------------
GL  .M        690.524              : gl           - GROUND LEVEL ELEVATION
EREF.M        694.03               : kb           - ELEVATION OF DEPTH REFERENCE
DATM.M        690.524              : datum        - DATUM ELEVATION
TDD .M        640.08               : tdd          - TOTAL DEPTH DRILLER
RUN .         ONE                  : Run          - RUN NUMBER
BASE.         EDM                  : Branch       - HOME BASE OF LOGGING UNIT
MUD .         GEL CHEM             : Mud_type     - MUD TYPE
MATR.         SANDSTONE            : Logunit      - NEUTRON MATRIX
TMAX.C        28.3333              : BHT          - MAXIMUM RECORDED TEMPERATURE
BHTD.M        640.69               : BHTDEP       - MAXIMUM RECORDED TEMPERATURE
RMT .C        13.8889              : MDTP         - TEMPERATURE OF MUD
MUDD.KG/M     0                    : MWT          - MUD DENSITY
NEUT.         1                    : NEUTRON      - NEUTRON TYPE
RESI.         0                    : RESIST       - RESISTIVITY TYPE
RM  .OHMM     2.7                  : RM           - RESISTIVITY OF MUD
RMC .OHMM     0                    : RMC          - RESISTIVITY OF MUD CAKE
RMF .OHMM     2.2                  : RMF          - RESISTIVITY OF MUD FILTRATE
SUFT.C        -17.7778             : SUFT         - SURFACE TEMPERATURE
~A  DEPTH     RESD     PHID     PHIN       GR      CAL
# ...
  447.980   10.269    0.336    0.428   58.491  139.684
  448.230   10.193    0.323    0.410   64.945  142.341
  448.480   10.103    0.299    0.428   72.050  147.424
  448.730    9.852    0.270    0.452   81.240  151.295
  448.980    9.707    0.265    0.469   87.303  151.526
  449.230    9.312    0.258    0.483   92.259  151.204
  449.480    9.203    0.242    0.494   93.828  151.765
  449.730    9.299    0.243    0.503   88.297  153.651
  449.980    9.480    0.274    0.513   79.380  156.417
  450.230    9.911    0.315    0.538   71.439  165.581
  450.480   10.722    0.378    0.537   60.372  164.267
  450.730   11.360    0.338    0.453   54.125  147.733
  450.980   11.530    0.327    0.433   54.652  147.965
  451.230   11.565    0.314    0.437   54.202  149.959
  451.480   11.497    0.321    0.446   57.334  151.845
  451.730   11.497    0.309    0.444   63.984  152.074
  451.980   11.703    0.296    0.427   71.936  152.525
  452.230   12.164    0.267    0.421   76.175  155.182
  452.480   12.549    0.248    0.447   76.507  171.406
  452.730   12.793    0.290    0.459   77.424  176.047
  452.980   12.642    0.278    0.445   80.817  152.454
  453.230   12.512    0.255    0.461   82.126  154.119
  453.480   12.347    0.240    0.477   82.587  157.327
  453.730   12.201    0.247    0.496   82.332  153.147
  453.980   12.075    0.265    0.495   81.557  149.074
  454.230   11.969    0.247    0.474   83.061  149.856
  454.480   12.004    0.245    0.466   85.607  158.248
  454.730   12.202    0.268    0.464   87.697  163.110
  454.980   13.006    0.283    0.489   88.680  154.738
  455.230   14.343    0.320    0.483   88.360  146.476
  455.480   15.935    0.289    0.488   87.454  153.103
  455.730   16.318    0.303    0.502   85.375  154.988
  455.980   16.031    0.314    0.484   80.822  150.145
  456.230   15.609    0.308    0.461   80.436  141.222
  456.480   14.559    0.284    0.448   84.611  137.593
  456.730   13.700    0.275    0.457   87.483  137.713
  456.980   13.027    0.305    0.478   86.316  138.935
  457.230   12.516    0.307    0.467   79.678  139.056
  457.480   12.061    0.308    0.452   74.017  138.955
  457.730   11.691    0.308    0.455   73.502  138.302
  457.980   11.434    0.308    0.451   75.918  135.886
  458.230   11.266    0.309    0.456   74.491  136.558
  458.480   11.084    0.324    0.472   75.473  141.089
  458.730   10.921    0.327    0.481   78.736  142.091
  458.980   10.841    0.318    0.471   84.539  141.660
  459.230   10.745    0.325    0.449   92.295  142.553
  459.480   10.954    0.312    0.437  100.117  143.776
  459.730   11.641    0.261    0.430  105.269  145.220
  459.980   12.371    0.214    0.462  107.359  147.876
  460.230   13.205    0.252    0.472  105.736  161.121
  460.480   13.786    0.238    0.469  100.792  160.359
  460.730   13.889    0.229    0.473   95.978  152.648
  460.980   13.848    0.251    0.460   89.209  144.497
  461.230   14.055    0.245    0.455   87.196  141.198
  461.480   14.914    0.228    0.465   85.834  140.216
  461.730   15.409    0.218    0.459   82.192  139.784
  461.980   14.760    0.199    0.400   79.202  140.787
  462.230   13.952    0.147    0.382   87.545  142.120
  462.480   13.788    0.147    0.410   89.961  144.667
  462.730   14.036    0.178    0.441   84.365  146.771
  462.980   14.373    0.190    0.463   75.838  151.743
  463.230   14.916    0.256    0.467   67.963  160.467
  463.480   15.206    0.317    0.441   63.735  149.999
  463.730   14.938    0.325    0.448   74.097  144.715
  463.980   14.610    0.313    0.445   76.513  143.511
  464.230   14.395    0.302    0.439   74.890  144.735
  464.480   14.268    0.294    0.422   81.149  147.282
  464.730   14.121    0.281    0.417   83.239  151.151
  464.980   13.996    0.274    0.433   82.984  152.374
  465.230   13.568    0.287    0.474   78.822  152.494
  465.480   13.250    0.279    0.470   73.421  151.070
  465.730   13.250    0.278    0.463   66.588  149.207
  465.980   14.039    0.280    0.488   58.648  152.965
  466.230   15.075    0.323    0.499   53.964  152.093
  466.480   16.404    0.355    0.455   52.276  146.037
  466.730   17.615    0.365    0.419   51.761  143.399
  466.980   19.226    0.358    0.431   52.679  142.416
  467.230   19.775    0.341    0.436   54.183  141.875
  467.480   19.834    0.353    0.435   57.054  141.665
  467.730   19.864    0.353    0.444   60.056  141.342
  467.980   19.894    0.354    0.456   61.169  140.911
  468.230   19.894    0.354    0.461   61.370  139.377
  468.480   19.086    0.348    0.467   62.874  138.505
  468.730   18.337    0.336    0.464   64.769  138.183
  468.980   18.175    0.331    0.468   65.686  138.744
  469.230   18.392    0.344    0.451   68.493  149.342
  469.480   18.723    0.343    0.441   73.840  151.447
  469.730   19.059    0.334    0.439   83.616  149.252
  469.980   19.575    0.309    0.442   97.820  146.616
  470.230   19.868    0.271    0.444  134.822  145.521
  470.480   19.927    0.232    0.452  134.307  145.201
  470.730   19.780    0.208    0.472  113.861  145.322
  470.980   19.461    0.200    0.467   97.062  145.882
  471.230   18.395    0.212    0.459   84.432  145.560
  471.480   18.098    0.218    0.441   80.400  143.586
  471.730   18.179    0.221    0.434   91.218  142.823
  471.980   18.643    0.246    0.463   93.503  142.833
  472.230   19.695    0.251    0.470   87.582  142.953
  472.480   21.085    0.261    0.472   79.250  142.631
  472.730   23.706    0.249    0.460   68.574  142.311
  472.980   27.618    0.215    0.364   60.699  141.990
  473.230   30.959    0.186    0.326   52.367  149.720
  473.480   31.844    0.161    0.302   53.871  156.127
  473.730   28.493    0.118    0.279   54.984  158.122
  473.980   22.610    0.133    0.283   58.377  154.712
  474.230   19.437    0.147    0.312   65.678  149.539
  474.480   15.841    0.192    0.335   73.956  145.249
  474.730   13.903    0.217    0.376   76.957  144.705
  474.980   12.589    0.267    0.414   77.094  144.384
  475.230   12.024    0.272    0.444   76.839  145.498
  475.480   12.459    0.286    0.455   75.021  147.163
  475.730   13.221    0.267    0.441   72.161  147.943
  475.980   14.515    0.259    0.420   65.523  148.615
  476.230   16.539    0.243    0.395   56.345  147.964
  476.480   19.411    0.193    0.360   48.340  146.208
  476.730   23.434    0.131    0.248   41.701  145.997
  476.980   25.805    0.015    0.177   41.512  149.647
  477.230   26.899    0.011    0.142   41.192  149.987
  477.480   27.181    0.011    0.138   40.416  149.226
  477.730   26.387   -0.008    0.138   40.031  148.684
  477.980   25.202   -0.009    0.142   40.102  149.687
  478.230   23.576    0.014    0.148   42.518  151.130
  478.480   22.120    0.014    0.153   46.692  152.794
  478.730   20.662    0.027    0.167   51.714  153.025
  478.980   18.764    0.073    0.208   56.018  149.615
  479.230   16.940    0.153    0.287   64.947  142.566
  479.480   15.498    0.197    0.326   68.796  136.179
  479.730   14.649    0.238    0.398   70.625  135.416
  479.980   13.888    0.286    0.434   72.976  139.397
  480.230   13.383    0.267    0.433   75.978  141.393
  480.480   13.226    0.245    0.440   79.892  141.181
  480.730   13.226    0.284    0.450   80.614  140.970
  480.980   13.285    0.277    0.441   81.141  141.532
  481.230   13.266    0.268    0.422   82.189  143.748
  481.480   13.168    0.252    0.412   83.172  146.514
  481.730   13.052    0.229    0.420   84.936  147.407
  481.980   12.917    0.223    0.448   85.788  146.865
  482.230   12.746    0.221    0.447   86.576  145.993
  482.480   12.429    0.243    0.453   87.624  144.238
  482.730   12.356    0.232    0.462   87.955  142.704
  482.980   12.430    0.238    0.451   89.264  143.265
  483.230   12.541    0.232    0.449   86.925  145.811
  483.480   12.616    0.230    0.451   86.866  148.358
  483.730   12.691    0.239    0.449   90.063  148.257
  483.980   12.579    0.243    0.436   91.958  145.510
  484.230   12.616    0.258    0.436   92.094  144.748
