~VERSION INFORMATION
 VERS.                 2.0:   CWLS LOG ASCII STANDARD -VERSION 2.0
 WRAP.                  NO:   ONE LINE PER DEPTH STEP
~WELL INFORMATION BLOCK
#MNEM.UNIT           DATA                    DESCRIPTION OF MNEMONIC
#---------    -------------------            -------------------------------
# Generated from Intellog Unique Number	CW_76_78/WELL/3587
WELL.         SASKATCHEWAN OIL & GAS CORP.   : Well_name    - WELL
LOC .         00/11-06-076-19W4/0            : Location     - LOCATION
UWI .         00/11-06-076-19W4/0            : Uwi          - UNIQUE WELL ID
ENTR.         JO                             : Entered      - ENTERED BY
SRVC.         SCHLUMBERGER                   : Scn          - SERVICE COMPANY
DATE.         05/25/92                       : Date         - LOG DATE
STRT.M        215                            : top_depth    - START DEPTH
STOP.M        460                            : bot_depth    - STOP DEPTH
STEP.M        0.25                           : increment    - STEP LENGTH
 NULL. -999.2500:NULL Value
~CURVE INFORMATION BLOCK
#MNEM UNIT       ERCB CURVE CODE    CURVE DESCRIPTION
#-----------   ------------------   ----------------------------------
DEPT.M        00 001 00 00         : DEPTH        - DEPTH
NPHI.V/V      00 330 00 00         : PHIN         - NEUTRON POROSITY (SANDSTONE)
GR  .API      00 310 00 00         : GR           - GAMMA RAY
DPHI.V/V      00 890 00 00         : PHID         - DENSITY POROSITY (SANDSTONE)
ILD .OHMM     00 120 00 00         : RESD         - DEEP RESISTIVITY (DIL)
~PARAMETER INFORMATION
#MNEM.UNIT           DATA             DESCRIPTION OF MNEMONIC
#---------         -----------     ------------------------------
GL  .M        590.9                : gl           - GROUND LEVEL ELEVATION
EREF.M        594.7                : kb           - ELEVATION OF DEPTH REFERENCE
DATM.M        594.7                : datum        - DATUM ELEVATION
TDD .M        465                  : tdd          - TOTAL DEPTH DRILLER
RUN .         ONE                  : Run          - RUN NUMBER
ENG .         BILL                 : Engineer     - RECORDING ENGINEER
WIT .         JIM                  : Witness      - WITNESSED BY
MUD .         GEL                  : Mud_type     - MUD TYPE
MATR.         SANDSTONE            : Logunit      - NEUTRON MATRIX
TMAX.C        35                   : BHT          - MAXIMUM RECORDED TEMPERATURE
BHTD.M        465                  : BHTDEP       - MAXIMUM RECORDED TEMPERATURE
MATR.         1                    : LOGUNIT      - NEUTRON MATRIX
RMT .C        12                   : MDTP         - TEMPERATURE OF MUD
NEUT.         1                    : NEUTRON      - NEUTRON TYPE
RESI.         0                    : RESIST       - RESISTIVITY TYPE
RMC .OHMM     2.24                 : RMC          - RESISTIVITY OF MUD CAKE
RMF .OHMM     2.38                 : RMF          - RESISTIVITY OF MUD FILTRATE
SUFT.C        5                    : SUFT         - SURFACE TEMPERATURE
~A  DEPTH     PHIN       GR     PHID     RESD
  215.000    0.451  117.823    0.248    4.149
  215.250    0.458  116.058    0.242    4.073
  215.500    0.454  113.121    0.235    4.073
  215.750    0.460  115.460    0.224    3.999
  216.000    0.471  120.144    0.228    3.999
  216.250    0.493  117.207    0.237    3.855
  216.500    0.502  115.442    0.246    3.784
  216.750    0.508  118.952    0.251    3.647
  217.000    0.513  121.878    0.258    3.581
  217.250    0.508  121.871    0.253    3.515
  217.500    0.493  121.279    0.241    3.516
  217.750    0.478  124.791    0.234    3.581
  218.000    0.466  125.958    0.226    3.717
  218.250    0.459  117.743    0.220    4.640
  218.500    0.451  110.117    0.223    7.232
  218.750    0.419   87.836    0.253   12.138
  219.000    0.363   50.315    0.271   24.060
  219.250    0.342   38.585    0.287   24.968
  219.500    0.327   27.441    0.275   27.389
  219.750    0.308   24.503    0.264   27.902
  220.000    0.301   29.188    0.269   26.892
  220.250    0.293   33.285    0.266   24.069
  220.500    0.301   35.036    0.257   19.641
  220.750    0.336   37.377    0.229   14.886
  221.000    0.352   42.060    0.201   12.373
  221.250    0.372   49.088    0.177    9.552
  221.500    0.385   57.289    0.245    4.560
  221.750    0.393   61.971    0.275    4.732
  222.000    0.397   63.137    0.284    5.589
  222.250    0.416   68.408    0.289    5.590
  222.500    0.421   75.437    0.292    5.590
  222.750    0.429   81.879    0.295    5.289
  223.000    0.410   77.768    0.306    5.489
  223.250    0.405   59.590    0.315   12.382
  223.500    0.382   49.619    0.328   18.946
  223.750    0.373   40.234    0.315   20.402
  224.000    0.357   32.022    0.306   22.797
  224.250    0.346   29.085    0.310   22.799
  224.500    0.338   32.594    0.318   21.571
  224.750    0.339   33.175    0.323   19.307
  225.000    0.336   34.341    0.324   14.632
  225.250    0.327   39.612    0.321   13.097
  225.500    0.403   45.468    0.310   11.722
  225.750    0.400   52.496    0.298    9.391
  226.000    0.391   58.352    0.291    6.026
  226.250    0.459   80.035    0.295    4.652
  226.500    0.492   89.408    0.304    4.321
  226.750    0.458   93.504    0.299    7.808
  227.000    0.443   91.741    0.305   11.302
  227.250    0.449   71.218    0.306   17.293
  227.500    0.435   47.765    0.300   19.684
  227.750    0.374   30.172    0.292   22.824
  228.000    0.317   22.546    0.294   25.504
  228.250    0.310   18.436    0.304   26.467
  228.500    0.306   19.017    0.305   26.962
  228.750    0.296   19.597    0.296   26.471
  229.000    0.293   18.417    0.298   26.967
  229.250    0.309   17.240    0.314   29.581
  229.500    0.308   15.474    0.328   34.299
  229.750    0.300   15.468    0.328   37.625
  230.000    0.296   17.221    0.293   39.046
  230.250    0.302   17.216    0.263   38.332
  230.500    0.309   16.038    0.251   36.267
  230.750    0.313   15.446    0.282   34.313
  231.000    0.313   15.438    0.293   35.609
  231.250    0.304   14.846    0.299   34.319
  231.500    0.293   14.840    0.281   29.602
  231.750    0.278   19.525    0.280   20.078
  232.000    0.287   27.139    0.315   17.642
  232.250    0.395   32.409    0.364   21.623
  232.500    0.372   31.231    0.385   25.540
  232.750    0.338   27.706    0.337   29.071
  233.000    0.331   25.355    0.319   29.616
  233.250    0.322   24.177    0.305   27.003
  233.500    0.311   23.585    0.290   24.169
  233.750    0.313   27.096    0.291   15.225
  234.000    0.336   35.297    0.301   14.140
  234.250    0.350   42.325    0.311   10.916
  234.500    0.372   51.698    0.279    8.122
  234.750    0.409   68.691    0.272    7.543
  235.000    0.418   77.476    0.279    5.408
  235.250    0.406   74.541    0.286    5.117
  235.500    0.404   71.604    0.287    5.310
  235.750    0.413   68.666    0.291    6.272
  236.000    0.424   66.903    0.304    6.389
  236.250    0.418   64.552    0.318    6.509
  236.500    0.406   65.132    0.310    6.273
  236.750    0.410   70.986    0.291    5.827
  237.000    0.435   76.258    0.298    5.616
  237.250    0.432   82.700    0.302    5.216
  237.500    0.424   84.451    0.304    5.313
  237.750    0.426   80.929    0.384    5.617
  238.000    0.454   73.889    0.425    5.314
  238.250    0.421   68.021    0.417    4.757
  238.500    0.398   75.049    0.389    4.179
  238.750    0.395   87.939    0.397    3.811
  239.000    0.477  100.243    0.406    3.411
  239.250    0.439  107.270    0.348    3.168
  239.500    0.455  110.196    0.297    3.110
  239.750    0.534  114.880    0.268    3.110
  240.000    0.568  116.632    0.249    3.169
  240.250    0.523  109.006    0.251    3.169
  240.500    0.484  100.206    0.260    3.289
  240.750    0.482   91.993    0.273    3.413
  241.000    0.478   91.401    0.346    3.885
  241.250    0.477   93.152    0.337    4.588
  241.500    0.495   89.631    0.336    5.320
  241.750    0.472   83.763    0.244    5.945
  242.000    0.454   69.102    0.191    6.284
  242.250    0.415   62.648    0.166    6.402
  242.500    0.359   62.056    0.200    6.057
  242.750    0.343   74.946    0.221    5.421
  243.000    0.397   86.661    0.249    4.852
  243.250    0.476   89.003    0.272    4.109
  243.500    0.497   92.512    0.266    4.264
  243.750    0.469   94.851    0.259    4.678
  244.000    0.460   91.328    0.288    4.854
  244.250    0.448   86.046    0.287    4.945
  244.500    0.437   86.625    0.287    4.945
  244.750    0.441   88.379    0.306    4.946
  245.000    0.437   88.959    0.325    4.946
  245.250    0.447   87.195    0.324    4.946
  245.500    0.455   86.018    0.297    5.039
  245.750    0.457   87.183    0.295    5.040
  246.000    0.446   91.866    0.294    5.040
  246.250    0.437   98.308    0.278    4.769
  246.500    0.446  102.992    0.255    4.596
  246.750    0.460  101.813    0.246    4.268
  247.000    0.475   99.463    0.236    4.114
  247.250    0.498   98.284    0.235    3.892
  247.500    0.498   96.517    0.240    3.892
  247.750    0.486   95.341    0.247    4.039
  248.000    0.470   91.818    0.249    4.115
  248.250    0.468   94.743    0.245    4.192
  248.500    0.468   98.841    0.246    4.192
  248.750    0.470  104.109    0.253    4.116
  249.000    0.475  102.930    0.259    4.041
  249.250    0.481  101.167    0.231    3.823
  249.500    0.492   99.401    0.223    3.551
  249.750    0.517   98.809    0.235    3.298
  250.000    0.510   98.802    0.254    3.298
  250.250    0.499   98.799    0.263    3.423
  250.500    0.492   97.033    0.280    3.299
  250.750    0.499   94.682    0.278    3.179
  251.000    0.523   94.090    0.280    2.899
  251.250    0.547   98.775    0.284    2.743
  251.500    0.560  104.044    0.288    2.743
  251.750    0.573   99.349    0.284    2.743
  252.000    0.574   98.755    0.283    2.743
  252.250    0.561  102.266    0.288    2.795
  252.500    0.545  101.088    0.292    2.954
  252.750    0.527   96.391    0.288    3.010
  253.000    0.503   96.385    0.285    3.010
  253.250    0.493   97.552    0.285    2.955
  253.500    0.506   98.719    0.283    2.955
  253.750    0.523  101.057    0.276    2.901
  254.000    0.540  102.809    0.273    2.901
  254.250    0.539  104.563    0.264    2.849
  254.500    0.534  102.211    0.277    2.797
  254.750    0.527  101.034    0.277    2.746
  255.000    0.516   98.684    0.273    2.746
  255.250    0.504   97.505    0.270    2.746
  255.500    0.516   97.499    0.279    2.746
  255.750    0.529   93.390    0.299    2.850
  256.000    0.529   96.901    0.305    2.957
  256.250    0.518   95.137    0.273    3.126
  256.500    0.512   91.612    0.280    3.430
  256.750    0.488   94.538    0.277    3.494
  257.000    0.452   99.808    0.235    3.559
  257.250    0.516  104.492    0.221    3.560
  257.500    0.543  109.174    0.229    3.560
  257.750    0.508  108.583    0.240    3.495
  258.000    0.491  105.645    0.241    3.561
  258.250    0.496  102.121    0.234    3.627
