~VERSION INFORMATION
 VERS.                 2.0:   CWLS LOG ASCII STANDARD -VERSION 2.0
 WRAP.                  NO:   ONE LINE PER DEPTH STEP
~WELL INFORMATION BLOCK
#MNEM.UNIT           DATA                    DESCRIPTION OF MNEMONIC
#---------    -------------------            -------------------------------
# Generated from Intellog Unique Number	CS_71_72/WELL/914
WELL.         PEX PHILLIPS AEC GRIST         : Well_name    - WELL
LOC .         00/11-35-071-08W4/0            : Location     - LOCATION
UWI .         00/11-35-071-08W4/0            : Uwi          - UNIQUE WELL ID
ENTR.         SP                             : Entered      - ENTERED BY
SRVC.         SCHLUMBERGER                   : Scn          - SERVICE COMPANY
STRT.M        300                            : top_depth    - START DEPTH
STOP.M        525                            : bot_depth    - STOP DEPTH
STEP.M        0.25                           : increment    - STEP LENGTH
 NULL. -999.2500:NULL Value
~CURVE INFORMATION BLOCK
#MNEM UNIT       ERCB CURVE CODE    CURVE DESCRIPTION
#-----------   ------------------   ----------------------------------
DEPT.M        00 001 00 00         : DEPTH        - DEPTH
ILD .OHMM     00 120 00 00         : RESD         - DEEP RESISTIVITY (DIL)
DPHI.V/V      00 890 00 00         : PHID         - DENSITY POROSITY (LIMESTONE)
NPHI.V/V      00 330 00 00         : PHIN         - NEUTRON POROSITY (LIMESTONE)
GR  .API      00 310 00 00         : GR           - GAMMA RAY
~PARAMETER INFORMATION
#MNEM.UNIT           DATA             DESCRIPTION OF MNEMONIC
#---------         -----------     ------------------------------
GL  .M        663.86               : gl           - GROUND LEVEL ELEVATION
EREF.M        666.86               : kb           - ELEVATION OF DEPTH REFERENCE
DATM.M        663.86               : datum        - DATUM ELEVATION
TDD .M        530                  : tdd          - TOTAL DEPTH DRILLER
RUN .         ONE                  : Run          - RUN NUMBER
ENG .         BILL                 : Engineer     - RECORDING ENGINEER
WIT .         JIM                  : Witness      - WITNESSED BY
MUD .         GEL                  : Mud_type     - MUD TYPE
MATR.         LIMESTONE            : Logunit      - NEUTRON MATRIX
TMAX.C        22                   : BHT          - MAXIMUM RECORDED TEMPERATURE
BHTD.M        530                  : BHTDEP       - MAXIMUM RECORDED TEMPERATURE
MATR.         1                    : LOGUNIT      - NEUTRON MATRIX
RMT .C        25                   : MDTP         - TEMPERATURE OF MUD
NEUT.         1                    : NEUTRON      - NEUTRON TYPE
RESI.         0                    : RESIST       - RESISTIVITY TYPE
RMC .OHMM     0.25                 : RMC          - RESISTIVITY OF MUD CAKE
RMF .OHMM     0.25                 : RMF          - RESISTIVITY OF MUD FILTRATE
SUFT.C        15                   : SUFT         - SURFACE TEMPERATURE
~A  DEPTH     RESD     PHID     PHIN       GR
# ...
  343.500   13.669    0.291    0.321   72.678
  343.750   13.382    0.286    0.332   83.071
  344.000   12.929    0.282    0.329   86.665
  344.250   12.327    0.289    0.322   89.891
  344.500   11.911    0.260    0.329   84.840
  344.750   11.617    0.243    0.338   93.212
  345.000   11.308    0.217    0.335   99.009
  345.250   11.113    0.218    0.328  103.158
  345.500   10.962    0.234    0.332  107.482
  345.750   10.833    0.246    0.331  109.055
  346.000   10.869    0.230    0.337  108.296
  346.250   10.904    0.219    0.346  113.910
  346.500   10.961    0.219    0.348  108.430
  346.750   10.956    0.225    0.334  112.025
  347.000   10.950    0.219    0.345  112.368
  347.250   10.944    0.233    0.344  104.558
  347.500   10.899    0.241    0.336   95.034
  347.750   10.710    0.229    0.331   96.972
  348.000   10.155    0.231    0.349   97.131
  348.250    9.359    0.228    0.343   97.289
  348.500    8.675    0.214    0.349  106.340
  348.750    7.951    0.195    0.367  116.184
  349.000    7.370    0.185    0.380  124.310
  349.250    6.793    0.185    0.381  125.390
  349.500    6.416    0.197    0.389  126.594
  349.750    6.353    0.207    0.394  126.447
  350.000    6.656    0.209    0.408  117.041
  350.250    7.721    0.213    0.399  114.812
  350.500    8.890    0.192    0.362  112.215
  350.750    9.893    0.197    0.364  108.635
  351.000   10.643    0.205    0.379  105.608
  351.250   11.235    0.189    0.382  104.480
  351.500   11.573    0.100    0.366  102.556
  351.750   11.699    0.126    0.347   96.769
  352.000   11.497    0.236    0.342   99.259
  352.250   11.004    0.235    0.341  104.629
  352.500   10.199    0.233    0.346  107.424
  352.750    9.948    0.252    0.337  100.044
  353.000   10.151    0.247    0.334   99.038
  353.250   10.476    0.223    0.340  103.184
  353.500   10.650    0.206    0.338  106.716
  353.750   10.666    0.207    0.331  102.156
  354.000   10.560    0.186    0.339  102.682
  354.250   10.358    0.179    0.364  103.821
  354.500   10.027    0.191    0.365  100.856
  354.750    9.724    0.193    0.354   98.810
  355.000    9.413    0.196    0.360  101.604
  355.250    9.129    0.189    0.379  106.175
  355.500    8.887    0.180    0.395  109.159
  355.750    8.618    0.167    0.386  111.097
  356.000    8.374    0.184    0.373  101.019
  356.250    8.000    0.196    0.362  102.466
  356.500    7.514    0.204    0.355  102.135
  356.750    6.899    0.213    0.349  108.241
  357.000    6.615    0.203    0.350  117.842
  357.250    6.688    0.195    0.356  119.961
  357.500    7.020    0.191    0.358  116.444
  357.750    7.710    0.209    0.374  107.655
  358.000    8.248    0.242    0.365   99.415
  358.250    9.041    0.230    0.380  103.008
  358.500    9.874    0.217    0.368  107.275
  358.750   10.703    0.209    0.366  103.084
  359.000   11.601    0.236    0.353   98.277
  359.250   12.269    0.256    0.362   92.186
  359.500   12.686    0.307    0.355   86.094
  359.750   12.969    0.334    0.363   79.633
  360.000   13.038    0.299    0.363   84.389
  360.250   13.129    0.260    0.349   77.378
  360.500   13.072    0.269    0.337   73.184
  360.750   12.872    0.296    0.330   72.058
  361.000   12.249    0.295    0.341   76.876
  361.250   11.836    0.283    0.335   79.487
  361.500   11.307    0.295    0.332   78.361
  361.750   10.925    0.271    0.340   85.323
  362.000   10.796    0.252    0.342   94.557
  362.250   11.121    0.262    0.336   96.249
  362.500   11.587    0.277    0.330   87.213
  362.750   12.208    0.291    0.341   83.083
  363.000   12.576    0.294    0.345   83.856
  363.250   12.931    0.282    0.352   82.790
  363.500   13.169    0.274    0.351   85.156
  363.750   13.387    0.283    0.341   80.593
  364.000   13.382    0.275    0.333   83.637
  364.250   13.297    0.259    0.348   84.287
  364.500   13.144    0.246    0.363   86.100
  364.750   12.942    0.237    0.346   88.345
  365.000   12.646    0.231    0.354   92.061
  365.250   12.334    0.225    0.352   93.570
  365.500   11.760    0.232    0.344   88.642
  365.750   11.536    0.244    0.338   88.004
  366.000   11.595    0.247    0.333   85.590
  366.250   11.481    0.255    0.328   86.301
  366.500   11.049    0.256    0.326   84.255
  366.750   10.556    0.241    0.336   87.908
  367.000    9.915    0.222    0.352   94.259
  367.250    9.472    0.205    0.367  103.369
  367.500    9.290    0.199    0.357  108.554
  367.750    9.357    0.211    0.348  107.550
  368.000   10.373    0.233    0.359   95.817
  368.250   11.350    0.269    0.357   82.553
  368.500   12.442    0.301    0.362   72.842
  368.750   13.335    0.294    0.375   68.284
  369.000   14.210    0.297    0.363   72.612
  369.250   14.694    0.310    0.356   72.342
  369.500   14.966    0.320    0.352   71.889
  369.750   14.847    0.308    0.346   67.942
  370.000   14.023    0.305    0.348   71.228
  370.250   12.998    0.293    0.359   72.246
  370.500   12.139    0.281    0.349   78.842
  370.750   11.337    0.270    0.337   79.737
  371.000   10.810    0.262    0.328   77.445
  371.250   10.425    0.255    0.320   79.934
  371.500   10.110    0.235    0.313   82.913
  371.750    9.841    0.206    0.312   83.932
  372.000    9.654    0.206    0.318   92.919
  372.250    9.238    0.199    0.353  104.297
  372.500    8.859    0.193    0.364  104.825
  372.750    8.512    0.191    0.357  110.745
  373.000    8.162    0.193    0.334  114.094
  373.250    8.036    0.206    0.349  101.319
  373.500    8.372    0.205    0.359   98.905
  373.750    9.144    0.196    0.359  101.946
  374.000   10.156    0.210    0.352  101.861
  374.250   10.967    0.230    0.333   94.540
  374.500   12.387    0.263    0.322   91.821
  374.750   12.668    0.296    0.327   74.633
  375.000   13.704    0.318    0.325   64.617
  375.250   14.225    0.322    0.326   57.297
  375.500   14.543    0.322    0.331   59.847
  375.750   14.702    0.327    0.333   56.147
  376.000   14.805    0.328    0.331   61.209
  376.250   14.798    0.322    0.326   56.835
  376.500   14.648    0.325    0.338   56.318
  376.750   14.590    0.327    0.339   60.093
  377.000   14.362    0.328    0.333   61.971
  377.250   14.249    0.320    0.332   61.213
  377.500   14.134    0.313    0.334   55.366
  377.750   13.968    0.312    0.348   58.896
  378.000   13.858    0.323    0.349   60.830
  378.250   13.747    0.325    0.344   61.176
  378.500   13.663    0.321    0.346   61.030
  378.750   13.605    0.319    0.335   57.451
  379.000   13.547    0.320    0.343   59.817
  379.250   13.464    0.332    0.334   62.245
  379.500   13.356    0.329    0.333   64.360
  379.750   13.270    0.324    0.334   65.262
  380.000   13.267    0.321    0.330   66.278
  380.250   13.260    0.332    0.343   66.928
  380.500   13.253    0.334    0.357   67.152
  380.750   13.271    0.330    0.353   65.228
  381.000   13.315    0.325    0.344   65.020
  381.250   13.309    0.329    0.336   67.077
  381.500   13.305    0.332    0.347   68.340
  381.750   13.320    0.329    0.360   62.618
  382.000   13.292    0.333    0.363   59.223
  382.250   13.311    0.334    0.351   63.244
  382.500   13.278    0.330    0.338   61.565
  382.750   13.272    0.325    0.343   62.581
  383.000   13.266    0.321    0.357   64.643
  383.250   13.234    0.319    0.364   64.681
  383.500   13.229    0.318    0.366   62.387
  383.750   13.222    0.322    0.359   63.893
  384.000   13.190    0.331    0.352   67.976
  384.250   13.158    0.325    0.345   62.805
  384.500   13.103    0.315    0.340   62.783
  384.750   13.048    0.320    0.336   66.188
  385.000   12.915    0.315    0.338   66.780
  385.250   12.864    0.305    0.338   65.528
  385.500   12.761    0.301    0.335   67.773
  385.750   12.493    0.315    0.345   67.259
  386.000   12.139    0.322    0.358   62.453
  386.250   11.466    0.311    0.346   65.431
  386.500   10.410    0.314    0.358   70.007
  386.750    9.416    0.310    0.351   73.967
