~VERSION INFORMATION
 VERS.                 2.0:   CWLS LOG ASCII STANDARD -VERSION 2.0
 WRAP.                  NO:   ONE LINE PER DEPTH STEP
~WELL INFORMATION BLOCK
#MNEM.UNIT           DATA                    DESCRIPTION OF MNEMONIC
#---------    -------------------            -------------------------------
# Generated from Intellog Unique Number	CS_73_76/WELL/3271
WELL.         DOME LEISMER                   : Well_name    - WELL
LOC .         00/12-13-076-10W4/0            : Location     - LOCATION
UWI .         00/12-13-076-10W4/0            : Uwi          - UNIQUE WELL ID
ENTR.         SP                             : Entered      - ENTERED BY
SRVC.         SCHLUMBERGER                   : Scn          - SERVICE COMPANY
STRT.M        250                            : top_depth    - START DEPTH
STOP.M        460                            : bot_depth    - STOP DEPTH
STEP.M        0.25                           : increment    - STEP LENGTH
 NULL. -999.2500:NULL Value
~CURVE INFORMATION BLOCK
#MNEM UNIT       ERCB CURVE CODE    CURVE DESCRIPTION
#-----------   ------------------   ----------------------------------
DEPT.M        00 001 00 00         : DEPTH        - DEPTH
DPHI.V/V      00 890 00 00         : PHID         - DENSITY POROSITY (LIMESTONE)
NPHI.V/V      00 330 00 00         : PHIN         - NEUTRON POROSITY (LIMESTONE)
GR  .API      00 310 00 00         : GR           - GAMMA RAY
ILD .OHMM     00 120 00 00         : RESD         - DEEP RESISTIVITY (DIL)
~PARAMETER INFORMATION
#MNEM.UNIT           DATA             DESCRIPTION OF MNEMONIC
#---------         -----------     ------------------------------
GL  .M        662.72               : gl           - GROUND LEVEL ELEVATION
EREF.M        667                  : kb           - ELEVATION OF DEPTH REFERENCE
DATM.M        667                  : datum        - DATUM ELEVATION
TDD .M        465                  : tdd          - TOTAL DEPTH DRILLER
RUN .         ONE                  : Run          - RUN NUMBER
ENG .         BILL                 : Engineer     - RECORDING ENGINEER
WIT .         JIM                  : Witness      - WITNESSED BY
MUD .         GEL                  : Mud_type     - MUD TYPE
MATR.         LIMESTONE            : Logunit      - NEUTRON MATRIX
TMAX.C        23                   : BHT          - MAXIMUM RECORDED TEMPERATURE
BHTD.M        465                  : BHTDEP       - MAXIMUM RECORDED TEMPERATURE
MATR.         1                    : LOGUNIT      - NEUTRON MATRIX
RMT .C        25                   : MDTP         - TEMPERATURE OF MUD
NEUT.         1                    : NEUTRON      - NEUTRON TYPE
RESI.         0                    : RESIST       - RESISTIVITY TYPE
RMC .OHMM     0.25                 : RMC          - RESISTIVITY OF MUD CAKE
RMF .OHMM     0.25                 : RMF          - RESISTIVITY OF MUD FILTRATE
SUFT.C        15                   : SUFT         - SURFACE TEMPERATURE
~A  DEPTH     PHID     PHIN       GR     RESD
# ...
  337.000    0.344    0.472   61.563   10.139
  337.250    0.348    0.466   64.020    7.222
  337.500    0.334    0.485   71.375    5.868
  337.750    0.321    0.521   75.056    5.045
  338.000    0.311    0.520   73.230    4.766
  338.250    0.297    0.513   71.399    4.854
  338.500    0.287    0.505   63.447    5.534
  338.750    0.298    0.489   57.333    7.335
  339.000    0.318    0.477   54.280   12.654
  339.250    0.332    0.466   54.288   14.702
  339.500    0.341    0.456   56.133   16.452
  339.750    0.343    0.450   59.201   17.398
  340.000    0.345    0.450   64.721   18.053
  340.250    0.345    0.450   64.115   18.045
  340.500    0.337    0.452   63.511   17.370
  340.750    0.325    0.453   64.132   16.718
  341.000    0.325    0.461   63.528   15.498
  341.250    0.301    0.464   60.475   13.836
  341.500    0.248    0.436   60.482    9.314
  341.750    0.179    0.337   66.615    6.152
  342.000    0.222    0.411   73.968    4.221
  342.250    0.259    0.493   80.099    3.241
  342.500    0.272    0.501   80.720    2.735
  342.750    0.273    0.515   80.726    2.351
  343.000    0.262    0.528   82.572    2.099
  343.250    0.258    0.522   86.254    1.946
  343.500    0.267    0.515   88.097    1.945
  343.750    0.274    0.519   81.984    1.981
  344.000    0.272    0.541   78.930    2.094
  344.250    0.281    0.542   80.162    2.257
  344.500    0.286    0.535   82.619    2.432
  344.750    0.280    0.547   81.404    2.671
  345.000    0.263    0.551   80.800    3.103
  345.250    0.259    0.537   80.807    3.743
  345.500    0.273    0.546   82.039    4.189
  345.750    0.286    0.562   85.109    4.514
  346.000    0.286    0.558   87.565    4.427
  346.250    0.267    0.523   89.411    4.342
  346.500    0.239    0.538   90.643    4.259
  346.750    0.236    0.565   92.488    4.099
  347.000    0.239    0.575   93.721    4.021
  347.250    0.234    0.547   93.728    3.944
  347.500    0.241    0.536   93.124    3.868
  347.750    0.247    0.538   92.521    3.724
  348.000    0.242    0.559   91.916    3.652
  348.250    0.240    0.570   90.088    3.515
  348.500    0.253    0.553   90.707    3.648
  348.750    0.261    0.564   91.328    4.082
  349.000    0.269    0.576   88.886    4.654
  349.250    0.287    0.598   85.221    5.111
  349.500    0.312    0.600   81.555    5.827
  349.750    0.310    0.480   76.665    6.163
  350.000    0.284    0.426   73.001    6.277
  350.250    0.260    0.423   79.744    5.710
  350.500    0.239    0.460   84.039    5.194
  350.750    0.244    0.503   87.717    4.815
  351.000    0.254    0.524   91.401    4.548
  351.250    0.260    0.528   88.346    4.296
  351.500    0.255    0.519   90.802    4.214
  351.750    0.246    0.472   92.037    4.133
  352.000    0.244    0.502   89.594    3.904
  352.250    0.251    0.546   90.829    3.551
  352.500    0.281    0.591   93.284    3.355
  352.750    0.297    0.598   96.966    3.051
  353.000    0.307    0.606  100.647    2.993
  353.250    0.317    0.620   98.207    3.106
  353.500    0.317    0.618   96.377    3.678
  353.750    0.307    0.596   92.712    4.437
  354.000    0.292    0.560   86.597    5.253
  354.250    0.278    0.471   79.871    6.581
  354.500    0.281    0.477   79.268    7.940
  354.750    0.260    0.480   81.724    8.239
  355.000    0.249    0.473   80.507    7.930
  355.250    0.257    0.467   79.292    7.926
  355.500    0.264    0.483   78.686    7.922
  355.750    0.265    0.498   79.306    7.918
  356.000    0.266    0.506   80.539    8.064
  356.250    0.256    0.496   81.160    7.910
  356.500    0.243    0.480   80.555    8.055
  356.750    0.236    0.477   81.176    8.051
  357.000    0.251    0.466   81.796    8.047
  357.250    0.257    0.451   80.579    8.195
  357.500    0.257    0.459   81.812    8.347
  357.750    0.256    0.475   79.982    8.661
  358.000    0.246    0.462   76.929    8.657
  358.250    0.245    0.458   74.489    8.653
  358.500    0.272    0.470   73.272    8.328
  358.750    0.289    0.467   72.669    8.167
  359.000    0.284    0.472   73.900    8.164
  359.250    0.283    0.467   76.357    8.160
  359.500    0.282    0.446   79.427    7.855
  359.750    0.287    0.445   80.659    7.703
  360.000    0.288    0.458   83.730    7.556
  360.250    0.269    0.462   84.960    7.551
  360.500    0.260    0.447   86.805    7.548
  360.750    0.240    0.456   85.589    7.688
  361.000    0.250    0.473   83.761    7.978
  361.250    0.252    0.484   81.319    8.280
  361.500    0.241    0.510   78.266    9.265
  361.750    0.184    0.471   67.865   12.994
  362.000    0.077    0.426   49.506   13.233
  362.250    0.010    0.241   51.964   12.738
  362.500    0.053    0.295   61.767   10.747
  362.750    0.152    0.340   74.020    9.067
  363.000    0.242    0.388   78.314    8.095
  363.250    0.220    0.420   80.771    7.504
  363.500    0.235    0.480   82.616    7.223
  363.750    0.231    0.495   85.686    7.084
  364.000    0.224    0.473   88.143    7.080
  364.250    0.232    0.479   85.089    6.944
  364.500    0.253    0.496   84.486    6.810
  364.750    0.251    0.482   85.105    6.808
  365.000    0.237    0.467   84.502    6.677
  365.250    0.224    0.485   85.736    6.674
  365.500    0.225    0.491   86.354    6.670
  365.750    0.232    0.480   96.772    6.542
  366.000    0.238    0.464   91.879    6.539
  366.250    0.238    0.468   90.664    6.536
  366.500    0.236    0.475   91.283    6.655
  366.750    0.231    0.488   87.618    6.529
  367.000    0.225    0.481   85.177    6.403
  367.250    0.221    0.474   85.797    5.825
  367.500    0.237    0.486   88.258    5.200
  367.750    0.258    0.483   88.262    4.147
  368.000    0.274    0.493   90.109    3.565
  368.250    0.291    0.530   89.504    2.952
  368.500    0.299    0.605   85.837    2.444
  368.750    0.304    0.609   85.234    2.223
  369.000    0.302    0.607   87.077    2.181
  369.250    0.305    0.597   88.314    2.394
  369.500    0.301    0.597   86.481    2.581
  369.750    0.304    0.587   81.592    3.055
  370.000    0.297    0.574   82.216    3.484
  370.250    0.285    0.544   82.832    4.203
  370.500    0.278    0.504   78.557    5.365
  370.750    0.280    0.479   78.562    6.473
  371.000    0.274    0.460   79.183    8.107
  371.250    0.266    0.463   77.966    8.575
  371.500    0.270    0.463   79.199    8.898
  371.750    0.281    0.457   78.596    8.728
  372.000    0.295    0.445   79.826    8.723
  372.250    0.292    0.438   76.162    8.718
  372.500    0.284    0.429   64.536    8.714
  372.750    0.310    0.419   60.260    8.387
  373.000    0.329    0.414   60.272    8.383
  373.250    0.317    0.410   48.642    8.538
  373.500    0.310    0.407   51.099    8.374
  373.750    0.337    0.437   53.557    8.369
  374.000    0.349    0.454   56.627    7.906
  374.250    0.355    0.458   57.857    7.753
  374.500    0.347    0.447   56.642    7.749
  374.750    0.339    0.429   56.039    7.746
  375.000    0.334    0.438   55.433    7.889
  375.250    0.330    0.440   52.379    7.885
  375.500    0.330    0.438   51.164    7.880
  375.750    0.338    0.427   51.783    7.875
  376.000    0.344    0.413   53.016    7.872
  376.250    0.348    0.423   51.187    7.720
  376.500    0.349    0.435   52.419    7.862
  376.750    0.343    0.440   55.490    8.008
  377.000    0.341    0.438   55.497    7.854
  377.250    0.335    0.436   55.505    7.704
  377.500    0.333    0.441   56.125    7.847
  377.750    0.333    0.440   56.745    7.842
  378.000    0.327    0.440   56.143    7.692
  378.250    0.315    0.451   54.924    7.983
  378.500    0.307    0.455   51.258    7.979
  378.750    0.282    0.429   48.818    7.825
  379.000    0.212    0.327   48.217    7.822
  379.250    0.257    0.339   50.059    8.117
  379.500    0.329    0.410   51.903    7.962
  379.750    0.347    0.435   48.239    8.109
  380.000    0.352    0.446   48.245    8.412
  380.250    0.352    0.460   48.253    8.409
