~VERSION INFORMATION
 VERS.                 2.0:   CWLS LOG ASCII STANDARD -VERSION 2.0
 WRAP.                  NO:   ONE LINE PER DEPTH STEP
~WELL INFORMATION BLOCK
#MNEM.UNIT           DATA                    DESCRIPTION OF MNEMONIC
#---------    -------------------            -------------------------------
# Generated from Intellog Unique Number	CW_70_72/WELL/1037
NULL.         -999.25                        : NULL_VALUE
WELL.         SULPETRO SMITH 10-15           : Well_name    - WELL              
LOC .         10-15-071-26W4                 : Location     - LOCATION          
UWI .         00/10-15-071-26W4/0            : Uwi          - UNIQUE WELL ID    
ENTR.         JAYE                           : Entered      - ENTERED BY        
SRVC.         SCHLUMBERGER                   : Scn          - SERVICE COMPANY   
DATE.         24 FEB 72                      : Date         - LOG DATE          
STRT.M        426.11                         : top_depth    - START DEPTH       
STOP.M        685.86                         : bot_depth    - STOP DEPTH        
STEP.M        0.25                           : increment    - STEP LENGTH       
~CURVE INFORMATION BLOCK
#MNEM UNIT       ERCB CURVE CODE    CURVE DESCRIPTION
#-----------   ------------------   ----------------------------------
DEPT.M        00 001 00 00         : DEPTH        - DEPTH                       
DPHI.V/V      00 890 00 00         : PHID         - DENSITY POROSITY (SANDSTONE)
NPHI.V/V      00 330 00 00         : PHIN         - NEUTRON POROSITY (SANDSTONE)
GR  .API      00 310 00 00         : GR           - GAMMA RAY                   
CALI.MM       00 280 01 00         : CAL          - CALIPER                     
ILD .OHMM     00 120 00 00         : RESD         - DEEP RESISTIVITY (DIL)      
~PARAMETER INFORMATION       
#MNEM.UNIT           DATA             DESCRIPTION OF MNEMONIC
#---------         -----------     ------------------------------
GL  .M        617.22               : gl           - GROUND LEVEL ELEVATION      
EREF.M        620.573              : kb           - ELEVATION OF DEPTH REFERENCE
DATM.M        617.22               : datum        - DATUM ELEVATION             
TDD .M        701.04               : tdd          - TOTAL DEPTH DRILLER         
RUN .         ONE                  : Run          - RUN NUMBER                  
ENG .         ASHTON               : Engineer     - RECORDING ENGINEER          
WIT .         DRUMMOND             : Witness      - WITNESSED BY                
BASE.         LLOYD                : Branch       - HOME BASE OF LOGGING UNIT   
MUD .         CHEM GEL             : Mud_type     - MUD TYPE                    
MATR.         SANDSTONE            : Logunit      - NEUTRON MATRIX              
TMAX.C        26.6667              : BHT          - MAXIMUM RECORDED TEMPERATURE
BHTD.M        701.04               : BHTDEP       - MAXIMUM RECORDED TEMPERATURE
RMT .C        15.5556              : MDTP         - TEMPERATURE OF MUD          
MUDD.KG/M     1224                 : MWT          - MUD DENSITY                 
NEUT.         1                    : NEUTRON      - NEUTRON TYPE                
RESI.         0                    : RESIST       - RESISTIVITY TYPE            
RM  .OHMM     3.04                 : RM           - RESISTIVITY OF MUD          
RMC .OHMM     2.3                  : RMC          - RESISTIVITY OF MUD CAKE     
RMF .OHMM     2.66                 : RMF          - RESISTIVITY OF MUD FILTRATE 
SUFT.C        0                    : SUFT         - SURFACE TEMPERATURE         
~A  DEPTH     PHID     PHIN       GR      CAL     RESD
# ...
  462.610    0.168    0.347  118.531  189.494    3.832
  462.860    0.166    0.412  117.881  193.661    3.849
  463.110    0.173    0.437  104.424  197.678    3.746
  463.360    0.190    0.445   99.385  197.049    3.611
  463.610    0.187    0.427   94.895  192.133    3.509
  463.860    0.219    0.402   89.123  187.628    3.437
  464.110    0.247    0.385   83.167  182.191    3.390
  464.360    0.258    0.397   84.778  177.586    3.376
  464.610    0.264    0.416   84.007  176.689    3.329
  464.860    0.246    0.396   83.970  176.413    3.321
  465.110    0.249    0.384   87.715  176.250    3.426
  465.360    0.250    0.396   88.530  175.772    3.762
  465.610    0.242    0.411   85.075  175.401    4.098
  465.860    0.242    0.411   81.319  175.347    4.370
  466.110    0.227    0.364   76.402  175.370    4.498
  466.360    0.208    0.346   71.057  175.826    4.323
  466.610    0.187    0.362   64.919  175.978    3.877
  466.860    0.197    0.367   69.579  175.906    3.304
  467.110    0.214    0.366   67.708  175.852    2.850
  467.360    0.239    0.408   61.452  175.991    2.715
  467.610    0.248    0.382   55.923  175.727    2.685
  467.860    0.268    0.358   56.249  175.660    2.653
  468.110    0.281    0.354   60.544  175.800    2.702
  468.360    0.271    0.378   63.620  175.830    2.728
  468.610    0.269    0.378   64.924  176.087    2.791
  468.860    0.282    0.377   67.204  176.237    2.888
  469.110    0.268    0.386   69.544  176.267    2.993
  469.360    0.276    0.400   73.902  177.023    3.105
  469.610    0.260    0.408   79.169  177.687    3.130
  469.860    0.272    0.395   77.302  178.360    3.170
  470.110    0.262    0.383   75.129  179.222    3.203
  470.360    0.279    0.385   75.335  179.880    3.244
  470.610    0.281    0.372   78.778  180.021    3.453
  470.860    0.265    0.406   83.743  180.272    3.716
  471.110    0.252    0.429   88.032  180.622    3.924
  471.360    0.238    0.443   93.854  180.868    3.925
  471.610    0.225    0.453   99.916  183.077    3.863
  471.860    0.188    0.459  104.089  188.180    3.855
  472.110    0.150    0.456  102.344  192.867    3.872
  472.360    0.168    0.442  105.296  192.498    3.857
  472.610    0.168    0.430  107.025  191.708    3.802
  472.860    0.161    0.447  107.234  191.022    3.796
  473.110    0.163    0.461  105.976  189.619    3.804
  473.360    0.156    0.462  106.061  190.381    3.820
  473.610    0.131    0.457  110.904  190.305    3.861
  473.860    0.155    0.455  112.392  190.354    3.903
  474.110    0.168    0.453  111.135  190.497    3.966
  474.360    0.176    0.450  109.023  190.228    4.087
  474.610    0.179    0.448  105.690  189.342    4.431
  474.860    0.180    0.436  102.785  188.959    4.799
  475.110    0.166    0.414   99.638  189.726    5.126
  475.360    0.159    0.382  101.857  190.596    5.382
  475.610    0.151    0.389  107.005  191.878    5.248
  475.860    0.132    0.444  110.812  194.398    5.041
  476.110    0.141    0.461  116.262  195.260    4.747
  476.360    0.161    0.435  112.321  195.092    4.477
  476.610    0.188    0.429  105.879  194.305    4.374
  476.860    0.203    0.431  103.340  192.696    4.303
  477.110    0.171    0.440  106.415  197.073    4.280
  477.360    0.182    0.419  110.157  201.868    4.272
  477.610    0.185    0.397  108.475  201.700    4.322
  477.860    0.185    0.377  104.350  191.824    4.346
  478.110    0.158    0.403   97.236  190.620    4.259
  478.360    0.194    0.450   86.950  190.764    3.885
  478.610    0.219    0.404   69.526  188.947    3.264
  478.860    0.258    0.354   48.564  182.269    2.706
  479.110    0.288    0.348   48.039  179.625    2.324
  479.360    0.281    0.361   48.914  179.977    2.389
  479.610    0.299    0.347   49.793  180.326    2.614
  479.860    0.300    0.342   50.854  180.259    2.869
  480.110    0.309    0.372   54.046  180.199    3.165
  480.360    0.321    0.396   58.830  180.025    3.405
  480.610    0.310    0.404   66.541  179.651    3.686
  480.860    0.277    0.397   80.352  179.492    3.798
  481.110    0.254    0.404   91.967  179.217    3.799
  481.360    0.247    0.426  103.152  179.055    3.800
  481.610    0.239    0.429  108.119  180.130    4.032
  481.860    0.229    0.432  108.692  184.814    4.208
  482.110    0.202    0.444   97.308  190.018    3.993
  482.360    0.245    0.462   92.083  191.091    3.588
  482.610    0.311    0.458   87.469  187.931    3.205
  482.860    0.299    0.437   83.040  183.841    3.119
  483.110    0.271    0.395   79.282  179.435    3.151
  483.360    0.281    0.396   79.916  177.611    3.224
  483.610    0.274    0.424   79.879  176.932    3.361
  483.860    0.257    0.443   77.463  176.871    3.473
  484.110    0.269    0.395   74.129  176.798    3.569
  484.360    0.274    0.419   68.480  176.736    3.699
  484.610    0.266    0.435   68.442  176.683    3.811
  484.860    0.246    0.445   71.577  176.927    3.828
  485.110    0.264    0.402   71.846  177.070    3.773
  485.360    0.240    0.434   74.919  176.589    3.693
  485.610    0.232    0.443   72.807  177.148    3.519
  485.860    0.237    0.436   71.734  178.224    3.368
  486.110    0.243    0.436   72.304  178.670    3.305
  486.360    0.233    0.423   72.207  178.922    3.417
  486.610    0.253    0.432   71.431  179.788    3.530
  486.860    0.268    0.427   72.131  179.622    3.539
  487.110    0.259    0.409   77.213  179.457    3.548
  487.360    0.265    0.399   76.999  179.185    3.508
  487.610    0.262    0.377   76.039  179.637    3.462
  487.860    0.256    0.362   76.009  179.680    3.567
  488.110    0.233    0.340   76.275  179.508    3.782
  488.360    0.200    0.340   73.493  178.823    4.357
  488.610    0.176    0.321   70.344  178.037    5.307
  488.860    0.135    0.253   69.878  179.011    7.478
  489.110    0.090    0.222   70.269  181.530    6.905
  489.360    0.112    0.228   70.476  184.460    6.259
  489.610    0.101    0.236   70.500  185.224    6.372
  489.860    0.131    0.273   69.973  183.611    7.074
  490.110    0.103    0.226   67.311  182.101    7.370
  490.360    0.052    0.183   67.885  184.104    5.935
  490.610    0.097    0.211   73.582  184.349    4.636
  490.860    0.182    0.335   77.878  181.086    3.504
  491.110    0.247    0.408   81.073  179.165    3.067
  491.360    0.280    0.439   79.630  178.061    3.012
  491.610    0.259    0.440   77.582  177.587    3.196
  491.860    0.265    0.447   78.641  177.833    3.205
  492.110    0.252    0.459   77.751  178.280    2.982
  492.360    0.257    0.448   74.906  178.432    3.079
  492.610    0.265    0.428   72.794  178.768    3.598
  492.860    0.274    0.435   76.295  179.020    4.420
  493.110    0.198    0.361   75.954  178.649    5.657
  493.360    0.158    0.294   70.731  178.582    6.153
  493.610    0.136    0.245   67.337  178.629    5.053
  493.860    0.123    0.236   69.375  179.087    4.193
  494.110    0.143    0.274   74.644  180.052    3.507
  494.360    0.181    0.357   78.206  182.157    3.285
  494.610    0.234    0.384   80.239  182.614    3.390
  494.860    0.260    0.377   79.168  181.922    3.725
  495.110    0.252    0.379   82.670  180.729    4.045
  495.360    0.244    0.409   86.412  180.256    4.461
  495.610    0.234    0.382   89.731  179.359    4.860
  495.860    0.221    0.352   94.572  180.225    5.220
  496.110    0.196    0.358   99.173  182.327    5.485
  496.360    0.156    0.387   98.768  184.327    5.461
  496.610    0.158    0.365   97.330  186.341    5.294
  496.860    0.162    0.359   97.293  187.823    5.112
  497.110    0.165    0.382  101.892  188.071    5.025
  497.360    0.166    0.394   96.606  188.011    5.305
  497.610    0.158    0.407   92.176  186.494    6.199
  497.860    0.149    0.396   86.281  184.469    6.894
  498.110    0.161    0.346   80.998  182.654    7.341
  498.360    0.130    0.298   75.350  180.733    6.848
  498.610    0.111    0.260   69.089  179.528    6.003
  498.860    0.093    0.249   69.358  178.846    5.095
