~VERSION INFORMATION
 VERS.                 2.0:   CWLS LOG ASCII STANDARD -VERSION 2.0
 WRAP.                  NO:   ONE LINE PER DEPTH STEP
~WELL INFORMATION BLOCK
#MNEM.UNIT           DATA                    DESCRIPTION OF MNEMONIC
#---------    -------------------            -------------------------------
# Generated from Intellog Unique Number	CW_76_78/WELL/2581
WELL.         10-34-078-23W4                 : Well_name    - WELL
LOC .         00/10-34-078-23W4/0            : Location     - LOCATION
UWI .         00/10-34-078-23W4/0            : Uwi          - UNIQUE WELL ID
ENTR.         MAX                            : Entered      - ENTERED BY
SRVC.         SCHLUMBERGER                   : Scn          - SERVICE COMPANY
STRT.M        240.792                        : top_depth    - START DEPTH
STOP.M        488.792                        : bot_depth    - STOP DEPTH
STEP.M        0.25                           : increment    - STEP LENGTH
 NULL. -999.2500:NULL Value
~CURVE INFORMATION BLOCK
#MNEM UNIT       ERCB CURVE CODE    CURVE DESCRIPTION
#-----------   ------------------   ----------------------------------
DEPT.M        00 001 00 00         : DEPTH        - DEPTH
ILD .OHMM     00 120 00 00         : RESD         - DEEP RESISTIVITY (DIL)
NPHI.V/V      00 330 00 00         : PHIN         - NEUTRON POROSITY (SANDSTONE)
DPHI.V/V      00 890 00 00         : PHID         - DENSITY POROSITY (SANDSTONE)
CALI.MM       00 280 01 00         : CAL          - CALIPER
GR  .API      00 310 00 00         : GR           - GAMMA RAY
~PARAMETER INFORMATION
#MNEM.UNIT           DATA             DESCRIPTION OF MNEMONIC
#---------         -----------     ------------------------------
GL  .M        571.683              : gl           - GROUND LEVEL ELEVATION
EREF.M        574.731              : kb           - ELEVATION OF DEPTH REFERENCE
DATM.M        574.731              : datum        - DATUM ELEVATION
TDD .M        494.995              : tdd          - TOTAL DEPTH DRILLER
RUN .         ONE                  : Run          - RUN NUMBER
ENG .         BILL                 : Engineer     - RECORDING ENGINEER
WIT .         JIM                  : Witness      - WITNESSED BY
MUD .         GEL                  : Mud_type     - MUD TYPE
MATR.         SANDSTONE            : Logunit      - NEUTRON MATRIX
TMAX.F        79                   : BHT          - MAXIMUM RECORDED TEMPERATURE
BHTD.F        1624                 : BHTDEP       - MAXIMUM RECORDED TEMPERATURE
RMT .F        69                   : MDTP         - TEMPERATURE OF MUD
MUDD.LB/G     9.9                  : MWT          - MUD DENSITY
NEUT.         1                    : NEUTRON      - NEUTRON TYPE
RESI.         0                    : RESIST       - RESISTIVITY TYPE
RM  .OHMM     3.5                  : RM           - RESISTIVITY OF MUD
RMC .OHMM     4.1                  : RMC          - RESISTIVITY OF MUD CAKE
RMF .OHMM     2.85                 : RMF          - RESISTIVITY OF MUD FILTRATE
SUFT.F        25                   : SUFT         - SURFACE TEMPERATURE
~A  DEPTH     RESD     PHIN     PHID      CAL       GR
# ...
  277.292    4.308    0.525    0.253  219.330  125.103
  277.542    5.547    0.498    0.242  223.803  119.511
  277.792    6.522    0.475    0.258  228.774  114.800
  278.042    7.323    0.457    0.265  236.234  114.501
  278.292    7.783    0.454    0.262  242.201  115.672
  278.542    7.760    0.513    0.266  243.686  115.666
  278.792    7.189    0.517    0.260  226.250  115.662
  279.042    6.785    0.493    0.255  216.281  115.951
  279.292    6.228    0.477    0.225  211.791  115.063
  279.542    5.770    0.490    0.242  205.806  111.235
  279.792    6.189    0.517    0.245  202.309  102.114
  280.042    6.888    0.527    0.251  200.310   85.640
  280.292    8.095    0.490    0.282  198.807   75.049
  280.542    9.430    0.474    0.307  198.302   70.927
  280.792   11.391    0.488    0.311  196.799   66.804
  281.042   15.220    0.496    0.318  194.798   63.270
  281.292   17.239    0.501    0.339  194.798   60.913
  281.542   18.336    0.501    0.348  193.285   61.494
  281.792   19.661    0.473    0.355  190.786   63.843
  282.042   20.518    0.498    0.357  190.772   67.365
  282.292   20.834    0.506    0.363  190.271   67.655
  282.542   21.155    0.507    0.358  190.264   67.943
  282.792   21.076    0.516    0.368  190.255   67.938
  283.042   21.029    0.513    0.371  190.247   66.169
  283.292   20.958    0.500    0.355  190.235   65.870
  283.542   20.697    0.508    0.369  190.228   65.865
  283.792   20.269    0.512    0.364  190.220   64.095
  284.042   19.828    0.507    0.366  188.717   62.913
  284.292   19.227    0.503    0.372  188.707   64.085
  284.542   18.644    0.509    0.374  188.700   66.138
  284.792   18.644    0.533    0.357  189.188   67.015
  285.042   18.378    0.555    0.348  189.678   66.422
  285.292   17.807    0.553    0.341  190.167   64.651
  285.542   17.767    0.527    0.327  190.655   64.353
  285.792   17.708    0.520    0.343  190.647   65.523
  286.042   17.817    0.514    0.357  190.638   66.693
  286.292   18.418    0.512    0.354  190.131   66.395
  286.542   19.046    0.506    0.364  189.625   64.920
  286.792   19.524    0.499    0.347  189.118   61.973
  287.042   20.376    0.492    0.338  190.104   60.497
  287.292   21.249    0.495    0.334  190.595   60.494
  287.542   21.990    0.472    0.333  190.584   60.489
  287.792   23.355    0.468    0.337  191.075   60.482
  288.042   24.161    0.469    0.346  192.061   59.596
  288.292   25.447    0.430    0.321  193.546   57.532
  288.542   26.811    0.350    0.269  195.031   56.055
  288.792   27.980    0.276    0.148  195.519   56.345
  289.042   28.142    0.258    0.112  194.019   57.810
  289.292   27.792    0.342    0.171  192.018   59.570
  289.542   26.724    0.450    0.338  191.013   61.328
  289.792   24.757    0.473    0.334  191.004   61.912
  290.042   23.357    0.469    0.343  191.493   63.083
  290.292   22.658    0.469    0.355  192.478   63.371
  290.542   21.979    0.470    0.359  192.968   62.778
  290.792   21.714    0.468    0.358  192.461   61.596
  291.042   21.714    0.469    0.360  192.454   61.297
  291.292   21.356    0.463    0.359  192.943   62.762
  291.542   21.300    0.457    0.343  193.433   63.346
  291.792   21.236    0.491    0.343  194.419   63.047
  292.042   21.165    0.486    0.348  196.403   62.158
  292.292   21.117    0.484    0.343  197.888   63.330
  292.542   21.054    0.482    0.351  200.368   65.384
  292.792   20.983    0.475    0.349  201.356   62.731
  293.042   20.921    0.464    0.345  200.350   60.079
  293.292   20.653    0.452    0.342  198.848   60.957
  293.542   20.404    0.459    0.338  196.349   62.716
  293.792   20.343    0.469    0.345  193.352   63.593
  294.042   20.090    0.470    0.346  192.349   63.882
  294.292   20.023    0.473    0.344  193.336   63.582
  294.542   19.781    0.463    0.345  199.799   62.989
  294.792   19.550    0.464    0.338  200.788   62.690
  295.042   19.138    0.472    0.341  199.783   62.979
  295.292   18.558    0.488    0.342  196.785   64.150
  295.542   17.839    0.488    0.341  194.785   65.615
  295.792   16.830    0.469    0.346  193.282   67.080
  296.042   15.037    0.473    0.351  193.770   69.427
  296.292   13.062    0.475    0.319  194.260   73.833
  296.542   12.551    0.470    0.291  194.749   77.357
  296.792   12.633    0.473    0.274  194.741   81.469
  297.042   12.832    0.489    0.263  194.234   79.993
  297.292   13.145    0.503    0.295  193.727   78.811
  297.542   13.226    0.484    0.314  193.220   79.101
  297.792   13.302    0.490    0.331  192.215   80.272
  298.042   13.147    0.515    0.328  191.210   81.149
  298.292   12.174    0.527    0.325  190.703   82.026
  298.542   10.877    0.519    0.322  190.199   82.902
  298.792    9.539    0.511    0.319  190.686   83.780
  299.042    8.445    0.518    0.303  190.677   85.244
  299.292    7.075    0.542    0.300  191.168   85.828
  299.542    6.375    0.530    0.310  192.153   85.823
  299.792    6.128    0.525    0.323  193.640   85.230
  300.042    6.451    0.523    0.309  196.618   83.459
  300.292    7.050    0.551    0.292  199.598   82.278
  300.542    8.441    0.588    0.353  197.595   72.863
  300.792   12.134    0.521    0.389  195.097   59.330
  301.042   14.529    0.464    0.332  193.594   47.856
  301.292   16.450    0.456    0.319  193.081   41.087
  301.542   17.024    0.458    0.336  192.581   40.200
  301.792   17.599    0.463    0.346  192.572   40.194
  302.042   17.870    0.453    0.336  192.565   40.189
  302.292   17.987    0.459    0.339  193.046   39.596
  302.542   18.091    0.483    0.345  193.043   39.297
  302.792   18.091    0.480    0.364  194.031   40.467
  303.042   18.141    0.476    0.370  197.009   42.521
  303.292   18.596    0.480    0.345  199.988   44.574
  303.542   18.861    0.489    0.335  201.473   47.509
  303.792   19.152    0.477    0.336  201.466   50.445
  304.042   19.284    0.462    0.345  200.461   52.205
  304.292   19.581    0.475    0.348  197.962   51.906
  304.542   19.875    0.483    0.332  196.959   50.724
  304.792   19.983    0.466    0.348  196.451   50.130
  305.042   20.306    0.462    0.354  196.442   49.832
  305.292   20.431    0.459    0.341  196.427   49.531
  305.542   20.557    0.453    0.335  196.424   49.229
  305.792   20.675    0.467    0.327  195.917   49.228
  306.042   20.606    0.467    0.325  195.917   48.929
  306.292   20.741    0.452    0.335  195.899   48.040
  306.542   20.869    0.473    0.337  194.894   47.741
  306.792   20.974    0.477    0.332  194.894   48.029
  307.042   20.911    0.455    0.341  194.378   48.319
  307.292   20.848    0.457    0.351  194.370   48.021
  307.542   20.786    0.473    0.357  194.370   46.250
  307.792   20.731    0.475    0.365  194.847   45.950
  308.042   20.669    0.474    0.361  195.342   46.534
  308.292   20.600    0.472    0.337  196.326   47.117
  308.542   20.538    0.462    0.330  196.326   46.523
  308.792   20.462    0.452    0.336  196.310   45.047
  309.042   20.416    0.442    0.330  196.797   43.865
  309.292   20.416    0.482    0.324  196.790   43.274
  309.542   20.286    0.500    0.340  196.781   43.267
  309.792   20.026    0.478    0.369  196.276   43.263
  310.042   19.974    0.455    0.331  197.261   43.846
  310.292   19.733    0.435    0.323  202.730   45.311
  310.542   19.667    0.412    0.293  205.212   47.070
  310.792   19.615    0.401    0.280  205.701   49.712
  311.042   19.549    0.442    0.283  203.699   52.648
  311.292   19.491    0.461    0.303  202.198   55.583
  311.542   19.425    0.499    0.316  202.198   59.107
  311.792   19.375    0.503    0.329  200.685   62.630
  312.042   19.486    0.504    0.335  198.685   64.096
  312.292   19.486    0.510    0.346  198.675   64.385
  312.542   19.370    0.514    0.346  199.664   62.320
  312.792   19.298    0.504    0.349  201.645   60.845
  313.042   19.240    0.502    0.338  200.642   59.075
  313.292   19.359    0.495    0.332  199.139   57.600
  313.542   19.294    0.477    0.331  197.636   57.299
