~VERSION INFORMATION
 VERS.                 2.0:   CWLS LOG ASCII STANDARD -VERSION 2.0
 WRAP.                  NO:   ONE LINE PER DEPTH STEP
~WELL INFORMATION BLOCK
#MNEM.UNIT           DATA                    DESCRIPTION OF MNEMONIC
#---------    -------------------            -------------------------------
# Generated from Intellog Unique Number	CC_80_83/WELL/2345
NULL.         -999.25                        : NULL_VALUE
WELL.         HOMESTEAD JASPER COWPAR        : WELL_NAME
LOC .         10-10-080-04W4                 : Location     - LOCATION          
UWI .         00/10-10-080-04W400           : Uwi          - UNIQUE WELL ID    
ENTR.         DW                             : Entered      - ENTERED BY        
SRVC.         SCHLUMBERGER                   : Scn          - SERVICE COMPANY   
DATE.         24 NOV 77                      : Date         - LOG DATE
STRT.M        94.488                         : top_depth    - START DEPTH       
STOP.M        323.088                        : bot_depth    - STOP DEPTH        
STEP.M        0.3048                         : increment    - STEP LENGTH       
~CURVE INFORMATION BLOCK
#MNEM UNIT       ERCB CURVE CODE    CURVE DESCRIPTION
#-----------   ------------------   ----------------------------------
DEPT.M        00 001 00 00         : DEPTH        - DEPTH                       
DPHI.V/V      00 890 00 00         : PHID         - DENSITY POROSITY (LIMESTONE)
NPHI.V/V      00 330 00 00         : PHIN         - NEUTRON POROSITY (LIMESTONE)
GR  .API      00 310 00 00         : GR           - GAMMA RAY                   
ILD .OHMM     00 120 00 00         : RESD         - DEEP RESISTIVITY (DIL)      
~PARAMETER INFORMATION       
#MNEM.UNIT           DATA             DESCRIPTION OF MNEMONIC
#---------         -----------     ------------------------------
GL  .M        471.83               : gl           - GROUND LEVEL ELEVATION      
EREF.M        475.488              : kb           - ELEVATION OF DEPTH REFERENCE
DATM.M        475.488              : datum        - DATUM ELEVATION             
TDD .M        326.136              : tdd          - TOTAL DEPTH DRILLER         
RUN .         ONE                  : Run          - RUN NUMBER                  
ENG .         BILL                 : Engineer     - RECORDING ENGINEER          
WIT .         JIM                  : Witness      - WITNESSED BY                
MUD .         GEL                  : Mud_type     - MUD TYPE                    
MATR.         LIMESTONE            : Logunit      - NEUTRON MATRIX              
TMAX.C        23.3333              : BHT          - MAXIMUM RECORDED TEMPERATURE
BHTD.M        326.136              : BHTDEP       - MAXIMUM RECORDED TEMPERATURE
MATR.         1                    : LOGUNIT      - NEUTRON MATRIX              
RMT .C        25                   : MDTP         - TEMPERATURE OF MUD          
NEUT.         1                    : NEUTRON      - NEUTRON TYPE                
RESI.         0                    : RESIST       - RESISTIVITY TYPE            
RMC .OHMM     0.25                 : RMC          - RESISTIVITY OF MUD CAKE     
RMF .OHMM     0.25                 : RMF          - RESISTIVITY OF MUD FILTRATE 
SUFT.C        15                   : SUFT         - SURFACE TEMPERATURE         
~A  DEPTH     PHID     PHIN       GR     RESD
   94.488    0.283    0.433   73.140   11.560
   94.793    0.314    0.440   70.660   12.003
   95.098    0.330    0.460   68.180   12.944
   95.402    0.316    0.444   65.079   13.443
   95.707    0.332    0.423   61.979   14.497
   96.012    0.338    0.427   57.640   14.773
   96.317    0.344    0.449   58.878   14.768
   96.622    0.328    0.473   63.836   14.761
   96.926    0.315    0.470   65.075   15.041
   97.231    0.325    0.447   61.355   15.616
   97.536    0.327    0.441   60.734   15.612
   97.841    0.315    0.453   64.453   15.315
   98.146    0.307    0.464   66.931   15.311
   98.450    0.304    0.470   65.691   14.459
   98.755    0.301    0.477   58.252   13.917
   99.060    0.299    0.477   62.590   13.394
   99.365    0.311    0.469   53.291   12.649
   99.670    0.327    0.451   53.290   12.174
   99.974    0.342    0.496   68.165   11.497
  100.279    0.309    0.509   72.503   10.858
  100.584    0.277    0.493   73.742   10.855
  100.889    0.293    0.478   69.402   11.931
  101.194    0.315    0.468   64.443   13.884
  101.498    0.322    0.458   63.202   14.692
  101.803    0.307    0.453   67.540   14.141
  102.108    0.325    0.469   71.258   12.616
  102.413    0.341    0.495   73.737   11.469
  102.718    0.356    0.498   71.876   11.040
  103.022    0.343    0.500   65.677   11.907
  103.327    0.304    0.478   58.238   13.594
  103.632    0.323    0.433   60.717   15.818
  103.937    0.363    0.459   58.856   17.386
  104.242    0.383    0.494   65.054   17.379
  104.546    0.388    0.505   73.110   17.049
  104.851    0.377    0.489   70.630   17.371
  105.156    0.368    0.468   65.051   17.366
  105.461    0.353    0.443   63.810   18.375
  105.766    0.346    0.430   67.528   18.724
  106.070    0.375    0.449   68.147   19.442
  106.375    0.380    0.498   62.568   19.069
  106.680    0.372    0.442   61.947   19.064
  106.985    0.365    0.427   69.384   19.057
  107.290    0.357    0.436   71.243   19.053
  107.594    0.347    0.435   76.201   18.337
  107.899    0.337    0.443   85.497   18.334
  108.204    0.344    0.456   92.314   16.986
  108.509    0.396    0.484   82.396   16.350
  108.814    0.501    0.531   68.759   16.037
  109.118    0.594    0.614   43.965   16.341
  109.423    0.598    0.599   37.146   17.293
  109.728    0.525    0.548   43.343   18.649
  110.033    0.406    0.469   58.218   18.645
  110.338    0.337    0.421   57.598   18.637
  110.643    0.336    0.433   53.258   18.990
  110.947    0.333    0.435   55.736   18.625
  111.252    0.317    0.415   62.554   18.273
  111.557    0.316    0.428   85.487   16.932
  111.862    0.338    0.451   94.163   14.002
  112.167    0.291    0.468   94.162   11.147
  112.471    0.298    0.484   91.062   10.134
  112.776    0.322    0.526   84.243   10.726
  113.081    0.354    0.484   75.565   12.719
  113.386    0.360    0.443   60.068   15.372
  113.691    0.344    0.433   56.348   19.665
  113.995    0.337    0.422   50.149   20.038
  114.300    0.343    0.412   38.991   20.806
  114.605    0.357    0.407   33.412   20.797
  114.910    0.369    0.421   38.989   20.018
  115.215    0.372    0.405   42.707   18.546
  115.519    0.373    0.419   46.425   17.851
  115.824    0.359    0.406   44.565   17.848
  116.129    0.349    0.398   37.126   18.534
  116.434    0.362    0.398   34.646   19.243
  116.739    0.367    0.401   34.025   19.239
  117.043    0.369    0.393   36.504   19.230
  117.348    0.362    0.384   42.701   19.595
  117.653    0.348    0.395   47.659   20.347
  117.958    0.356    0.417   48.278   20.729
  118.263    0.362    0.441   48.897   20.723
  118.567    0.357    0.421   51.375   20.715
  118.872    0.354    0.410   53.234   20.711
  119.177    0.344    0.437   57.572   19.559
  119.482    0.338    0.410   60.050   19.187
  119.787    0.338    0.404   58.810   18.118
  120.091    0.335    0.395   53.850   17.774
  120.396    0.320    0.389   61.907   17.106
  120.701    0.315    0.389   64.385   16.781
  121.006    0.317    0.433   65.004   16.457
  121.311    0.332    0.473   68.722   16.769
  121.615    0.406    0.484   72.441   17.086
  121.920    0.427    0.479   75.539   18.779
  122.225    0.426    0.472   77.397   19.135
  122.530    0.338    0.453   79.876   19.869
  122.835    0.309    0.436   82.974   19.489
  123.139    0.294    0.423   84.833   18.757
  123.444    0.306    0.410   82.972   17.715
  123.749    0.316    0.406   75.533   16.729
  124.054    0.301    0.411   74.913   16.411
  124.359    0.327    0.432   76.771   16.719
  124.663    0.290    0.444   62.514   17.692
  124.968    0.353    0.416   52.596   18.725
  125.273    0.336    0.399   51.355   20.975
  125.578    0.328    0.410   51.355   21.778
  125.883    0.327    0.409   45.775   21.773
  126.187    0.315    0.407   45.774   21.360
  126.492    0.314    0.405   48.252   19.792
  126.797    0.314    0.402   51.351   18.691
  127.102    0.315    0.401   53.209   19.041
  127.407    0.319    0.399   54.448   19.402
  127.711    0.335    0.394   54.447   19.765
  128.016    0.338    0.393   57.546   19.762
  128.321    0.321    0.416   66.222   18.312
  128.626    0.281    0.452   76.139   15.728
  128.931    0.319    0.462   77.378   14.031
  129.235    0.327    0.438   76.757   14.028
  129.540    0.315    0.411   76.756   14.291
  129.845    0.348    0.463   86.053   14.020
  130.150    0.359    0.480   86.672   12.272
  130.455    0.336    0.484   82.332   10.948
  130.759    0.330    0.499   85.430   10.339
  131.064    0.340    0.472   95.347   10.736
  131.369    0.316    0.512   99.065   10.938
  131.674    0.275    0.498  100.303   10.934
  131.979    0.284    0.473  100.302   11.141
  132.283    0.336    0.459   95.963   12.962
  132.588    0.319    0.440   86.664   13.981
  132.893    0.305    0.430   84.184   14.796
  133.198    0.310    0.427   83.563   15.361
  133.503    0.330    0.451   81.083   15.356
  133.807    0.369    0.484   82.322   15.065
  134.112    0.336    0.473   89.759   13.697
  134.417    0.311    0.443   99.056   12.454
  134.722    0.264    0.457  108.972   11.324
  135.026    0.300    0.480  114.550   10.103
  135.331    0.304    0.458  115.169    9.909
  135.636    0.288    0.453  110.829   10.289
  135.941    0.263    0.470  113.307   10.483
  136.246    0.280    0.467  115.166   10.682
  136.550    0.265    0.460  113.305   10.476
  136.855    0.257    0.464  106.486   10.674
  137.160    0.275    0.472  101.527   11.957
  137.465    0.328    0.459   95.328   12.898
  137.770    0.322    0.475   98.426   13.910
  138.074    0.319    0.472   98.425   14.441
  138.379    0.311    0.449   90.366   14.997
  138.684    0.301    0.422   82.308   15.280
  138.989    0.288    0.410   76.728   15.569
  139.294    0.310    0.438   82.926   15.565
  139.598    0.284    0.452   94.082   15.265
  139.903    0.275    0.447  106.477   14.694
  140.208    0.283    0.475  104.617   13.615
  140.513    0.305    0.490   98.418   12.859
  140.818    0.272    0.491   97.797   12.613
  141.122    0.268    0.448   96.557   13.347
  141.427    0.288    0.431   82.919   14.125
  141.732    0.307    0.425   71.141   15.524
  142.037    0.343    0.452   69.281   15.818
  142.342    0.351    0.477   72.379   16.117
  142.646    0.323    0.441   72.379   16.111
  142.951    0.317    0.447   72.998   15.806
  143.256    0.311    0.460   79.815   13.835
  143.561    0.290    0.447   95.930   11.226
  143.866    0.274    0.478   99.648    9.109
  144.170    0.314    0.491   89.110    9.279
  144.475    0.330    0.451   72.993   10.200
  144.780    0.340    0.426   68.653   12.096
  145.085    0.349    0.451   78.570   13.047
  145.389    0.359    0.462   85.387   14.070
  145.694    0.369    0.479   86.006   14.890
  145.999    0.304    0.478   82.286   16.058
  146.304    0.328    0.468   76.087   16.363
  146.609    0.320    0.433   74.227   16.988
  146.913    0.284    0.454   73.606   16.984
  147.218    0.232    0.452   71.745   16.979
