~VERSION INFORMATION
 VERS.                 2.0:   CWLS LOG ASCII STANDARD -VERSION 2.0
 WRAP.                  NO:   ONE LINE PER DEPTH STEP
~WELL INFORMATION BLOCK
#MNEM.UNIT           DATA                    DESCRIPTION OF MNEMONIC
#---------    -------------------            -------------------------------
# Generated from Intellog Unique Number	CC_80_83/WELL/2436
COMP.         SEAGULL ENERGY COMPANY LTD     : COMPANY
WELL.         SEAGULL NEWBY                  : Well_name    - WELL
LOC .         14-20-083-04W4                 : Location     - LOCATION
UWI .         00/14-20-083-04W4/0            : Uwi          - UNIQUE WELL ID
ENTR.         DW                             : Entered      - ENTERED BY
SRVC.         SCHLUMBERGER                   : Scn          - SERVICE COMPANY
STRT.M        70                             : top_depth    - START DEPTH
STOP.M        250.002                        : bot_depth    - STOP DEPTH
STEP.M        0.3                            : increment    - STEP LENGTH
 NULL. -999.2500:NULL Value
~CURVE INFORMATION BLOCK
#MNEM UNIT       ERCB CURVE CODE    CURVE DESCRIPTION
#-----------   ------------------   ----------------------------------
DEPT.M        00 001 00 00         : DEPTH        - DEPTH
DPHI.V/V      00 890 00 00         : PHID         - DENSITY POROSITY (LIMESTONE)
NPHI.V/V      00 330 00 00         : PHIN         - NEUTRON POROSITY (LIMESTONE)
GR  .API      00 310 00 00         : GR           - GAMMA RAY
ILD .OHMM     00 120 00 00         : RESD         - DEEP RESISTIVITY (DIL)
~PARAMETER INFORMATION
#MNEM.UNIT           DATA             DESCRIPTION OF MNEMONIC
#---------         -----------     ------------------------------
GL  .M        460.44               : gl           - GROUND LEVEL ELEVATION
EREF.M        463.5                : kb           - ELEVATION OF DEPTH REFERENCE
DATM.M        463.5                : datum        - DATUM ELEVATION
TDD .M        160                  : tdd          - TOTAL DEPTH DRILLER
RUN .         ONE                  : Run          - RUN NUMBER
ENG .         BILL                 : Engineer     - RECORDING ENGINEER
WIT .         JIM                  : Witness      - WITNESSED BY
MUD .         GEL                  : Mud_type     - MUD TYPE
MATR.         LIMESTONE            : Logunit      - NEUTRON MATRIX
TMAX.C        23                   : BHT          - MAXIMUM RECORDED TEMPERATURE
BHTD.M        260                  : BHTDEP       - MAXIMUM RECORDED TEMPERATURE
MATR.         1                    : LOGUNIT      - NEUTRON MATRIX
RMT .C        25                   : MDTP         - TEMPERATURE OF MUD
NEUT.         1                    : NEUTRON      - NEUTRON TYPE
RESI.         0                    : RESIST       - RESISTIVITY TYPE
RMC .OHMM     0.25                 : RMC          - RESISTIVITY OF MUD CAKE
RMF .OHMM     0.25                 : RMF          - RESISTIVITY OF MUD FILTRATE
SUFT.C        4                    : SUFT         - SURFACE TEMPERATURE
~A  DEPTH     PHID     PHIN       GR     RESD
   70.000    0.266    0.372   87.681   12.068
   70.300    0.299    0.375   86.429   11.594
   70.600    0.323    0.370   73.670   11.339
   70.900    0.336    0.349   60.305   11.101
   71.200    0.345    0.353   52.994   10.859
   71.500    0.350    0.376   51.135   10.632
   71.800    0.348    0.373   48.681   10.026
   72.100    0.347    0.356   48.034    9.455
   72.400    0.336    0.374   51.630    8.746
   72.700    0.301    0.374   62.493    7.939
   73.000    0.287    0.376   75.778    7.780
   73.300    0.298    0.415   80.584    7.614
   73.600    0.323    0.406   78.725    8.802
   73.900    0.347    0.350   62.941    9.632
   74.200    0.336    0.336   51.392    9.966
   74.500    0.330    0.360   53.773    9.927
   74.800    0.329    0.387   55.550    9.728
   75.100    0.332    0.410   53.091    9.520
   75.400    0.336    0.415   54.261    9.312
   75.700    0.334    0.407   57.252    8.622
   76.000    0.318    0.418   60.237    8.124
   76.300    0.308    0.433   68.678    8.103
   76.600    0.307    0.423   71.062    8.227
   76.900    0.322    0.420   66.778    8.515
   77.200    0.338    0.416   63.111    8.976
   77.500    0.323    0.396   63.672    9.466
   77.800    0.314    0.409   65.450    9.614
   78.100    0.292    0.392   65.411    9.754
   78.400    0.282    0.387   65.379    9.734
   78.700    0.293    0.404   67.755    9.522
   79.000    0.299    0.417   70.138    9.322
   79.300    0.299    0.411   70.707    9.122
   79.600    0.292    0.392   68.245    8.755
   79.900    0.300    0.426   80.930    8.730
   80.200    0.303    0.441   85.732    8.700
   80.500    0.302    0.449   82.058    9.009
   80.800    0.312    0.450   74.145    9.858
   81.100    0.340    0.379   64.416   10.585
   81.400    0.349    0.338   55.294   11.149
   81.700    0.351    0.363   54.042   11.119
   82.000    0.352    0.385   58.845   11.081
   82.300    0.361    0.405   58.195   10.850
   82.600    0.355    0.395   56.953   10.818
   82.900    0.348    0.378   58.125   10.586
   83.200    0.395    0.380   61.107   10.366
   83.500    0.451    0.378   58.040   10.324
   83.800    0.460    0.371   52.556   10.292
   84.100    0.404    0.368   46.452   10.267
   84.400    0.334    0.359   45.807   10.625
   84.700    0.312    0.352   45.769   10.588
   85.000    0.292    0.348   45.121   10.368
   85.300    0.305    0.346   43.268   10.332
   85.600    0.324    0.352   40.802   10.493
   85.900    0.337    0.371   40.164   10.660
   86.200    0.324    0.399   43.147   10.824
   86.500    0.326    0.417   49.776   10.794
   86.800    0.357    0.417   58.822   10.752
   87.100    0.362    0.398   64.840   10.525
   87.400    0.259    0.365   65.406   10.498
   87.700    0.263    0.359   69.003   10.278
   88.000    0.314    0.380   65.329    9.691
   88.300    0.351    0.415   68.314    9.309
   88.600    0.348    0.441   65.856    9.108
   88.900    0.342    0.392   63.990    8.912
   89.200    0.345    0.389   65.775    8.560
   89.500    0.352    0.417   66.949    8.536
   89.800    0.357    0.431   66.296    8.351
   90.100    0.341    0.411   64.446    8.327
   90.400    0.340    0.400   62.580    8.298
   90.700    0.349    0.423   62.547    8.590
   91.000    0.353    0.439   66.750    8.889
   91.300    0.355    0.402   68.525    9.025
   91.600    0.367    0.409   66.056    9.167
   91.900    0.362    0.408   65.418    8.976
   92.200    0.356    0.404   65.374    8.614
   92.500    0.352    0.398   63.524    8.587
   92.800    0.385    0.403   61.059    8.569
   93.100    0.414    0.425   61.623    8.695
   93.400    0.403    0.435   58.558    8.675
   93.700    0.395    0.427   56.701    8.643
   94.000    0.393    0.409   57.263    8.461
   94.300    0.415    0.409   56.626    8.281
   94.600    0.465    0.399   46.287    8.102
   94.900    0.448    0.384   47.461    7.931
   95.200    0.389    0.390   54.081    7.617
   95.500    0.379    0.389   60.703    7.452
   95.800    0.357    0.395   64.301    7.432
   96.100    0.337    0.415   66.687    7.548
   96.400    0.339    0.418   68.452    7.524
   96.700    0.339    0.417   70.241    7.226
   97.000    0.325    0.425   73.226    6.946
   97.300    0.314    0.442   76.824    6.544
   97.600    0.310    0.447   76.179    6.527
   97.900    0.312    0.409   74.320    6.754
   98.200    0.320    0.420   79.737    7.252
   98.500    0.336    0.425   78.481    7.369
   98.800    0.338    0.387   67.541    7.762
   99.100    0.339    0.413   65.079    7.739
   99.400    0.357    0.390   64.436    7.863
   99.700    0.422    0.384   58.941    7.989
  100.000    0.488    0.419   55.873    8.422
  100.300    0.469    0.451   57.046    9.375
  100.600    0.440    0.442   58.821    9.707
  100.900    0.398    0.387   41.827    9.862
  101.200    0.371    0.354   36.332    9.474
  101.500    0.370    0.369   36.293    9.103
  101.800    0.379    0.407   38.078    8.418
  102.100    0.433    0.439   44.696    7.650
  102.400    0.466    0.432   54.956    6.949
  102.700    0.432    0.427   59.154    6.797
  103.000    0.424    0.421   60.324    6.911
  103.300    0.409    0.425   59.078    7.281
  103.600    0.390    0.413   49.349    7.967
  103.900    0.379    0.423   33.561    8.395
  104.200    0.365    0.397   25.646    8.213
  104.500    0.378    0.391   23.791    8.037
  104.800    0.401    0.399   26.175    7.725
  105.100    0.420    0.412   40.065    7.420
  105.400    0.422    0.417   45.476    7.401
  105.700    0.414    0.386   32.112    7.515
  106.000    0.399    0.399   30.858    7.778
  106.300    0.379    0.413   32.023    7.747
  106.600    0.360    0.365   30.781    7.728
  106.900    0.352    0.362   34.984    6.890
  107.200    0.358    0.376   43.424    6.148
  107.500    0.362    0.430   59.739    5.685
  107.800    0.351    0.478   83.919    5.461
  108.100    0.336    0.423   77.222    5.757
  108.400    0.332    0.417   57.801    6.183
  108.700    0.343    0.418   50.491    6.643
  109.000    0.351    0.422   55.900    6.748
  109.300    0.343    0.422   57.072    6.594
  109.600    0.338    0.410   55.829    6.462
  109.900    0.337    0.406   55.786    6.320
  110.200    0.346    0.419   55.750    6.541
  110.500    0.348    0.410   53.889    6.899
  110.800    0.343    0.414   52.031    7.397
  111.100    0.336    0.433   50.779    7.523
  111.400    0.332    0.432   50.137    7.496
  111.700    0.350    0.376   53.130    7.476
  112.000    0.348    0.368   57.934    7.179
  112.300    0.351    0.373   54.258    6.891
  112.600    0.349    0.392   51.797    6.876
  112.900    0.338    0.393   57.810    6.846
  113.200    0.324    0.382   62.017    6.832
  113.500    0.318    0.400   62.572    7.198
  113.800    0.332    0.412   60.113    7.318
  114.100    0.342    0.418   56.428    7.293
  114.400    0.347    0.404   55.793    7.143
  114.700    0.342    0.399   55.763    6.858
  115.000    0.338    0.433   56.933    7.504
  115.300    0.330    0.452   56.289    8.846
  115.600    0.302    0.369   55.040   12.096
  115.900    0.000    0.106   54.994   21.458
  116.200    0.000    0.107   51.928   31.617
  116.500    0.000    0.112   50.076   27.153
  116.800    0.042    0.123   47.003   21.265
  117.100    0.105    0.165   45.145   16.043
  117.400    0.210    0.225   51.771   11.659
  117.700    0.298    0.331   66.873    9.474
  118.000    0.345    0.384   64.414    7.842
  118.300    0.332    0.411   60.740    7.125
  118.600    0.334    0.407   61.911    6.715
  118.900    0.331    0.410   63.687    6.689
  119.201    0.326    0.420   64.856    6.678
  119.501    0.330    0.400   65.430    6.772
  119.801    0.340    0.388   64.782    6.635
  120.101    0.326    0.402   67.773    6.488
  120.401    0.323    0.433   66.513    6.235
  120.701    0.333    0.420   62.850    6.218
  121.001    0.337    0.412   63.409    6.198
  121.301    0.345    0.428   63.976    6.175
  121.601    0.349    0.425   67.576    6.045
  121.901    0.330    0.383   72.988    6.139
