~VERSION INFORMATION
 VERS.                 2.0:   CWLS LOG ASCII STANDARD -VERSION 2.0
 WRAP.                  NO:   ONE LINE PER DEPTH STEP
~WELL INFORMATION BLOCK
#MNEM.UNIT           DATA                    DESCRIPTION OF MNEMONIC
#---------    -------------------            -------------------------------
# Generated from Intellog Unique Number	CS_73_76/WELL/845
WELL.         BOW VALLEY INDUSTRIES LTD.     : Well_name    - WELL
LOC .         00/11-19-073-16W4/0            : Location     - LOCATION
UWI .         00/11-19-073-16W4/0            : Uwi          - UNIQUE WELL ID
ENTR.         SP                             : Entered      - ENTERED BY
SRVC.         SCHLUMBERGER                   : Scn          - SERVICE COMPANY
STRT.M        237.744                        : top_depth    - START DEPTH
STOP.M        445.994                        : bot_depth    - STOP DEPTH
STEP.M        0.25                           : increment    - STEP LENGTH
 NULL. -999.2500:NULL Value
~CURVE INFORMATION BLOCK
#MNEM UNIT       ERCB CURVE CODE    CURVE DESCRIPTION
#-----------   ------------------   ----------------------------------
DEPT.M        00 001 00 00         : DEPTH        - DEPTH
GR  .API      00 310 00 00         : GR           - GAMMA RAY
DPHI.V/V      00 890 00 00         : PHID         - DENSITY POROSITY (SANDSTONE)
NPHI.V/V      00 330 00 00         : PHIN         - NEUTRON POROSITY (SANDSTONE)
ILD .OHMM     00 120 00 00         : RESD         - DEEP RESISTIVITY (DIL)
~PARAMETER INFORMATION
#MNEM.UNIT           DATA             DESCRIPTION OF MNEMONIC
#---------         -----------     ------------------------------
GL  .M        574.639              : gl           - GROUND LEVEL ELEVATION
EREF.M        577.596              : kb           - ELEVATION OF DEPTH REFERENCE
DATM.M        574.639              : datum        - DATUM ELEVATION
TDD .M        445.922              : tdd          - TOTAL DEPTH DRILLER
RUN .         ONE                  : Run          - RUN NUMBER
ENG .         BILL                 : Engineer     - RECORDING ENGINEER
WIT .         JIM                  : Witness      - WITNESSED BY
MUD .         GEL                  : Mud_type     - MUD TYPE
MATR.         SANDSTONE            : Logunit      - NEUTRON MATRIX
TMAX.C        23                   : BHT          - MAXIMUM RECORDED TEMPERATURE
BHTD.M        538                  : BHTDEP       - MAXIMUM RECORDED TEMPERATURE
MATR.         1                    : LOGUNIT      - NEUTRON MATRIX
RMT .C        25                   : MDTP         - TEMPERATURE OF MUD
NEUT.         1                    : NEUTRON      - NEUTRON TYPE
RESI.         0                    : RESIST       - RESISTIVITY TYPE
RMC .OHMM     0.25                 : RMC          - RESISTIVITY OF MUD CAKE
RMF .OHMM     0.25                 : RMF          - RESISTIVITY OF MUD FILTRATE
SUFT.C        15                   : SUFT         - SURFACE TEMPERATURE
~A  DEPTH       GR     PHID     PHIN     RESD
# ...
  411.744  101.206    0.124    0.415    7.057
  411.994  103.912    0.129    0.438    7.739
  412.244  105.251    0.142    0.453    7.762
  412.494  103.186    0.129    0.444    7.466
  412.744  100.870    0.121    0.440    7.293
  412.994  100.535    0.112    0.434    7.193
  413.244   99.935    0.137    0.428    7.340
  413.494   99.269    0.140    0.425    7.505
  413.744   97.375    0.131    0.421    7.734
  413.994   93.604    0.122    0.417    7.959
  414.244   92.995    0.108    0.414    8.377
  414.494   99.388    0.093    0.420    8.466
  414.744  101.885    0.103    0.432    8.683
  414.994  101.984    0.145    0.435    8.851
  415.244  101.774    0.154    0.436    8.848
  415.494   99.098    0.137    0.443    8.862
  415.744  102.473    0.102    0.432    8.694
  415.994  103.665    0.131    0.448    8.607
  416.244  101.392    0.160    0.452    8.309
  416.494  100.896    0.123    0.429    7.947
  416.744  102.725    0.085    0.409    7.570
  416.994  105.190    0.143    0.425    7.039
  417.244   92.268    0.159    0.432    7.058
  417.494   77.055    0.208    0.395    7.402
  417.744   73.674    0.249    0.355    8.583
  417.994   70.410    0.255    0.354   11.217
  418.244   70.356    0.231    0.368   14.619
  418.494   69.093    0.204    0.382   17.957
  418.744   68.007    0.170    0.374   21.328
  418.994   68.552    0.149    0.368   23.296
  419.244   69.667    0.138    0.362   25.079
  419.494   70.333    0.158    0.372   26.694
  419.744   71.861    0.177    0.382   27.663
  419.994   72.799    0.195    0.387   27.212
  420.244   73.571    0.197    0.395   26.361
  420.494   74.295    0.211    0.400   25.498
  420.744   74.816    0.195    0.397   22.781
  420.994   78.748    0.223    0.388   21.601
  421.244   89.088    0.236    0.392   22.117
  421.494   98.090    0.242    0.405   21.883
  421.744  109.202    0.247    0.399   20.642
  421.994  118.527    0.211    0.386   19.485
  422.244  120.626    0.143    0.387   15.906
  422.494  119.319    0.127    0.401   12.900
  422.744  117.790    0.131    0.410   10.968
  422.994  114.181    0.142    0.423    9.735
  423.244  106.573    0.159    0.429    8.636
  423.494   97.498    0.173    0.417    8.763
  423.744   88.861    0.185    0.398   10.079
  423.994   82.284    0.180    0.377   12.518
  424.244   75.826    0.157    0.358   14.217
  424.494   73.127    0.156    0.352   17.083
  424.744   73.570    0.208    0.369   18.381
  424.994   71.564    0.228    0.377   19.337
  425.244   70.228    0.239    0.386   19.986
  425.494   76.485    0.243    0.393   19.203
  425.744   83.177    0.223    0.381   17.512
  425.994   89.777    0.209    0.372   15.991
  426.244   94.745    0.191    0.356   14.309
  426.494   98.139    0.171    0.348   13.690
  426.744  101.581    0.149    0.333   13.120
  426.994  106.805    0.144    0.341   12.489
  427.244  108.508    0.146    0.347   12.057
  427.494  109.823    0.146    0.353   11.327
  427.744  111.202    0.128    0.360   10.334
  427.994  114.677    0.101    0.368    9.472
  428.244  120.749    0.074    0.381    8.922
  428.494  120.229    0.113    0.402    8.637
  428.744  116.496    0.141    0.408    8.866
  428.994  112.077    0.155    0.389    9.414
  429.244  110.119    0.165    0.373    9.698
  429.494  116.003    0.155    0.359    9.983
  429.744  119.065    0.130    0.377    9.971
  429.994  119.343    0.125    0.380    9.970
  430.244  111.412    0.136    0.365    9.965
  430.494  116.984    0.158    0.352    9.766
  430.744  122.437    0.169    0.354   10.035
  430.994  120.567    0.155    0.358   10.555
  431.244  113.257    0.152    0.356   11.495
  431.494  106.558    0.183    0.345   12.741
  431.744   90.924    0.201    0.335   14.162
  431.994  102.049    0.232    0.365   16.197
  432.244  104.591    0.218    0.387   18.009
  432.494  106.984    0.210    0.401   19.124
  432.744  111.699    0.232    0.402   19.607
  432.994  116.371    0.209    0.382   18.690
  433.244  118.723    0.197    0.382   15.781
  433.494  121.539    0.183    0.386   13.935
  433.744  122.833    0.182    0.382   12.998
  433.994  125.457    0.174    0.378   13.675
  434.244  128.196    0.162    0.386   13.431
  434.494  129.549    0.153    0.390   12.980
  434.744  129.625    0.164    0.383   13.114
  434.994  128.826    0.201    0.393   13.533
  435.244  127.576    0.199    0.408   14.146
  435.494  119.081    0.191    0.399   16.436
  435.744  100.737    0.204    0.392   19.636
  435.994   77.125    0.241    0.390   25.866
  436.244   73.880    0.264    0.393   34.586
  436.494   79.097    0.272    0.394   40.855
  436.744   86.686    0.273    0.393   47.390
  436.994   93.394    0.262    0.388   46.878
  437.244   95.941    0.246    0.378   39.654
  437.494   97.258    0.230    0.373   33.389
  437.744   97.252    0.215    0.373   28.710
  437.994   96.663    0.199    0.372   24.207
  438.244   96.617    0.173    0.375   21.047
  438.494   97.375    0.187    0.391   17.890
  438.744   97.380    0.204    0.398   15.905
  438.994   96.696    0.223    0.397   13.730
  439.244   96.742    0.228    0.384   12.473
  439.494   96.217    0.210    0.377   11.367
  439.744   96.268    0.203    0.358   10.824
  439.994   96.308    0.190    0.335   10.812
  440.244   96.319    0.207    0.330   10.925
  440.494   96.193    0.221    0.328   11.230
  440.744   95.802    0.216    0.328   11.219
  440.994   96.486    0.168    0.328   10.752
  441.244   96.483    0.133    0.328   10.349
  441.494   96.507    0.101    0.328    9.395
  441.744   96.545    0.084    0.329    8.594
  441.994   96.577    0.100    0.329    8.874
  442.244   96.612    0.108    0.329    9.144
  442.494   96.706    0.116    0.329    9.324
  442.744   96.040    0.126    0.329    9.508
  442.994   96.114    0.237    0.330    9.495
  443.244   96.153    0.268    0.331    9.499
  443.494   96.181    0.281    0.331    9.501
  443.744   97.214    0.255    0.332    9.480
  443.994   98.120    0.250    0.337    9.678
  444.244   98.087    0.278    0.354   10.034
  444.494   97.549    0.275    0.386   10.454
  444.744   94.691    0.265    0.411   11.163
  444.994   89.495    0.275    0.409   12.067
  445.244   84.125    0.280    0.395   12.357
  445.494   70.899    0.293    0.380   12.344
  445.744   52.529    0.298    0.364   12.344
  445.994   32.463    0.296    0.343   12.336
