~VERSION INFORMATION
 VERS.                 2.0:   CWLS LOG ASCII STANDARD -VERSION 2.0
 WRAP.                  NO:   ONE LINE PER DEPTH STEP
~WELL INFORMATION BLOCK
#MNEM.UNIT           DATA                    DESCRIPTION OF MNEMONIC
#---------    -------------------            -------------------------------
# Generated from Intellog Unique Number	CS_67_68/WELL/2190
WELL.         10-03-067-08W4                 : Well_name    - WELL
LOC .         00/10-03-067-08W4/0            : Location     - LOCATION
UWI .         00/10-03-067-08W4/0            : Uwi          - UNIQUE WELL ID
ENTR.         SP                             : Entered      - ENTERED BY
SRVC.         SCHLUMBERGER                   : Scn          - SERVICE COMPANY
STRT.M        305                            : top_depth    - START DEPTH
STOP.M        545                            : bot_depth    - STOP DEPTH
STEP.M        0.25                           : increment    - STEP LENGTH
 NULL. -999.2500:NULL Value
~CURVE INFORMATION BLOCK
#MNEM UNIT       ERCB CURVE CODE    CURVE DESCRIPTION
#-----------   ------------------   ----------------------------------
DEPT.M        00 001 00 00         : DEPTH        - DEPTH
ILD .OHMM     00 120 00 00         : RESD         - DEEP RESISTIVITY (DIL)
DPHI.V/V      00 890 00 00         : PHID         - DENSITY POROSITY (LIMESTONE)
NPHI.V/V      00 330 00 00         : PHIN         - NEUTRON POROSITY (LIMESTONE)
GR  .API      00 310 00 00         : GR           - GAMMA RAY
CALI.MM       00 280 01 00         : CAL          - CALIPER
~PARAMETER INFORMATION
#MNEM.UNIT           DATA             DESCRIPTION OF MNEMONIC
#---------         -----------     ------------------------------
GL  .M        609.7                : gl           - GROUND LEVEL ELEVATION
EREF.M        613.4                : kb           - ELEVATION OF DEPTH REFERENCE
DATM.M        613.4                : datum        - DATUM ELEVATION
TDD .M        550                  : tdd          - TOTAL DEPTH DRILLER
RUN .         ONE                  : Run          - RUN NUMBER
ENG .         BILL                 : Engineer     - RECORDING ENGINEER
WIT .         JIM                  : Witness      - WITNESSED BY
MUD .         GEL                  : Mud_type     - MUD TYPE
MATR.         LIMESTONE            : Logunit      - NEUTRON MATRIX
TMAX.C        25                   : BHT          - MAXIMUM RECORDED TEMPERATURE
BHTD.M        554.5                : BHTDEP       - MAXIMUM RECORDED TEMPERATURE
MATR.         1                    : LOGUNIT      - NEUTRON MATRIX
RMT .C        25                   : MDTP         - TEMPERATURE OF MUD
NEUT.         1                    : NEUTRON      - NEUTRON TYPE
RESI.         0                    : RESIST       - RESISTIVITY TYPE
RMC .OHMM     0.25                 : RMC          - RESISTIVITY OF MUD CAKE
RMF .OHMM     0.25                 : RMF          - RESISTIVITY OF MUD FILTRATE
SUFT.C        15                   : SUFT         - SURFACE TEMPERATURE
~A  DEPTH     RESD     PHID     PHIN       GR      CAL
# ...
  451.000    2.873    0.329    0.532   70.646  179.715
  451.250    3.030    0.286    0.518   75.823  169.991
  451.500    3.231    0.293    0.498   79.676  161.212
  451.750    3.400    0.271    0.486   79.757  158.829
  452.000    3.565    0.252    0.482   78.388  158.436
  452.250    3.702    0.242    0.489   75.071  157.839
  452.500    3.838    0.171    0.474   76.032  157.550
  452.750    3.971    0.142    0.454   78.944  157.055
  453.000    3.933    0.195    0.451   81.603  156.977
  453.250    3.787    0.240    0.462   84.137  157.009
  453.500    3.751    0.263    0.462   85.915  157.034
  453.750    4.115    0.273    0.461   86.877  156.853
  454.000    4.815    0.283    0.468   86.389  156.988
  454.250    5.529    0.197    0.321   78.856  156.698
  454.500    6.300    0.117    0.308   72.832  156.310
  454.750    6.978    0.190    0.307   70.269  156.448
  455.000    6.925    0.220    0.364   72.365  156.363
  455.250    6.912    0.226    0.407   74.519  156.079
  455.500    7.192    0.126    0.417   68.055  155.373
  455.750    7.526    0.086    0.321   61.340  155.401
  456.000    7.742    0.062    0.299   59.596  155.536
  456.250    7.905    0.153    0.348   66.094  155.668
  456.500    8.086    0.198    0.395   70.766  155.698
  456.750    8.162    0.198    0.402   73.994  155.622
  457.000    8.009    0.171    0.332   69.605  155.542
  457.250    7.595    0.103    0.284   65.532  155.571
  457.500    6.589    0.124    0.331   72.283  155.601
  457.750    5.837    0.204    0.373   78.968  155.313
  458.000    5.400    0.225    0.403   83.452  155.238
  458.250    4.997    0.247    0.423   86.868  152.013
  458.500    4.884    0.222    0.429   81.536  151.413
  458.750    4.977    0.184    0.404   76.959  151.550
  459.000    5.043    0.108    0.360   79.117  150.840
  459.250    5.062    0.140    0.363   82.280  150.974
  459.500    5.091    0.170    0.396   83.493  151.212
  459.750    5.033    0.188    0.410   81.557  151.666
  460.000    4.827    0.191    0.408   81.386  152.735
  460.250    4.375    0.185    0.404   83.228  153.815
  460.500    4.048    0.184    0.400   83.498  154.996
  460.750    3.661    0.187    0.404   81.688  157.438
  461.000    3.362    0.208    0.447   80.384  161.238
  461.250    3.081    0.242    0.470   83.107  168.083
  461.500    2.824    0.270    0.486   88.283  182.373
  461.750    2.673    0.246    0.491   93.210  193.099
  462.000    2.506    0.260    0.510   96.249  197.949
  462.250    2.417    0.262    0.527   97.394  194.309
  462.500    2.367    0.236    0.516   94.835  186.160
  462.750    2.385    0.206    0.505   92.144  180.312
  463.000    2.454    0.181    0.525   94.677  173.525
  463.250    2.520    0.200    0.559   96.835  172.506
  463.500    2.577    0.222    0.576   98.362  173.795
  463.750    2.657    0.235    0.563  100.644  174.975
  464.000    2.749    0.234    0.548  102.611  172.798
  464.250    2.817    0.233    0.531  103.319  168.217
  464.500    2.881    0.231    0.506  105.790  165.934
  464.750    2.920    0.227    0.535  108.074  164.076
  465.000    2.987    0.222    0.545  109.349  167.363
  465.250    3.240    0.221    0.502  102.633  168.852
  465.500    3.595    0.207    0.476   96.357  170.558
  465.750    4.411    0.198    0.457   89.706  171.116
  466.000    5.280    0.194    0.443   83.052  169.670
  466.250    5.994    0.207    0.430   77.155  167.392
  466.500    6.727    0.221    0.412   69.811  164.592
  466.750    7.783    0.240    0.380   63.096  160.110
  467.000    9.124    0.244    0.365   60.094  157.303
  467.250   10.881    0.184    0.320   56.713  156.807
  467.500   12.052    0.037    0.278   54.086  158.306
  467.750   11.915    0.064    0.258   55.739  159.171
  468.000   10.105    0.113    0.305   62.868  158.990
  468.250    7.914    0.165    0.364   67.224  158.703
  468.500    6.814    0.196    0.393   67.429  161.773
  468.750    5.823    0.218    0.415   74.118  167.151
  469.000    5.522    0.232    0.431   80.112  169.695
  469.250    5.889    0.245    0.414   84.154  168.046
  469.500    6.186    0.255    0.396   88.261  163.669
  469.750    6.485    0.240    0.393   89.977  160.657
  470.000    6.748    0.243    0.394   89.807  159.426
  470.250    7.035    0.250    0.387   90.073  159.980
  470.500    7.237    0.239    0.380   90.346  161.373
  470.750    7.361    0.234    0.380   90.109  162.345
  471.000    7.416    0.245    0.401   89.056  163.107
  471.250    7.374    0.250    0.393   87.563  163.762
  471.500    7.332    0.168    0.383   86.761  165.049
  471.750    7.235    0.154    0.384   91.875  169.379
  472.000    6.992    0.148    0.404   98.435  176.329
  472.250    6.809    0.276    0.423  104.304  183.067
  472.500    6.643    0.290    0.447  105.517  177.853
  472.750    6.530    0.277    0.450   91.377  170.015
  473.000    6.481    0.249    0.417   74.090  163.646
  473.250    6.468    0.213    0.386   65.803  156.124
  473.500    6.455    0.180    0.353   73.748  156.783
  473.750    6.394    0.161    0.348   79.112  158.599
  474.000    6.346    0.232    0.372   71.641  160.090
  474.250    6.309    0.264    0.376   62.598  158.336
  474.500    6.273    0.278    0.368   55.442  154.483
  474.750    6.226    0.278    0.364   63.326  153.464
  475.000    6.202    0.269    0.357   67.809  153.073
  475.250    6.178    0.265    0.360   72.607  152.789
  475.500    6.166    0.253    0.369   76.651  152.921
  475.750    6.142    0.254    0.369   75.285  152.842
  476.000    6.154    0.256    0.361   71.526  153.500
  476.250    6.177    0.242    0.366   69.152  154.367
  476.500    6.271    0.213    0.354   75.272  154.395
  476.750    6.378    0.179    0.369   82.147  154.424
  477.000    6.500    0.191    0.388   82.478  154.559
  477.250    6.487    0.260    0.387   67.773  154.273
  477.500    6.317    0.279    0.369   59.673  152.201
  477.750    6.210    0.292    0.357   60.195  151.498
  478.000    6.036    0.263    0.345   64.490  151.105
  478.250    5.889    0.250    0.344   68.533  151.135
  478.500    5.702    0.254    0.356   70.879  151.478
  478.750    5.573    0.269    0.364   70.080  151.610
  479.000    5.552    0.281    0.370   69.024  151.955
  479.250    5.573    0.272    0.376   67.469  151.875
  479.500    5.711    0.262    0.381   66.668  152.119
  479.750    6.011    0.275    0.391   66.371  152.673
  480.000    6.471    0.288    0.403   65.946  152.904
  480.250    6.849    0.279    0.414   64.705  153.460
  480.500    7.099    0.288    0.424   66.423  153.906
  480.750    7.359    0.197    0.379   74.808  154.457
  481.000    7.556    0.148    0.344   82.625  155.221
  481.250    7.613    0.152    0.329   87.361  155.983
  481.500    7.714    0.177    0.346   88.448  157.165
  481.750    7.802    0.185    0.348   89.849  157.926
  482.000    7.921    0.171    0.339   92.384  158.797
  482.250    8.026    0.162    0.329   89.887  159.347
  482.500    8.133    0.174    0.344   87.886  159.691
  482.750    7.980    0.174    0.336   92.812  159.932
  483.000    7.453    0.167    0.331   96.603  159.117
  483.250    7.055    0.176    0.340   95.363  156.943
  483.500    6.602    0.151    0.358   69.581  155.083
  483.750    6.202    0.258    0.378   57.266  153.963
  484.000    5.631    0.272    0.381   49.797  153.357
  484.250    5.131    0.280    0.363   43.080  152.863
  484.500    4.703    0.286    0.347   37.246  152.575
  484.750    4.418    0.290    0.351   36.886  152.291
  485.000    4.278    0.293    0.349   36.464  152.320
  485.250    4.181    0.297    0.351   35.913  152.555
  485.500    4.150    0.304    0.351   35.364  152.376
  485.750    4.142    0.309    0.349   37.587  152.402
  486.000    4.197    0.299    0.363   38.418  152.537
  486.250    4.196    0.289    0.373   39.001  152.459
  486.500    4.172    0.292    0.370   42.102  152.593
  486.750    4.125    0.283    0.364   42.371  153.044
  487.000    4.055    0.277    0.361   40.312  153.490
  487.250    3.971    0.287    0.357   38.565  154.053
