~VERSION INFORMATION
 VERS.                 2.0:   CWLS LOG ASCII STANDARD -VERSION 2.0
 WRAP.                  NO:   ONE LINE PER DEPTH STEP
~WELL INFORMATION BLOCK
#MNEM.UNIT           DATA                    DESCRIPTION OF MNEMONIC
#---------    -------------------            -------------------------------
# Generated from Intellog Unique Number	CS_71_72/WELL/3325
WELL.         SASKATCHEWAN OIL AND GAS CO.   : Well_name    - WELL
LOC .         00/10-29-072-18W4/0            : Location     - LOCATION
UWI .         00/10-29-072-18W4/0            : Uwi          - UNIQUE WELL ID
ENTR.         JOETTE                         : Entered      - ENTERED BY
SRVC.         SCHLUMBERGER                   : Scn          - SERVICE COMPANY
DATE.         05/13/92                       : Date         - LOG DATE
STRT.M        285                            : top_depth    - START DEPTH
STOP.M        465                            : bot_depth    - STOP DEPTH
STEP.M        0.25                           : increment    - STEP LENGTH
 NULL. -999.2500:NULL Value
~CURVE INFORMATION BLOCK
#MNEM UNIT       ERCB CURVE CODE    CURVE DESCRIPTION
#-----------   ------------------   ----------------------------------
DEPT.M        00 001 00 00         : DEPTH        - DEPTH
CALI.MM       00 280 01 00         : CAL          - CALIPER
GR  .API      00 310 00 00         : GR           - GAMMA RAY
NPHI.V/V      00 330 00 00         : PHIN         - NEUTRON POROSITY (SANDSTONE)
DPHI.V/V      00 890 00 00         : PHID         - DENSITY POROSITY (SANDSTONE)
ILD .OHMM     00 120 00 00         : RESD         - DEEP RESISTIVITY (DIL)
~PARAMETER INFORMATION
#MNEM.UNIT           DATA             DESCRIPTION OF MNEMONIC
#---------         -----------     ------------------------------
GL  .M        587.9                : gl           - GROUND LEVEL ELEVATION
EREF.M        601.4                : kb           - ELEVATION OF DEPTH REFERENCE
DATM.M        601.4                : datum        - DATUM ELEVATION
TDD .M        504                  : tdd          - TOTAL DEPTH DRILLER
RUN .         ONE                  : Run          - RUN NUMBER
ENG .         BILL                 : Engineer     - RECORDING ENGINEER
WIT .         JIM                  : Witness      - WITNESSED BY
MUD .         GEL                  : Mud_type     - MUD TYPE
MATR.         SANDSTONE            : Logunit      - NEUTRON MATRIX
TMAX.C        21                   : BHT          - MAXIMUM RECORDED TEMPERATURE
BHTD.M        504                  : BHTDEP       - MAXIMUM RECORDED TEMPERATURE
MATR.         1                    : LOGUNIT      - NEUTRON MATRIX
RMT .C        24                   : MDTP         - TEMPERATURE OF MUD
NEUT.         1                    : NEUTRON      - NEUTRON TYPE
RESI.         0                    : RESIST       - RESISTIVITY TYPE
RMC .OHMM     4.1                  : RMC          - RESISTIVITY OF MUD CAKE
RMF .OHMM     4.1                  : RMF          - RESISTIVITY OF MUD FILTRATE
SUFT.C        15                   : SUFT         - SURFACE TEMPERATURE
~A  DEPTH      CAL       GR     PHIN     PHID     RESD
# ...
  321.500  184.380  118.458    0.482    0.249    4.795
  321.750  178.364  119.652    0.467    0.265    5.064
  322.000  173.353  109.441    0.490    0.274    5.447
  322.250  167.340   98.029    0.467    0.280    5.859
  322.500  162.324   95.023    0.433    0.249    6.300
  322.750  160.315   90.215    0.412    0.247    6.775
  323.000  157.300   81.805    0.445    0.278    7.025
  323.250  157.292   74.594    0.400    0.296    7.151
  323.500  156.275   75.187    0.390    0.310    7.148
  323.750  157.264   75.783    0.395    0.295    6.760
  324.000  158.254   79.377    0.399    0.296    6.163
  324.250  160.246   78.169    0.392    0.294    5.416
  324.500  162.236   75.159    0.385    0.292    4.938
  324.750  166.226   78.154    0.391    0.300    4.420
  325.000  173.215   92.554    0.423    0.313    4.258
  325.250  179.209   95.548    0.455    0.330    4.102
  325.500  187.201   99.742    0.456    0.330    4.332
  325.750  188.187   97.934    0.460    0.295    4.409
  326.000  181.174   94.325    0.475    0.295    4.248
  326.250  175.163   92.521    0.491    0.300    4.405
  326.500  169.150   88.312    0.504    0.303    5.289
  326.750  160.133   82.904    0.478    0.308    7.222
  327.000  154.119   75.695    0.452    0.325    9.163
  327.250  152.110   67.885    0.434    0.336   10.224
  327.500  150.096   62.476    0.424    0.333    9.670
  327.750  150.085   63.669    0.415    0.334    8.041
  328.000  151.068   62.462    0.407    0.338    7.606
  328.250  151.063   60.654    0.409    0.339    7.464
  328.500  152.049   60.047    0.403    0.339    7.459
  328.750  153.041   60.641    0.407    0.341    7.592
  329.000  153.028   64.832    0.437    0.341    7.728
  329.250  153.014   65.429    0.436    0.337    7.866
  329.500  153.005   64.822    0.419    0.335    7.861
  329.750  152.992   62.415    0.409    0.326    7.714
  330.000  152.983   61.205    0.397    0.321    7.432
  330.250  152.969   61.800    0.400    0.326    6.775
  330.500  153.961   62.995    0.417    0.318    6.064
  330.750  154.948   69.591    0.451    0.299    5.951
  331.000  155.943   92.393    0.464    0.282    5.733
  331.250  157.930   96.588    0.467    0.290    5.835
  331.500  159.919   94.780    0.424    0.304    6.161
  331.750  160.909   83.369    0.409    0.314    6.747
  332.000  156.888   79.161    0.396    0.308    6.871
  332.250  154.879   74.353    0.390    0.304    7.254
  332.500  152.870   70.143    0.404    0.301    7.119
  332.750  152.859   71.337    0.410    0.304    6.858
  333.000  152.847   77.332    0.410    0.308    6.853
  333.250  153.834   83.328    0.415    0.292    6.849
  333.500  154.829   85.122    0.422    0.262    7.100
  333.750  155.815   83.915    0.450    0.274    7.229
  334.000  156.802   77.306    0.568    0.395    8.366
  334.250  156.796   60.493    0.575    0.585    9.164
  334.500  156.782   46.680    0.520    0.478    9.503
  334.750  156.771   49.674    0.492    0.310   10.032
  335.000  156.763   49.067    0.378    0.283   10.214
  335.250  155.752   47.862    0.382    0.291   10.208
  335.500  155.741   46.054    0.383    0.299    9.654
  335.750  154.729   44.846    0.373    0.305    8.966
  336.000  153.715   44.240    0.367    0.316    8.481
  336.250  152.703   45.434    0.376    0.321    8.020
  336.500  151.692   47.825    0.388    0.319    8.163
  336.750  150.675   51.420    0.382    0.315    8.463
  337.000  149.666   53.215    0.374    0.321    8.935
  337.250  149.658   55.610    0.372    0.322    8.931
  337.500  148.638   56.800    0.378    0.318    8.924
  337.750  148.630   56.797    0.407    0.319    8.759
  338.000  148.622   55.588    0.464    0.329    8.284
  338.250  148.608   56.782    0.500    0.371    7.979
  338.500  148.599   59.775    0.467    0.383    7.831
  338.750  148.591   61.572    0.420    0.320    7.682
  339.000  148.577   62.166    0.409    0.312    7.399
  339.250  148.569   59.158    0.400    0.321    7.262
  339.500  148.555   56.150    0.389    0.335    6.994
  339.750  148.544   54.341    0.378    0.344    6.992
  340.000  148.536   53.134    0.378    0.348    6.735
  340.250  148.519   51.927    0.387    0.350    6.609
  340.500  148.508   49.519    0.396    0.345    6.606
  340.750  148.494   47.712    0.388    0.348    6.601
  341.000  148.489   45.905    0.375    0.345    6.598
  341.250  148.475   44.097    0.363    0.340    6.592
  341.500  148.467   44.691    0.369    0.341    6.589
  341.750  148.453   48.284    0.377    0.346    6.465
  342.000  148.439   49.480    0.394    0.351    6.461
  342.250  148.433   51.274    0.402    0.354    6.574
  342.500  149.423   51.267    0.395    0.354    6.571
  342.750  150.409   50.058    0.390    0.351    6.568
  343.000  150.395   49.451    0.389    0.351    6.564
  343.250  151.390   48.843    0.392    0.352    6.560
  343.500  151.376   48.838    0.398    0.353    6.677
  343.750  151.368   50.030    0.402    0.352    6.673
  344.000  151.357   50.627    0.404    0.350    6.670
  344.250  151.343   51.220    0.402    0.344    6.665
  344.500  151.329   49.411    0.402    0.344    6.661
  344.750  151.315   48.804    0.407    0.345    6.655
  345.000  151.310   51.797    0.414    0.350    6.652
  345.250  151.299   54.192    0.417    0.353    6.649
  345.500  151.288   54.183    0.414    0.355    6.644
  345.750  151.276   51.777    0.410    0.355    6.641
  346.000  151.265   49.371    0.406    0.355    6.514
  346.250  151.252   47.561    0.401    0.357    6.512
  346.500  151.240   48.158    0.400    0.343    6.507
  346.750  151.232   50.550    0.401    0.349    6.504
  347.000  150.218   51.742    0.399    0.362    6.499
  347.250  150.204   51.739    0.399    0.364    6.495
  347.500  150.199   51.132    0.400    0.358    6.490
  347.750  150.182   52.926    0.401    0.348    6.486
  348.000  150.174   57.120    0.398    0.339    6.482
  348.250  150.160   57.113    0.405    0.339    6.479
  348.500  150.151   57.108    0.423    0.351    6.475
  348.750  150.138   56.499    0.416    0.352    6.472
  349.000  150.129   57.093    0.413    0.350    6.588
  349.250  150.113   57.688    0.418    0.344    6.584
  349.500  150.107   58.880    0.425    0.342    6.579
  349.750  150.091   58.272    0.430    0.345    6.574
  350.000  150.085   55.864    0.436    0.352    6.572
  350.250  151.071   52.256    0.435    0.355    6.568
  350.500  151.060   49.849    0.434    0.355    6.563
  350.750  152.050   50.444    0.447    0.349    6.559
  351.000  152.041   54.639    0.447    0.347    6.554
  351.250  152.030   55.232    0.437    0.349    6.549
  351.500  152.019   55.826    0.425    0.353    6.546
  351.750  152.008   56.416    0.414    0.355    6.543
  352.000  150.994   55.212    0.416    0.355    6.658
  352.250  150.986   54.606    0.415    0.354    6.655
  352.500  150.972   56.398    0.405    0.354    6.650
  352.750  149.958   55.791    0.406    0.353    6.771
  353.000  149.949   54.584    0.409    0.353    6.766
  353.250  149.933   54.577    0.418    0.354    6.762
  353.500  150.925   56.973    0.427    0.355    6.758
  353.750  150.916   58.764    0.427    0.355    6.753
  354.000  150.900   61.160    0.422    0.356    6.874
  354.250  150.889   62.352    0.429    0.355    6.868
  354.500  150.880   61.745    0.438    0.354    6.866
  354.750  150.872   61.739    0.429    0.353    6.862
  355.000  150.855   61.733    0.422    0.353    6.858
  355.250  150.855   62.327    0.427    0.353    6.978
  355.500  149.838   62.919    0.428    0.353    7.106
  355.750  150.828   62.312    0.428    0.353    7.101
  356.000  150.814   59.905    0.422    0.348    7.097
  356.250  151.800   61.699    0.419    0.341    7.092
  356.500  151.795   64.695    0.413    0.337    7.086
  356.750  151.781   65.288    0.409    0.336    7.082
  357.000  151.767   61.677    0.409    0.340    7.079
  357.250  151.759   62.871    0.419    0.346    7.074
  357.500  151.745   63.468    0.427    0.349    7.069
  357.750  152.731   64.661    0.434    0.349    7.066
