~VERSION INFORMATION
 VERS.                 2.0:   CWLS LOG ASCII STANDARD -VERSION 2.0
 WRAP.                  NO:   ONE LINE PER DEPTH STEP
~WELL INFORMATION BLOCK
#MNEM.UNIT           DATA                    DESCRIPTION OF MNEMONIC
#---------    -------------------            -------------------------------
# Generated from Intellog Unique Number	CS_73_76/WELL/3240
WELL.         10-25-075-15W4                 : Well_name    - WELL
LOC .         00/10-25-075-15W4/0            : Location     - LOCATION
UWI .         00/10-25-075-15W4/0            : Uwi          - UNIQUE WELL ID
ENTR.         SP                             : Entered      - ENTERED BY
SRVC.         SCHLUMBERGER                   : Scn          - SERVICE COMPANY
STRT.M        365                            : top_depth    - START DEPTH
STOP.M        570                            : bot_depth    - STOP DEPTH
STEP.M        0.25                           : increment    - STEP LENGTH
 NULL. -999.2500:NULL Value
~CURVE INFORMATION BLOCK
#MNEM UNIT       ERCB CURVE CODE    CURVE DESCRIPTION
#-----------   ------------------   ----------------------------------
DEPT.M        00 001 00 00         : DEPTH        - DEPTH
GR  .API      00 310 00 00         : GR           - GAMMA RAY
NPHI.V/V      00 330 00 00         : PHIN         - NEUTRON POROSITY (LIMESTONE)
DPHI.V/V      00 890 00 00         : PHID         - DENSITY POROSITY (LIMESTONE)
ILD .OHMM     00 120 00 00         : RESD         - DEEP RESISTIVITY (DIL)
~PARAMETER INFORMATION
#MNEM.UNIT           DATA             DESCRIPTION OF MNEMONIC
#---------         -----------     ------------------------------
GL  .M        741.17               : gl           - GROUND LEVEL ELEVATION
EREF.M        745.67               : kb           - ELEVATION OF DEPTH REFERENCE
DATM.M        741.17               : datum        - DATUM ELEVATION
TDD .M        574.4                : tdd          - TOTAL DEPTH DRILLER
RUN .         ONE                  : Run          - RUN NUMBER
ENG .         BILL                 : Engineer     - RECORDING ENGINEER
WIT .         JIM                  : Witness      - WITNESSED BY
MUD .         GEL                  : Mud_type     - MUD TYPE
MATR.         LIMESTONE            : Logunit      - NEUTRON MATRIX
TMAX.C        22                   : BHT          - MAXIMUM RECORDED TEMPERATURE
BHTD.M        574.4                : BHTDEP       - MAXIMUM RECORDED TEMPERATURE
MATR.         1                    : LOGUNIT      - NEUTRON MATRIX
RMT .C        25                   : MDTP         - TEMPERATURE OF MUD
NEUT.         1                    : NEUTRON      - NEUTRON TYPE
RESI.         0                    : RESIST       - RESISTIVITY TYPE
RMC .OHMM     0.25                 : RMC          - RESISTIVITY OF MUD CAKE
RMF .OHMM     0.25                 : RMF          - RESISTIVITY OF MUD FILTRATE
SUFT.C        15                   : SUFT         - SURFACE TEMPERATURE
~A  DEPTH       GR     PHIN     PHID     RESD
# ...
  452.000   63.633    0.383    0.322    9.989
  452.250   64.255    0.373    0.307    9.989
  452.500   63.657    0.359    0.302    9.990
  452.750   66.719    0.346    0.305    9.991
  453.000   70.387    0.348    0.324    9.992
  453.250   72.837    0.354    0.340    9.992
  453.500   73.456    0.369    0.348    9.993
  453.750   66.153    0.374    0.340    9.993
  454.000   62.505    0.387    0.331   10.184
  454.250   61.905    0.411    0.339   10.184
  454.500   58.868    0.366    0.346   10.185
  454.750   56.440    0.350    0.336    9.627
  455.000   60.113    0.369    0.314    8.929
  455.250   63.781    0.370    0.315    7.976
  455.500   68.672    0.353    0.329    6.862
  455.750   71.730    0.340    0.341    5.685
  456.000   71.129    0.365    0.346    4.128
  456.250   66.872    0.393    0.334    2.887
  456.500   63.837    0.407    0.300    1.804
  456.750   65.067    0.377    0.282    1.360
  457.000   68.126    0.371    0.254    1.127
  457.250   73.015    0.371    0.234    0.969
  457.500   78.517    0.372    0.231    0.951
  457.750   80.358    0.370    0.229    1.026
  458.000   81.585    0.370    0.220    1.193
  458.250   81.596    0.379    0.234    1.643
  458.500   80.998    0.399    0.250    2.439
  458.750   81.617    0.417    0.246    3.057
  459.000   84.067    0.437    0.234    3.554
  459.250   86.521    0.415    0.224    4.055
  459.500   87.138    0.405    0.229    4.714
  459.750   87.149    0.401    0.229    4.895
  460.000   80.455    0.389    0.222    5.481
  460.250   68.881    0.372    0.253    5.800
  460.500   62.185    0.360    0.305    6.373
  460.750   57.317    0.344    0.321    6.872
  461.000   53.669    0.329    0.327    7.409
  461.250   54.294    0.340    0.320    7.840
  461.500   55.522    0.361    0.312    8.454
  461.750   57.362    0.367    0.312    8.779
  462.000   59.203    0.350    0.315    8.946
  462.250   62.263    0.345    0.306    8.947
  462.500   65.933    0.336    0.297    6.747
  462.750   68.993    0.336    0.301    5.804
  463.000   70.223    0.373    0.311    3.836
  463.250   70.843    0.411    0.306    2.786
  463.500   72.685    0.432    0.276    2.265
  463.750   78.181    0.456    0.247    1.807
  464.000   87.949    0.482    0.239    1.614
  464.250   95.276    0.506    0.255    1.497
  464.500   95.287    0.477    0.265    1.555
  464.750   89.815    0.457    0.269    1.741
  465.000   86.167    0.438    0.273    1.877
  465.250   82.517    0.422    0.273    2.443
  465.500   78.261    0.400    0.284    3.006
  465.750   72.174    0.381    0.308    3.987
  466.000   64.259    0.391    0.328    5.388
  466.250   60.001    0.408    0.354    6.383
  466.500   63.065    0.413    0.357    6.628
  466.750   64.292    0.392    0.343    6.883
  467.000   64.914    0.376    0.334    6.629
  467.250   64.923    0.374    0.343    6.630
  467.500   63.105    0.388    0.341    6.507
  467.750   61.294    0.394    0.344    6.386
  468.000   60.688    0.396    0.350    6.386
  468.250   63.751    0.394    0.340    6.387
  468.500   65.591    0.391    0.326    6.387
  468.750   66.209    0.385    0.330    6.387
  469.000   66.222    0.369    0.320    6.509
  469.250   65.622    0.353    0.298    6.510
  469.500   66.856    0.361    0.287    6.510
  469.750   67.474    0.378    0.281    6.511
  470.000   68.095    0.382    0.276    6.511
  470.250   69.326    0.383    0.268    6.635
  470.500   71.778    0.356    0.260    6.636
  470.750   73.617    0.343    0.255    6.636
  471.000   72.409    0.351    0.250    6.763
  471.250   69.983    0.362    0.252    6.763
  471.500   67.555    0.378    0.272    6.763
  471.750   65.124    0.384    0.303    6.764
  472.000   62.086    0.387    0.315    7.024
  472.250   64.539    0.376    0.285    7.864
  472.500   67.600    0.366    0.246    9.143
  472.750   70.657    0.342    0.213   12.357
  473.000   73.716    0.290    0.152   16.700
  473.250   64.584    0.187    0.121   18.349
  473.500   57.276    0.182    0.116   15.785
  473.750   53.628    0.201    0.199   11.040
  474.000   59.739    0.243    0.242    8.170
  474.250   68.287    0.312    0.265    7.436
  474.500   71.344    0.348    0.258    6.397
  474.750   70.748    0.362    0.246    5.715
  475.000   69.538    0.361    0.242    5.301
  475.250   68.941    0.352    0.244    5.105
  475.500   68.950    0.351    0.242    5.010
  475.750   71.403    0.356    0.246    5.106
  476.000   72.636    0.370    0.257    5.106
  476.250   73.251    0.373    0.253    5.302
  476.500   71.437    0.371    0.253    5.718
  476.750   70.837    0.371    0.264    6.165
  477.000   70.240    0.371    0.275    6.774
  477.250   70.252    0.358    0.268    7.304
  477.500   70.258    0.348    0.268    8.025
  477.750   69.051    0.344    0.284    8.178
  478.000   66.624    0.346    0.292    8.334
  478.250   64.194    0.353    0.302    8.335
  478.500   60.547    0.357    0.312    8.180
  478.750   58.731    0.339    0.324    8.028
  479.000   58.743    0.344    0.334    7.879
  479.250   58.141    0.353    0.320    7.733
  479.500   56.934    0.364    0.322    7.589
  479.750   54.505    0.347    0.336    7.589
  480.000   50.249    0.339    0.344    7.448
  480.250   49.041    0.353    0.336    7.310
  480.500   52.715    0.372    0.325    7.174
  480.750   53.942    0.360    0.323    7.175
  481.000   55.173    0.366    0.319    7.175
  481.250   55.793    0.381    0.325    7.042
  481.500   54.584    0.388    0.324    7.043
  481.750   53.375    0.389    0.320    7.043
  482.000   53.388    0.380    0.324    7.043
  482.250   54.008    0.372    0.329    7.044
  482.500   54.018    0.376    0.320    7.044
  482.750   51.590    0.366    0.311    6.913
  483.000   52.212    0.362    0.303    6.914
  483.250   55.275    0.378    0.300    6.915
  483.500   55.891    0.383    0.306    6.786
  483.750   58.954    0.376    0.319    6.786
  484.000   57.140    0.369    0.327    6.787
  484.250   56.538    0.365    0.330    6.787
  484.500   57.158    0.362    0.326    6.788
  484.750   59.609    0.352    0.317    6.788
  485.000   62.059    0.350    0.299    6.662
  485.250   62.677    0.347    0.292    6.539
  485.500   62.078    0.346    0.295    6.417
  485.750   64.528    0.356    0.309    6.417
  486.000   68.198    0.363    0.323    6.298
  486.250   72.480    0.356    0.325    6.298
  486.500   74.318    0.352    0.319    6.181
  486.750   74.942    0.348    0.305    6.182
  487.000   73.125    0.351    0.295    6.067
  487.250   71.306    0.356    0.284    5.954
  487.500   70.704    0.357    0.275    5.844
  487.750   71.324    0.349    0.288    5.844
  488.000   70.117    0.352    0.312    5.735
  488.250   68.913    0.370    0.321    5.629
  488.500   68.920    0.387    0.315    5.629
  488.750   70.153    0.376    0.308    5.525
  489.000   70.772    0.374    0.300    5.525
  489.250   69.565    0.373    0.292    5.423
  489.500   68.357    0.374    0.276    5.125
  489.750   67.757    0.371    0.290    5.030
  490.000   70.207    0.363    0.270    4.665
  490.250   72.655    0.375    0.245    4.410
  490.500   75.109    0.388    0.231    4.090
  490.750   75.727    0.390    0.237    3.723
  491.000   75.738    0.386    0.228    3.586
  491.250   75.144    0.385    0.210    3.519
  491.500   75.151    0.387    0.202    3.519
  491.750   75.161    0.383    0.216    3.586
  492.000   76.398    0.377    0.233    3.655
  492.250   77.014    0.366    0.246    3.867
  492.500   78.248    0.350    0.242    4.249
  492.750   78.868    0.345    0.217    4.413
  493.000   79.487    0.351    0.197    4.758
  493.250   80.717    0.355    0.190    4.941
  493.500   78.897    0.357    0.192    5.131
  493.750   81.960    0.360    0.203    5.131
  494.000   85.018    0.360    0.214    5.036
  494.250   85.029    0.366    0.216    4.850
  494.500   81.386    0.384    0.212    4.851
  494.750   80.177    0.394    0.217    4.760
  495.000   78.964    0.395    0.224    4.761
  495.250   77.759    0.383    0.230    4.761
