~VERSION INFORMATION
 VERS.                 2.0:   CWLS LOG ASCII STANDARD -VERSION 2.0
 WRAP.                  NO:   ONE LINE PER DEPTH STEP
~WELL INFORMATION BLOCK
#MNEM.UNIT           DATA                    DESCRIPTION OF MNEMONIC
#---------    -------------------            -------------------------------
# Generated from Intellog Unique Number	CN_91_93/WELL/3201
WELL.         11-34-092-18W4                 : Well_name    - WELL
LOC .         00/11-34-092-18W4/0            : Location     - LOCATION
UWI .         00/11-34-092-18W400            : Uwi          - UNIQUE WELL ID
ENTR.         JOETTE                         : Entered      - ENTERED BY
SRVC.         SCHLUMBERGER                   : Scn          - SERVICE COMPANY
DATE.         04/14/92                       : Date         - LOG DATE
STRT.M        75                             : top_depth    - START DEPTH
STOP.M        240                            : bot_depth    - STOP DEPTH
STEP.M        0.25                           : increment    - STEP LENGTH
 NULL. -999.2500:NULL Value
~CURVE INFORMATION BLOCK
#MNEM UNIT       ERCB CURVE CODE    CURVE DESCRIPTION
#-----------   ------------------   ----------------------------------
DEPT.M        00 001 00 00         : DEPTH        - DEPTH
CALI.MM       00 280 01 00         : CAL          - CALIPER
GR  .API      00 310 00 00         : GR           - GAMMA RAY
NPHI.V/V      00 330 00 00         : PHIN         - NEUTRON POROSITY (SANDSTONE)
DPHI.V/V      00 890 00 00         : PHID         - DENSITY POROSITY (SANDSTONE)
ILD .OHMM     00 120 00 00         : RESD         - DEEP RESISTIVITY (DIL)
~PARAMETER INFORMATION
#MNEM.UNIT           DATA             DESCRIPTION OF MNEMONIC
#---------         -----------     ------------------------------
GL  .M        510.7                : gl           - GROUND LEVEL ELEVATION
EREF.M        513.9                : kb           - ELEVATION OF DEPTH REFERENCE
DATM.M        513.9                : datum        - DATUM ELEVATION
TDD .M        245                  : tdd          - TOTAL DEPTH DRILLER
RUN .         ONE                  : Run          - RUN NUMBER
ENG .         BILL                 : Engineer     - RECORDING ENGINEER
WIT .         JIM                  : Witness      - WITNESSED BY
MUD .         GEL                  : Mud_type     - MUD TYPE
MATR.         SANDSTONE            : Logunit      - NEUTRON MATRIX
TMAX.C        18                   : BHT          - MAXIMUM RECORDED TEMPERATURE
BHTD.M        245                  : BHTDEP       - MAXIMUM RECORDED TEMPERATURE
RMT .C        15                   : MDTP         - TEMPERATURE OF MUD
MUDD.KG/M     1130                 : MWT          - MUD DENSITY
NEUT.         1                    : NEUTRON      - NEUTRON TYPE
RESI.         0                    : RESIST       - RESISTIVITY TYPE
RM  .OHMM     8.35                 : RM           - RESISTIVITY OF MUD
RMC .OHMM     8.35                 : RMC          - RESISTIVITY OF MUD CAKE
RMF .OHMM     8.35                 : RMF          - RESISTIVITY OF MUD FILTRATE
SUFT.C        4                    : SUFT         - SURFACE TEMPERATURE
~A  DEPTH      CAL       GR     PHIN     PHID     RESD
# ...
  184.500  165.562  102.406    0.378    0.215   13.220
  184.750  165.558  102.404    0.381    0.219   13.210
  185.000  166.555   99.399    0.385    0.215   13.194
  185.250  167.553   98.196    0.389    0.207   13.184
  185.500  167.548   98.194    0.401    0.207   13.171
  185.750  167.547   99.994    0.412    0.214   13.152
  186.000  166.542  100.592    0.417    0.217   13.142
  186.250  166.539   98.789    0.412    0.210   13.376
  186.500  166.534   96.384    0.411    0.192   14.145
  186.750  166.532   95.181    0.412    0.150   18.058
  187.000  167.529   93.978    0.398    0.089   21.373
  187.250  167.526   85.569    0.351    0.060   22.184
  187.500  168.523   89.771    0.302    0.100   23.009
  187.750  168.520   99.376    0.297    0.187   21.311
  188.000  166.514   98.774    0.358    0.256   18.651
  188.250  166.512   93.968    0.388    0.282   17.952
  188.500  163.504   87.360    0.358    0.299   16.631
  188.750  162.502   88.559    0.325    0.271   18.601
  189.000  159.495   89.157    0.333    0.269   20.044
  189.250  158.491   89.155    0.348    0.265   20.396
  189.500  157.487   86.752    0.346    0.255   20.005
  189.750  157.482   82.546    0.380    0.244   19.612
  190.000  158.480   75.338    0.395    0.214   20.734
  190.250  159.479   71.732    0.386    0.096   23.196
  190.500  160.475   69.929    0.351    0.075   25.937
  190.750  161.474   74.131    0.321    0.109   26.418
  191.000  162.471   74.729    0.293    0.143   27.407
  191.250  163.470   74.127    0.305    0.221   27.367
  191.500  164.465   78.929    0.310    0.256   26.328
  191.750  166.464   87.334    0.297    0.265   23.940
  192.000  168.462   89.133    0.311    0.266   20.958
  192.250  169.461   87.930    0.342    0.269   17.664
  192.500  172.459   87.327    0.376    0.273   16.055
  192.750  174.458   90.329    0.405    0.270   15.453
  193.000  176.456   95.731    0.396    0.253   14.862
  193.250  177.454   98.131    0.395    0.223   12.768
  193.500  179.451   98.129    0.421    0.198   11.390
  193.750  180.451  101.130    0.437    0.201   10.355
  194.000  180.447  103.530    0.432    0.207   10.151
  194.250  180.444  101.727    0.468    0.217   13.976
  194.500  180.440  102.926    0.488    0.222   13.976
  194.750  180.437  105.926    0.475    0.215   13.678
  195.000  180.433  101.120    0.477    0.207   10.498
  195.250  179.429   95.113    0.480    0.190   10.891
  195.500  179.425   92.107    0.463    0.171   11.514
  195.750  178.421   90.904    0.462    0.164   12.172
  196.000  177.416   89.101    0.484    0.106   13.113
  196.250  177.414   83.694    0.482    0.048   14.127
  196.500  176.410   83.092    0.447    0.048   13.853
  196.750  177.407   86.693    0.432    0.169   12.591
  197.000  179.406   90.294    0.467    0.191   11.227
  197.250  180.403   95.697    0.488    0.209   10.803
  197.500  180.400  101.700    0.480    0.207   10.393
  197.750  180.397  103.500    0.478    0.198   10.189
  198.000  182.394   98.093    0.473    0.185    9.989
  198.250  183.393   93.287    0.464    0.190    9.790
  198.500  183.389   93.284    0.478    0.200    9.785
  198.750  189.390   95.685    0.482    0.194    9.591
  199.000  188.386   99.887    0.476    0.193    9.583
  199.250  185.381   97.482    0.464    0.198   10.129
  199.500  181.373   97.480    0.468    0.204   10.508
  199.750  178.368  100.481    0.466    0.203   10.508
  200.000  175.362  103.481    0.430    0.168   11.307
  200.250  173.356   98.075    0.444    0.149   11.733
  200.500  173.352   87.863    0.458    0.104   12.881
  200.750  173.349   96.269    0.424    0.129   13.113
  201.000  174.347  104.074    0.404    0.154   11.698
  201.250  174.342  111.879    0.395    0.187   10.236
  201.500  174.341  116.080    0.418    0.183   10.040
  201.750  174.337  114.878    0.428    0.187    9.297
  202.000  174.333  113.074    0.435    0.193    8.944
  202.250  174.331  111.871    0.440    0.204    8.606
  202.500  174.327  111.268    0.461    0.206    8.279
  202.750  175.324  110.065    0.487    0.188    7.814
  203.000  177.323  108.262    0.507    0.155    7.519
  203.250  178.320  105.858    0.519    0.131    6.831
  203.500  177.315  102.252    0.502    0.111    6.575
  203.750  175.310  101.049    0.441    0.129    6.327
  204.000  173.305  105.851    0.466    0.169    6.319
  204.250  173.303  111.254    0.481    0.186    6.555
  204.500  174.299  107.048    0.475    0.199    6.675
  204.750  175.296   98.038    0.473    0.198    7.190
  205.000  176.294   75.216    0.482    0.198    8.199
  205.250  176.292   54.196    0.440    0.214   17.094
  205.500  177.289   36.779    0.226    0.261   24.444
  205.750  177.286   31.972    0.223    0.306   30.052
  206.000  177.283   25.364    0.228    0.336   36.946
  206.250  176.279   22.960    0.257    0.344   43.739
  206.500  177.275   20.556    0.277    0.327   39.744
  206.750  179.274   18.752    0.294    0.319   41.252
  207.000  179.271   16.348    0.334    0.315   43.590
  207.250  179.267   15.145    0.383    0.317   40.382
  207.500  178.263   13.341    0.398    0.316   44.343
  207.750  176.257   12.738    0.372    0.313   51.504
  208.000  171.250   12.737    0.376    0.312   56.556
  208.250  169.245   12.735    0.371    0.312   52.382
  208.500  174.245   13.334    0.361    0.313   52.343
  208.750  176.245   14.532    0.345    0.313   53.288
  209.000  178.242   17.533    0.353    0.312   56.335
  209.250  180.241   20.533    0.369    0.312   57.352
  209.500  185.242   22.333    0.380    0.314   57.268
  209.750  189.243   22.331    0.387    0.312   57.212
  210.000  192.242   19.927    0.389    0.309   57.184
  210.250  190.236   18.724    0.380    0.309   57.114
  210.500  186.230   19.322    0.370    0.312   57.057
  210.750  183.224   22.323    0.364    0.317   57.016
  211.000  182.219   25.324    0.382    0.322   58.044
  211.250  181.216   25.322    0.405    0.326   59.092
  211.500  180.210   25.319    0.413    0.331   61.289
  211.750  179.206   26.518    0.418    0.337   63.567
  212.000  178.202   28.919    0.429    0.332   65.947
  212.250  177.198   31.319    0.447    0.332   69.718
  212.500  175.192   33.119    0.438    0.336   73.687
  212.750  174.189   34.918    0.429    0.339   76.483
  213.000  172.183   34.916    0.415    0.341   80.837
  213.250  171.180   32.512    0.413    0.332   80.738
  213.500  169.175   30.108    0.411    0.321   79.191
  213.750  167.168   28.304    0.405    0.317   76.165
  214.000  167.166   32.506    0.406    0.321   71.904
  214.250  166.162   34.906    0.425    0.328   69.157
  214.500  165.158   35.505    0.421    0.332   69.106
  214.750  164.153   34.902    0.423    0.326   69.055
  215.000  164.150   33.099    0.430    0.321   70.267
  215.250  164.147   32.496    0.427    0.320   70.215
  215.500  163.140   33.094    0.422    0.322   72.826
  215.750  163.139   33.693    0.417    0.325   72.772
  216.000  163.135   35.492    0.415    0.328   74.049
  216.250  163.132   36.691    0.425    0.327   74.013
  216.500  163.129   36.690    0.433    0.326   73.922
  216.750  163.126   35.486    0.438    0.326   73.832
  217.000  163.121   33.082    0.443    0.325   73.796
  217.250  163.118   33.681    0.450    0.321   75.127
  217.500  164.116   36.081    0.434    0.310   77.920
  217.750  165.113   36.679    0.405    0.298   79.346
  218.000  165.109   36.678    0.390    0.298   77.787
  218.250  165.107   33.072    0.400    0.305   72.063
  218.500  165.102   35.472    0.414    0.316   61.907
  218.750  165.099   39.073    0.421    0.324   51.202
  219.000  165.097   39.672    0.437    0.320   52.113
  219.250  165.094   38.469    0.458    0.322   57.225
  219.500  165.089   37.866    0.458    0.326   58.244
  219.750  165.087   42.068    0.450    0.326   53.971
  220.000  166.084   45.668    0.457    0.324   48.136
  220.250  166.079   46.868    0.446    0.308   43.771
  220.500  166.077   51.070    0.428    0.278   34.218
  220.750  166.074   67.282    0.415    0.250   29.389
