~VERSION INFORMATION
 VERS.                 2.0:   CWLS LOG ASCII STANDARD -VERSION 2.0
 WRAP.                  NO:   ONE LINE PER DEPTH STEP
~WELL INFORMATION BLOCK
#MNEM.UNIT           DATA                    DESCRIPTION OF MNEMONIC
#---------    -------------------            -------------------------------
# Generated from Intellog Unique Number	CW_73_75/WELL/992
WELL.         CDN-SUP ET AL FRANCIS 10-26    : Well_name    - WELL
LOC .         00/10-26-074-20W4/0            : Location     - LOCATION
UWI .         00/10-26-074-20W4/0            : Uwi          - UNIQUE WELL ID
ENTR.         JAYE                           : Entered      - ENTERED BY
SRVC.         SCHLUMBERGER                   : Scn          - SERVICE COMPANY
DATE.         16 M1R 76                      : Date         - LOG DATE
STRT.M        362.712                        : top_depth    - START DEPTH
STOP.M        542.462                        : bot_depth    - STOP DEPTH
STEP.M        0.25                           : increment    - STEP LENGTH
 NULL. -999.2500:NULL Value
~CURVE INFORMATION BLOCK
#MNEM UNIT       ERCB CURVE CODE    CURVE DESCRIPTION
#-----------   ------------------   ----------------------------------
DEPT.M        00 001 00 00         : DEPTH        - DEPTH
GR  .API      00 310 00 00         : GR           - GAMMA RAY
CALI.MM       00 280 01 00         : CAL          - CALIPER
NPHI.V/V      00 330 00 00         : PHIN         - NEUTRON POROSITY (SANDSTONE)
DPHI.V/V      00 890 00 00         : PHID         - DENSITY POROSITY (SANDSTONE)
ILD .OHMM     00 120 00 00         : RESD         - DEEP RESISTIVITY (DLL)
~PARAMETER INFORMATION
#MNEM.UNIT           DATA             DESCRIPTION OF MNEMONIC
#---------         -----------     ------------------------------
GL  .M        683.057              : gl           - GROUND LEVEL ELEVATION
EREF.M        686.714              : kb           - ELEVATION OF DEPTH REFERENCE
DATM.M        683.057              : datum        - DATUM ELEVATION
TDD .M        619.354              : tdd          - TOTAL DEPTH DRILLER
RUN .         ONE                  : Run          - RUN NUMBER
ENG .         WILTSHIRE            : Engineer     - RECORDING ENGINEER
WIT .         BRAND                : Witness      - WITNESSED BY
BASE.         EDMONTON             : Branch       - HOME BASE OF LOGGING UNIT
MUD .         GEL CHEM             : Mud_type     - MUD TYPE
MATR.         SANDSTONE            : Logunit      - NEUTRON MATRIX
TMAX.C        28.3333              : BHT          - MAXIMUM RECORDED TEMPERATURE
BHTD.M        619.963              : BHTDEP       - MAXIMUM RECORDED TEMPERATURE
RMT .C        11.6667              : MDTP         - TEMPERATURE OF MUD
MUDD.KG/M     1080                 : MWT          - MUD DENSITY
NEUT.         1                    : NEUTRON      - NEUTRON TYPE
RESI.         1                    : RESIST       - RESISTIVITY TYPE
RM  .OHMM     1.4                  : RM           - RESISTIVITY OF MUD
RMC .OHMM     3.95                 : RMC          - RESISTIVITY OF MUD CAKE
RMF .OHMM     2.45                 : RMF          - RESISTIVITY OF MUD FILTRATE
SUFT.C        -17.7778             : SUFT         - SURFACE TEMPERATURE
~A  DEPTH       GR      CAL     PHIN     PHID     RESD
# ...
  472.212   73.960  204.527    0.447    0.297    5.394
  472.462   73.506  204.076    0.441    0.288    5.422
  472.712   73.732  202.986    0.436    0.289    5.380
  472.962   75.817  202.538    0.433    0.280    5.231
  473.212   78.398  204.074    0.440    0.264    4.946
  473.462   80.979  207.182    0.446    0.260    4.684
  473.712   82.565  211.239    0.454    0.272    4.529
  473.962   83.600  241.509    0.471    0.295    4.330
  474.212   85.312  262.443    0.488    0.325    4.434
  474.462   85.723  243.010    0.491    0.298    4.678
  474.712   85.146  247.379    0.505    0.329    4.962
  474.962   84.879  215.154    0.492    0.301    5.453
  475.212   84.424  202.431    0.469    0.274    5.915
  475.462   83.909  205.331    0.414    0.282    5.913
  475.712   84.879  206.973    0.399    0.304    5.695
  475.962   91.298  208.618    0.432    0.268    5.415
  476.212   93.505  212.881    0.459    0.190    5.235
  476.462   93.918  220.814    0.473    0.196    5.146
  476.712   96.190  223.925    0.472    0.217    5.135
  476.962   98.337  220.955    0.465    0.211    5.171
  477.212   98.439  221.128    0.455    0.205    5.218
  477.462   97.303  223.087    0.448    0.198    5.313
  477.712   96.540  225.254    0.439    0.193    5.411
  477.962   97.201  224.588    0.432    0.189    5.510
  478.212  100.523  226.017    0.437    0.200    5.549
  478.462   99.079  228.187    0.446    0.179    5.547
  478.712   98.128  230.356    0.443    0.190    5.474
  478.962   97.737  230.845    0.441    0.176    5.214
  479.212   97.964  229.970    0.440    0.183    4.930
  479.462   97.386  229.619    0.440    0.203    4.524
  479.712   96.001  229.900    0.439    0.210    4.262
  479.962   95.672  230.598    0.441    0.205    3.868
  480.212   98.810  231.717    0.448    0.202    3.491
  480.462   98.975  233.672    0.469    0.209    3.105
  480.712   99.077  235.526    0.479    0.208    2.587
  480.962  100.108  237.167    0.472    0.209    2.085
  481.212   99.408  238.707    0.466    0.219    1.994
  481.462   97.344  240.455    0.460    0.220    2.095
  481.712   95.960  236.331    0.463    0.221    2.457
  481.962   96.374  230.424    0.479    0.231    3.288
  482.212   95.051  220.532    0.452    0.254    4.599
  482.462   93.421  214.940    0.436    0.212    6.154
  482.712   94.145  211.443    0.429    0.211    7.018
  482.962   94.493  212.875    0.421    0.191    6.899
  483.212   93.668  216.092    0.418    0.187    6.732
  483.462   94.142  218.678    0.449    0.173    6.473
  483.712   96.042  220.323    0.446    0.205    6.258
  483.962   96.020  221.646    0.452    0.224    6.266
  484.212   95.134  222.136    0.467    0.208    6.335
  484.462   92.946  222.312    0.459    0.200    6.427
  484.712   91.686  222.068    0.454    0.204    6.449
  484.962   91.419  221.819    0.451    0.208    6.482
  485.212   92.823  221.894    0.448    0.212    6.540
  485.462   95.649  221.955    0.445    0.220    6.660
  485.712   97.177  222.348    0.441    0.226    6.720
  485.962   96.538  222.627    0.437    0.205    6.668
  486.212   94.782  223.011    0.444    0.188    6.423
  486.462   92.097  223.288    0.443    0.198    6.325
  486.712   90.469  223.571    0.452    0.194    6.276
  486.962   89.580  223.636    0.453    0.193    6.205
  487.212   90.241  223.290    0.446    0.216    6.157
  487.462   91.085  223.464    0.440    0.227    6.075
  487.712   90.818  226.052    0.454    0.199    5.983
  487.962   88.940  232.098    0.467    0.204    5.970
  488.212   87.124  235.628    0.479    0.234    5.968
  488.462   85.245  225.734    0.479    0.209    5.976
  488.712   88.567  218.151    0.451    0.202    6.223
  488.962   91.706  209.516    0.432    0.158    6.602
  489.212   91.375  206.127    0.441    0.176    7.188
  489.462   89.002  203.889    0.432    0.182    8.259
  489.712   85.141  202.913    0.420    0.182   10.687
  489.962   79.982  202.563    0.412    0.171   14.785
  490.212   72.716  202.734    0.400    0.037   22.402
  490.462   59.938  203.122    0.210    0.039   22.435
  490.712   58.432  203.084    0.202    0.112   20.590
  490.962   63.614  202.942    0.223    0.171   18.379
  491.212   66.193  202.802    0.249    0.202   15.896
  491.462   65.862  202.772    0.276    0.237   12.835
  491.712   60.826  202.728    0.292    0.288   11.350
  491.962   60.247  202.384    0.317    0.306   10.359
  492.212   60.970  202.242    0.347    0.353    9.437
  492.462   62.065  202.309    0.358    0.371    8.550
  492.712   62.539  202.700    0.358    0.367    8.144
  492.962   61.836  202.978    0.359    0.368    7.947
  493.212   61.877  202.837    0.359    0.370    7.841
  493.462   63.095  202.491    0.359    0.367    7.737
  493.712   68.214  202.240    0.362    0.360    7.564
  493.962   69.927  202.414    0.383    0.350    7.259
  494.212   69.041  202.596    0.387    0.344    7.296
  494.462   66.543  202.766    0.376    0.353    6.976
  494.712   63.858  202.735    0.364    0.366    6.756
  494.962   61.670  202.380    0.347    0.373    6.767
  495.212   59.916  202.244    0.346    0.380    6.929
  495.462   58.781  202.098    0.343    0.365    7.419
  495.712   56.222  201.860    0.336    0.351    8.930
  495.962   54.961  201.605    0.317    0.350   10.260
  496.212   54.506  201.470    0.307    0.358   10.645
  496.462   54.550  201.336    0.311    0.363   10.582
  496.712   54.900  201.404    0.327    0.370    9.986
  496.962   54.940  201.361    0.340    0.374    9.115
  497.212   55.045  201.541    0.354    0.360    8.090
  497.462   55.395  201.924    0.373    0.334    7.010
  497.712   56.612  202.418    0.412    0.320    5.788
  497.962   56.468  203.952    0.418    0.288    5.090
  498.212   55.516  204.025    0.411    0.277    4.830
  498.462   55.499  203.047    0.408    0.293    4.828
  498.712   58.079  202.377    0.417    0.308    4.991
  498.962   60.038  201.609    0.419    0.298    5.158
  499.212   60.948  200.634    0.417    0.282    5.342
  499.462   62.349  199.970    0.420    0.253    5.562
  499.712   64.808  199.828    0.421    0.251    5.803
  499.962   64.601  200.110    0.398    0.252    6.133
  500.212   63.960  200.804    0.386    0.246    6.494
  500.462   62.513  201.297    0.399    0.242    6.851
  500.712   61.318  201.158    0.395    0.234    7.200
  500.962   62.287  201.437    0.380    0.234    7.456
  501.212   63.816  202.137    0.361    0.214    7.636
  501.462   66.706  204.408    0.347    0.193    7.576
  501.712   70.647  209.930    0.336    0.173    7.366
  501.962   75.703  215.663    0.349    0.188    7.081
  502.212   79.213  222.548    0.365    0.225    6.871
  502.462   82.410  228.486    0.376    0.214    6.643
  502.712   85.860  231.915    0.395    0.236    6.375
  502.962   89.615  233.558    0.415    0.217    6.061
  503.212   91.392  234.256    0.438    0.209    5.698
  503.462   90.627  235.791    0.457    0.231    5.398
  503.712   94.261  237.641    0.474    0.243    4.854
  503.962   99.380  239.080    0.475    0.215    4.381
  504.212   98.244  240.301    0.481    0.230    3.933
  504.462   96.736  240.687    0.508    0.219    3.823
  504.712   96.407  240.962    0.493    0.229    3.944
  504.962   95.269  241.873    0.477    0.249    4.122
  505.212   94.383  242.784    0.461    0.230    4.301
  505.462   96.467  243.693    0.456    0.226    4.503
  505.712   97.067  244.496    0.490    0.223    4.690
  505.962   96.302  244.878    0.490    0.233    4.892
  506.212   94.982  245.575    0.482    0.238    5.066
  506.462   93.228  247.114    0.453    0.222    5.236
  506.712   93.392  248.970    0.444    0.204    5.343
  506.962   93.183  249.773    0.450    0.188    5.471
  507.212   92.669  249.210    0.446    0.191    5.624
  507.462   91.411  248.337    0.438    0.180    5.813
  507.712   90.337  247.570    0.429    0.191    5.975
  507.962   88.769  246.802    0.427    0.211    6.152
  508.212   87.385  246.554    0.439    0.217    6.289
  508.462   88.045  246.208    0.444    0.212    6.452
