~VERSION INFORMATION
 VERS.                 2.0:   CWLS LOG ASCII STANDARD -VERSION 2.0
 WRAP.                  NO:   ONE LINE PER DEPTH STEP
~WELL INFORMATION BLOCK
#MNEM.UNIT           DATA                    DESCRIPTION OF MNEMONIC
#---------    -------------------            -------------------------------
# Generated from Intellog Unique Number	CS_71_72/WELL/913
WELL.         MAYNARD EXPLORATION            : Well_name    - WELL
LOC .         00/11-34-071-11W4/0            : Location     - LOCATION
UWI .         00/11-34-071-11W4/0            : Uwi          - UNIQUE WELL ID
ENTR.         SP                             : Entered      - ENTERED BY
SRVC.         SCHLUMBERGER                   : Scn          - SERVICE COMPANY
STRT.M        290                            : top_depth    - START DEPTH
STOP.M        490                            : bot_depth    - STOP DEPTH
STEP.M        0.25                           : increment    - STEP LENGTH
 NULL. -999.2500:NULL Value
~CURVE INFORMATION BLOCK
#MNEM UNIT       ERCB CURVE CODE    CURVE DESCRIPTION
#-----------   ------------------   ----------------------------------
DEPT.M        00 001 00 00         : DEPTH        - DEPTH
ILD .OHMM     00 120 00 00         : RESD         - DEEP RESISTIVITY (DIL)
DPHI.V/V      00 890 00 00         : PHID         - DENSITY POROSITY (LIMESTONE)
NPHI.V/V      00 330 00 00         : PHIN         - NEUTRON POROSITY (LIMESTONE)
GR  .API      00 310 00 00         : GR           - GAMMA RAY
~PARAMETER INFORMATION
#MNEM.UNIT           DATA             DESCRIPTION OF MNEMONIC
#---------         -----------     ------------------------------
GL  .M        652.3                : gl           - GROUND LEVEL ELEVATION
EREF.M        635.5                : kb           - ELEVATION OF DEPTH REFERENCE
DATM.M        652.3                : datum        - DATUM ELEVATION
TDD .M        507.3                : tdd          - TOTAL DEPTH DRILLER
RUN .         ONE                  : Run          - RUN NUMBER
ENG .         BILL                 : Engineer     - RECORDING ENGINEER
WIT .         JIM                  : Witness      - WITNESSED BY
MUD .         GEL                  : Mud_type     - MUD TYPE
MATR.         LIMESTONE            : Logunit      - NEUTRON MATRIX
TMAX.C        22                   : BHT          - MAXIMUM RECORDED TEMPERATURE
BHTD.M        507.3                : BHTDEP       - MAXIMUM RECORDED TEMPERATURE
MATR.         1                    : LOGUNIT      - NEUTRON MATRIX
RMT .C        25                   : MDTP         - TEMPERATURE OF MUD
NEUT.         1                    : NEUTRON      - NEUTRON TYPE
RESI.         0                    : RESIST       - RESISTIVITY TYPE
RMC .OHMM     0.25                 : RMC          - RESISTIVITY OF MUD CAKE
RMF .OHMM     0.25                 : RMF          - RESISTIVITY OF MUD FILTRATE
SUFT.C        15                   : SUFT         - SURFACE TEMPERATURE
~A  DEPTH     RESD     PHID     PHIN       GR
  290.000    2.165    0.228    0.495  114.376
  290.250    2.239    0.220    0.482  115.103
  290.500    2.272    0.215    0.504  114.669
  290.750    2.322    0.218    0.516  112.097
  291.000    2.371    0.223    0.486  112.090
  291.250    2.437    0.229    0.474  111.105
  291.500    2.577    0.222    0.489  110.000
  291.750    2.742    0.214    0.480  111.154
  292.000    2.857    0.207    0.462  114.447
  292.250    3.046    0.203    0.463  111.630
  292.500    3.161    0.193    0.450  108.569
  292.750    3.317    0.178    0.441  110.578
  293.000    3.129    0.198    0.465  113.444
  293.250    3.047    0.207    0.477  114.415
  293.500    2.875    0.214    0.485  114.470
  293.750    2.679    0.217    0.489  113.853
  294.000    2.524    0.225    0.478  114.824
  294.250    2.450    0.236    0.486  116.772
  294.500    2.467    0.245    0.482  116.583
  294.750    2.500    0.251    0.499  114.131
  295.000    2.575    0.247    0.513  112.843
  295.250    2.665    0.240    0.500  111.002
  295.500    2.813    0.236    0.501  110.142
  295.750    2.994    0.228    0.490  109.095
  296.000    3.084    0.224    0.480  109.090
  296.250    3.126    0.228    0.484  111.894
  296.500    3.118    0.232    0.505  111.216
  296.750    3.053    0.236    0.496  107.421
  297.000    2.971    0.241    0.480  105.643
  297.250    2.972    0.245    0.467  105.331
  297.500    3.070    0.248    0.453  104.897
  297.750    2.948    0.245    0.478  105.441
  298.000    2.571    0.246    0.483  103.968
  298.250    2.604    0.240    0.488  100.051
  298.500    2.850    0.222    0.492   95.157
  298.750    3.302    0.210    0.470   91.362
  299.000    4.532    0.284    0.446   86.835
  299.250    6.025    0.396    0.418   82.184
  299.500    7.165    0.347    0.348   76.924
  299.750    8.929    0.328    0.330   69.769
  300.000   13.177    0.332    0.269   63.836
  300.250   18.647    0.341    0.253   61.629
  300.500   21.451    0.343    0.244   60.584
  300.750   24.519    0.346    0.249   59.723
  301.000   25.142    0.350    0.269   58.982
  301.250   24.987    0.347    0.305   61.177
  301.500    7.070    0.338    0.337   67.219
  301.750    6.160    0.333    0.370   74.728
  302.000    5.726    0.328    0.389   82.176
  302.250    5.521    0.326    0.406   87.790
  302.500    5.440    0.339    0.401   92.183
  302.750    5.407    0.322    0.402   94.498
  303.000    5.408    0.292    0.422  100.418
  303.250    5.457    0.255    0.442  106.704
  303.500    5.458    0.253    0.430  104.743
  303.750    5.409    0.250    0.425  108.892
  304.000    5.319    0.240    0.425  114.323
  304.250    5.270    0.235    0.435  113.705
  304.500    5.279    0.233    0.442  112.416
  304.750    5.427    0.247    0.427  111.127
  305.000    5.616    0.255    0.424  111.609
  305.250    5.788    0.259    0.439  112.519
  305.500    5.994    0.258    0.438  114.529
  305.750    6.052    0.252    0.428  115.866
  306.000    6.019    0.242    0.421  115.677
  306.250    5.897    0.232    0.424  115.608
  306.500    5.667    0.226    0.439  114.992
  306.750    5.455    0.220    0.444  114.129
  307.000    5.250    0.246    0.426  113.023
  307.250    5.095    0.258    0.415  110.024
  307.500    5.046    0.272    0.401  103.419
  307.750    5.481    0.288    0.389   94.370
  308.000    6.047    0.303    0.369   86.971
  308.250    6.441    0.315    0.352   78.899
  308.500    6.720    0.317    0.344   72.416
  308.750    6.679    0.336    0.337   65.933
  309.000    6.385    0.344    0.354   62.811
  309.250    6.147    0.330    0.365   62.988
  309.500    5.885    0.320    0.373   59.438
  309.750    5.590    0.314    0.368   55.521
  310.000    5.419    0.328    0.366   52.582
  310.250    5.337    0.329    0.365   56.303
  310.500    5.329    0.326    0.368   60.451
  310.750    5.387    0.328    0.373   64.599
  311.000    5.371    0.318    0.383   67.709
  311.250    5.347    0.302    0.398   76.928
  311.500    5.331    0.282    0.415   90.241
  311.750    5.274    0.260    0.419   98.117
  312.000    5.151    0.247    0.430  101.960
  312.250    4.922    0.243    0.441  107.635
  312.500    4.594    0.236    0.455  113.922
  312.750    4.242    0.231    0.474  116.543
  313.000    3.824    0.234    0.494  119.286
  313.250    3.341    0.243    0.509  120.074
  313.500    2.784    0.257    0.519  118.051
  313.750    2.399    0.268    0.521  111.507
  314.000    2.202    0.276    0.489  104.413
  314.250    3.375    0.285    0.455   97.440
  314.500    5.007    0.279    0.438   94.014
  314.750    6.279    0.266    0.430   92.480
  315.000    7.009    0.252    0.438   97.117
  315.250    7.247    0.251    0.443   98.699
  315.500    7.034    0.265    0.425   93.621
  315.750    6.707    0.276    0.416   89.093
  316.000    6.305    0.258    0.432   86.704
  316.250    7.224    0.225    0.428   84.070
  316.500    7.922    0.233    0.424   81.498
  316.750    8.242    0.280    0.428   88.946
  317.000    8.300    0.292    0.442   93.400
  317.250    8.054    0.290    0.440   95.531
  317.500    7.620    0.299    0.430   97.908
  317.750    7.243    0.290    0.429  101.568
  318.000    6.866    0.268    0.440  105.838
  318.250    6.465    0.241    0.445  110.475
  318.500    5.563    0.218    0.457  114.562
  318.750    5.121    0.209    0.475  117.061
  319.000    4.621    0.206    0.475  119.744
  319.250    4.203    0.189    0.477  122.241
  319.500    3.892    0.170    0.456  122.357
  319.750    3.564    0.166    0.462  120.335
  320.000    3.417    0.184    0.480  122.833
  320.250    3.245    0.196    0.493  125.943
  320.500    3.213    0.207    0.483  129.053
  320.750    3.402    0.217    0.475  131.002
  321.000    3.747    0.246    0.465  130.139
  321.250    4.378    0.264    0.457  124.635
  321.500    5.150    0.259    0.448  118.396
  321.750    5.716    0.280    0.440  115.702
  322.000    6.216    0.299    0.429  114.290
  322.250    6.520    0.310    0.422  110.679
  322.500    6.652    0.313    0.424  104.929
  322.750    6.669    0.306    0.429  101.684
  323.000    6.611    0.297    0.437  100.639
  323.250    6.546    0.290    0.445  103.382
  323.500    6.424    0.284    0.457  106.491
  323.750    6.227    0.277    0.455  109.052
  324.000    6.023    0.293    0.445  111.550
  324.250    5.884    0.301    0.439  109.833
  324.500    5.736    0.312    0.443  105.122
  324.750    5.638    0.320    0.428   95.829
  325.000    5.803    0.330    0.426   85.558
  325.250    6.139    0.339    0.422   81.335
  325.500    6.378    0.330    0.409   82.185
  325.750    6.542    0.321    0.395   85.844
  326.000    6.665    0.312    0.401   87.181
  326.250    6.797    0.304    0.407   90.352
  326.500    6.830    0.298    0.413   97.066
  326.750    6.806    0.296    0.413  101.703
  327.000    6.790    0.285    0.411  104.753
  327.250    6.766    0.256    0.413  107.740
  327.500    6.766    0.238    0.421  109.628
  327.750    6.758    0.227    0.430  109.010
  328.000    6.693    0.220    0.424  109.615
  328.250    6.513    0.213    0.422  112.296
  328.500    6.235    0.218    0.426  113.879
  328.750    5.899    0.243    0.423  114.789
  329.000    5.760    0.272    0.414  112.644
  329.250    5.777    0.293    0.415  104.329
  329.500    6.261    0.285    0.408   97.051
  329.750    7.081    0.269    0.396   90.996
  330.000    8.287    0.257    0.403   89.096
  330.250    9.075    0.249    0.426   97.215
  330.500    9.583    0.258    0.448  106.984
  330.750    7.608    0.271    0.471  112.783
  331.000    6.509    0.265    0.502  116.198
  331.250    5.132    0.264    0.520  115.031
  331.500    4.033    0.277    0.534  111.480
  331.750    3.271    0.277    0.534  110.741
  332.000    3.411    0.275    0.482  108.779
  332.250    4.199    0.269    0.453  104.557
  332.500    5.109    0.261    0.442  101.434
  332.750    6.126    0.252    0.447  103.077
  333.000    7.398    0.248    0.455  105.331
  333.250    7.825    0.242    0.451  107.219
