~VERSION INFORMATION
 VERS.                 2.0:   CWLS LOG ASCII STANDARD -VERSION 2.0
 WRAP.                  NO:   ONE LINE PER DEPTH STEP
~WELL INFORMATION BLOCK
#MNEM.UNIT           DATA                    DESCRIPTION OF MNEMONIC
#---------    -------------------            -------------------------------
# Generated from Intellog Unique Number	CS_69_70/WELL/898
WELL.         PROVIDENT RESOURCES LTD.       : Well_name    - WELL
LOC .         00/11-31-070-17W4/0            : Location     - LOCATION
UWI .         00/11-31-070-17W4/0            : Uwi          - UNIQUE WELL ID
ENTR.         SP                             : Entered      - ENTERED BY
SRVC.         SCHLUMBERGER                   : Scn          - SERVICE COMPANY
STRT.M        283.464                        : top_depth    - START DEPTH
STOP.M        475.214                        : bot_depth    - STOP DEPTH
STEP.M        0.25                           : increment    - STEP LENGTH
 NULL. -999.2500:NULL Value
~CURVE INFORMATION BLOCK
#MNEM UNIT       ERCB CURVE CODE    CURVE DESCRIPTION
#-----------   ------------------   ----------------------------------
DEPT.M        00 001 00 00         : DEPTH        - DEPTH
GR  .API      00 310 00 00         : GR           - GAMMA RAY
DPHI.V/V      00 890 00 00         : PHID         - DENSITY POROSITY (SANDSTONE)
NPHI.V/V      00 330 00 00         : PHIN         - NEUTRON POROSITY (SANDSTONE)
ILD .OHMM     00 120 00 00         : RESD         - DEEP RESISTIVITY (DIL)
~PARAMETER INFORMATION
#MNEM.UNIT           DATA             DESCRIPTION OF MNEMONIC
#---------         -----------     ------------------------------
GL  .M        566.318              : gl           - GROUND LEVEL ELEVATION
EREF.M        569.062              : kb           - ELEVATION OF DEPTH REFERENCE
DATM.M        566.318              : datum        - DATUM ELEVATION
TDD .M        502.92               : tdd          - TOTAL DEPTH DRILLER
RUN .         ONE                  : Run          - RUN NUMBER
ENG .         BILL                 : Engineer     - RECORDING ENGINEER
WIT .         JIM                  : Witness      - WITNESSED BY
MUD .         GEL                  : Mud_type     - MUD TYPE
MATR.         SANDSTONE            : Logunit      - NEUTRON MATRIX
TMAX.C        22.2222              : BHT          - MAXIMUM RECORDED TEMPERATURE
BHTD.M        502.92               : BHTDEP       - MAXIMUM RECORDED TEMPERATURE
MATR.         1                    : LOGUNIT      - NEUTRON MATRIX
RMT .C        25                   : MDTP         - TEMPERATURE OF MUD
NEUT.         1                    : NEUTRON      - NEUTRON TYPE
RESI.         0                    : RESIST       - RESISTIVITY TYPE
RMC .OHMM     0.25                 : RMC          - RESISTIVITY OF MUD CAKE
RMF .OHMM     0.25                 : RMF          - RESISTIVITY OF MUD FILTRATE
SUFT.C        15                   : SUFT         - SURFACE TEMPERATURE
~A  DEPTH       GR     PHID     PHIN     RESD
# ...
  326.964  109.058    0.211    0.488    4.252
  327.214   95.888    0.157    0.477    4.628
  327.464   88.165    0.086    0.462    4.923
  327.714   81.307    0.079    0.416    5.224
  327.964   80.683    0.131    0.385    5.387
  328.214   86.796    0.190    0.418    5.247
  328.464   88.600    0.232    0.457    5.023
  328.714   84.534    0.244    0.449    4.714
  328.964   86.408    0.247    0.459    4.534
  329.214   91.451    0.264    0.452    4.521
  329.464   93.084    0.261    0.450    4.673
  329.714   93.146    0.243    0.456    4.846
  329.964   93.997    0.223    0.460    5.052
  330.214   94.324    0.208    0.466    5.304
  330.464   89.379    0.202    0.470    5.425
  330.714   85.785    0.218    0.454    5.447
  330.964   83.270    0.227    0.439    5.311
  331.214   81.775    0.231    0.429    5.197
  331.464   80.296    0.218    0.419    5.549
  331.714   80.416    0.206    0.404    5.933
  331.964   81.326    0.203    0.390    6.209
  332.214   82.163    0.234    0.414    6.226
  332.464   84.101    0.256    0.436    5.921
  332.714   85.414    0.263    0.455    5.613
  332.964   86.309    0.250    0.450    5.445
  333.214   87.989    0.235    0.457    5.344
  333.464   91.061    0.230    0.464    5.319
  333.714   94.317    0.223    0.472    5.355
  333.964   95.994    0.221    0.466    5.481
  334.214   96.465    0.227    0.459    5.605
  334.464   95.081    0.220    0.462    5.739
  334.714   91.480    0.201    0.471    5.898
  334.964   90.801    0.176    0.480    6.056
  335.214   90.344    0.169    0.475    6.178
  335.464   90.264    0.161    0.466    6.253
  335.714   92.134    0.175    0.458    6.205
  335.964   96.060    0.207    0.452    6.036
  336.214   98.578    0.203    0.451    5.731
  336.464  100.675    0.198    0.463    5.503
  336.714  102.070    0.214    0.460    5.360
  336.964  101.863    0.230    0.462    5.185
  337.214  101.300    0.220    0.470    5.315
  337.464  101.254    0.235    0.479    5.301
  337.714  101.808    0.250    0.486    5.303
  337.964  101.312    0.274    0.477    5.323
  338.214   95.807    0.297    0.450    5.379
  338.464   88.275    0.276    0.442    5.481
  338.714   82.208    0.245    0.438    5.615
  338.964   80.259    0.253    0.432    5.730
  339.214   83.296    0.237    0.428    5.859
  339.464   88.189    0.220    0.435    5.942
  339.714   90.951    0.206    0.445    5.913
  339.964   93.950    0.201    0.438    5.807
  340.214   95.750    0.202    0.445    5.710
  340.464   98.220    0.209    0.464    5.504
  340.714  101.900    0.214    0.474    5.137
  340.964  105.344    0.221    0.496    4.672
  341.214  107.777    0.234    0.518    4.223
  341.464  106.815    0.230    0.537    4.138
  341.714  102.785    0.219    0.555    4.244
  341.964  101.365    0.208    0.528    4.456
  342.214   99.990    0.195    0.502    4.729
  342.464   97.721    0.221    0.484    5.066
  342.714   94.871    0.233    0.462    5.407
  342.964   89.772    0.258    0.480    5.711
  343.214   84.450    0.305    0.512    6.249
  343.464   77.765    0.353    0.552    6.591
  343.714   70.317    0.381    0.569    6.993
  343.964   66.457    0.277    0.494    7.306
  344.214   63.846    0.267    0.416    7.489
  344.464   63.147    0.275    0.409    7.285
  344.714   63.045    0.287    0.416    6.611
  344.964   63.098    0.296    0.422    5.979
  345.214   64.201    0.286    0.445    5.415
  345.464   66.662    0.280    0.450    5.157
  345.714   67.354    0.280    0.438    5.083
  345.964   67.587    0.289    0.432    5.120
  346.214   65.955    0.296    0.434    5.061
  346.464   62.841    0.297    0.433    5.022
  346.714   63.014    0.282    0.442    5.009
  346.964   63.588    0.276    0.445    4.973
  347.214   62.462    0.286    0.443    4.809
  347.464   60.341    0.296    0.442    4.560
  347.714   59.677    0.305    0.443    4.448
  347.964   60.264    0.306    0.451    4.532
  348.214   63.005    0.306    0.457    4.624
  348.464   63.750    0.318    0.455    4.655
  348.714   63.086    0.306    0.453    4.671
  348.964   62.006    0.313    0.452    4.625
  349.214   62.461    0.324    0.455    4.513
  349.464   63.069    0.314    0.449    4.445
  349.714   61.941    0.308    0.440    4.352
  349.964   61.016    0.310    0.433    4.251
  350.214   60.245    0.313    0.427    4.176
  350.464   60.566    0.315    0.423    4.143
  350.714   60.933    0.310    0.429    4.115
  350.964   60.569    0.303    0.433    4.092
  351.214   59.970    0.299    0.433    4.130
  351.464   60.297    0.295    0.434    4.210
  351.714   61.571    0.300    0.452    4.307
  351.964   64.150    0.312    0.463    4.426
  352.214   64.392    0.307    0.453    4.536
  352.464   64.034    0.291    0.471    4.598
  352.714   61.210    0.303    0.476    4.648
  352.964   61.994    0.313    0.464    4.652
  353.214   64.177    0.302    0.452    4.623
  353.464   65.850    0.296    0.469    4.577
  353.714   66.510    0.295    0.484    4.536
  353.964   67.422    0.305    0.476    4.526
  354.214   66.276    0.305    0.461    4.520
  354.464   65.567    0.305    0.453    4.521
  354.714   65.781    0.307    0.464    4.531
  354.964   66.880    0.306    0.476    4.584
  355.214   67.377    0.304    0.471    4.603
  355.464   66.878    0.305    0.459    4.647
  355.714   66.770    0.307    0.462    4.670
  355.964   67.068    0.293    0.463    4.676
  356.214   67.949    0.280    0.452    4.701
  356.464   69.127    0.282    0.448    4.725
  356.714   69.081    0.286    0.450    4.725
  356.964   68.229    0.286    0.449    4.723
  357.214   67.448    0.295    0.453    4.710
  357.464   67.408    0.303    0.457    4.721
  357.714   68.445    0.295    0.457    4.733
  357.964   71.301    0.285    0.450    4.798
  358.214   72.657    0.280    0.445    4.811
  358.464   72.290    0.283    0.439    4.859
  358.714   69.989    0.287    0.438    4.866
  358.964   68.983    0.277    0.444    4.877
  359.214   68.447    0.231    0.441    4.867
  359.464   72.731    0.197    0.437    4.752
  359.714   78.173    0.184    0.452    4.597
  359.964   81.794    0.189    0.458    4.498
  360.214   81.826    0.204    0.441    4.505
  360.464   80.430    0.216    0.445    4.583
  360.714   81.877    0.235    0.452    4.725
  360.964   81.252    0.249    0.453    4.854
  361.214   80.290    0.268    0.447    5.005
  361.464   79.220    0.288    0.457    5.125
  361.714   73.944    0.310    0.485    5.280
  361.964   69.366    0.316    0.483    5.337
  362.214   66.596    0.284    0.426    5.325
  362.464   68.415    0.290    0.426    5.184
  362.714   69.720    0.282    0.434    5.000
  362.964   70.910    0.274    0.438    4.852
  363.214   70.827    0.281    0.431    4.775
  363.464   71.812    0.298    0.426    4.747
  363.714   73.114    0.292    0.427    4.819
  363.964   73.735    0.261    0.422    4.913
  364.214   74.094    0.260    0.441    5.014
  364.464   74.502    0.266    0.449    5.121
  364.714   72.364    0.269    0.452    5.168
  364.964   73.384    0.281    0.445    5.174
  365.214   72.071    0.288    0.432    5.133
  365.464   70.742    0.276    0.423    5.094
  365.714   69.282    0.270    0.420    5.108
  365.964   70.830    0.260    0.426    5.126
  366.214   73.968    0.254    0.426    5.172
  366.464   75.932    0.252    0.428    5.211
  366.714   77.899    0.260    0.439    5.291
  366.964   79.582    0.263    0.435    5.336
  367.214   79.113    0.249    0.427    5.403
  367.464   77.814    0.233    0.424    5.403
  367.714   75.862    0.232    0.429    5.362
  367.964   73.950    0.247    0.432    5.290
  368.214   73.082    0.257    0.458    5.155
  368.464   72.669    0.278    0.468    5.016
  368.714   71.846    0.289    0.466    4.894
  368.964   70.973    0.291    0.459    4.811
  369.214   69.489    0.280    0.461    4.752
  369.464   67.857    0.275    0.462    4.709
  369.714   66.653    0.293    0.468    4.648
  369.964   65.782    0.282    0.469    4.631
  370.214   64.283    0.274    0.460    4.643
