~VERSION INFORMATION
 VERS.                 2.0:   CWLS LOG ASCII STANDARD -VERSION 2.0
 WRAP.                  NO:   ONE LINE PER DEPTH STEP
~WELL INFORMATION BLOCK
#MNEM.UNIT           DATA                    DESCRIPTION OF MNEMONIC
#---------    -------------------            -------------------------------
# Generated from Intellog Unique Number	CN_91_93/WELL/1164
WELL.         PARAMOUNT RESOURCES LTD.       : Well_name    - WELL
LOC .         00/11-03-091-20W4/0            : Location     - LOCATION
UWI .         00/11-03-091-20W4/0            : Uwi          - UNIQUE WELL ID
ENTR.         JOETTE                         : Entered      - ENTERED BY
SRVC.         SCHLUMBERGER                   : Scn          - SERVICE COMPANY
DATE.         01/15/92                       : Date         - LOG DATE
STRT.F        262.467                        : top_depth    - START DEPTH
STOP.F        738.189                        : bot_depth    - STOP DEPTH
STEP.F        0.82                           : increment    - STEP LENGTH
 NULL. -999.2500:NULL Value
~CURVE INFORMATION BLOCK
#MNEM UNIT       ERCB CURVE CODE    CURVE DESCRIPTION
#-----------   ------------------   ----------------------------------
DEPT.F        00 001 00 00         : DEPTH        - DEPTH
ILD .OHMM     00 120 00 00         : RESD         - DEEP RESISTIVITY (DIL)
DPHI.V/V      00 890 00 00         : PHID         - DENSITY POROSITY (SANDSTONE)
NPHI.V/V      00 330 00 00         : PHIN         - NEUTRON POROSITY (SANDSTONE)
CALI.IN       00 280 01 00         : CAL          - CALIPER
GR  .API      00 310 00 00         : GR           - GAMMA RAY
~PARAMETER INFORMATION
#MNEM.UNIT           DATA             DESCRIPTION OF MNEMONIC
#---------         -----------     ------------------------------
GL  .F        1635.5               : gl           - GROUND LEVEL ELEVATION
EREF.F        1647.97              : kb           - ELEVATION OF DEPTH REFERENCE
DATM.F        1647.97              : datum        - DATUM ELEVATION
TDD .F        738.189              : tdd          - TOTAL DEPTH DRILLER
RUN .         ONE                  : Run          - RUN NUMBER
ENG .         BILL                 : Engineer     - RECORDING ENGINEER
WIT .         JIM                  : Witness      - WITNESSED BY
MUD .         GEL                  : Mud_type     - MUD TYPE
MATR.         SANDSTONE            : Logunit      - NEUTRON MATRIX
TMAX.F        77                   : BHT          - MAXIMUM RECORDED TEMPERATURE
BHTD.F        738.189              : BHTDEP       - MAXIMUM RECORDED TEMPERATURE
RMT .F        47                   : MDTP         - TEMPERATURE OF MUD
MUDD.LB/G     9.16666              : MWT          - MUD DENSITY
NEUT.         1                    : NEUTRON      - NEUTRON TYPE
RESI.         0                    : RESIST       - RESISTIVITY TYPE
RM  .OHMM     7.42                 : RM           - RESISTIVITY OF MUD
RMC .OHMM     4.8                  : RMC          - RESISTIVITY OF MUD CAKE
RMF .OHMM     5                    : RMF          - RESISTIVITY OF MUD FILTRATE
SUFT.F        39.2                 : SUFT         - SURFACE TEMPERATURE
~A  DEPTH     RESD     PHID     PHIN      CAL       GR
# ...
  382.218    6.302    0.234    0.433    6.950  110.658
  383.038    5.701    0.210    0.457    6.873  118.444
  383.858    5.111    0.233    0.476    6.795  123.753
  384.678    4.756    0.236    0.483    6.637  122.890
  385.499    4.508    0.231    0.489    6.579  121.093
  386.319    4.317    0.231    0.492    6.604  121.767
  387.139    4.405    0.234    0.490    6.648  121.831
  387.959    4.538    0.236    0.487    6.653  121.262
  388.780    4.678    0.235    0.481    6.656  119.466
  389.600    4.678    0.246    0.473    6.781  116.433
  390.420    4.743    0.251    0.464    6.805  115.872
  391.240    4.933    0.245    0.461    6.789  115.325
  392.060    4.991    0.251    0.461    6.772  113.513
  392.881    5.002    0.252    0.460    6.837  111.106
  393.701    4.965    0.244    0.461    6.860  112.082
  394.521    4.841    0.232    0.455    6.885  116.772
  395.341    4.807    0.234    0.456    6.847  116.520
  396.161    4.863    0.235    0.449    6.792  108.552
  396.982    5.011    0.228    0.441    6.754  104.578
  397.802    5.311    0.216    0.445    6.657  100.001
  398.622    6.062    0.195    0.438    6.660   92.334
  399.442    7.383    0.168    0.428    6.543   86.823
  400.262    8.912    0.160    0.419    6.424   84.718
  401.083   10.557    0.185    0.406    6.347   85.090
  401.903   12.056    0.245    0.411    6.269   81.741
  402.723   12.079    0.276    0.419    6.151   87.057
  403.543   10.338    0.269    0.414    6.257   93.601
  404.364    8.847    0.239    0.407    6.544   97.680
  405.184    7.570    0.216    0.419    6.690  102.371
  406.004    6.604    0.186    0.434    6.654  108.915
  406.824    6.314    0.205    0.462    6.536  121.644
  407.644    6.040    0.213    0.505    6.377  125.113
  408.465    5.778    0.212    0.480    6.542  124.243
  409.285    5.580    0.207    0.456    6.546  124.293
  410.105    5.491    0.209    0.448    6.470  126.519
  410.925    5.501    0.201    0.435    6.494  125.642
  411.745    5.466    0.184    0.437    6.660  122.616
  412.566    5.377    0.178    0.461    6.724  121.128
  413.386    5.094    0.191    0.485    6.728  123.649
  414.206    4.830    0.193    0.522    6.690  128.037
  415.026    4.621    0.200    0.541    6.654  126.549
  415.846    4.462    0.213    0.535    6.638  121.965
  416.667    4.309    0.227    0.506    6.621  119.241
  417.487    4.084    0.236    0.483    6.564  117.753
  418.307    3.837    0.240    0.492    6.486  115.044
  419.127    3.601    0.247    0.507    6.410  114.777
  419.948    3.259    0.258    0.526    6.514  115.143
  420.768    3.237    0.267    0.513    6.640  115.817
  421.588    3.526    0.251    0.481    6.644  115.874
  422.408    4.026    0.241    0.456    6.647  112.223
  423.228    4.638    0.224    0.439    6.733  106.719
  424.049    5.393    0.217    0.435    6.756  103.687
  424.869    6.157    0.215    0.421    6.780  100.654
  425.689    6.962    0.204    0.421    6.743   98.857
  426.509    7.873    0.190    0.419    6.686   99.223
  427.329   10.051    0.190    0.403    6.710   99.588
  428.150   10.954    0.196    0.392    6.714   97.173
  428.970   11.938    0.199    0.391    6.739   95.376
  429.790   12.299    0.170    0.376    6.742   92.976
  430.610   12.213    0.126    0.368    6.604   93.341
  431.430   11.796    0.124    0.368    6.527   94.935
  432.251   11.388    0.161    0.367    6.713   98.074
  433.071   11.627    0.195    0.373    6.898   99.058
  433.891   11.442    0.190    0.383    6.842   90.464
  434.711   10.545    0.205    0.370    6.785   88.056
  435.531    9.718    0.208    0.374    6.708   92.740
  436.352    8.961    0.203    0.388    6.711  100.527
  437.172    8.571    0.202    0.400    6.694  104.599
  437.992    8.051    0.198    0.402    6.657  102.493
  438.812    7.705    0.191    0.396    6.641   99.770
  439.633    8.390    0.202    0.381    6.584   90.860
  440.453   10.511    0.219    0.372    6.426   78.244
  441.273   12.109    0.245    0.358    6.389   75.829
  442.093   13.829    0.258    0.348    6.454   74.348
  442.913   15.204    0.228    0.327    6.457   72.853
  443.734   17.038    0.140    0.317    6.482   66.731
  444.554   18.569    0.213    0.318    6.506   66.486
  445.374   18.954    0.285    0.322    6.529   69.316
  446.194   19.357    0.257    0.323    6.655   70.931
  447.014   20.512    0.176    0.311    6.699   69.450
  447.835   19.813    0.106    0.292    6.743   67.948
  448.655   17.753    0.159    0.304    6.605   66.769
  449.475   12.858    0.168    0.321    6.487   70.533
  450.295    9.660    0.189    0.341    6.511   76.150
  451.115    8.036    0.207    0.395    6.637   95.072
  451.936    6.689    0.217    0.414    6.702  100.682
  452.756    6.343    0.134    0.444    6.725  110.330
  453.576    6.415    0.108    0.424    6.708  102.347
  454.396    6.671    0.143    0.428    6.692   93.129
  455.217    7.068    0.195    0.433    6.716   94.421
  456.037    7.632    0.192    0.413    6.740  103.135
  456.857    8.318    0.182    0.396    6.784  106.589
  457.677    8.814    0.185    0.398    6.809  109.433
  458.497    9.000    0.179    0.415    6.813  107.629
  459.318    9.000    0.157    0.430    6.796  104.597
  460.138    9.136    0.129    0.436    6.699   99.402
  460.958    9.146    0.149    0.431    6.601   99.149
  461.778    9.082    0.189    0.422    6.584   99.831
  462.598    8.849    0.224    0.417    6.588  101.425
  463.419    8.787    0.209    0.396    6.588  102.408
  464.239   10.705    0.150    0.376    6.597   98.758
  465.059   11.776    0.138    0.369    6.599   92.945
  465.879   13.068    0.162    0.385    6.626   84.344
  466.699   13.851    0.184    0.391    6.668   82.856
  467.520   14.282    0.191    0.399    6.691   90.959
  468.340   14.177    0.179    0.395    6.654   96.576
  469.160   14.606    0.171    0.384    6.638   97.574
  469.980   15.771    0.131    0.359    6.642   92.975
  470.801   16.877    0.101    0.327    6.606   83.154
  471.621   17.227    0.060    0.310    6.548   77.635
  472.441   17.752    0.075    0.313    6.511   73.381
  473.261   17.953    0.144    0.329    6.511   71.886
  474.081   17.341    0.184    0.331    6.541   73.487
  474.902   16.281    0.216    0.324    6.583   77.560
  475.722   14.331    0.192    0.350    6.688   78.242
  476.542   13.085    0.176    0.364    6.753   79.218
  477.362   11.728    0.203    0.368    6.696   89.792
  478.182   10.324    0.218    0.361    6.659   93.240
  479.003   10.940    0.199    0.359    6.703   92.692
  479.823   11.703    0.177    0.359    6.748   93.367
  480.643   10.985    0.165    0.362    6.772   95.888
  481.463    9.314    0.178    0.375    6.775   98.725
  482.283    8.121    0.202    0.389    6.719  101.871
  483.104    7.211    0.210    0.403    6.682  106.568
  483.924    7.029    0.220    0.411    6.668  109.405
  484.744    7.519    0.216    0.404    6.669  110.704
  485.564    8.825    0.182    0.376    6.673  100.861
  486.385   10.652    0.204    0.336    6.575   78.675
  487.205   12.508    0.231    0.320    6.457   75.945
  488.025   13.507    0.246    0.324    6.237   80.017
  488.845   13.043    0.217    0.373    6.261   85.332
  489.665   12.242    0.215    0.450    6.508   91.568
  490.486   10.874    0.218    0.463    6.694   98.126
  491.306    9.837    0.219    0.465    6.598   99.102
  492.126    8.984    0.213    0.451    6.519   98.232
  492.946    9.525    0.191    0.435    6.483   97.671
  493.766    9.813    0.156    0.416    6.507   94.638
  494.587    9.476    0.174    0.416    6.511   83.875
  495.407    9.066    0.205    0.432    6.474   89.191
  496.227    9.430    0.199    0.427    6.458   95.117
  497.047   12.148    0.189    0.416    6.461   94.246
  497.867   14.124    0.144    0.406    6.384   89.051
  498.688   16.892    0.120    0.396    6.246   78.597
  499.508   19.280    0.154    0.383    6.169   71.549
  500.328   19.690    0.184    0.369    6.213   65.729
  501.148   19.381    0.218    0.356    6.359   64.241
