~V
VERS. 2.00: Ver 2.00
WRAP. NO:
VEND. PRIZM:GeoGraphix
~W
STRT.M 45.7200:START DEPTH
STOP.M 281.6352:STOP DEPTH
STEP.M 0.3048:STEP
NULL. -999.2500:NULL VALUE
WELL. NUMAC SURMONT :WELL
COMP. :COMPANY
UWI. 00_10-14-082-06W4_0:UNIQUE WELL ID
FLD. :FIELD
CNTY. :COUNTY
STAT. :STATE
CTRY. :COUNTRY
PDAT. :PERMANENT DATUM
LMF. :LOG MEASURED FROM
DMF. :DRILLING MEASURED FROM
LOC1. 10-14-082-06W4:LOCATION LINE 1
LOC2. :LOCATION LINE 2
LOC3. :LOCATION LINE 3
SEC. :SECTION
TWP. :TOWNSHIP
RAN. :RANGE
SRVC. DRESSER ATLAS:Logging Company
BASE. :Logging Unit Location
ENG. BILL:Logging Engineer
WITN. JIM:Witnessed By
DATE. 26 - MAR - 1973:Date
RUN. ONE:Run No.
MUD_TYPE. GEL:Type Fluid in Hole
MUDS. :Source of Mud Sample
RMFS. :Source of Mud Filtrate
RMCS. :Source of Mud Cake
LOC. :LOCATION
~C
DEPT.M :DEPTH
PHID. :Density Pososity
NPHI. :PHIN         - NEUTRON POROSITY (LIMESTONE)
RHOB.KG/M3 :DENS         - BULK DENSITY
GR.API :GR           - GAMMA RAY
ILD.OHMM :RESD         - DEEP RESISTIVITY (DIL)
~P
EKB. 488.6000:ELEVATION OF KELLY BUSHING
EDF. -999.2500:ELEVATION OF DRILLING FLOOR
EGL. 486.7660:ELEVATION OF GROUND LEVEL
EPD. -999.2500:ELEVATION OF PERMANENT DATUM
APD. -999.2500:LMF DISTANCE ABOVE PERMANENT DATUM
LAT. 56.1093:LATITUDE OF WELL LOCATION
LONG. 110.8227:LONGITUDE OF WELL LOCATION
TDD. 278.8920:Total Depth Driller
TDL. -999.2500:Total Depth Logger
LCSG1. -999.2500:Depth of Casing from Logger
CSIZE. -999.2500:Casing Size
CWT. -999.2500:Casing Weight
BS. -999.2500:Bit Size
TLI. 45.7200:Top Logged Interval
BLI. 281.6352:Bottom Logged Interval
MRT. 16.6667:Maximum Recorded Temperature
WMUD. -999.2500:Drilling Mud Density
DFV. -999.2500:Drilling Mud Viscosity
PH. -999.2500:Drilling Mud pH
DFL. -999.2500:Drilling Mud Fluid Loss
RM. -999.2500:Resistivity of Drilling Fluid
RMT. -999.2500:Measured Temp. of Drilling Fluid
RMF. 0.2500:Resistivity of Drilling Fluid Filtrate
RMFT. -999.2500:Measured Temp. of Drilling Fluid Filtrate
RMC. 0.2500:Resistivity of Mud Cake
RMCT. -999.2500:Measured Temp. of Mud Cake
PHImax.V/V 0.3900:Maximum allowable Porosity
RwBnd.OHMM 0.1500:Bound Water Resistivity
RhoHy.KG/MT 1000.0000:Hydrocarbon Bulk density
SwCutoff.V/V 0.7000:Water Saturation Cutoff
PHINsh.V/V 0.4800:New Description
Rw.OHMM 1.0000:Formation Water Resistivity
Rshl.OHMM 5.0000:Resistivity shale
Trw.DEGC 25.0000:Rw measured at Lab conditions
ShaleCutoff.V/V 0.4000:New Description
GRcln.API 45.0000:Gamma Ray clean
RhoM.KG/MT 2650.0000:Bulk Density Matrix
GRshl.API 90.0000:Gamma Ray shale
m. 2.0000:Archie "m"
n. 2.0000:Archie "n"
GasTol.V/V 0.0500:Gas Tollerance
BHTemp.DEGC 25.0000:Bottom Hole Temperature
BHTDepth.M 1000.0000:Bottom Hole Depth
PHIDsh.US/MT 0.1800:New Description
a. 1.0000:Archie "a"
Gas Tol.V/V 0.0500:Gas Tollerance
RhoF.KG/MT 1000.0000:Bulk Density Fluid
RhoShl.KG/MT 2300.0000:Bulk Density Shale
TarCutoff.V/V 0.0300:New Description
SurfTemp.DEGC 10.0000:New Description
HIshl.V/V 0.4000:Neutron Hydrogen Index shale
MATR. 1.0000:
NEUT. 0.0000:
BHTD.M 278.8920:
DATM.M 488.5940:
NULL. -999.2500:
RESI. 0.0000:
SUFT.C 15.0000:
~A
# ...
  155.4480     0.3079     0.2820  2141.8999    58.4240    10.1390 
  155.7528     0.3116     0.2760  2135.8401    57.8220    10.1420 
  156.0576     0.3141     0.2690  2131.8000    56.0080    10.1440 
  156.3624     0.3141     0.2560  2131.8000    56.6170     9.7780 
  156.6672     0.3128     0.2370  2133.8301    58.4360     9.5990 
  156.9720     0.3067     0.2260  2143.9600    57.8320     9.6010 
  157.2768     0.2993     0.2120  2156.1101    56.6240     9.4260 
  157.5816     0.2858     0.1650  2178.3799    51.1800     9.4300 
  157.8864     0.2576     0.1120  2224.9500    48.7610     9.9760 
  158.1912     0.2232     0.1220  2281.6399    49.3700    58.8160 
  158.4960     0.1778     0.2580  2356.5500    54.2150    85.4720 
  158.8008     0.0907     0.2850  2500.2800    58.4540   104.9930 
  159.1056     0.1386     0.3080  2421.3401    60.8780    10.7630 
  159.4104     0.2600     0.3130  2220.9299    59.6700     8.1360 
  159.7152     0.2907     0.3120  2170.3301    57.8570     8.1390 
  160.0200     0.2956     0.3100  2162.2400    57.8600     8.4510 
  160.3248     0.2956     0.2970  2162.2500    60.8890    10.1900 
  160.6296     0.2981     0.2910  2158.2000    62.1020    10.5810 
  160.9344     0.3263     0.3090  2111.6499    62.7100     8.7810 
  161.2392     0.3300     0.3150  2105.5801    60.8970     8.4620 
  161.5440     0.3238     0.3020  2115.7100    59.0840     8.6240 
  161.8488     0.3238     0.2940  2115.7200    59.6920     8.7890 
  162.1536     0.3263     0.2970  2111.6699    59.6940     8.9580 
  162.4584     0.3226     0.3030  2117.7500    63.9340     8.1620 
  162.7632     0.3226     0.3080  2117.7600    66.3580     8.1660 
  163.0680     0.3152     0.3080  2129.9099    63.9400     8.1680 
  163.3728     0.3152     0.3040  2129.9199    62.1270     8.1710 
  163.6776     0.3238     0.3030  2115.7600    60.9180     8.3270 
  163.9824     0.3262     0.3080  2111.7100    59.7100     8.4870 
  164.2872     0.3299     0.3080  2105.6499    59.1090     8.6500 
  164.5920     0.3348     0.3090  2097.5500    59.1110     8.6510 
  164.8968     0.3336     0.3180  2099.5801    60.9290     8.1820 
  165.2016     0.3274     0.3310  2109.7100    63.3530     6.9190 
  165.5064     0.3434     0.3280  2083.3999    63.3560     7.4580 
  165.8112     0.3495     0.3170  2073.2900    62.1480     8.1910 
  166.1160     0.3238     0.3150  2115.8000    60.9400     8.1930 
  166.4208     0.3103     0.3200  2138.0801    59.7320     7.8950 
  166.7256     0.3152     0.3240  2129.9900    60.3400     7.1940 
  167.0304     0.3262     0.3320  2111.7800    61.5540     7.6110 
  167.3352     0.3274     0.3310  2109.7600    62.7670     8.5150 
  167.6400     0.3262     0.3300  2111.7900    62.1650     8.2060 
  167.9448     0.3151     0.3360  2130.0100    60.3510     7.9080 
  168.2496     0.3090     0.3500  2140.1399    58.5380     7.4790 
  168.5544     0.3679     0.3580  2042.9800    55.5150     5.1500 
  168.8592     0.3691     0.3450  2040.9600    54.9120     5.7620 
  169.1640     0.3446     0.3270  2081.4500    56.1260     7.0780 
  169.4688     0.3249     0.3190  2113.8501    60.9700     7.7740 
  169.7736     0.3102     0.3130  2138.1499    63.3930     7.9220 
  170.0784     0.3078     0.3110  2142.2000    64.0020     7.9240 
  170.3832     0.3200     0.3150  2121.9600    64.0040     7.7810 
  170.6880     0.3249     0.3190  2113.8701    64.6120     7.7830 
  170.9928     0.3249     0.3220  2113.8799    60.3780     7.5000 
  171.2976     0.3249     0.3210  2113.8899    62.8030     7.0930 
  171.6024     0.3200     0.3200  2121.9900    64.6210     4.7940 
  171.9072     0.3077     0.3270  2142.2400    65.2290     5.4650 
  172.2120     0.2979     0.3270  2158.4399    65.2310     6.9690 
  172.5168     0.3151     0.3260  2130.1001    65.8400     7.2360 
  172.8216     0.3126     0.3270  2134.1599    67.6570     6.9740 
  173.1264     0.3065     0.3320  2144.2900    71.8970     6.9760 
  173.4312     0.3053     0.3360  2146.3201    75.5310     7.1090 
  173.7360     0.3016     0.3380  2152.3999    77.3490     6.4770 
  174.0408     0.2832     0.3420  2182.7700    80.9830     4.8060 
  174.3456     0.2758     0.3450  2194.9199    87.0390     3.3100 
  174.6504     0.2684     0.3510  2207.0701    91.2780     3.2490 
  174.9552     0.2537     0.3590  2231.3701    95.5180     3.3740 
  175.2600     0.2390     0.3680  2255.6699    96.7320     3.5030 
  175.5648     0.2218     0.3890  2284.0200    96.7330     3.2520 
  175.8696     0.2243     0.4090  2279.9700    96.7370     2.6490 
  176.1744     0.2304     0.4200  2269.8601    98.5560     2.2820 
  176.4792     0.2414     0.4180  2251.6499    99.1640     2.1580 
  176.7840     0.2561     0.4210  2227.3601   100.3760     2.1590 
  177.0888     0.2647     0.4230  2213.1899    99.7740     2.2010 
  177.3936     0.2684     0.4230  2207.1299    97.3560     2.2850 
  177.6984     0.2475     0.4180  2241.5500    93.7260     2.3730 
  178.0032     0.2684     0.4070  2207.1399    90.7030     2.6060 
  178.3080     0.2586     0.3730  2223.3401    90.1000     2.7570 
  178.6128     0.2659     0.3550  2211.2000    88.8920     3.2020 
  178.9176     0.2573     0.3420  2225.3799    87.0810     3.8610 
  179.2224     0.2438     0.3230  2247.6499    87.6880     4.0840 
  179.5272     0.2610     0.3140  2219.3201    87.6910     4.2410 
  179.8320     0.2561     0.3140  2227.4199    85.8770     4.7450 
  180.1368     0.2426     0.3060  2249.7000    82.2500     5.4090 
  180.4416     0.2414     0.3000  2251.7300    81.6460     4.9290 
  180.7464     0.2328     0.3040  2265.8999    86.4910     4.7500 
  181.0512     0.2328     0.3110  2265.9099    87.0990     4.6630 
  181.3560     0.2585     0.3150  2223.3999    85.2850     4.4110 
  181.6608     0.2524     0.3110  2233.5300    85.8940     4.6660 
  181.9656     0.2634     0.3120  2215.3201    85.2910     5.6260 
  182.2704     0.2671     0.3150  2209.2500    84.6880     6.6580 
  182.5752     0.2622     0.3150  2217.3601    85.9020     7.0440 
  182.8800     0.2561     0.3140  2227.4800    86.5100     6.4180 
  183.1848     0.2732     0.3090  2199.1499    85.9070     5.6330 
  183.4896     0.2806     0.2940  2187.0100    86.5150     4.3380 
  183.7944     0.2708     0.2850  2203.2100    89.5440     4.8540 
  184.0992     0.2634     0.2840  2215.3601    93.1780     5.6390 
  184.4040     0.2671     0.2850  2209.2900    93.1820     5.9650 
  184.7088     0.2389     0.2830  2255.8601    92.5780     6.3110 
  185.0136     0.2033     0.2810  2314.5701    89.5550     6.9300 
  185.3184     0.2057     0.2940  2310.5300    88.3470     7.7550 
  185.6232     0.1971     0.3120  2324.7100    92.5860     6.1990 
  185.9280     0.1910     0.3200  2334.8401    94.4050     4.7760 
  186.2328     0.1898     0.3200  2336.8601    94.4070     4.6880 
  186.5376     0.2008     0.3160  2318.6499    93.2000     4.9600 
  186.8424     0.2168     0.3110  2292.3401    92.5970     4.8700 
  187.1472     0.2266     0.3040  2276.1499    90.7850     3.8210 
  187.4520     0.2278     0.2960  2274.1299    87.7600     4.1190 
  187.7568     0.2204     0.2920  2286.2900    84.7370     5.3520 
  188.0616     0.2167     0.3150  2292.3701    83.5290     5.8770 
  188.3664     0.2032     0.3220  2314.6399    87.1650     5.2550 
  188.6712     0.1971     0.3270  2324.7700    88.9820     5.9910 
  188.9760     0.2216     0.3370  2284.2900    90.1950     6.4580 
  189.2808     0.2315     0.3490  2268.1001    91.4090     6.2230 
  189.5856     0.2130     0.3480  2298.4700    94.4380     3.8310 
  189.8904     0.2167     0.3350  2292.3999    96.2560     3.0630 
  190.1952     0.2069     0.3340  2308.6101    97.4690     3.4910 
  190.5000     0.2020     0.3460  2316.7100    88.9990     3.7630 
  190.8048     0.2106     0.3440  2302.5400    90.8170     3.4940 
  191.1096     0.2167     0.3380  2292.4299    90.8200     3.0100 
  191.4144     0.2253     0.3230  2278.2600    89.0070     3.4310 
  191.7192     0.2277     0.3000  2274.2200    85.9830     4.4580 
