~VERSION INFORMATION
 VERS.                 2.0:   CWLS LOG ASCII STANDARD -VERSION 2.0
 WRAP.                  NO:   ONE LINE PER DEPTH STEP
~WELL INFORMATION BLOCK
#MNEM.UNIT           DATA                    DESCRIPTION OF MNEMONIC
#---------    -------------------            -------------------------------
# Generated from Intellog Unique Number	CS_77_79/WELL/1025
WELL.         CWWE THORNBURY                 : Well_name    - WELL
LOC .         00/16-18-079-13W4/0            : Location     - LOCATION
UWI .         00/16-18-079-13W4/0            : Uwi          - UNIQUE WELL ID
ENTR.         JHS                            : Entered      - ENTERED BY
SRVC.         SCHLUMBERGER                   : Scn          - SERVICE COMPANY
STRT.M        250                            : top_depth    - START DEPTH
STOP.M        510                            : bot_depth    - STOP DEPTH
STEP.M        0.25                           : increment    - STEP LENGTH
 NULL. -999.2500:NULL Value
~CURVE INFORMATION BLOCK
#MNEM UNIT       ERCB CURVE CODE    CURVE DESCRIPTION
#-----------   ------------------   ----------------------------------
DEPT.M        00 001 00 00         : DEPTH        - DEPTH
DPHI.V/V      00 890 00 00         : PHID         - DENSITY POROSITY (LIMESTONE)
NPHI.V/V      00 330 00 00         : PHIN         - NEUTRON POROSITY (LIMESTONE)
GR  .API      00 310 00 00         : GR           - GAMMA RAY
ILD .OHMM     00 120 00 00         : RESD         - DEEP RESISTIVITY (DIL)
RHOB.KG/M3    00 350 00 00         : DENS         - BULK DENSITY
~PARAMETER INFORMATION
#MNEM.UNIT           DATA             DESCRIPTION OF MNEMONIC
#---------         -----------     ------------------------------
GL  .M        681.78               : gl           - GROUND LEVEL ELEVATION
EREF.M        684.88               : kb           - ELEVATION OF DEPTH REFERENCE
DATM.M        684.88               : datum        - DATUM ELEVATION
TDD .M        523                  : tdd          - TOTAL DEPTH DRILLER
RUN .         ONE                  : Run          - RUN NUMBER
ENG .         BILL                 : Engineer     - RECORDING ENGINEER
WIT .         JIM                  : Witness      - WITNESSED BY
MUD .         GEL                  : Mud_type     - MUD TYPE
MATR.         LIMESTONE            : Logunit      - NEUTRON MATRIX
TMAX.C        21                   : BHT          - MAXIMUM RECORDED TEMPERATURE
BHTD.M        523                  : BHTDEP       - MAXIMUM RECORDED TEMPERATURE
MATR.         1                    : LOGUNIT      - NEUTRON MATRIX
RMT .C        25                   : MDTP         - TEMPERATURE OF MUD
NEUT.         1                    : NEUTRON      - NEUTRON TYPE
RESI.         0                    : RESIST       - RESISTIVITY TYPE
RMC .OHMM     0.25                 : RMC          - RESISTIVITY OF MUD CAKE
RMF .OHMM     0.25                 : RMF          - RESISTIVITY OF MUD FILTRATE
SUFT.C        15                   : SUFT         - SURFACE TEMPERATURE
~A  DEPTH     PHID     PHIN       GR     RESD     DENS
# ...
  469.000    0.299    0.368   30.810 1652.040 2198.820
  469.250    0.314    0.378   28.940 1959.240 2173.550
  469.500    0.309    0.363   23.999 2237.920 2181.860
  469.750    0.302    0.352   27.660 2369.710 2194.380
  470.000    0.300    0.349   30.708 2463.130 2196.380
  470.250    0.304    0.365   27.600 2464.620 2190.020
  470.500    0.314    0.388   28.196 2466.840 2173.140
  470.750    0.321    0.394   30.629 2468.290 2160.500
  471.000    0.325    0.389   31.821 2469.920 2154.090
  471.250    0.326    0.374   31.183 2519.150 2151.930
  471.500    0.310    0.371   30.539 2520.810 2179.120
  471.750    0.306    0.395   30.511 2522.710 2187.430
  472.000    0.307    0.388   32.941 2572.470 2185.260
  472.250    0.328    0.374   34.767 2574.980 2149.510
  472.500    0.338    0.379   35.354 2576.960 2132.640
  472.750    0.333    0.393   32.869 2627.460 2140.960
  473.000    0.334    0.404   30.389 2629.730 2138.780
  473.250    0.334    0.409   30.356 2632.140 2138.690
  473.500    0.333    0.405   30.325 2633.010 2140.720
  473.750    0.335    0.397   30.915 2685.240 2136.450
  474.000    0.333    0.396   30.897 2687.270 2140.570
  474.250    0.324    0.392   31.481 2741.280 2155.160
  474.500    0.327    0.394   30.837 2742.540 2150.890
  474.750    0.338    0.399   30.198 2744.750 2131.910
  475.000    0.339    0.402   32.015 2798.740 2129.740
  475.250    0.342    0.407   32.611 2801.470 2125.460
  475.500    0.338    0.406   31.966 2803.370 2131.690
  475.750    0.330    0.395   30.703 2859.140 2146.270
  476.000    0.331    0.382   31.918 2860.240 2144.100
  476.250    0.333    0.374   33.121 2862.610 2139.830
  476.500    0.331    0.368   34.308 2919.020 2143.950
  476.750    0.327    0.374   34.294 2867.130 2150.160
  477.000    0.325    0.390   34.261 2815.020 2154.280
  477.250    0.327    0.402   34.236 2764.630 2150.000
  477.500    0.334    0.389   32.986 2715.230 2139.440
  477.750    0.334    0.391   31.114 2716.630 2139.360
  478.000    0.337    0.410   30.473 2618.120 2132.980
  478.250    0.344    0.414   31.064 2523.310 2122.410
  478.500    0.344    0.396   31.034 2431.630 2122.320
  478.750    0.339    0.388   29.774 2343.280 2130.620
  479.000    0.335    0.408   29.750 2215.800 2136.850
  479.250    0.338    0.410   30.959 2135.410 2132.580
  479.500    0.335    0.393   33.387 2057.820 2136.700
  479.750    0.330    0.387   34.587 1946.050 2144.990
  480.000    0.330    0.389   33.334 1874.970 2144.910
  480.250    0.330    0.399   30.239 1740.010 2144.850
  480.500    0.334    0.409   28.977 1584.460 2138.470
  480.750    0.337    0.425   30.789 1363.400 2134.200
  481.000    0.336    0.415   30.762 1173.120 2136.220
  481.250    0.333    0.393   31.355  732.411 2140.310
  481.500    0.333    0.381   32.563  512.090 2140.240
  481.750    0.322    0.401   36.831  440.677 2159.020
  482.000    0.312    0.408   39.269  416.718 2175.730
  482.250    0.297    0.393   39.241  365.437 2202.930
  482.500    0.282    0.371   34.915  302.809 2228.020
  482.750    0.275    0.359   29.966  255.672 2240.540
  483.000    0.287    0.380   29.942  215.888 2219.480
  483.250    0.283    0.378   32.373  182.335 2225.690
  483.500    0.281    0.369   39.115  156.898 2229.810
  483.750    0.304    0.369   53.834  137.573 2189.870
  484.000    0.301    0.356   62.416  105.703 2196.070
  484.250    0.290    0.359   69.146   73.898 2214.880
  484.500    0.272    0.377   75.271   44.431 2244.180
  484.750    0.226    0.364   86.925   34.788 2323.810
  485.000    0.222    0.358   85.663   28.827 2330.010
  485.250    0.241    0.360   81.336   25.764 2298.470
  485.500    0.231    0.351   77.009   23.020 2315.150
  485.750    0.226    0.347   71.448   19.438 2323.490
  486.000    0.225    0.376   66.511   14.935 2325.490
  486.250    0.220    0.367   80.620   11.262 2333.810
  486.500    0.216    0.357   84.896    9.332 2340.010
  486.750    0.231    0.362   81.178    8.340 2314.780
  487.000    0.246    0.370   82.382    7.887 2289.530
  487.250    0.228    0.364   92.809    7.891 2320.880
  487.500    0.225    0.354  106.304    8.358 2325.020
  487.750    0.214    0.342  117.337    8.686 2343.810
  488.000    0.196    0.339  122.230    8.858 2375.210
  488.250    0.154    0.359  125.278    8.699 2446.450
  488.500    0.139    0.380  127.707    8.870 2471.540
  488.750    0.119    0.390  124.612    9.574 2507.140
  489.000    0.089    0.362  114.747    9.947 2557.400
  489.250    0.089    0.336  113.494    9.955 2557.320
  489.500    0.127    0.330  123.910    9.777 2492.210
  489.750    0.130    0.341  126.961    9.600 2487.920
  490.000    0.113    0.364  128.783    9.790 2517.210
  490.250    0.118    0.392  130.596    9.798 2508.730
  490.500    0.136    0.377  132.419   10.378 2477.190
  490.750    0.157    0.367  128.696   10.583 2441.440
  491.000    0.167    0.372  122.528   11.208 2424.580
  491.250    0.171    0.363  116.971   11.429 2418.210
  491.500    0.183    0.355  115.100   11.435 2397.160
  491.750    0.166    0.347  124.294   11.444 2426.430
  492.000    0.157    0.346  132.259   11.238 2441.040
  492.250    0.159    0.356  137.762   10.832 2438.880
  492.500    0.171    0.366  137.733   10.837 2417.820
  492.750    0.155    0.387  114.969   10.645 2445.000
  493.000    0.171    0.404  104.493   10.258 2417.640
  493.250    0.183    0.388  126.594   10.073 2396.600
  493.500    0.137    0.381  138.860    9.892 2476.240
  493.750    0.124    0.386  142.523    9.898 2497.120
  494.000    0.136    0.414  136.350   10.289 2478.170
  494.250    0.158    0.440  130.178   10.490 2440.330
  494.500    0.174    0.429  135.066   10.902 2412.970
  494.750    0.158    0.420  131.964   11.329 2440.160
  495.000    0.153    0.425  124.563   11.558 2448.450
  495.250    0.159    0.402  116.549   11.349 2437.900
  495.500    0.167    0.363  109.147   11.357 2425.210
  495.750    0.167    0.332  109.736   11.151 2425.170
  496.000    0.156    0.325  117.697   11.159 2443.950
  496.250    0.148    0.330  121.361   11.168 2456.470
  496.500    0.162    0.343   96.130   11.388 2433.320
  496.750    0.217    0.362   78.896   11.614 2338.830
  497.000    0.207    0.302   75.179   11.622 2355.530
  497.250    0.169    0.285   72.079   10.992 2420.470
  497.500    0.155    0.281   66.522   10.392 2445.580
  497.750    0.183    0.298   68.341    9.644 2397.250
  498.000    0.189    0.313   78.147    9.472 2386.660
  498.250    0.173    0.286   84.265    9.477 2413.850
  498.500    0.157    0.280   83.011    9.484 2441.040
  498.750    0.156    0.289   77.448    9.493 2443.070
  499.000    0.159    0.298   73.127    9.148 2438.800
  499.250    0.172    0.307   68.181    8.814 2415.640
  499.500    0.187    0.289   74.917    8.655 2390.370
  499.750    0.191    0.289   87.799    8.342 2384.000
  500.000    0.181    0.350  101.910    8.039 2400.690
  500.250    0.169    0.374   85.903    8.044 2421.590
  500.500    0.164    0.350   68.046    8.050 2429.920
  500.750    0.176    0.336   79.084    8.210 2408.850
  501.000    0.184    0.334   90.739    8.062 2396.200
  501.250    0.157    0.449   95.015    7.917 2442.270
  501.500    0.106    0.467   86.383    7.630 2528.210
  501.750    0.117    0.456   91.890    8.390 2509.240
  502.000    0.162    0.451   80.186   11.145 2433.640
  502.250    0.207    0.488   53.725   13.725    0.000
  502.500    0.184    0.527   33.415   18.576    0.000
  502.750    0.044    0.547   18.639   29.242    0.000
  503.000    0.000    0.097   11.851   44.320    0.000
  503.250    0.001    0.086    9.973   64.699    0.000
  503.500    0.026    0.104   10.569   68.527    0.000
  503.750    0.054    0.153   15.455   64.791    0.000
  504.000    0.025    0.135   14.200   61.276    0.000
  504.250    0.003    0.123   12.333   60.178    0.000
  504.500    0.015    0.127   11.691   60.229    0.000
  504.750    0.031    0.135   14.123   60.253    0.000
  505.000    0.040    0.139   15.319   63.824    0.000
  505.250    0.020    0.143   15.297   68.869    0.000
