~VERSION INFORMATION
 VERS.                 2.0:   CWLS LOG ASCII STANDARD -VERSION 2.0
 WRAP.                  NO:   ONE LINE PER DEPTH STEP
~WELL INFORMATION BLOCK
#MNEM.UNIT           DATA                    DESCRIPTION OF MNEMONIC
#---------    -------------------            -------------------------------
# Generated from Intellog Unique Number	CN_94_101/WELL/3622
WELL.         TEXACO CANADA RESOURCES LTD.   : Well_name    - WELL
LOC .         00/11-12-096-18W4/0            : Location     - LOCATION
UWI .         00/11-12-096-18W400            : Uwi          - UNIQUE WELL ID
ENTR.         T                              : Entered      - ENTERED BY
SRVC.         SCHLUMBERGER                   : Scn          - SERVICE COMPANY
DATE.         04/22/92                       : Date         - LOG DATE
STRT.M        275                            : top_depth    - START DEPTH
STOP.M        450                            : bot_depth    - STOP DEPTH
STEP.M        0.25                           : increment    - STEP LENGTH
 NULL. -999.2500:NULL Value
~CURVE INFORMATION BLOCK
#MNEM UNIT       ERCB CURVE CODE    CURVE DESCRIPTION
#-----------   ------------------   ----------------------------------
DEPT.M        00 001 00 00         : DEPTH        - DEPTH
GR  .API      00 310 00 00         : GR           - GAMMA RAY
NPHI.V/V      00 330 00 00         : PHIN         - NEUTRON POROSITY (SANDSTONE)
DPHI.V/V      00 890 00 00         : PHID         - DENSITY POROSITY (SANDSTONE)
ILD .OHMM     00 120 00 00         : RESD         - DEEP RESISTIVITY (DIL)
~PARAMETER INFORMATION
#MNEM.UNIT           DATA             DESCRIPTION OF MNEMONIC
#---------         -----------     ------------------------------
GL  .M        0                    : gl           - GROUND LEVEL ELEVATION
EREF.M        725.6                : kb           - ELEVATION OF DEPTH REFERENCE
DATM.M        725.6                : datum        - DATUM ELEVATION
TDD .M        450                  : tdd          - TOTAL DEPTH DRILLER
RUN .         ONE                  : Run          - RUN NUMBER
ENG .         BILL                 : Engineer     - RECORDING ENGINEER
WIT .         JIM                  : Witness      - WITNESSED BY
MUD .         GEL                  : Mud_type     - MUD TYPE
MATR.         SANDSTONE            : Logunit      - NEUTRON MATRIX
TMAX.C        6                    : BHT          - MAXIMUM RECORDED TEMPERATURE
BHTD.M        450                  : BHTDEP       - MAXIMUM RECORDED TEMPERATURE
RMT .C        6                    : MDTP         - TEMPERATURE OF MUD
MUDD.KG/M     1050                 : MWT          - MUD DENSITY
NEUT.         1                    : NEUTRON      - NEUTRON TYPE
RESI.         0                    : RESIST       - RESISTIVITY TYPE
RM  .OHMM     17                   : RM           - RESISTIVITY OF MUD
RMC .OHMM     17                   : RMC          - RESISTIVITY OF MUD CAKE
RMF .OHMM     17                   : RMF          - RESISTIVITY OF MUD FILTRATE
SUFT.C        4                    : SUFT         - SURFACE TEMPERATURE
~A  DEPTH       GR     PHIN     PHID     RESD
  275.000   23.564    0.565    0.409   32.171
  275.250   22.942    0.565    0.409   31.577
  275.500   21.701    0.558    0.406   30.994
  275.750   21.080    0.498    0.398   30.422
  276.000   21.079    0.480    0.388   29.858
  276.250   22.318    0.476    0.378   28.762
  276.500   24.178    0.473    0.372   28.231
  276.750   28.517    0.473    0.373   28.769
  277.000   30.997    0.477    0.378   29.871
  277.250   34.096    0.479    0.382   31.605
  277.500   39.056    0.484    0.372   32.818
  277.750   46.496    0.495    0.346   32.821
  278.000   52.076    0.508    0.340   31.616
  278.250   55.175    0.514    0.342   28.788
  278.500   56.415    0.522    0.345   25.726
  278.750   60.134    0.530    0.350   23.868
  279.000   66.954    0.541    0.350   21.329
  279.250   73.775    0.551    0.347   19.789
  279.500   83.075    0.558    0.326   17.034
  279.750   97.336    0.562    0.296   14.938
  280.000   98.575    0.561    0.266   11.489
  280.250   99.814    0.562    0.255    9.705
  280.500   99.813    0.568    0.254    8.198
  280.750   97.952    0.574    0.256    7.056
  281.000   94.851    0.569    0.257    6.073
  281.250   92.369    0.558    0.255    5.326
  281.500   91.128    0.552    0.249    4.942
  281.750   92.367    0.553    0.246    4.672
  282.000   93.606    0.563    0.245    4.673
  282.250   94.846    0.568    0.243    4.761
  282.500   95.464    0.575    0.243    4.944
  282.750   95.464    0.575    0.244    5.038
  283.000   93.603    0.574    0.245    5.432
  283.250   91.121    0.559    0.248    5.640
  283.500   86.160    0.541    0.249    6.080
  283.750   82.438    0.520    0.253    6.081
  284.000   80.577    0.505    0.254    6.081
  284.250   81.816    0.500    0.256    6.082
  284.500   83.055    0.504    0.257    5.970
  284.750   83.674    0.506    0.256    6.199
  285.000   79.333    0.513    0.253    6.809
  285.250   74.371    0.547    0.238    7.621
  285.500   71.890    0.567    0.217    7.914
  285.750   81.190    0.511    0.175    8.217
  286.000   89.250    0.537    0.208    8.065
  286.250   89.869    0.558    0.235    7.769
  286.500   89.868    0.573    0.245    7.770
  286.750   89.868    0.582    0.251    7.485
  287.000   90.487    0.587    0.251    6.689
  287.250   91.106    0.588    0.251    6.443
  287.500   90.485    0.587    0.253    5.867
  287.750   87.383    0.584    0.258    5.243
  288.000   83.661    0.592    0.261    5.146
  288.250   82.420    0.600    0.272    5.051
  288.500   81.180    0.597    0.280    4.775
  288.750   79.938    0.580    0.287    4.514
  289.000   78.697    0.562    0.293    4.430
  289.250   78.696    0.547    0.297    4.188
  289.500   79.315    0.535    0.279    4.035
  289.750   81.174    0.540    0.249    3.960
  290.000   83.654    0.544    0.230    4.350
  290.250   85.513    0.536    0.242    5.449
  290.500   86.132    0.529    0.266    6.332
  290.750   84.891    0.523    0.249    6.827
  291.000   82.410    0.530    0.223    7.088
  291.250   81.789    0.550    0.237    7.224
  291.500   82.408    0.569    0.256    7.090
  291.750   83.027    0.583    0.279    6.703
  292.000   82.406    0.585    0.282    6.103
  292.250   80.544    0.583    0.272    5.353
  292.500   78.683    0.581    0.260    5.156
  292.750   79.302    0.578    0.261    4.875
  293.000   79.922    0.573    0.266    4.608
  293.250   83.021    0.536    0.275    4.609
  293.500   84.260    0.551    0.279    4.786
  293.750   83.639    0.569    0.280    5.063
  294.000   82.398    0.574    0.277    5.257
  294.250   80.537    0.567    0.269    5.459
  294.500   77.435    0.535    0.263    5.459
  294.750   75.574    0.540    0.258    5.359
  295.000   75.573    0.570    0.245    5.162
  295.250   78.052    0.562    0.229    5.066
  295.500   80.532    0.523    0.235    4.880
  295.750   83.011    0.514    0.247    4.881
  296.000   86.731    0.526    0.275    5.567
  296.250   87.970    0.545    0.287    6.001
  296.500   86.109    0.565    0.282    6.592
  296.750   85.488    0.561    0.274    6.470
  297.000   81.766    0.549    0.270    6.003
  297.250   80.525    0.550    0.270    5.467
  297.500   79.904    0.550    0.270    5.265
  297.750   78.663    0.545    0.271    4.978
  298.000   79.902    0.544    0.271    4.706
  298.250   82.382    0.563    0.274    4.449
  298.500   84.241    0.572    0.279    4.367
  298.750   84.240    0.568    0.289    4.286
  299.000   83.619    0.566    0.296    4.450
  299.250   81.757    0.566    0.295    4.451
  299.500   80.516    0.568    0.293    4.369
  299.750   79.275    0.570    0.289    4.208
  300.000   78.654    0.571    0.287    4.130
  300.250   76.793    0.567    0.289    3.979
  300.500   76.792    0.565    0.273    4.131
  300.750   75.551    0.570    0.259    4.538
  301.000   74.930    0.576    0.260    4.892
  301.250   74.929    0.581    0.268    5.176
  301.500   75.548    0.583    0.271    5.477
  301.750   74.927    0.582    0.281    5.794
  302.000   73.066    0.578    0.295    5.905
  302.250   68.103    0.572    0.307    5.796
  302.500   68.103    0.567    0.313    5.583
  302.750   67.482    0.560    0.303    5.278
  303.000   61.900    0.551    0.286    5.084
  303.250   56.318    0.544    0.255    5.085
  303.500   51.976    0.536    0.239    5.380
  303.750   48.255    0.486    0.205    6.021
  304.000   42.673    0.443    0.185    6.739
  304.250   38.951    0.420    0.149    7.832
  304.500   39.571    0.430    0.201    9.628
  304.750   42.670    0.450    0.257   12.289
  305.000   49.490    0.470    0.278   15.685
  305.250   56.310    0.487    0.294   19.649
  305.500   59.410    0.502    0.298   21.584
  305.750   58.169    0.507    0.228   21.995
  306.000   56.307    0.482    0.180   21.588
  306.250   56.306    0.493    0.149   20.030
  306.500   56.305    0.502    0.226   17.900
  306.750   56.304    0.502    0.340   16.607
  307.000   56.303    0.506    0.349   16.300
  307.250   58.783    0.509    0.345   14.842
  307.500   60.022    0.518    0.339   13.515
  307.750   60.021    0.519    0.331   13.265
  308.000   59.400    0.513    0.313   13.020
  308.250   60.019    0.506    0.308   12.779
  308.500   61.258    0.501    0.303   11.636
  308.750   63.738    0.499    0.308   10.796
  309.000   66.217    0.506    0.313   10.797
  309.250   68.696    0.511    0.308   10.799
  309.500   71.176    0.514    0.311   10.799
  309.750   73.035    0.536    0.311   10.210
  310.000   75.514    0.552    0.306    8.788
  310.250   77.374    0.567    0.301    7.423
  310.500   75.513    0.576    0.300    6.887
  310.750   71.171    0.572    0.295    5.928
  311.000   62.489    0.566    0.297    5.298
  311.250   53.186    0.554    0.308    4.915
  311.500   47.605    0.527    0.322    4.647
  311.750   45.123    0.504    0.333    4.825
  312.000   50.703    0.495    0.342    5.010
  312.250   60.624    0.491    0.338    5.607
  312.500   68.684    0.498    0.326    6.276
  312.750   74.884    0.519    0.307    7.025
  313.000   78.603    0.539    0.286    7.573
  313.250   81.083    0.553    0.276    7.863
  313.500   82.942    0.570    0.281    7.575
  313.750   83.561    0.582    0.294    7.161
  314.000   85.420    0.582    0.296    6.520
  314.250   87.280    0.580    0.288    5.827
  314.500   89.759    0.577    0.278    5.110
  314.750   90.378    0.570    0.281    4.741
  315.000   87.277    0.564    0.274    4.482
  315.250   85.416    0.559    0.263    4.318
  315.500   84.794    0.556    0.249    4.400
  315.750   85.413    0.554    0.238    4.744
  316.000   86.653    0.550    0.225    5.019
  316.250   87.892    0.545    0.225    5.310
  316.500   88.511    0.550    0.243    5.411
  316.750   88.510    0.565    0.285    5.725
  317.000   87.889    0.577    0.284    5.834
  317.250   86.648    0.587    0.278    5.835
  317.500   84.786    0.595    0.283    5.946
  317.750   82.925    0.591    0.294    5.947
  318.000   82.924    0.575    0.301    5.837
  318.250   84.164    0.551    0.306    5.837
