~VERSION INFORMATION
 VERS.                 2.0:   CWLS LOG ASCII STANDARD -VERSION 2.0
 WRAP.                  NO:   ONE LINE PER DEPTH STEP
~WELL INFORMATION BLOCK
#MNEM.UNIT           DATA                    DESCRIPTION OF MNEMONIC
#---------    -------------------            -------------------------------
# Generated from Intellog Unique Number	CS_73_76/WELL/829
WELL.         BRASCAN RESOURCES LIMITED      : Well_name    - WELL
LOC .         00/10-22-073-18W4/0            : Location     - LOCATION
UWI .         00/10-22-073-18W4/0            : Uwi          - UNIQUE WELL ID
ENTR.         SP                             : Entered      - ENTERED BY
SRVC.         SCHLUMBERGER                   : Scn          - SERVICE COMPANY
STRT.M        243.84                         : top_depth    - START DEPTH
STOP.M        438.09                         : bot_depth    - STOP DEPTH
STEP.M        0.25                           : increment    - STEP LENGTH
 NULL. -999.2500:NULL Value
~CURVE INFORMATION BLOCK
#MNEM UNIT       ERCB CURVE CODE    CURVE DESCRIPTION
#-----------   ------------------   ----------------------------------
DEPT.M        00 001 00 00         : DEPTH        - DEPTH
GR  .API      00 310 00 00         : GR           - GAMMA RAY
DPHI.V/V      00 890 00 00         : PHID         - DENSITY POROSITY (SANDSTONE)
NPHI.V/V      00 330 00 00         : PHIN         - NEUTRON POROSITY (SANDSTONE)
ILD .OHMM     00 120 00 00         : RESD         - DEEP RESISTIVITY (DIL)
~PARAMETER INFORMATION
#MNEM.UNIT           DATA             DESCRIPTION OF MNEMONIC
#---------         -----------     ------------------------------
GL  .M        574.243              : gl           - GROUND LEVEL ELEVATION
EREF.M        577.596              : kb           - ELEVATION OF DEPTH REFERENCE
DATM.M        574.243              : datum        - DATUM ELEVATION
TDD .M        439.826              : tdd          - TOTAL DEPTH DRILLER
RUN .         ONE                  : Run          - RUN NUMBER
ENG .         BILL                 : Engineer     - RECORDING ENGINEER
WIT .         JIM                  : Witness      - WITNESSED BY
MUD .         GEL                  : Mud_type     - MUD TYPE
MATR.         SANDSTONE            : Logunit      - NEUTRON MATRIX
TMAX.C        15.5556              : BHT          - MAXIMUM RECORDED TEMPERATURE
BHTD.M        439.826              : BHTDEP       - MAXIMUM RECORDED TEMPERATURE
MATR.         1                    : LOGUNIT      - NEUTRON MATRIX
RMT .C        25                   : MDTP         - TEMPERATURE OF MUD
NEUT.         1                    : NEUTRON      - NEUTRON TYPE
RESI.         0                    : RESIST       - RESISTIVITY TYPE
RMC .OHMM     0.25                 : RMC          - RESISTIVITY OF MUD CAKE
RMF .OHMM     0.25                 : RMF          - RESISTIVITY OF MUD FILTRATE
SUFT.C        15                   : SUFT         - SURFACE TEMPERATURE
~A  DEPTH       GR     PHID     PHIN     RESD
# ...
  374.340   84.396    0.266    0.511    4.604
  374.590   78.586    0.286    0.525    4.539
  374.840   74.717    0.306    0.529    4.538
  375.090   70.429    0.318    0.519    4.528
  375.340   66.935    0.331    0.539    4.458
  375.590   63.788    0.341    0.547    4.497
  375.840   63.078    0.332    0.479    4.541
  376.090   65.375    0.327    0.470    4.551
  376.340   63.516    0.324    0.473    4.453
  376.590   60.578    0.327    0.494    4.461
  376.840   62.705    0.332    0.507    4.405
  377.090   62.506    0.338    0.510    4.384
  377.340   60.662    0.337    0.508    4.381
  377.590   60.022    0.324    0.507    4.380
  377.840   60.126    0.315    0.505    4.366
  378.090   62.250    0.315    0.505    4.301
  378.340   65.320    0.303    0.517    4.303
  378.590   66.762    0.293    0.529    4.304
  378.840   65.728    0.286    0.521    4.304
  379.090   65.544    0.285    0.517    4.305
  379.340   66.223    0.289    0.548    4.306
  379.590   67.188    0.306    0.556    4.247
  379.840   67.934    0.314    0.547    4.229
  380.090   66.225    0.314    0.522    4.228
  380.340   64.516    0.319    0.508    4.279
  380.590   63.462    0.319    0.515    4.300
  380.840   66.153    0.296    0.523    4.378
  381.090   67.894    0.274    0.490    4.504
  381.340   68.007    0.235    0.444    4.751
  381.590   67.087    0.179    0.386    5.127
  381.840   64.184    0.163    0.320    5.454
  382.090   62.785    0.192    0.348    5.796
  382.340   62.093    0.205    0.381    6.061
  382.590   57.698    0.217    0.406    6.413
  382.840   56.246    0.194    0.335    6.806
  383.090   57.384    0.189    0.289    6.914
  383.340   61.425    0.221    0.517    7.073
  383.590   65.836    0.284    0.533    6.811
  383.840   66.572    0.309    0.523    6.170
  384.090   65.870    0.315    0.508    5.668
  384.340   65.920    0.309    0.523    5.104
  384.590   67.131    0.311    0.529    4.799
  384.840   69.071    0.313    0.502    4.622
  385.090   68.049    0.313    0.486    4.551
  385.340   66.214    0.312    0.492    4.554
  385.590   66.699    0.308    0.484    4.555
  385.840   67.310    0.302    0.478    4.555
  386.090   66.387    0.298    0.468    4.556
  386.340   66.082    0.303    0.478    4.556
  386.590   65.479    0.301    0.482    4.500
  386.840   65.662    0.301    0.483    4.476
  387.090   66.663    0.297    0.505    4.474
  387.340   69.354    0.296    0.540    4.475
  387.590   70.483    0.304    0.564    4.475
  387.840   71.102    0.305    0.586    4.475
  388.090   68.510    0.301    0.568    4.475
  388.340   67.449    0.296    0.550    4.475
  388.590   68.537    0.289    0.531    4.484
  388.840   69.778    0.288    0.519    4.387
  389.090   71.144    0.298    0.509    4.396
  389.340   73.174    0.299    0.515    4.402
  389.590   77.474    0.295    0.516    4.283
  389.840   80.610    0.286    0.509    4.240
  390.090   85.445    0.272    0.508    4.115
  390.340   89.944    0.246    0.519    3.995
  390.590   93.717    0.220    0.553    3.879
  390.840   96.735    0.224    0.562    3.766
  391.090   99.008    0.225    0.562    3.663
  391.340  101.046    0.219    0.561    3.615
  391.590  102.028    0.219    0.560    3.530
  391.840  103.044    0.221    0.557    3.535
  392.090  104.624    0.227    0.558    3.535
  392.340  105.495    0.228    0.556    3.530
  392.590  104.161    0.221    0.545    3.601
  392.840  101.160    0.216    0.576    3.640
  393.090  100.192    0.220    0.588    3.755
  393.340  100.653    0.227    0.573    3.869
  393.590   99.650    0.232    0.559    3.945
  393.840   96.998    0.235    0.553    4.040
  394.090   93.162    0.227    0.553    4.089
  394.340   89.031    0.221    0.568    4.176
  394.590   86.549    0.216    0.546    4.168
  394.840   89.794    0.213    0.543    4.175
  395.090   92.420    0.211    0.535    4.084
  395.340   94.337    0.207    0.513    4.090
  395.590   95.429    0.203    0.510    4.016
  395.840   95.876    0.187    0.518    4.025
  396.090   93.117    0.179    0.542    3.949
  396.340   93.108    0.173    0.517    3.948
  396.590   95.865    0.171    0.513    3.933
  396.840   98.348    0.181    0.518    3.877
  397.090  101.018    0.191    0.527    3.876
  397.340  102.894    0.192    0.543    3.868
  397.590  103.941    0.196    0.550    3.806
  397.840  103.317    0.200    0.524    3.810
  398.090  103.414    0.207    0.511    3.815
  398.340  100.211    0.211    0.495    3.868
  398.590   95.217    0.216    0.476    4.029
  398.840   91.358    0.218    0.500    4.177
  399.090   80.447    0.220    0.513    4.295
  399.340   77.069    0.223    0.523    4.552
  399.590   74.288    0.231    0.518    4.656
  399.840   72.660    0.235    0.512    4.799
  400.090   71.785    0.225    0.504    4.954
  400.340   72.943    0.214    0.415    5.268
  400.590   73.746    0.172    0.353    5.622
  400.840   73.756    0.113    0.347    6.282
  401.090   72.862    0.105    0.354    6.732
  401.340   71.265    0.113    0.373    7.486
  401.590   75.846    0.105    0.327    7.920
  401.840   82.302    0.097    0.350    8.149
  402.090   85.581    0.111    0.393    8.351
  402.340   87.579    0.124    0.445    8.503
  402.590   90.567    0.136    0.414    8.414
  402.840   95.500    0.131    0.407    8.169
  403.090   98.888    0.144    0.467    7.785
  403.340   98.023    0.155    0.493    7.490
  403.590   96.602    0.172    0.463    7.062
  403.840   97.174    0.182    0.448    6.750
  404.090   97.030    0.184    0.456    6.527
  404.340   96.896    0.189    0.463    6.465
  404.590  100.004    0.182    0.449    6.343
  404.840  102.396    0.173    0.449    6.534
  405.090  103.253    0.168    0.459    6.597
  405.340   97.953    0.168    0.464    6.728
  405.590   94.959    0.163    0.463    6.755
  405.840   93.223    0.160    0.461    6.838
  406.090   92.875    0.161    0.466    6.992
  406.340   92.663    0.166    0.466    6.835
  406.590   92.718    0.170    0.461    6.737
  406.840   92.305    0.175    0.476    6.586
  407.090   93.412    0.180    0.507    6.582
  407.340   94.345    0.183    0.514    6.474
  407.590   95.843    0.183    0.490    6.479
  407.840   95.743    0.178    0.475    6.480
  408.090   96.842    0.176    0.467    6.477
  408.340  101.031    0.178    0.464    6.441
  408.590  104.779    0.179    0.470    6.364
  408.840  107.171    0.178    0.467    6.364
  409.090  107.314    0.176    0.466    6.365
  409.340  102.632    0.170    0.450    6.365
  409.590   99.537    0.160    0.443    6.367
  409.840   98.992    0.152    0.450    6.372
  410.090  100.473    0.153    0.455    6.264
  410.340  101.896    0.159    0.439    6.198
  410.590  103.212    0.160    0.445    6.130
  410.840  105.627    0.173    0.446    6.036
  411.090  106.931    0.188    0.443    5.949
  411.340  107.980    0.186    0.464    6.027
  411.590  108.343    0.178    0.462    5.839
  411.840  109.229    0.179    0.451    5.825
  412.090  108.687    0.189    0.457    5.713
  412.340  103.056    0.190    0.468    5.699
  412.590   99.952    0.188    0.473    5.805
  412.840   98.520    0.184    0.450    5.704
  413.090   99.476    0.180    0.434    5.556
  413.340  100.467    0.190    0.414    5.144
  413.590  100.992    0.199    0.416    4.335
  413.840  101.176    0.196    0.449    3.714
  414.090   98.406    0.189    0.467    3.100
  414.340   97.712    0.197    0.494    2.782
  414.590  100.487    0.202    0.528    2.566
  414.840  100.451    0.207    0.560    2.471
  415.090  100.379    0.216    0.584    2.444
  415.340  101.974    0.223    0.598    2.357
  415.590  105.680    0.228    0.597    2.297
  415.840  108.798    0.215    0.596    2.285
  416.090  108.922    0.196    0.571    2.449
  416.340  105.402    0.178    0.576    2.674
  416.590   97.785    0.158    0.582    3.103
  416.840   92.470    0.140    0.440    3.604
  417.090   89.389    0.127    0.431    4.194
  417.340   90.586    0.125    0.432    4.548
  417.590   94.345    0.136    0.463    4.773
