~VERSION INFORMATION
 VERS.                 2.0:   CWLS LOG ASCII STANDARD -VERSION 2.0
 WRAP.                  NO:   ONE LINE PER DEPTH STEP
~WELL INFORMATION BLOCK
#MNEM.UNIT           DATA                    DESCRIPTION OF MNEMONIC
#---------    -------------------            -------------------------------
# Generated from Intellog Unique Number	CC_80_83/WELL/2405
NULL.         -999.25                        : NULL_VALUE
WELL.         HOMESTEAD ET AL COWPAR         : WELL_NAME
LOC .         11-23-080-04W4                 : Location     - LOCATION          
UWI .         00/11-23-080-04W400            : Uwi          - UNIQUE WELL ID    
ENTR.         DW                             : Entered      - ENTERED BY        
SRVC.         SCHLUMBERGER                   : Scn          - SERVICE COMPANY   
DATE.         27 JAN 74                      : Date         - LOG DATE
STRT.M        85.344                         : top_depth    - START DEPTH       
STOP.M        347.473                        : bot_depth    - STOP DEPTH        
STEP.M        0.3048                         : increment    - STEP LENGTH       
~CURVE INFORMATION BLOCK
#MNEM UNIT       ERCB CURVE CODE    CURVE DESCRIPTION
#-----------   ------------------   ----------------------------------
DEPT.M        00 001 00 00         : DEPTH        - DEPTH                       
DPHI.V/V      00 890 00 00         : PHID         - DENSITY POROSITY (LIMESTONE)
NPHI.V/V      00 330 00 00         : PHIN         - NEUTRON POROSITY (LIMESTONE)
GR  .API      00 310 00 00         : GR           - GAMMA RAY                   
ILD .OHMM     00 120 00 00         : RESD         - DEEP RESISTIVITY (DIL)      
~PARAMETER INFORMATION       
#MNEM.UNIT           DATA             DESCRIPTION OF MNEMONIC
#---------         -----------     ------------------------------
GL  .M        513.588              : gl           - GROUND LEVEL ELEVATION      
EREF.M        517.246              : kb           - ELEVATION OF DEPTH REFERENCE
DATM.M        517.246              : datum        - DATUM ELEVATION             
TDD .M        361.493              : tdd          - TOTAL DEPTH DRILLER         
RUN .         ONE                  : Run          - RUN NUMBER                  
ENG .         BILL                 : Engineer     - RECORDING ENGINEER          
WIT .         JIM                  : Witness      - WITNESSED BY                
MUD .         GEL                  : Mud_type     - MUD TYPE                    
MATR.         LIMESTONE            : Logunit      - NEUTRON MATRIX              
TMAX.C        22.2222              : BHT          - MAXIMUM RECORDED TEMPERATURE
BHTD.M        361.493              : BHTDEP       - MAXIMUM RECORDED TEMPERATURE
MATR.         1                    : LOGUNIT      - NEUTRON MATRIX              
RMT .C        25                   : MDTP         - TEMPERATURE OF MUD          
NEUT.         1                    : NEUTRON      - NEUTRON TYPE                
RESI.         0                    : RESIST       - RESISTIVITY TYPE            
RMC .OHMM     0.25                 : RMC          - RESISTIVITY OF MUD CAKE     
RMF .OHMM     0.25                 : RMF          - RESISTIVITY OF MUD FILTRATE 
SUFT.C        15                   : SUFT         - SURFACE TEMPERATURE         
~A  DEPTH     PHID     PHIN       GR     RESD
# ...
  138.379    0.336    0.407   63.572   20.816
  138.684    0.320    0.403   73.904   20.427
  138.989    0.271    0.411   78.766   20.044
  139.294    0.288    0.410   84.846   18.945
  139.598    0.300    0.406   85.458   17.906
  139.903    0.303    0.408   85.466   17.243
  140.208    0.309    0.418   86.077   17.238
  140.513    0.306    0.424   87.908   17.232
  140.818    0.285    0.411   89.125   17.552
  141.122    0.276    0.407   94.597   17.874
  141.427    0.277    0.430   98.855   18.206
  141.732    0.296    0.426   98.253   19.244
  142.037    0.303    0.423   95.222   19.602
  142.342    0.282    0.419   92.191   19.593
  142.646    0.299    0.419   87.338   20.332
  142.951    0.325    0.417   60.624   20.710
  143.256    0.306    0.407   60.023   22.723
  143.561    0.316    0.400   67.316   23.581
  143.866    0.302    0.420   74.610   24.471
  144.170    0.305    0.429   72.186   24.459
  144.475    0.326    0.413   69.155   24.453
  144.780    0.308    0.397   72.805   23.112
  145.085    0.247    0.396   81.312   22.257
  145.390    0.305    0.403   95.286   20.649
  145.694    0.254    0.409  108.045   19.158
  145.999    0.271    0.421  118.983   16.191
  146.304    0.276    0.417  119.596   13.941
  146.609    0.272    0.412  117.779   12.002
  146.914    0.269    0.415  120.214   11.557
  147.218    0.263    0.435  124.471   11.553
  147.523    0.269    0.446  126.906   11.767
  147.828    0.247    0.455  126.912   11.764
  148.133    0.220    0.458  123.881   11.979
  148.437    0.224    0.447  115.385   11.977
  148.742    0.271    0.447  116.605   12.425
  149.047    0.293    0.458  123.899   12.895
  149.352    0.314    0.444  117.225   13.381
  149.657    0.317    0.453  114.802   13.885
  149.961    0.310    0.448  112.986   14.953
  150.266    0.290    0.421  109.954   15.230
  150.571    0.293    0.403  108.139   15.227
  150.876    0.290    0.410  117.255   14.393
  151.181    0.263    0.427  128.191   12.625
  151.485    0.240    0.454  140.951   11.496
  151.790    0.233    0.458  137.920   11.070
  152.095    0.253    0.463  133.070   11.067
  152.400    0.261    0.470  133.073   10.857
  152.705    0.270    0.476  130.042   11.058
  153.009    0.279    0.465  127.620   11.264
  153.314    0.270    0.459  123.981   12.359
  153.619    0.290    0.448  117.914   13.068
  153.924    0.310    0.438  110.025   14.340
  154.229    0.296    0.435  115.498   15.736
  154.533    0.294    0.431  111.252   16.331
  154.838    0.295    0.429  103.970   16.630
  155.143    0.284    0.435  100.940   16.320
  155.448    0.293    0.432  105.197   16.011
  155.753    0.294    0.428  116.741   15.132
  156.057    0.235    0.476  124.034   14.574
  156.362    0.241    0.489  128.292   14.301
  156.667    0.255    0.482  123.439   13.770
  156.972    0.260    0.481  103.403   13.511
  157.277    0.295    0.477   87.620   13.761
  157.581    0.361    0.455   74.266   14.017
  157.886    0.381    0.433   70.021   15.094
  158.191    0.391    0.450   70.634   15.959
  158.496    0.359    0.437   76.712   16.562
  158.800    0.358    0.424   89.471   17.507
  159.105    0.358    0.422   90.692   17.503
  159.410    0.344    0.428   89.484   17.172
  159.715    0.330    0.434   94.347   16.539
  160.020    0.249    0.459  110.142   14.780
  160.324    0.253    0.494  118.044   12.966
  160.629    0.308    0.485   89.507    9.981
  160.934    0.317    0.474   78.581    9.976
  161.239    0.314    0.467   76.765   10.549
  161.544    0.347    0.467   81.023   11.795
  161.848    0.325    0.462   91.959   12.469
  162.153    0.311    0.445  102.289   14.744
  162.458    0.318    0.462  100.474   14.464
  162.763    0.331    0.446   99.265   14.193
  163.068    0.318    0.442  100.485   14.727
  163.372    0.293    0.437  108.386   15.284
  163.677    0.280    0.421  110.214   15.858
  163.982    0.267    0.414  104.147   16.149
  164.287    0.248    0.433   96.865   15.847
  164.592    0.248    0.508   91.405   14.977
  164.896    0.228    0.519   85.338   14.696
  165.201    0.216    0.502   82.914   14.150
  165.506    0.261    0.474   83.529   13.885
  165.811    0.288    0.428   84.143   14.142
  166.116    0.269    0.422   82.933   14.139
  166.420    0.257    0.412   81.117   14.133
  166.725    0.283    0.409   79.300   14.940
  167.030    0.271    0.411   76.876   15.505
  167.335    0.301    0.411   78.098   16.697
  167.640    0.271    0.411   79.924   17.328
  167.944    0.239    0.406   75.680   17.979
  168.249    0.214    0.349   67.184   18.314
  168.554    0.272    0.391   69.620   18.306
  168.859    0.301    0.411   70.232   17.627
  169.163    0.312    0.425   73.881   17.297
  169.468    0.330    0.437   80.567   16.973
  169.773    0.335    0.433   79.359   16.042
  170.078    0.332    0.428   76.935   15.740
  170.383    0.331    0.427   75.727   15.441
  170.687    0.336    0.434   73.911   15.438
  170.992    0.342    0.438   72.095   15.723
  171.297    0.330    0.439   72.102   16.314
  171.602    0.317    0.441   73.929   16.616
  171.907    0.311    0.439   74.543   16.612
  172.211    0.306    0.426   74.548   15.698
  172.516    0.301    0.437   73.947   15.405
  172.821    0.320    0.443   76.381   14.288
  173.126    0.335    0.437   82.459   14.019
  173.431    0.350    0.430   88.538   13.754
  173.735    0.359    0.435   90.366   13.246
  174.040    0.353    0.449   92.194   13.243
  174.345    0.343    0.445   94.629   13.239
  174.650    0.330    0.441   96.458   13.996
  174.955    0.342    0.450   95.857   14.256
  175.259    0.349    0.460   94.646   14.248
  175.564    0.343    0.461   92.831   13.982
  175.869    0.343    0.461   87.978   13.720
  176.174    0.320    0.446   78.875   13.212
  176.479    0.246    0.429   81.311   13.707
  176.783    0.251    0.455   83.138   14.225
  177.088    0.290    0.463   83.143   15.320
  177.393    0.310    0.462   80.114   15.607
  177.698    0.242    0.435   78.297   16.810
  178.003    0.204    0.362   78.909   17.772
  178.307    0.278    0.410   87.418   16.487
  178.612    0.303    0.479  100.177   11.137
  178.917    0.310    0.470   95.931    9.412
  179.222    0.314    0.458   88.044    9.407
  179.527    0.321    0.455   88.049    9.581
  179.831    0.326    0.455   92.913    9.943
  180.136    0.313    0.452  102.028   10.316
  180.441    0.293    0.465  109.929   10.314
  180.746    0.281    0.471  111.756    9.392
  181.050    0.270    0.476  108.120    8.086
  181.355    0.264    0.486  108.732    7.362
  181.660    0.259    0.492  111.169    7.091
  181.965    0.279    0.499  111.174    6.702
  182.270    0.279    0.504  111.178    6.576
  182.574    0.271    0.509  109.970    6.451
  182.879    0.261    0.479  109.977    6.449
  183.184    0.250    0.457  111.197    6.448
  183.489    0.246    0.463  117.278    6.444
  183.794    0.258    0.479  117.888    6.564
  184.098    0.247    0.503  113.644    6.685
  184.403    0.235    0.494  112.435    6.808
  184.708    0.265    0.476  113.049    6.807
  185.013    0.274    0.459  113.054    7.062
  185.318    0.264    0.452  111.237    7.607
  185.622    0.246    0.465  110.635    8.043
  185.927    0.245    0.468  112.465    8.503
  186.232    0.259    0.460  113.077    8.823
  186.537    0.269    0.457  113.691    8.656
  186.842    0.248    0.445  114.302    8.654
  187.146    0.257    0.443  116.132    8.180
  187.451    0.252    0.490  118.565    7.589
  187.756    0.234    0.527  129.502    6.413
  188.061    0.239    0.537  133.153    4.756
  188.366    0.249    0.513  126.478    3.730
  188.670    0.266    0.506  116.768    3.660
  188.975    0.242    0.519  120.417    3.726
  189.280    0.249    0.540  121.637    3.940
  189.585    0.257    0.545  118.608    4.089
  189.890    0.265    0.551  118.614    4.571
  190.194    0.247    0.561  121.655    4.656
  190.499    0.255    0.567  127.126    4.569
  190.804    0.266    0.566  124.704    4.160
  191.109    0.249    0.546  122.888    4.081
