~VERSION INFORMATION
 VERS.                 2.0:   CWLS LOG ASCII STANDARD -VERSION 2.0
 WRAP.                  NO:   ONE LINE PER DEPTH STEP
~WELL INFORMATION BLOCK
#MNEM.UNIT           DATA                    DESCRIPTION OF MNEMONIC
#---------    -------------------            -------------------------------
# Generated from Intellog Unique Number	CW_79_81/WELL/2477
WELL.         10-35-080-20W4                 : Well_name    - WELL
LOC .         00/10-35-080-20W4/0            : Location     - LOCATION
UWI .         00/10-35-080-20W4/0            : Uwi          - UNIQUE WELL ID
ENTR.         MAX                            : Entered      - ENTERED BY
SRVC.         SCHLUMBERGER                   : Scn          - SERVICE COMPANY
STRT.M        149.352                        : top_depth    - START DEPTH
STOP.M        380.852                        : bot_depth    - STOP DEPTH
STEP.M        0.25                           : increment    - STEP LENGTH
 NULL. -999.2500:NULL Value
~CURVE INFORMATION BLOCK
#MNEM UNIT       ERCB CURVE CODE    CURVE DESCRIPTION
#-----------   ------------------   ----------------------------------
DEPT.M        00 001 00 00         : DEPTH        - DEPTH
ILD .OHMM     00 120 00 00         : RESD         - DEEP RESISTIVITY (DIL)
NPHI.V/V      00 330 00 00         : PHIN         - NEUTRON POROSITY (SANDSTONE)
DPHI.V/V      00 890 00 00         : PHID         - DENSITY POROSITY (SANDSTONE)
GR  .API      00 310 00 00         : GR           - GAMMA RAY
CALI.MM       00 280 01 00         : CAL          - CALIPER
~PARAMETER INFORMATION
#MNEM.UNIT           DATA             DESCRIPTION OF MNEMONIC
#---------         -----------     ------------------------------
GL  .M        581.254              : gl           - GROUND LEVEL ELEVATION
EREF.M        578.053              : kb           - ELEVATION OF DEPTH REFERENCE
DATM.M        581.254              : datum        - DATUM ELEVATION
TDD .M        404.165              : tdd          - TOTAL DEPTH DRILLER
RUN .         ONE                  : Run          - RUN NUMBER
ENG .         BILL                 : Engineer     - RECORDING ENGINEER
WIT .         JIM                  : Witness      - WITNESSED BY
MUD .         GEL                  : Mud_type     - MUD TYPE
MATR.         SANDSTONE            : Logunit      - NEUTRON MATRIX
TMAX.C        26.6667              : BHT          - MAXIMUM RECORDED TEMPERATURE
BHTD.M        404.165              : BHTDEP       - MAXIMUM RECORDED TEMPERATURE
MATR.         1                    : LOGUNIT      - NEUTRON MATRIX
RMT .C        20                   : MDTP         - TEMPERATURE OF MUD
NEUT.         1                    : NEUTRON      - NEUTRON TYPE
RESI.         0                    : RESIST       - RESISTIVITY TYPE
RMC .OHMM     2.42                 : RMC          - RESISTIVITY OF MUD CAKE
RMF .OHMM     2.1                  : RMF          - RESISTIVITY OF MUD FILTRATE
SUFT.C        -23.3333             : SUFT         - SURFACE TEMPERATURE
~A  DEPTH     RESD     PHIN     PHID       GR      CAL
# ...
  222.352    3.469    0.490    0.298  119.276  183.431
  222.602    3.245    0.507    0.305  118.831  184.632
  222.852    3.344    0.516    0.299  117.832  184.621
  223.102    3.647    0.496    0.297  113.293  184.612
  223.352    4.296    0.471    0.299  107.502  184.904
  223.602    5.154    0.463    0.297  101.890  185.702
  223.852    6.084    0.470    0.293   98.185  187.006
  224.102    7.334    0.466    0.288   98.814  188.272
  224.352    7.618    0.452    0.283  100.796  186.580
  224.602    7.504    0.456    0.273  106.755  182.128
  224.852    7.270    0.463    0.271  110.746  180.401
  225.102    6.900    0.464    0.278  111.575  179.987
  225.352    6.534    0.461    0.291  109.840  179.975
  225.602    6.457    0.457    0.302  106.434  179.627
  225.852    6.811    0.452    0.316   98.972  177.934
  226.102    7.481    0.447    0.322   85.129  173.078
  226.352    8.352    0.461    0.318   76.116  170.038
  226.602    9.822    0.477    0.314   70.741  169.221
  226.852   11.872    0.477    0.312   67.813  169.816
  227.102   12.997    0.438    0.309   65.938  169.804
  227.352   14.819    0.385    0.311   64.937  169.796
  227.602   15.817    0.369    0.320   66.124  170.190
  227.852   16.528    0.380    0.340   65.701  170.584
  228.102   16.956    0.410    0.357   65.456  171.179
  228.352   17.108    0.441    0.364   66.167  171.774
  228.602   16.871    0.442    0.361   67.840  171.762
  228.852   16.360    0.437    0.359   69.076  171.752
  229.102   15.763    0.446    0.361   70.263  172.147
  229.352   15.360    0.456    0.366   70.556  172.237
  229.602   15.021    0.463    0.369   69.238  172.228
  229.852   14.800    0.464    0.371   67.084  172.220
  230.102   15.102    0.454    0.371   66.412  172.207
  230.352   16.178    0.474    0.373   66.655  172.197
  230.602   16.898    0.460    0.375   68.797  172.188
  230.852   17.273    0.455    0.374   69.864  171.876
  231.102   17.395    0.447    0.369   69.142  171.664
  231.352   17.325    0.433    0.361   66.870  171.553
  231.602   16.934    0.415    0.352   64.339  170.969
  231.852   16.298    0.413    0.350   64.830  170.116
  232.102   15.703    0.430    0.355   63.870  168.896
  232.352   15.301    0.441    0.361   60.225  168.584
  232.602   15.129    0.437    0.366   56.641  169.381
  232.852   15.096    0.425    0.370   55.263  170.785
  233.102   15.073    0.426    0.372   58.537  171.498
  233.352   15.537    0.430    0.368   63.005  171.067
  233.602   15.762    0.424    0.366   62.043  167.824
  233.852   15.902    0.421    0.366   61.084  166.703
  234.102   15.837    0.419    0.368   60.721  165.885
  234.352   15.544    0.416    0.371   61.490  164.460
  234.602   14.853    0.411    0.370   64.465  162.515
  234.852   13.765    0.400    0.366   67.442  162.926
  235.102   11.674    0.404    0.362   72.447  164.532
  235.352    9.107    0.419    0.354   76.377  166.440
  235.602    7.325    0.447    0.341   78.638  168.652
  235.852    5.999    0.479    0.330   78.275  170.765
  236.102    4.835    0.495    0.338   73.327  172.132
  236.352    5.344    0.471    0.348   70.091  172.965
  236.602    5.996    0.446    0.358   70.323  172.954
  236.852    6.423    0.453    0.361   72.345  172.945
  237.102    6.831    0.469    0.363   71.385  172.531
  237.352    7.401    0.473    0.368   67.145  171.411
  237.602    8.572    0.441    0.379   64.095  169.127
  237.852   11.004    0.418    0.385   65.581  167.855
  238.102   12.793    0.409    0.381   62.474  167.440
  238.352   14.670    0.416    0.384   58.829  167.631
  238.602   15.254    0.419    0.389   58.346  167.824
  238.852   14.270    0.413    0.392   61.203  168.119
  239.102   12.975    0.405    0.393   63.910  169.572
  239.352   12.486    0.398    0.394   63.158  170.824
  239.602   12.209    0.403    0.408   60.529  172.026
  239.852   12.475    0.426    0.422   56.825  173.833
  240.102   13.121    0.457    0.441   53.359  176.045
  240.352   13.869    0.492    0.466   49.955  178.459
  240.602   14.195    0.528    0.485   44.142  181.292
  240.852   14.299    0.497    0.461   40.160  183.388
  241.102   14.191    0.440    0.352   38.721  185.802
  241.352   14.083    0.410    0.329   38.895  187.307
  241.602   13.975    0.407    0.334   39.366  188.308
  241.852   13.895    0.416    0.339   39.241  188.904
  242.102   13.911    0.405    0.348   38.240  188.975
  242.352   14.012    0.401    0.358   39.228  189.387
  242.602   14.112    0.393    0.365   39.938  188.973
  242.852   14.133    0.390    0.371   40.112  187.952
  243.102   14.180    0.399    0.375   39.987  187.135
  243.352   14.281    0.414    0.379   39.862  186.521
  243.602   14.380    0.421    0.382   40.441  185.044
  243.852   14.376    0.420    0.388   42.175  183.770
  244.102   14.371    0.420    0.388   45.270  183.357
  244.352   14.366    0.423    0.387   48.008  182.943
  244.602   14.309    0.430    0.385   48.838  182.327
  244.852   14.253    0.434    0.382   47.222  181.407
  245.102   14.374    0.418    0.381   43.488  179.849
  245.352   14.480    0.412    0.383   42.736  178.156
  245.602   14.582    0.418    0.385   44.638  177.741
  245.852   14.765    0.421    0.387   44.931  177.631
  246.102   14.925    0.419    0.391   43.733  177.419
  246.352   15.030    0.412    0.394   41.699  176.904
  246.602   15.157    0.406    0.395   40.270  175.832
  246.852   15.269    0.410    0.397   41.506  174.560
  247.102   15.264    0.410    0.395   42.932  172.932
  247.352   15.344    0.410    0.395   43.642  172.217
  247.602   15.396    0.409    0.398   44.114  171.602
  247.852   15.363    0.405    0.402   44.406  171.087
  248.102   15.244    0.406    0.400   44.161  171.478
  248.352   15.240    0.416    0.396   44.154  171.466
  248.602   15.236    0.429    0.393   44.148  171.459
  248.852   15.231    0.432    0.390   43.606  171.450
  249.102   15.226    0.428    0.387   43.123  171.440
  249.352   15.249    0.421    0.385   42.819  171.530
  249.602   15.379    0.418    0.381   42.286  171.755
  249.852   15.492    0.414    0.380   42.031  170.903
  250.102   15.487    0.418    0.384   43.457  168.873
  250.352   15.482    0.417    0.385   45.599  167.752
  250.602   15.421    0.416    0.382   48.456  167.944
  250.852   15.332    0.420    0.378   52.327  169.247
  251.102   15.302    0.429    0.380   58.355  170.935
  251.352   15.181    0.427    0.388   61.082  171.347
  251.602   14.956    0.433    0.384   60.122  168.911
  251.852   14.569    0.430    0.379   58.804  167.084
  252.102   14.302    0.428    0.381   57.367  165.459
  252.352   14.219    0.433    0.387   55.811  164.036
  252.602   14.214    0.443    0.391   53.547  163.217
  252.852   14.210    0.439    0.394   51.801  163.207
  253.102   14.310    0.439    0.390   50.842  163.196
  253.352   14.332    0.442    0.391   49.523  163.187
  253.602   14.328    0.444    0.395   49.159  163.582
  253.852   14.324    0.444    0.400   49.929  164.683
  254.102   14.317    0.443    0.399   50.528  167.279
  254.352   14.314    0.442    0.389   48.784  170.214
  254.602   14.309    0.448    0.387   46.392  172.226
  254.852   14.305    0.453    0.388   44.894  175.146
  255.102   14.300    0.453    0.390   44.172  178.368
  255.352   14.269    0.451    0.392   43.928  182.196
  255.602   14.160    0.449    0.396   43.684  189.272
  255.852   14.156    0.446    0.397   43.678  196.416
  256.102   14.255    0.449    0.393   44.149  201.253
  256.352   14.277    0.449    0.386   44.620  204.272
  256.602   14.324    0.448    0.381   44.376  206.485
  256.852   14.399    0.446    0.380   43.654  208.395
  257.102   14.416    0.443    0.384   43.697  210.420
  257.352   14.522    0.437    0.386   43.940  212.513
  257.602   14.518    0.435    0.385   45.365  214.929
  257.852   14.593    0.438    0.387   46.612  216.435
  258.102   14.696    0.443    0.390   46.607  218.242
  258.352   14.773    0.449    0.392   45.288  220.352
  258.602   14.768    0.455    0.391   43.512  221.806
