~VERSION INFORMATION
 VERS.                 2.0:   CWLS LOG ASCII STANDARD -VERSION 2.0
 WRAP.                  NO:   ONE LINE PER DEPTH STEP
~WELL INFORMATION BLOCK
#MNEM.UNIT           DATA                    DESCRIPTION OF MNEMONIC
#---------    -------------------            -------------------------------
# Generated from Intellog Unique Number	CS_67_68/WELL/2211
WELL.         12-08-067-01W4                 : Well_name    - WELL
LOC .         00/12-08-067-01W4/0            : Location     - LOCATION
UWI .         00/12-08-067-01W4/0            : Uwi          - UNIQUE WELL ID
ENTR.         SP                             : Entered      - ENTERED BY
SRVC.         SCHLUMBERGER                   : Scn          - SERVICE COMPANY
STRT.M        315                            : top_depth    - START DEPTH
STOP.M        570                            : bot_depth    - STOP DEPTH
STEP.M        0.25                           : increment    - STEP LENGTH
 NULL. -999.2500:NULL Value
~CURVE INFORMATION BLOCK
#MNEM UNIT       ERCB CURVE CODE    CURVE DESCRIPTION
#-----------   ------------------   ----------------------------------
DEPT.M        00 001 00 00         : DEPTH        - DEPTH
ILD .OHMM     00 120 00 00         : RESD         - DEEP RESISTIVITY (DIL)
DPHI.V/V      00 890 00 00         : PHID         - DENSITY POROSITY (LIMESTONE)
NPHI.V/V      00 330 00 00         : PHIN         - NEUTRON POROSITY (LIMESTONE)
GR  .API      00 310 00 00         : GR           - GAMMA RAY
CALI.MM       00 280 01 00         : CAL          - CALIPER
~PARAMETER INFORMATION
#MNEM.UNIT           DATA             DESCRIPTION OF MNEMONIC
#---------         -----------     ------------------------------
GL  .M        609.53               : gl           - GROUND LEVEL ELEVATION
EREF.M        613.4                : kb           - ELEVATION OF DEPTH REFERENCE
DATM.M        613.4                : datum        - DATUM ELEVATION
TDD .M        576                  : tdd          - TOTAL DEPTH DRILLER
RUN .         ONE                  : Run          - RUN NUMBER
ENG .         BILL                 : Engineer     - RECORDING ENGINEER
WIT .         JIM                  : Witness      - WITNESSED BY
MUD .         GEL                  : Mud_type     - MUD TYPE
MATR.         LIMESTONE            : Logunit      - NEUTRON MATRIX
TMAX.C        25                   : BHT          - MAXIMUM RECORDED TEMPERATURE
BHTD.M        575                  : BHTDEP       - MAXIMUM RECORDED TEMPERATURE
MATR.         1                    : LOGUNIT      - NEUTRON MATRIX
RMT .C        25                   : MDTP         - TEMPERATURE OF MUD
NEUT.         1                    : NEUTRON      - NEUTRON TYPE
RESI.         0                    : RESIST       - RESISTIVITY TYPE
RMC .OHMM     0.25                 : RMC          - RESISTIVITY OF MUD CAKE
RMF .OHMM     0.25                 : RMF          - RESISTIVITY OF MUD FILTRATE
SUFT.C        15                   : SUFT         - SURFACE TEMPERATURE
~A  DEPTH     RESD     PHID     PHIN       GR      CAL
# ...
  388.000   10.969    0.343    0.433   51.111  152.561
  388.250   11.111    0.346    0.440   50.118  152.139
  388.500   11.172    0.349    0.448   49.433  152.130
  388.750   11.274    0.351    0.442   52.136  151.912
  389.000   11.315    0.360    0.437   53.980  151.902
  389.250   11.313    0.355    0.432   54.034  151.992
  389.500   11.227    0.346    0.428   53.042  151.981
  389.750   11.039    0.353    0.423   52.418  152.379
  390.000   10.874    0.347    0.418   51.363  152.471
  390.250   10.671    0.337    0.416   49.385  152.769
  390.500   10.492    0.328    0.413   47.714  153.267
  390.750   10.452    0.317    0.424   48.324  153.360
  391.000   10.528    0.311    0.448   49.240  153.555
  391.250   10.665    0.317    0.458   48.556  153.850
  391.500   10.743    0.331    0.434   47.810  154.046
  391.750   10.842    0.340    0.413   49.343  154.035
  392.000   10.880    0.347    0.416   51.864  154.024
  392.250   10.919    0.338    0.439   54.568  153.704
  392.500   10.938    0.335    0.437   53.390  153.691
  392.750   10.956    0.330    0.416   53.753  153.681
  393.000   11.098    0.333    0.418   54.547  153.773
  393.250   11.200    0.345    0.413   53.493  153.659
  393.500   11.324    0.346    0.406   48.494  153.441
  393.750   11.344    0.336    0.407   43.618  153.119
  394.000   11.216    0.328    0.408   45.276  153.008
  394.250   11.131    0.332    0.411   48.474  152.893
  394.500   10.964    0.336    0.430   49.514  152.572
  394.750   10.902    0.336    0.415   45.995  152.563
  395.000   10.819    0.336    0.406   41.982  152.548
  395.250   10.697    0.336    0.417   44.440  152.743
  395.500   10.695    0.337    0.427   46.158  152.733
  395.750   10.654    0.332    0.426   47.569  152.722
  396.000   10.573    0.327    0.418   48.734  152.504
  396.250   10.377    0.322    0.417   49.897  152.699
  396.500   10.241    0.326    0.422   50.815  152.788
  396.750   10.201    0.331    0.426   52.164  152.779
  397.000   10.237    0.335    0.420   53.020  152.973
  397.250   10.312    0.339    0.421   51.719  153.061
  397.500   10.407    0.340    0.432   49.617  153.258
  397.750   10.463    0.345    0.441   47.761  153.452
  398.000   10.365    0.349    0.429   50.527  153.235
  398.250   10.210    0.341    0.427   54.649  153.735
  398.500    9.983    0.338    0.452   57.107  153.521
  398.750    9.761    0.346    0.476   53.710  153.095
  399.000    9.455    0.346    0.415   51.670  152.983
  399.250    9.040    0.340    0.412   50.369  152.970
  399.500    8.773    0.337    0.413   54.368  152.648
  399.750    8.642    0.337    0.412   57.874  152.640
  400.000    8.561    0.336    0.432   60.332  152.834
  400.250    8.736    0.328    0.445   61.435  152.926
  400.500    8.916    0.334    0.453   58.530  153.015
  400.750    9.133    0.348    0.459   56.367  153.314
  401.000    9.320    0.354    0.463   54.081  153.404
  401.250    9.459    0.346    0.454   52.903  153.701
  401.500    9.599    0.343    0.443   58.442  153.896
  401.750    9.652    0.342    0.432   61.762  154.089
  402.000    9.650    0.318    0.439   60.955  154.181
  402.250    9.793    0.277    0.450   57.374  154.167
  402.500    9.939    0.291    0.442   54.409  154.056
  402.750   10.162    0.323    0.435   55.203  153.940
  403.000   10.351    0.341    0.424   56.614  153.929
  403.250   10.408    0.354    0.416   57.100  153.815
  403.500   10.406    0.354    0.410   62.269  153.494
  403.750   10.385    0.356    0.431   67.746  153.484
  404.000   10.287    0.363    0.449   70.267  153.472
  404.250   10.209    0.369    0.462   70.568  153.667
  404.500   10.226    0.361    0.450   68.466  154.066
  404.750   10.475    0.358    0.441   66.364  154.465
  405.000   10.831    0.356    0.438   64.201  154.967
  405.250   11.136    0.348    0.439   61.235  155.262
  405.500   11.471    0.342    0.438   57.778  155.356
  405.750   11.598    0.341    0.436   57.031  155.858
  406.000   11.467    0.342    0.435   58.195  155.845
  406.250   11.191    0.342    0.437   59.729  155.834
  406.500   10.820    0.355    0.440   61.694  155.615
  406.750   10.521    0.360    0.440   62.365  155.402
  407.000   10.248    0.358    0.443   61.925  155.287
  407.250   10.039    0.359    0.453   61.057  155.172
  407.500    9.926    0.363    0.457   59.941  154.956
  407.750    9.943    0.367    0.458   61.043  155.147
  408.000   10.053    0.366    0.454   62.331  155.241
  408.250   10.164    0.359    0.444   62.385  155.537
  408.500   10.353    0.351    0.443   60.590  155.526
  408.750   10.448    0.343    0.447   57.257  155.821
  409.000   10.584    0.341    0.444   55.031  156.016
  409.250   10.781    0.341    0.439   53.977  156.208
  409.500   10.962    0.340    0.449   52.367  156.507
  409.750   11.145    0.338    0.462   49.895  156.594
  410.000   11.248    0.334    0.472   51.367  156.893
  410.250   11.309    0.329    0.452   53.701  156.884
  410.500   11.477    0.326    0.433   55.236  156.872
  410.750   11.691    0.327    0.434   56.277  156.961
  411.000   12.782    0.331    0.457   55.346  156.950
  411.250   14.668    0.315    0.469   53.429  157.042
  411.500   17.867    0.223    0.444   49.416  157.236
  411.750   21.561    0.178    0.225   43.246  157.430
  412.000   25.874    0.149    0.146   36.707  157.522
  412.250   29.145    0.000    0.117   33.187  157.613
  412.500   31.512    0.000    0.108   31.209  157.498
  412.750   29.136    0.000    0.116   34.775  158.206
  413.000   23.957    0.036    0.155   40.870  159.223
  413.250   18.698    0.269    0.334   47.457  160.649
  413.500   14.951    0.303    0.414   48.991  162.384
  413.750   12.665    0.327    0.444   50.523  165.145
  414.000   10.649    0.333    0.468   50.703  168.729
  414.250    9.810    0.340    0.459   50.201  172.517
  414.500    9.538    0.347    0.450   49.702  173.739
  414.750    9.343    0.357    0.454   49.943  172.187
  415.000    9.482    0.367    0.449   50.983  173.202
  415.250    9.676    0.360    0.456   51.839  173.807
  415.500    9.802    0.358    0.482   53.065  171.022
  415.750    9.966    0.370    0.475   52.687  165.464
  416.000   10.039    0.372    0.457   52.312  162.166
  416.250   10.094    0.376    0.472   51.442  159.895
  416.500   10.111    0.380    0.474   50.696  158.343
  416.750   10.090    0.372    0.463   49.886  157.098
  417.000   10.089    0.365    0.451   49.326  156.572
  417.250   10.050    0.358    0.443   48.888  156.562
  417.500    9.717    0.352    0.446   48.695  156.651
  417.750    9.239    0.352    0.450   49.798  156.745
  418.000    8.850    0.361    0.454   51.640  156.836
  418.250    8.799    0.367    0.454   52.311  156.311
  418.500    8.831    0.369    0.459   50.394  155.270
  418.750    8.912    0.368    0.456   48.600  154.643
  419.000    9.061    0.367    0.447   48.777  152.990
  419.250    9.144    0.365    0.442   49.634  152.773
  419.500    9.246    0.364    0.448   49.812  155.020
  419.750    9.400    0.356    0.451   50.236  157.269
  420.000    9.540    0.352    0.452   54.358  156.641
  420.250    9.646    0.358    0.450   56.755  156.116
  420.500    9.771    0.357    0.453   55.639  156.311
  420.750    9.751    0.355    0.447   55.447  156.607
  421.000    9.677    0.355    0.449   56.672  157.006
  421.250    9.533    0.355    0.450   58.699  156.277
  421.500    9.408    0.356    0.458   59.555  154.929
  421.750    9.164    0.352    0.471   59.918  153.788
  422.000    8.943    0.344    0.487   58.555  152.955
  422.250    8.712    0.343    0.495   57.870  152.430
  422.500    8.727    0.354    0.473   57.987  152.007
  422.750    8.807    0.361    0.460   58.966  151.790
  423.000    8.691    0.362    0.468   60.315  151.470
  423.250    8.419    0.361    0.472   61.972  151.357
  423.500    7.570    0.358    0.467   60.979  151.550
  423.750    6.870    0.349    0.480   61.034  151.846
  424.000    6.557    0.343    0.499   62.382  152.349
  424.250    6.543    0.352    0.511   63.177  152.543
