~VERSION INFORMATION
 VERS.                 2.0:   CWLS LOG ASCII STANDARD -VERSION 2.0
 WRAP.                  NO:   ONE LINE PER DEPTH STEP
~WELL INFORMATION BLOCK
#MNEM.UNIT           DATA                    DESCRIPTION OF MNEMONIC
#---------    -------------------            -------------------------------
# Generated from Intellog Unique Number	CW_70_72/WELL/1070
NULL.         -999.25                        : NULL_VALUE
WELL.         CNW PETER 15-13                : Well_name    - WELL              
LOC .         15-13-072-01W5                 : Location     - LOCATION          
UWI .         00/15-13-072-01W5/0            : Uwi          - UNIQUE WELL ID    
ENTR.         JAYE                           : Entered      - ENTERED BY        
SRVC.         COMPUTALOG                     : Scn          - SERVICE COMPANY   
DATE.         5 DEC 88                       : Date         - LOG DATE          
STRT.M        415                            : top_depth    - START DEPTH       
STOP.M        650                            : bot_depth    - STOP DEPTH        
STEP.M        0.25                           : increment    - STEP LENGTH       
~CURVE INFORMATION BLOCK
#MNEM UNIT       ERCB CURVE CODE    CURVE DESCRIPTION
#-----------   ------------------   ----------------------------------
DEPT.M        00 001 00 00         : DEPTH        - DEPTH                       
DPHI.V/V      00 890 00 00         : PHID         - DENSITY POROSITY (SANDSTONE)
NPHI.V/V      00 330 00 00         : PHIN         - NEUTRON POROSITY (SANDSTONE)
GR  .API      00 310 00 00         : GR           - GAMMA RAY                   
CALI.MM       00 280 01 00         : CAL          - CALIPER                     
ILD .OHMM     00 120 00 00         : RESD         - DEEP RESISTIVITY (DIL)      
~PARAMETER INFORMATION       
#MNEM.UNIT           DATA             DESCRIPTION OF MNEMONIC
#---------         -----------     ------------------------------
GL  .M        631.9                : gl           - GROUND LEVEL ELEVATION      
EREF.M        636.2                : kb           - ELEVATION OF DEPTH REFERENCE
DATM.M        631.9                : datum        - DATUM ELEVATION             
TDD .M        667                  : tdd          - TOTAL DEPTH DRILLER         
RUN .         ONE                  : Run          - RUN NUMBER                  
ENG .         HOMER                : Engineer     - RECORDING ENGINEER          
WIT .         TOPIC                : Witness      - WITNESSED BY                
BASE.         EDM                  : Branch       - HOME BASE OF LOGGING UNIT   
MUD .         GEL CHEM             : Mud_type     - MUD TYPE                    
MATR.         SANDSTONE            : Logunit      - NEUTRON MATRIX              
TMAX.C        30                   : BHT          - MAXIMUM RECORDED TEMPERATURE
BHTD.M        667                  : BHTDEP       - MAXIMUM RECORDED TEMPERATURE
RMT .C        17                   : MDTP         - TEMPERATURE OF MUD          
MUDD.KG/M     1180                 : MWT          - MUD DENSITY                 
NEUT.         1                    : NEUTRON      - NEUTRON TYPE                
RESI.         0                    : RESIST       - RESISTIVITY TYPE            
RM  .OHMM     4                    : RM           - RESISTIVITY OF MUD          
RMC .OHMM     3.3                  : RMC          - RESISTIVITY OF MUD CAKE     
RMF .OHMM     4.3                  : RMF          - RESISTIVITY OF MUD FILTRATE 
SUFT.C        0                    : SUFT         - SURFACE TEMPERATURE         
~A  DEPTH     PHID     PHIN       GR      CAL     RESD
# ...
  597.500    0.180    0.475   97.351  206.047    3.017
  597.750    0.171    0.477   96.526  205.794    3.563
  598.000    0.163    0.443   95.457  205.557    4.232
  598.250    0.140    0.411   92.792  205.291    4.915
  598.500    0.106    0.399   88.714  204.933    5.678
  598.750    0.067    0.403   85.740  204.477    6.354
  599.000    0.057    0.407   85.472  204.226    7.047
  599.250    0.084    0.406   86.302  203.871    7.323
  599.500    0.108    0.393   93.523  203.722    7.359
  599.750    0.121    0.379   94.540  203.463    7.590
  600.000    0.126    0.367   92.490  202.803    7.990
  600.250    0.110    0.353   87.674  202.139    8.943
  600.500    0.087    0.328   79.605  201.584   10.216
  600.750    0.060    0.311   75.407  201.228   11.392
  601.000    0.035    0.293   72.678  200.971   12.172
  601.250    0.020    0.285   69.459  200.721   12.187
  601.500    0.050    0.315   72.073  200.775   11.060
  601.750    0.105    0.352   83.038  200.621    9.634
  602.000    0.130    0.372   87.680  200.470    8.392
  602.250    0.143    0.417   86.487  200.115    8.158
  602.500    0.131    0.403   81.370  199.562    8.246
  602.750    0.118    0.378   77.841  199.303    8.379
  603.000    0.113    0.361   77.080  199.360    8.723
  603.250    0.125    0.353   77.605  199.416    9.269
  603.500    0.125    0.366   78.259  199.365    9.848
  603.750    0.112    0.373   79.395  199.009   10.405
  604.000    0.075    0.320   72.679  198.340   11.392
  604.250    0.163    0.196   65.469  197.269   12.469
  604.500    0.367    0.182   56.236  196.611   18.960
  604.750    0.372    0.161   47.737  196.358   23.623
  605.000    0.366    0.148   39.482  196.215   38.899
  605.250    0.361    0.143   35.526  196.160   63.109
  605.500    0.364    0.144   34.950  196.008   83.790
  605.750    0.366    0.155   34.312  196.062   98.052
  606.000    0.358    0.166   34.287  195.915  113.275
  606.250    0.355    0.180   34.325  195.758  122.374
  606.500    0.354    0.182   34.302  195.816  127.408
  606.750    0.352    0.181   33.840  195.979  127.567
  607.000    0.351    0.179   33.137  196.025  124.236
  607.250    0.350    0.177   32.746  196.083  120.528
  607.500    0.348    0.177   33.332  195.927  116.696
  607.750    0.336    0.182   34.355  196.089  112.798
  608.000    0.328    0.190   34.940  196.240  107.829
  608.250    0.327    0.206   35.589  197.116  102.115
  608.500    0.325    0.217   36.423  196.558   95.281
  608.750    0.322    0.220   37.144  195.691   88.095
  609.000    0.317    0.219   37.600  195.129   79.492
  609.250    0.315    0.218   38.249  194.365   69.774
  609.500    0.310    0.221   38.778  193.809   63.541
  609.750    0.312    0.231   39.487  193.040   54.644
  610.000    0.320    0.246   40.263  191.963   47.424
  610.250    0.320    0.259   40.418  191.711   39.666
  610.500    0.309    0.281   40.767  191.763   33.856
  610.750    0.297    0.306   41.537  192.021   29.166
  611.000    0.287    0.342   42.858  192.186   24.666
  611.250    0.272    0.356   44.920  192.139   22.093
  611.500    0.261    0.368   46.066  192.492   20.086
  611.750    0.252    0.376   46.159  193.059   18.535
  612.000    0.248    0.379   46.134  194.138   16.694
  612.250    0.257    0.371   46.174  195.626   14.517
  612.500    0.251    0.364   46.207  196.713   12.932
  612.750    0.240    0.353   45.873  197.687   11.477
  613.000    0.230    0.337   45.725  198.151   10.414
  613.250    0.216    0.336   45.456  197.586    9.399
  613.500    0.201    0.351   45.307  197.750    8.419
  613.750    0.188    0.359   46.264  197.908    7.696
  614.000    0.207    0.360   48.693  197.756    7.142
  614.250    0.229    0.359   51.858  197.807    6.903
  614.500    0.228    0.356   54.231  198.583    6.648
  614.750    0.221    0.348   55.125  199.656    6.389
  615.000    0.213    0.342   55.529  200.020    6.085
  615.250    0.209    0.334   55.627  200.177    5.763
  615.500    0.208    0.333   56.275  200.332    5.397
  615.750    0.212    0.353   57.169  200.185    5.314
  616.000    0.231    0.371   57.944  200.138    5.689
  616.250    0.216    0.367   58.162  200.190    6.261
  616.500    0.167    0.342   55.559  200.036    6.519
  616.750    0.147    0.324   52.341  200.093    6.503
  617.000    0.158    0.324   50.719  200.466    6.251
  617.250    0.196    0.336   52.414  200.619    5.790
  617.500    0.223    0.352   55.273  200.567    5.412
  617.750    0.225    0.360   58.194  200.620    5.135
  618.000    0.216    0.360   60.072  200.887    4.946
  618.250    0.208    0.353   59.309  201.033    4.916
  618.500    0.212    0.346   58.242  201.091    4.930
  618.750    0.213    0.347   57.666  201.145    5.001
  619.000    0.208    0.364   57.329  201.102    5.111
  619.250    0.202    0.364   58.102  201.047    5.233
  619.500    0.195    0.350   59.610  200.905    5.396
  619.750    0.188    0.330   62.841  200.849    5.683
  620.000    0.182    0.314   64.412  200.798    5.915
  620.250    0.167    0.306   60.272  200.963    6.298
  620.500    0.171    0.310   56.806  201.112    6.568
  620.750    0.184    0.337   55.737  201.380    6.762
  621.000    0.182    0.337   60.562  201.740    6.961
  621.250    0.172    0.329   64.713  201.997    7.142
  621.500    0.158    0.322   62.661  202.153    7.244
  621.750    0.145    0.325   61.590  202.313    7.334
  622.000    0.144    0.345   78.941  202.471    7.370
  622.250    0.150    0.363   86.651  202.834    7.284
  622.500    0.157    0.381   91.107  203.907    7.081
  622.750    0.167    0.398   91.454  206.419    6.922
  623.000    0.190    0.393   91.367  207.296    7.047
  623.250    0.198    0.377   91.891  204.376    7.321
  623.500    0.181    0.366   85.296  201.976    7.823
  623.750    0.160    0.362   77.841  201.520    8.312
  624.000    0.149    0.369   76.466  201.570    8.898
  624.250    0.158    0.375   81.230  201.626    9.599
  624.500    0.167    0.374   81.879  201.886   10.122
  624.750    0.166    0.357   78.231  201.938   10.614
  625.000    0.154    0.329   73.477  201.790   11.426
  625.250    0.136    0.295   52.420  201.538   12.812
  625.500    0.124    0.254   47.208  201.175   17.719
  625.750    0.176    0.143   31.281  200.930   27.698
  626.000    0.142    0.095   23.212  200.984   45.861
  626.250    0.092    0.077   20.362  200.831   65.339
  626.500    0.060    0.070   18.864  200.881   87.719
  626.750    0.035    0.074   19.267  200.733  114.109
  627.000    0.044    0.094   25.076  200.692   93.321
  627.250    0.077    0.116   33.583  200.636   61.540
  627.500    0.121    0.146   41.354  200.492   45.031
  627.750    0.151    0.230   52.812  200.546   33.877
  628.000    0.170    0.273   62.550  200.285   27.401
  628.250    0.185    0.308   69.767  200.134   22.914
  628.500    0.205    0.345   58.321  200.297   22.150
  628.750    0.195    0.302   49.884  200.462   22.805
  629.000    0.123    0.281   43.227  200.617   23.965
  629.250    0.099    0.255   48.667  200.659   25.656
  629.500    0.083    0.242   52.817  200.720   26.953
  629.750    0.059    0.240   55.431  200.576   27.957
  630.000    0.043    0.255   57.431  200.521   25.275
  630.250    0.065    0.294   59.741  200.776   19.372
  630.500    0.100    0.311   61.986  201.142   17.033
  630.750    0.126    0.305   64.300  201.498   15.894
  631.000    0.119    0.275   58.986  201.766   15.309
  631.250    0.101    0.248   38.577  201.816   15.555
  631.500    0.085    0.218   43.649  201.872   16.134
  631.750    0.092    0.221   56.085  202.126   17.858
  632.000    0.080    0.244   65.454  202.595   19.765
  632.250    0.063    0.250   61.131  203.367   20.050
  632.500    0.050    0.252   63.316  203.733   17.661
  632.750    0.072    0.279   81.340  203.786   14.473
  633.000    0.099    0.311   87.763  203.836   12.963
  633.250    0.123    0.310   94.431  203.594   12.718
  633.500    0.083    0.197   83.536  203.636   13.413
  633.750    0.045    0.145   66.809  203.283   15.813
