~VERSION INFORMATION
 VERS.                 2.0:   CWLS LOG ASCII STANDARD -VERSION 2.0
 WRAP.                  NO:   ONE LINE PER DEPTH STEP
~WELL INFORMATION BLOCK
#MNEM.UNIT           DATA                    DESCRIPTION OF MNEMONIC
#---------    -------------------            -------------------------------
# Generated from Intellog Unique Number	CW_73_75/WELL/1047
WELL.         ATCOR ET AL MARTEN H 11-33     : Well_name    - WELL
LOC .         00/11-33-074-23W4/0            : Location     - LOCATION
UWI .         00/11-33-074-23W4/0            : Uwi          - UNIQUE WELL ID
ENTR.         JAYE                           : Entered      - ENTERED BY
SRVC.         COMPUTALOG                     : Scn          - SERVICE COMPANY
DATE.         26 FEB 85                      : Date         - LOG DATE
STRT.M        450                            : top_depth    - START DEPTH
STOP.M        695                            : bot_depth    - STOP DEPTH
STEP.M        0.25                           : increment    - STEP LENGTH
 NULL. -999.2500:NULL Value
~CURVE INFORMATION BLOCK
#MNEM UNIT       ERCB CURVE CODE    CURVE DESCRIPTION
#-----------   ------------------   ----------------------------------
DEPT.M        00 001 00 00         : DEPTH        - DEPTH
ILD .OHMM     00 120 00 00         : RESD         - DEEP RESISTIVITY (DIL)
DPHI.V/V      00 890 00 00         : PHID         - DENSITY POROSITY (SANDSTONE)
NPHI.V/V      00 330 00 00         : PHIN         - NEUTRON POROSITY (SANDSTONE)
CALI.MM       00 280 01 00         : CAL          - CALIPER
GR  .API      00 310 00 00         : GR           - GAMMA RAY
~PARAMETER INFORMATION
#MNEM.UNIT           DATA             DESCRIPTION OF MNEMONIC
#---------         -----------     ------------------------------
GL  .M        708                  : gl           - GROUND LEVEL ELEVATION
EREF.M        711                  : kb           - ELEVATION OF DEPTH REFERENCE
DATM.M        708                  : datum        - DATUM ELEVATION
TDD .M        697                  : tdd          - TOTAL DEPTH DRILLER
RUN .         ONE                  : Run          - RUN NUMBER
ENG .         BERUDE               : Engineer     - RECORDING ENGINEER
WIT .         HICKS                : Witness      - WITNESSED BY
BASE.         EDM                  : Branch       - HOME BASE OF LOGGING UNIT
MUD .         GEL CHEM             : Mud_type     - MUD TYPE
MATR.         SANDSTONE            : Logunit      - NEUTRON MATRIX
TMAX.C        24                   : BHT          - MAXIMUM RECORDED TEMPERATURE
BHTD.M        695.6                : BHTDEP       - MAXIMUM RECORDED TEMPERATURE
RMT .C        24                   : MDTP         - TEMPERATURE OF MUD
MUDD.KG/M     1130                 : MWT          - MUD DENSITY
NEUT.         1                    : NEUTRON      - NEUTRON TYPE
RESI.         0                    : RESIST       - RESISTIVITY TYPE
RM  .OHMM     3.9                  : RM           - RESISTIVITY OF MUD
RMC .OHMM     0                    : RMC          - RESISTIVITY OF MUD CAKE
RMF .OHMM     4                    : RMF          - RESISTIVITY OF MUD FILTRATE
SUFT.C        0                    : SUFT         - SURFACE TEMPERATURE
~A  DEPTH     RESD     PHID     PHIN      CAL       GR
# ...
  523.000    4.933    0.211    0.426  227.058  107.992
  523.250    5.006    0.209    0.444  227.427  109.035
  523.500    5.079    0.205    0.444  228.009  111.218
  523.750    5.134    0.202    0.431  228.072  114.666
  524.000    5.209    0.200    0.411  228.131  117.859
  524.250    5.226    0.221    0.428  228.395  118.146
  524.500    5.243    0.243    0.444  227.819  116.979
  524.750    5.308    0.253    0.445  227.353  110.949
  525.000    5.407    0.243    0.426  227.094  105.105
  525.250    5.475    0.224    0.394  227.042  101.729
  525.500    5.493    0.208    0.396  226.787   99.488
  525.750    5.479    0.215    0.407  226.525   97.121
  526.000    5.444    0.220    0.423  226.471  101.578
  526.250    5.450    0.223    0.431  226.111  105.215
  526.500    5.416    0.224    0.438  225.847  104.870
  526.750    5.372    0.225    0.435  225.592  102.437
  527.000    5.318    0.223    0.421  225.855  105.822
  527.250    5.294    0.218    0.424  226.134  108.257
  527.500    5.300    0.216    0.433  226.605  104.753
  527.750    5.287    0.218    0.439  226.764  103.397
  528.000    5.243    0.222    0.417  226.726   99.263
  528.250    5.220    0.221    0.408  226.255  101.191
  528.500    5.177    0.214    0.418  226.100  105.270
  528.750    5.173    0.212    0.447  226.371  106.188
  529.000    5.150    0.213    0.454  227.165  106.409
  529.250    5.118    0.216    0.426  228.273  106.005
  529.500    5.143    0.217    0.427  227.907  102.500
  529.750    5.150    0.212    0.423  227.337  102.027
  530.000    5.126    0.222    0.416  226.861  103.010
  530.250    5.143    0.241    0.411  226.711  103.867
  530.500    5.120    0.274    0.404  226.234   94.234
  530.750    5.127    0.288    0.386  225.981   87.318
  531.000    5.137    0.292    0.391  225.721   80.337
  531.250    5.217    0.277    0.401  225.461   76.392
  531.500    5.745    0.224    0.365  225.100   74.278
  531.750    6.496    0.101    0.285  225.261   73.617
  532.000    7.194    0.076    0.266  225.739   72.199
  532.250    8.119    0.060    0.253  225.696   69.832
  532.500    9.269    0.109    0.253  225.013   65.190
  532.750    9.281    0.140    0.259  224.435   64.908
  533.000    9.030    0.276    0.311  224.602   72.082
  533.250    8.191    0.287    0.359  224.765   74.518
  533.500    7.097    0.287    0.403  224.823   71.202
  533.750    6.209    0.289    0.395  225.087   72.689
  534.000    5.599    0.296    0.374  225.143   77.401
  534.250    5.356    0.303    0.381  225.099   78.003
  534.500    5.222    0.265    0.394  224.835   76.836
  534.750    5.209    0.235    0.401  224.787   75.859
  535.000    5.195    0.246    0.395  224.633   71.915
  535.250    5.191    0.269    0.386  225.112   64.556
  535.500    5.188    0.252    0.374  225.593   58.461
  535.750    5.285    0.232    0.361  225.647   54.702
  536.000    5.506    0.234    0.355  225.602   55.750
  536.250    5.792    0.233    0.353  225.548   58.815
  536.500    6.117    0.216    0.351  225.716   60.114
  536.750    6.313    0.202    0.350  225.981   55.473
  537.000    6.394    0.208    0.354  225.925   51.717
  537.250    6.305    0.231    0.363  225.879   53.393
  537.500    6.054    0.252    0.389  225.733   57.472
  537.750    5.769    0.270    0.389  225.468   59.903
  538.000    5.519    0.277    0.377  225.531   61.331
  538.250    5.260    0.276    0.363  226.010   61.365
  538.500    5.012    0.259    0.351  225.859   57.607
  538.750    4.713    0.255    0.381  225.909   59.664
  539.000    4.474    0.270    0.394  225.865   65.448
  539.250    4.345    0.284    0.395  225.497   64.660
  539.500    4.228    0.290    0.384  225.007   59.767
  539.750    4.115    0.289    0.374  224.985   59.233
  540.000    4.035    0.290    0.378  225.037   65.963
  540.250    3.971    0.299    0.390  224.994   71.496
  540.500    3.908    0.308    0.404  225.259   67.170
  540.750    3.862    0.314    0.404  225.412   62.969
  541.000    3.851    0.301    0.390  225.478   61.236
  541.250    3.871    0.298    0.381  225.432   65.438
  541.500    3.905    0.297    0.372  225.587   69.139
  541.750    3.925    0.298    0.369  225.758   73.279
  542.000    3.907    0.300    0.378  225.808   71.670
  542.250    3.935    0.301    0.394  225.760   68.609
  542.500    3.947    0.298    0.411  225.923   69.970
  542.750    3.945    0.289    0.403  226.091   71.900
  543.000    3.972    0.286    0.399  226.454   71.110
  543.250    4.015    0.286    0.398  226.307   71.779
  543.500    4.074    0.282    0.382  226.473   74.909
  543.750    4.110    0.281    0.367  226.840   76.145
  544.000    4.084    0.284    0.365  226.899   76.747
  544.250    4.175    0.283    0.372  226.952   78.172
  544.500    4.236    0.271    0.373  227.010   78.015
  544.750    4.356    0.268    0.382  227.072   77.798
  545.000    4.496    0.269    0.386  227.129   78.463
  545.250    4.839    0.258    0.373  227.389   78.054
  545.500    5.120    0.228    0.357  227.238   72.846
  545.750    5.335    0.201    0.338  227.089   70.794
  546.000    5.633    0.223    0.360  226.936   72.724
  546.250    5.804    0.257    0.377  227.090   74.148
  546.500    5.811    0.232    0.382  226.727   75.193
  546.750    5.742    0.205    0.387  226.788   72.888
  547.000    5.587    0.213    0.403  226.640   71.724
  547.250    5.395    0.252    0.419  226.800   77.382
  547.500    5.152    0.273    0.419  226.642   93.844
  547.750    4.974    0.273    0.402  226.492  108.410
  548.000    4.643    0.280    0.397  226.543  115.015
  548.250    4.433    0.282    0.399  226.497  109.427
  548.500    4.354    0.260    0.408  226.231   97.077
  548.750    4.270    0.271    0.408  225.877   89.529
  549.000    4.218    0.283    0.402  225.830   86.846
  549.250    4.175    0.299    0.402  225.784   88.587
  549.500    4.109    0.308    0.413  225.624   91.400
  549.750    4.037    0.302    0.416  225.259   92.948
  550.000    4.043    0.254    0.410  225.106   93.112
  550.250    4.094    0.216    0.400  224.852   88.597
  550.500    4.225    0.194    0.414  224.805   89.831
  550.750    4.403    0.195    0.446  226.336   93.718
  551.000    4.536    0.212    0.462  228.814   97.294
  551.250    4.700    0.226    0.458  229.294  101.749
  551.500    4.860    0.221    0.426  229.032  107.911
  551.750    4.940    0.205    0.422  228.772  105.546
  552.000    5.003    0.206    0.441  228.831  101.092
  552.250    5.058    0.210    0.428  228.991  100.558
  552.500    5.083    0.215    0.411  229.052   96.803
  552.750    5.070    0.211    0.413  229.208  102.145
  553.000    5.029    0.207    0.441  228.953  108.876
  553.250    4.997    0.209    0.447  228.481  105.813
  553.500    4.993    0.205    0.432  228.331  100.984
  553.750    4.942    0.197    0.426  227.965  100.889
  554.000    4.883    0.190    0.432  227.921  104.212
  554.250    4.843    0.212    0.438  227.975  109.554
  554.500    4.775    0.244    0.436  228.138  113.947
  554.750    4.727    0.279    0.421  227.984  109.051
  555.000    4.680    0.303    0.400  227.935   96.388
  555.250    4.623    0.300    0.387  227.889   77.593
  555.500    4.568    0.294    0.375  227.948   73.963
  555.750    4.556    0.293    0.374  227.580   77.346
  556.000    4.640    0.300    0.382  227.851   79.274
  556.250    4.928    0.292    0.381  228.117   79.688
  556.500    5.254    0.278    0.375  227.537   79.976
  556.750    5.676    0.270    0.364  227.179   80.828
  557.000    6.074    0.260    0.345  227.025   82.129
  557.250    6.525    0.220    0.304  227.606   78.876
  557.500    7.076    0.147    0.282  228.718   76.066
  557.750    7.486    0.078    0.288  231.090   72.248
  558.000    7.066    0.221    0.325  230.307   69.439
  558.250    6.313    0.269    0.376  227.095   73.200
  558.500    5.913    0.295    0.395  227.259   79.931
  558.750    5.487    0.299    0.392  228.479   83.000
  559.000    5.043    0.263    0.393  231.062   86.318
  559.250    4.751    0.232    0.416  233.218   89.577
