~VERSION INFORMATION
 VERS.                 2.0:   CWLS LOG ASCII STANDARD -VERSION 2.0
 WRAP.                  NO:   ONE LINE PER DEPTH STEP
~WELL INFORMATION BLOCK
#MNEM.UNIT           DATA                    DESCRIPTION OF MNEMONIC
#---------    -------------------            -------------------------------
# Generated from Intellog Unique Number	CS_69_70/WELL/904
NULL.         -999.25                        : NULL_VALUE
WELL.         MAYNARD EXPLORATION            : Well_name    - WELL              
LOC .         00/16-33-070-15W4/0            : Location     - LOCATION          
UWI .         00/16-33-070-15W4/0            : Uwi          - UNIQUE WELL ID    
ENTR.         SP                             : Entered      - ENTERED BY        
SRVC.         SCHLUMBERGER                   : Scn          - SERVICE COMPANY   
STRT.M        265                            : top_depth    - START DEPTH       
STOP.M        476                            : bot_depth    - STOP DEPTH        
STEP.M        0.25                           : increment    - STEP LENGTH       
~CURVE INFORMATION BLOCK
#MNEM UNIT       ERCB CURVE CODE    CURVE DESCRIPTION
#-----------   ------------------   ----------------------------------
DEPT.M        00 001 00 00         : DEPTH        - DEPTH                       
ILD .OHMM     00 120 00 00         : RESD         - DEEP RESISTIVITY (DIL)      
DPHI.V/V      00 890 00 00         : PHID         - DENSITY POROSITY (LIMESTONE)
NPHI.V/V      00 330 00 00         : PHIN         - NEUTRON POROSITY (LIMESTONE)
GR  .API      00 310 00 00         : GR           - GAMMA RAY                   
~PARAMETER INFORMATION       
#MNEM.UNIT           DATA             DESCRIPTION OF MNEMONIC
#---------         -----------     ------------------------------
GL  .M        570.01               : gl           - GROUND LEVEL ELEVATION      
EREF.M        573.21               : kb           - ELEVATION OF DEPTH REFERENCE
DATM.M        570.01               : datum        - DATUM ELEVATION             
TDD .M        486                  : tdd          - TOTAL DEPTH DRILLER         
RUN .         ONE                  : Run          - RUN NUMBER                  
ENG .         BILL                 : Engineer     - RECORDING ENGINEER          
WIT .         JIM                  : Witness      - WITNESSED BY                
MUD .         GEL                  : Mud_type     - MUD TYPE                    
MATR.         LIMESTONE            : Logunit      - NEUTRON MATRIX              
TMAX.C        21                   : BHT          - MAXIMUM RECORDED TEMPERATURE
BHTD.M        486                  : BHTDEP       - MAXIMUM RECORDED TEMPERATURE
MATR.         1                    : LOGUNIT      - NEUTRON MATRIX              
RMT .C        25                   : MDTP         - TEMPERATURE OF MUD          
NEUT.         1                    : NEUTRON      - NEUTRON TYPE                
RESI.         0                    : RESIST       - RESISTIVITY TYPE            
RMC .OHMM     0.25                 : RMC          - RESISTIVITY OF MUD CAKE     
RMF .OHMM     0.25                 : RMF          - RESISTIVITY OF MUD FILTRATE 
SUFT.C        15                   : SUFT         - SURFACE TEMPERATURE         
~A  DEPTH     RESD     PHID     PHIN       GR
# ...
  308.500    4.551    0.202    0.405  114.609
  308.750    4.323    0.220    0.408  114.122
  309.000    4.006    0.233    0.412  112.236
  309.250    3.853    0.247    0.422  110.898
  309.500    3.715    0.263    0.445  112.113
  309.750    3.561    0.250    0.439  113.207
  310.000    3.416    0.247    0.433  113.936
  310.250    3.278    0.251    0.441  112.294
  310.500    3.214    0.272    0.449  105.848
  310.750    3.191    0.288    0.439  100.861
  311.000    3.192    0.291    0.438   96.848
  311.250    3.234    0.288    0.445   94.050
  311.500    3.301    0.292    0.434   92.408
  311.750    3.358    0.285    0.422   92.468
  312.000    3.515    0.279    0.408   92.589
  312.250    3.532    0.281    0.393   89.852
  312.500    3.647    0.274    0.384   89.000
  312.750    3.705    0.262    0.402   89.181
  313.000    3.755    0.243    0.418   90.518
  313.250    3.773    0.262    0.412   91.430
  313.500    3.758    0.276    0.400   87.416
  313.750    3.694    0.293    0.392   82.490
  314.000    3.638    0.285    0.400   79.328
  314.250    3.598    0.279    0.416   76.287
  314.500    3.566    0.288    0.403   75.070
  314.750    3.511    0.295    0.391   77.076
  315.000    3.495    0.297    0.394   80.906
  315.250    3.505    0.291    0.405   81.635
  315.500    3.579    0.289    0.411   82.364
  315.750    3.915    0.288    0.397   86.437
  316.000    4.592    0.289    0.388   91.361
  316.250    5.221    0.290    0.354   74.761
  316.500    5.834    0.279    0.304   64.424
  316.750    7.082    0.143    0.258   59.012
  317.000    9.285    0.050    0.164   56.397
  317.250   12.018    0.030    0.135   56.396
  317.500   12.663    0.031    0.149   61.624
  317.750   12.313    0.043    0.233   64.907
  318.000   10.423    0.075    0.298   70.500
  318.250    8.206    0.307    0.342   73.904
  318.500    6.145    0.321    0.372   77.491
  318.750    4.898    0.315    0.394   79.010
  319.000    4.125    0.310    0.411   77.489
  319.250    3.767    0.301    0.408   77.671
  319.500    3.532    0.292    0.393   80.710
  319.750    3.419    0.285    0.416   86.243
  320.000    3.371    0.282    0.403   90.985
  320.250    3.332    0.278    0.406   94.328
  320.500    3.333    0.273    0.395   94.875
  320.750    3.416    0.268    0.398   91.165
  321.000    3.441    0.257    0.411   88.732
  321.250    3.564    0.249    0.398   90.069
  321.500    3.713    0.238    0.423   92.865
  321.750    3.738    0.230    0.423   93.959
  322.000    3.748    0.221    0.433   96.086
  322.250    3.749    0.228    0.450   98.579
  322.500    3.749    0.273    0.442   97.179
  322.750    3.742    0.300    0.428   94.807
  323.000    3.931    0.309    0.410   91.402
  323.250    3.777    0.290    0.402   88.665
  323.500    3.844    0.285    0.409   85.867
  323.750    3.975    0.287    0.415   84.407
  324.000    4.025    0.280    0.408   88.055
  324.250    3.969    0.269    0.403   92.796
  324.500    3.897    0.257    0.405   95.714
  324.750    3.817    0.248    0.427   97.234
  325.000    3.704    0.245    0.447   98.023
  325.250    3.631    0.248    0.452   98.935
  325.500    3.583    0.250    0.443  100.880
  325.750    3.544    0.253    0.436  102.217
  326.000    3.587    0.258    0.449  102.398
  326.250    3.628    0.258    0.459  100.269
  326.500    3.776    0.248    0.468  100.998
  326.750    3.915    0.228    0.444  102.822
  327.000    4.234    0.218    0.421  102.335
  327.250    4.627    0.219    0.415   98.078
  327.500    5.003    0.229    0.411   96.557
  327.750    5.184    0.232    0.412   97.225
  328.000    5.291    0.228    0.424   97.711
  328.250    5.357    0.223    0.420   97.892
  328.500    5.391    0.216    0.404   98.317
  328.750    5.262    0.208    0.397   98.499
  329.000    5.148    0.223    0.395   97.647
  329.250    4.824    0.237    0.392   93.269
  329.500    4.539    0.250    0.396   87.005
  329.750    4.214    0.281    0.392   77.215
  330.000    3.938    0.320    0.383   64.932
  330.250    3.695    0.344    0.385   58.365
  330.500    3.550    0.328    0.385   58.060
  330.750    3.550    0.313    0.377   62.984
  331.000    3.641    0.302    0.370   68.395
  331.250    3.814    0.293    0.376   74.231
  331.500    3.929    0.293    0.386   79.460
  331.750    4.256    0.297    0.388   81.222
  332.000    4.477    0.281    0.390   83.471
  332.250    4.690    0.270    0.389   85.660
  332.500    4.855    0.264    0.387   87.605
  332.750    4.913    0.260    0.401   89.246
  333.000    4.930    0.256    0.401   91.130
  333.250    4.883    0.255    0.390   93.257
  333.500    4.810    0.273    0.386   95.019
  333.750    4.632    0.296    0.381   85.594
  334.000    4.511    0.316    0.378   78.845
  334.250    4.211    0.327    0.381   75.439
  334.500    4.097    0.326    0.385   73.553
  334.750    3.878    0.330    0.378   71.546
  335.000    3.887    0.334    0.382   70.694
  335.250    3.954    0.322    0.394   71.545
  335.500    4.012    0.315    0.390   71.970
  335.750    4.021    0.308    0.380   69.963
  336.000    3.982    0.295    0.373   70.022
  336.250    3.950    0.286    0.379   71.420
  336.500    3.894    0.289    0.378   72.210
  336.750    3.781    0.304    0.385   73.669
  337.000    3.636    0.317    0.396   74.397
  337.250    3.514    0.331    0.413   74.335
  337.500    3.401    0.338    0.429   74.213
  337.750    3.337    0.337    0.417   73.787
  338.000    3.306    0.332    0.422   69.713
  338.250    3.348    0.326    0.422   68.922
  338.500    3.390    0.324    0.413   69.772
  338.750    3.415    0.328    0.403   69.832
  339.000    3.416    0.334    0.400   69.649
  339.250    3.360    0.332    0.398   68.858
  339.500    3.232    0.332    0.393   67.520
  339.750    3.232    0.336    0.387   64.600
  340.000    3.258    0.342    0.387   63.566
  340.250    3.324    0.343    0.388   63.565
  340.500    3.448    0.338    0.390   65.267
  340.750    3.620    0.336    0.408   66.239
  341.000    3.890    0.323    0.406   70.677
  341.250    4.030    0.294    0.404   79.493
  341.500    4.145    0.271    0.419   87.822
  341.750    4.269    0.248    0.428   92.989
  342.000    4.367    0.253    0.436   91.651
  342.250    4.499    0.274    0.442   90.495
  342.500    4.500    0.303    0.432   92.805
  342.750    4.436    0.283    0.425   91.527
  343.000    4.315    0.260    0.420   85.629
  343.250    4.235    0.244    0.408   80.156
  343.500    4.187    0.240    0.377   75.595
  343.750    4.106    0.259    0.365   72.493
  344.000    4.002    0.282    0.386   73.040
  344.250    3.913    0.275    0.404   78.025
  344.500    3.841    0.264    0.404   79.787
  344.750    3.802    0.263    0.396   82.583
  345.000    3.787    0.275    0.399   81.184
  345.250    3.705    0.294    0.407   77.596
  345.500    3.674    0.312    0.404   76.015
  345.750    3.634    0.320    0.395   74.980
  346.000    3.619    0.316    0.389   75.040
  346.250    3.628    0.306    0.385   75.587
  346.500    3.687    0.296    0.386   75.890
  346.750    3.745    0.286    0.389   75.889
  347.000    3.779    0.276    0.391   75.402
  347.250    3.829    0.271    0.396   75.158
  347.500    3.911    0.268    0.406   75.644
  347.750    3.937    0.262    0.419   77.346
  348.000    3.913    0.256    0.428   77.832
  348.250    3.809    0.252    0.440   76.919
  348.500    3.704    0.265    0.429   75.884
  348.750    3.518    0.282    0.412   76.309
  349.000    3.454    0.299    0.406   77.099
  349.250    3.325    0.314    0.402   75.213
  349.500    3.276    0.322    0.419   72.598
  349.750    3.236    0.321    0.419   71.442
  350.000    3.205    0.326    0.409   73.448
  350.250    3.214    0.319    0.403   75.515
  350.500    3.207    0.307    0.412   77.642
  350.750    3.225    0.293    0.417   78.310
  351.000    3.251    0.286    0.413   79.100
  351.250    3.293    0.280    0.404   79.464
  351.500    3.310    0.287    0.397   79.159
  351.750    3.499    0.297    0.397   78.064
