~VERSION INFORMATION
 VERS.                 2.0:   CWLS LOG ASCII STANDARD -VERSION 2.0
 WRAP.                  NO:   ONE LINE PER DEPTH STEP
~WELL INFORMATION BLOCK
#MNEM.UNIT           DATA                    DESCRIPTION OF MNEMONIC
#---------    -------------------            -------------------------------
# Generated from Intellog Unique Number	CW_79_81/WELL/56
WELL.         04-13-079-23W4                 : Well_name    - WELL
LOC .         02/04-13-079-23W4/0            : Location     - LOCATION
UWI .         02/04-13-079-23W4/0            : Uwi          - UNIQUE WELL ID
ENTR.         JJ                             : Entered      - ENTERED BY
SRVC.         SCHLUMBERGER                   : Scn          - SERVICE COMPANY
DATE.         6 MAR 63                       : Date         - LOG DATE
STRT.M        329.794                        : top_depth    - START DEPTH
STOP.M        458.544                        : bot_depth    - STOP DEPTH
STEP.M        0.25                           : increment    - STEP LENGTH
 NULL. -999.2500:NULL Value
~CURVE INFORMATION BLOCK
#MNEM UNIT       ERCB CURVE CODE    CURVE DESCRIPTION
#-----------   ------------------   ----------------------------------
DEPT.M        00 001 00 00         : DEPTH        - DEPTH
DELT.US/F     00 520 00 00         : DELT         - SONIC TRAVEL TIME
GR  .API      00 310 00 00         : GR           - GAMMA RAY
ILD .OHMM     00 120 00 00         : RESD         - DEEP RESISTIVITY (DIL)
~PARAMETER INFORMATION
#MNEM.UNIT           DATA             DESCRIPTION OF MNEMONIC
#---------         -----------     ------------------------------
GL  .M        573.207              : gl           - GROUND LEVEL ELEVATION
EREF.M        575.31               : kb           - ELEVATION OF DEPTH REFERENCE
DATM.M        575.31               : datum        - DATUM ELEVATION
TDD .M        459.334              : tdd          - TOTAL DEPTH DRILLER
RUN .         ONE                  : Run          - RUN NUMBER
ENG .         HAINES               : Engineer     - RECORDING ENGINEER
BASE.         EDMONTON             : Branch       - HOME BASE OF LOGGING UNIT
MUD .         GEL                  : Mud_type     - MUD TYPE
MATR.         SANDSTONE            : Logunit      - NEUTRON MATRIX
TMAX.C        21.1111              : BHT          - MAXIMUM RECORDED TEMPERATURE
BHTD.M        460.248              : BHTDEP       - MAXIMUM RECORDED TEMPERATURE
RMT .C        22.2222              : MDTP         - TEMPERATURE OF MUD
MUDD.KG/M     1200                 : MWT          - MUD DENSITY
NEUT.         1                    : NEUTRON      - NEUTRON TYPE
RESI.         0                    : RESIST       - RESISTIVITY TYPE
RM  .OHMM     5.98                 : RM           - RESISTIVITY OF MUD
RMC .OHMM     6.2                  : RMC          - RESISTIVITY OF MUD CAKE
RMF .OHMM     4.5                  : RMF          - RESISTIVITY OF MUD FILTRATE
SUFT.C        5                    : SUFT         - SURFACE TEMPERATURE
~A  DEPTH     DELT       GR     RESD
  329.794  396.472   78.958    8.019
  330.044  421.944   78.002    7.883
  330.294  420.047   80.978    7.850
  330.544  439.573   84.257    8.045
  330.794  379.224   84.258    8.469
  331.044  399.087   75.285    8.976
  331.294  414.693   72.665    9.523
  331.544  391.240   69.793   10.177
  331.794  402.521   66.920   10.664
  332.044  408.329   62.384   10.961
  332.294  416.096   66.923   11.200
  332.544  378.182   64.656   11.373
  332.794  349.864   61.431   11.735
  333.044  399.325   65.113   11.806
  333.294  399.456   68.745   12.086
  333.544  405.871   66.023   12.487
  333.794  412.422   62.950   13.409
  334.044  344.032   60.329   13.314
  334.294  335.716   62.701   12.886
  334.544  383.691   66.433   12.437
  334.794  392.268   70.418   12.052
  335.044  389.494   68.756   11.583
  335.294  365.230   71.379   11.176
  335.544  343.534   75.213   10.789
  335.794  383.602   79.802   10.279
  336.044  402.925   88.022   10.080
  336.294  382.513   91.301   10.877
  336.544  395.416   75.975   13.419
  336.794  317.767   66.246   18.683
  337.044  262.824   60.802   23.116
  337.294  371.685   54.652   36.087
  337.544  404.252   50.570   42.888
  337.794  195.168   46.689   43.832
  338.044  211.247   45.884   43.134
  338.294  245.369   47.902   41.584
  338.544  261.718   51.786   35.547
  338.794  268.134   55.367   27.767
  339.044  257.926   58.092   22.477
  339.294  305.293   65.505   18.394
  339.544  399.557   72.011   15.391
  339.794  400.837   77.508   14.049
  340.044  398.603   76.199   13.495
  340.294  399.072   74.083   14.294
  340.544  379.268   71.664   15.985
  340.794  373.723   69.498   17.261
  341.044  355.608   67.028   16.999
  341.294  356.956   69.501   15.885
  341.544  316.136   68.040   14.482
  341.794  396.615   67.134   13.120
  342.044  396.137   72.178   12.048
  342.294  402.147   77.423   11.432
  342.544  408.834   82.769   10.776
  342.794  386.259   83.729   10.349
  343.044  386.661   81.562   10.006
  343.294  400.509   79.749    9.949
  343.544  408.817   76.372    9.936
  343.794  406.313   79.247    9.989
  344.044  402.863   76.173   10.079
  344.294  370.557   80.814   10.524
  344.544  407.923   76.681   11.113
  344.794  383.726   73.556   11.060
  345.044  400.278   74.768   10.715
  345.294  417.439   71.038   10.266
  345.544  409.393   73.662    9.860
  345.794  401.820   76.537    9.681
  346.044  401.613   72.959    9.836
  346.294  399.717   73.616   10.031
  346.544  403.565   73.920   10.413
  346.794  397.952   71.249   10.794
  347.044  405.719   67.268   11.406
  347.294  404.567   73.572   12.514
  347.544  358.881   78.162   13.915
  347.794  368.270   77.760   16.312
  348.044  370.563   72.215   19.603
  348.294  349.070   68.284   22.062
  348.544  323.658   63.950   25.499
  348.794  311.963   60.825   26.670
  349.044  333.042   59.163   26.949
  349.294  337.499   57.601   25.919
  349.544  327.290   57.149   24.058
  349.794  333.031   60.882   22.134
  350.044  387.560   63.807   19.754
  350.294  400.193   68.397   17.581
  350.544  398.161   75.760   15.594
  350.794  408.429   74.098   13.921
  351.044  396.464   74.049   12.911
  351.294  380.647   78.639   11.839
  351.544  388.955   80.859   11.162
  351.794  402.669   81.466   11.171
  352.044  390.568   81.316   11.389
  352.294  370.630   81.217   11.562
  352.544  374.477   76.126   11.737
  352.794  389.340   75.674   11.808
  353.044  419.137   79.154   11.898
  353.294  390.143   80.921   12.031
  353.544  360.946   79.006   12.394
  353.794  362.158   71.898   12.817
  354.044  407.295   73.917   13.552
  354.294  385.802   77.851   14.267
  354.544  376.877   78.206   13.923
  354.794  383.158   78.106   13.556
  355.044  398.426   78.763   13.130
  355.294  389.029   76.849   12.867
  355.544  386.592   79.170   12.689
  355.794  389.088   81.844   12.574
  356.044  390.638   83.963   12.603
  356.294  390.364   83.158   12.735
  356.544  378.805   81.848   12.995
  356.794  388.667   82.657   13.043
  357.044  396.636   87.902   12.884
  357.294  389.875   86.441   12.521
  357.544  408.184   79.485   12.258
  357.794  395.949   74.243   12.121
  358.044  378.037   77.169   11.611
  358.294  386.615   79.187   11.223
  358.544  396.612   77.071   11.710
  358.794  412.016   72.837   13.236
  359.044  375.385   73.091   14.946
  359.294  365.447   70.672   18.320
  359.544  378.891   65.329   21.548
  359.794  374.900   62.407   27.249
  360.044  367.665   61.299   32.846
  360.294  356.781   59.536   36.053
  360.544  335.491   57.924   37.432
  360.794  319.471   55.808   36.401
  361.044  317.170   57.272   35.164
  361.294  349.264   60.954   36.212
  361.544  204.174   63.880   37.570
  361.794  302.966   60.403   39.697
  362.044  364.321   56.824   42.303
  362.294  395.064   54.002   45.011
  362.544  260.314   51.180   48.031
  362.794  192.261   51.081   46.794
  363.044  228.883   52.696   42.731
  363.294  304.564   55.823   38.294
  363.544  318.413   61.170   34.604
  363.794  331.586   65.507   30.687
  364.044  343.408   68.937   27.538
  364.294  333.942   71.611   25.053
  364.544  326.506   67.277   23.981
  364.794  331.097   62.337   23.700
  365.044  332.985   58.859   23.396
  365.294  340.279   63.601   22.490
  365.544  351.628   65.921   21.149
  365.794  359.665   70.360   20.035
  366.044  366.148   74.294   20.231
  366.294  250.792   68.750   22.711
  366.544  227.204   61.087   26.562
  366.794  238.755   55.190   29.896
  367.044  267.268   54.939   32.105
  367.294  331.529   61.193   32.009
  367.544  347.405   69.615   27.386
  367.794  348.820   77.986   23.136
  368.044  362.669   83.181   20.465
  368.294  379.762   85.300   18.727
  368.544  380.704   85.655   16.452
  368.794  381.308   84.043   15.359
  369.044  387.521   81.372   14.848
  369.294  396.031   80.365   14.648
  369.544  396.500   81.174   14.451
  369.794  358.586   85.360   14.375
  370.044  378.314   87.681   14.467
  370.294  393.380   85.111   14.643
  370.544  388.240   87.230   14.857
  370.794  374.991   86.627   15.259
  371.044  388.367   82.494   16.806
  371.294  350.250   78.411   20.677
  371.544  322.810   73.371   24.550
  371.794  318.954   67.171   27.300
  372.044  363.348   68.080   29.365
  372.294  380.913   74.182   28.501
  372.544  392.802   79.226   25.954
  372.794  351.712   83.866   23.325
  373.044  312.379   83.011   20.944
  373.294  285.615   77.617   18.646
  373.544  351.970   73.535   17.991
  373.794  363.995   78.326   17.645
  374.044  376.425   79.236   16.989
  374.294  344.052   77.674   15.897
  374.544  387.094   74.247   15.283
  374.794  404.794   76.165   15.000
  375.044  395.734   78.082   14.822
  375.294  395.866   81.512   14.684
  375.544  388.564   78.942   14.651
  375.794  365.854   76.070   14.597
  376.044  389.096   77.080   14.523
  376.294  388.822   79.602   14.429
  376.544  373.815   83.738   14.352
  376.794  385.706   79.958   14.259
  377.044  377.997   84.548   14.080
  377.294  389.549   86.264   13.859
  377.544  388.193   79.661   13.597
  377.794  387.040   81.074   13.356
  378.044  377.103   78.353   13.158
  378.294  386.086   75.581   13.041
  378.544  391.623   77.902   13.048
  378.794  393.647   82.996   13.202
  379.044  383.979   83.250   13.378
  379.294  391.409   80.377   13.427
  379.544  397.554   81.085   13.394
  379.794  367.749   79.977   13.133
  380.044  386.598   77.760   12.726
  380.294  394.568   84.720   12.235
  380.544  402.876   89.965   11.913
  380.794  406.183   92.588   11.940
  381.044  389.420   85.027   12.136
  381.294  397.728   81.550   12.623
  381.544  360.490   78.778   13.005
  381.794  374.879   76.007   13.512
  382.044  379.740   71.823   14.040
  382.294  380.277   79.640   13.902
  382.544  384.193   86.852   12.893
  382.794  416.693   89.828   11.926
  383.044  419.594   93.157   11.248
  383.294  375.530   96.386   10.406
  383.544  349.780   87.564    9.998
  383.794  379.239   79.498   10.110
