~VERSION INFORMATION
 VERS.                 2.0:   CWLS LOG ASCII STANDARD -VERSION 2.0
 WRAP.                  NO:   ONE LINE PER DEPTH STEP
~WELL INFORMATION BLOCK
#MNEM.UNIT           DATA                    DESCRIPTION OF MNEMONIC
#---------    -------------------            -------------------------------
# Generated from Intellog Unique Number	CW_70_72/WELL/924
NULL.         -999.25                        : NULL_VALUE
WELL.         WINCAN ET AL CALLING LAKE 07-2 : Well_name    - WELL              
LOC .         07-26-071-21W4                 : Location     - LOCATION          
UWI .         02/07-26-071-21W4/0            : Uwi          - UNIQUE WELL ID    
ENTR.         JAYE                           : Entered      - ENTERED BY        
SRVC.         WESTERN ATLAS                  : Scn          - SERVICE COMPANY   
DATE.         14 MAR 83                      : Date         - LOG DATE          
STRT.M        328                            : top_depth    - START DEPTH       
STOP.M        505                            : bot_depth    - STOP DEPTH        
STEP.M        0.25                           : increment    - STEP LENGTH       
~CURVE INFORMATION BLOCK
#MNEM UNIT       ERCB CURVE CODE    CURVE DESCRIPTION
#-----------   ------------------   ----------------------------------
DEPT.M        00 001 00 00         : DEPTH        - DEPTH                       
DPHI.V/V      00 890 00 00         : PHID         - DENSITY POROSITY (SANDSTONE)
NPHI.V/V      00 330 00 00         : PHIN         - NEUTRON POROSITY (SANDSTONE)
GR  .API      00 310 00 00         : GR           - GAMMA RAY                   
CALI.MM       00 280 01 00         : CAL          - CALIPER                     
ILD .OHMM     00 120 00 00         : RESD         - DEEP RESISTIVITY (DIL)      
~PARAMETER INFORMATION       
#MNEM.UNIT           DATA             DESCRIPTION OF MNEMONIC
#---------         -----------     ------------------------------
GL  .M        595.4                : gl           - GROUND LEVEL ELEVATION      
EREF.M        598.6                : kb           - ELEVATION OF DEPTH REFERENCE
DATM.M        595.4                : datum        - DATUM ELEVATION             
TDD .M        505.6                : tdd          - TOTAL DEPTH DRILLER         
RUN .         ONE                  : Run          - RUN NUMBER                  
ENG .         THOKLE               : Engineer     - RECORDING ENGINEER          
BASE.         R.D.                 : Branch       - HOME BASE OF LOGGING UNIT   
MUD .         GEL CHEM             : Mud_type     - MUD TYPE                    
MATR.         SANDSTONE            : Logunit      - NEUTRON MATRIX              
TMAX.C        38                   : BHT          - MAXIMUM RECORDED TEMPERATURE
BHTD.M        503.1                : BHTDEP       - MAXIMUM RECORDED TEMPERATURE
RMT .C        15.8                 : MDTP         - TEMPERATURE OF MUD          
MUDD.KG/M     1110                 : MWT          - MUD DENSITY                 
NEUT.         1                    : NEUTRON      - NEUTRON TYPE                
RESI.         0                    : RESIST       - RESISTIVITY TYPE            
RM  .OHMM     3.2                  : RM           - RESISTIVITY OF MUD          
RMC .OHMM     0                    : RMC          - RESISTIVITY OF MUD CAKE     
RMF .OHMM     2.9                  : RMF          - RESISTIVITY OF MUD FILTRATE 
SUFT.C        0                    : SUFT         - SURFACE TEMPERATURE         
~A  DEPTH     PHID     PHIN       GR      CAL     RESD
# ...
  401.000    0.287    0.392   76.696  160.644    3.551
  401.250    0.277    0.395   75.693  160.657    3.575
  401.500    0.263    0.394   69.950  160.885    3.633
  401.750    0.199    0.358   68.885  161.218    3.855
  402.000    0.140    0.237   68.957  161.228    4.314
  402.250    0.097    0.204   64.162  161.564    4.818
  402.500    0.091    0.210   61.012  161.894    5.483
  402.750    0.135    0.254   65.826  162.227    6.480
  403.000    0.257    0.337   73.421  163.082    7.459
  403.250    0.291    0.353   80.888  163.309    7.382
  403.500    0.311    0.377   85.765  163.113    6.438
  403.750    0.319    0.385   85.901  161.127    5.488
  404.000    0.318    0.378   79.905  159.037    4.514
  404.250    0.312    0.367   75.427  158.314    3.769
  404.500    0.304    0.361   73.160  158.857    3.407
  404.750    0.306    0.374   70.894  159.715    2.977
  405.000    0.307    0.381   69.892  160.890    2.880
  405.250    0.294    0.372   71.229  162.275    2.813
  405.500    0.286    0.376   72.565  163.556    2.784
  405.750    0.276    0.380   72.575  163.887    2.765
  406.000    0.288    0.371   70.498  163.903    2.747
  406.250    0.305    0.352   72.595  162.341    2.719
  406.500    0.321    0.347   74.374  161.301    2.732
  406.750    0.321    0.358   73.307  160.791    2.729
  407.000    0.315    0.369   68.956  160.489    2.732
  407.250    0.310    0.385   66.879  160.187    2.739
  407.500    0.310    0.402   66.066  159.888    2.737
  407.750    0.310    0.409   66.518  159.906    2.729
  408.000    0.307    0.406   68.550  159.919    2.706
  408.250    0.301    0.382   71.341  159.831    2.694
  408.500    0.297    0.363   74.258  159.846    2.675
  408.750    0.296    0.341   69.400  159.965    2.668
  409.000    0.297    0.349   68.840  160.298    2.671
  409.250    0.303    0.363   70.873  160.736    2.668
  409.500    0.311    0.382   71.072  161.067    2.671
  409.750    0.320    0.405   66.972  161.397    2.663
  410.000    0.325    0.405   65.781  161.731    2.661
  410.250    0.324    0.386   65.600  161.956    2.643
  410.500    0.316    0.377   67.063  161.867    2.621
  410.750    0.312    0.363   64.798  161.882    2.584
  411.000    0.306    0.338   62.088  161.896    2.552
  411.250    0.298    0.344   60.328  161.597    2.526
  411.500    0.305    0.365   60.337  161.194    2.514
  411.750    0.314    0.381   66.036  160.996    2.522
  412.000    0.306    0.377   67.752  160.801    2.519
  412.250    0.290    0.386   69.278  160.921    2.493
  412.500    0.270    0.413   74.092  163.781    2.481
  412.750    0.236    0.432   85.923  167.905    2.503
  413.000    0.203    0.446   92.000  172.662    2.543
  413.250    0.225    0.401   98.900  170.992    2.629
  413.500    0.247    0.386   96.380  167.321    2.732
  413.750    0.272    0.384   93.609  165.125    2.900
  414.000    0.262    0.382   91.975  164.823    3.095
  414.250    0.247    0.355   90.024  166.208    3.360
  414.500    0.236    0.373   88.770  166.961    3.648
  414.750    0.228    0.389   88.336  166.662    3.864
  415.000    0.236    0.395   88.915  165.834    4.047
  415.250    0.249    0.385   90.821  164.796    4.129
  415.500    0.259    0.373   91.714  163.338    3.949
  415.750    0.251    0.368   88.942  162.299    3.821
  416.000    0.237    0.376   82.631  161.366    3.788
  416.250    0.211    0.357   80.996  160.960    3.894
  416.500    0.167    0.341   79.679  160.660    4.148
  416.750    0.123    0.309   78.297  160.675    4.677
  417.000    0.094    0.265   76.094  162.271    5.454
  417.250    0.050    0.241   70.224  164.184    6.279
  417.500    0.040    0.221   61.384  164.199    7.547
  417.750    0.037    0.198   60.510  162.531    8.938
  418.000    0.028    0.176   60.898  161.598   12.194
  418.250    0.000    0.148   60.717  161.296   16.418
  418.500   -0.003    0.138   60.284  160.789   20.153
  418.750    0.017    0.214   60.609  160.695   12.322
  419.000    0.092    0.264   61.440  160.499    7.825
  419.250    0.209    0.289   62.776  160.516    5.471
  419.500    0.289    0.330   64.493  160.532    4.664
  419.750    0.295    0.347   64.502  158.333    4.168
  420.000    0.293    0.362   63.817  155.400    4.040
  420.250    0.283    0.371   67.429  156.261    4.161
  420.500    0.271    0.379   74.202  158.276    4.325
  420.750    0.261    0.376   81.418  161.663    4.386
  421.000    0.250    0.365   87.875  165.154    4.374
  421.250    0.239    0.359   92.372  166.856    4.329
  421.500    0.232    0.370   93.013  167.927    4.324
  421.750    0.228    0.365   93.403  168.575    4.329
  422.000    0.231    0.368   94.487  169.328    4.317
  422.250    0.230    0.390   93.801  169.766    4.296
  422.500    0.221    0.385   92.104  170.411    4.260
  422.750    0.211    0.376   92.556  170.954    4.232
  423.000    0.202    0.368   93.197  171.390    4.292
  423.250    0.199    0.371   93.902  171.723    4.345
  423.500    0.202    0.375   95.554  171.632    4.366
  423.750    0.213    0.353   95.311  171.331    4.354
  424.000    0.220    0.333   96.268  169.767    4.333
  424.250    0.232    0.335   98.490  168.097    4.297
  424.500    0.246    0.357   93.822  166.111    4.229
  424.750    0.270    0.369   88.206  163.387    4.037
  425.000    0.293    0.376   83.790  161.717    3.595
  425.250    0.304    0.389   80.386  160.578    3.293
  425.500    0.311    0.407   76.034  160.276    3.068
  425.750    0.304    0.422   72.376  160.184    2.907
  426.000    0.288    0.414   70.110  160.200    2.887
  426.250    0.265    0.361   69.234  160.638    3.042
  426.500    0.233    0.311   70.509  161.074    3.234
  426.750    0.212    0.289   70.897  161.827    3.471
  427.000    0.192    0.274   67.113  162.266    3.826
  427.250    0.190    0.286   66.618  162.492    4.249
  427.500    0.249    0.317   68.143  162.611    4.700
  427.750    0.280    0.343   70.112  163.365    4.914
  428.000    0.290    0.363   71.576  163.697    4.326
  428.250    0.292    0.376   71.838  163.711    3.866
  428.500    0.293    0.396   71.973  162.990    3.436
  428.750    0.293    0.416   71.919  161.424    3.207
  429.000    0.299    0.429   71.929  154.699    3.056
  429.250    0.306    0.423   70.927  154.292    3.008
  429.500    0.319    0.413   71.000  156.520    2.993
  429.750    0.324    0.410   71.641  160.117    2.985
  430.000    0.312    0.404   71.461  158.660    2.982
  430.250    0.304    0.402   72.165  158.359    2.990
  430.500    0.300    0.411   73.376  158.057    3.010
  430.750    0.297    0.418   74.270  157.758    3.031
  431.000    0.295    0.416   75.354  158.090    3.045
  431.250    0.292    0.404   76.880  158.104    3.054
  431.500    0.298    0.394   78.597  156.750    3.050
  431.750    0.296    0.385   79.554  152.657    3.053
  432.000    0.292    0.378   76.466  152.988    3.068
  432.250    0.290    0.373   72.999  157.640    3.071
  432.500    0.295    0.375   73.956  161.345    3.074
  432.750    0.297    0.374   77.380  163.360    3.111
  433.000    0.292    0.371   78.084  165.168    3.138
  433.250    0.286    0.380   75.502  166.237    3.184
  433.500    0.275    0.391   75.448  166.464    3.241
  433.750    0.267    0.402   76.532  166.162    3.281
  434.000    0.257    0.388   77.679  165.651    3.347
  434.250    0.248    0.374   80.217  165.244    3.426
  434.500    0.243    0.366   79.721  165.576    3.488
  434.750    0.238    0.360   79.603  165.593    3.539
  435.000    0.233    0.367   81.320  165.081    3.596
  435.250    0.228    0.378   83.858  164.571    3.647
  435.500    0.229    0.389   87.155  166.377    3.665
  435.750    0.240    0.409   89.441  169.763    3.627
  436.000    0.239    0.437   91.282  173.677    3.555
  436.250    0.233    0.459   93.819  175.589    3.453
  436.500    0.223    0.444   97.116  176.552    3.309
  436.750    0.221    0.429   99.527  177.835    3.154
  437.000    0.232    0.461  101.940  179.009    2.966
  437.250    0.259    0.481  103.910  179.760    2.753
