~VERSION INFORMATION
 VERS.                 2.0:   CWLS LOG ASCII STANDARD -VERSION 2.0
 WRAP.                  NO:   ONE LINE PER DEPTH STEP
~WELL INFORMATION BLOCK
#MNEM.UNIT           DATA                    DESCRIPTION OF MNEMONIC
#---------    -------------------            -------------------------------
# Generated from Intellog Unique Number	CW_70_72/WELL/924
NULL.         -999.25                        : NULL_VALUE
WELL.         WINCAN ET AL CALLING LAKE 07-2 : Well_name    - WELL              
LOC .         07-26-071-21W4                 : Location     - LOCATION          
UWI .         02/07-26-071-21W4/0            : Uwi          - UNIQUE WELL ID    
ENTR.         JAYE                           : Entered      - ENTERED BY        
SRVC.         WESTERN ATLAS                  : Scn          - SERVICE COMPANY   
DATE.         14 MAR 83                      : Date         - LOG DATE          
STRT.M        328                            : top_depth    - START DEPTH       
STOP.M        505                            : bot_depth    - STOP DEPTH        
STEP.M        0.25                           : increment    - STEP LENGTH       
~CURVE INFORMATION BLOCK
#MNEM UNIT       ERCB CURVE CODE    CURVE DESCRIPTION
#-----------   ------------------   ----------------------------------
DEPT.M        00 001 00 00         : DEPTH        - DEPTH                       
DPHI.V/V      00 890 00 00         : PHID         - DENSITY POROSITY (SANDSTONE)
NPHI.V/V      00 330 00 00         : PHIN         - NEUTRON POROSITY (SANDSTONE)
GR  .API      00 310 00 00         : GR           - GAMMA RAY                   
CALI.MM       00 280 01 00         : CAL          - CALIPER                     
ILD .OHMM     00 120 00 00         : RESD         - DEEP RESISTIVITY (DIL)      
~PARAMETER INFORMATION       
#MNEM.UNIT           DATA             DESCRIPTION OF MNEMONIC
#---------         -----------     ------------------------------
GL  .M        595.4                : gl           - GROUND LEVEL ELEVATION      
EREF.M        598.6                : kb           - ELEVATION OF DEPTH REFERENCE
DATM.M        595.4                : datum        - DATUM ELEVATION             
TDD .M        505.6                : tdd          - TOTAL DEPTH DRILLER         
RUN .         ONE                  : Run          - RUN NUMBER                  
ENG .         THOKLE               : Engineer     - RECORDING ENGINEER          
BASE.         R.D.                 : Branch       - HOME BASE OF LOGGING UNIT   
MUD .         GEL CHEM             : Mud_type     - MUD TYPE                    
MATR.         SANDSTONE            : Logunit      - NEUTRON MATRIX              
TMAX.C        38                   : BHT          - MAXIMUM RECORDED TEMPERATURE
BHTD.M        503.1                : BHTDEP       - MAXIMUM RECORDED TEMPERATURE
RMT .C        15.8                 : MDTP         - TEMPERATURE OF MUD          
MUDD.KG/M     1110                 : MWT          - MUD DENSITY                 
NEUT.         1                    : NEUTRON      - NEUTRON TYPE                
RESI.         0                    : RESIST       - RESISTIVITY TYPE            
RM  .OHMM     3.2                  : RM           - RESISTIVITY OF MUD          
RMC .OHMM     0                    : RMC          - RESISTIVITY OF MUD CAKE     
RMF .OHMM     2.9                  : RMF          - RESISTIVITY OF MUD FILTRATE 
SUFT.C        0                    : SUFT         - SURFACE TEMPERATURE         
~A  DEPTH     PHID     PHIN       GR      CAL     RESD
# ...
  364.500    0.338    0.338   75.075  151.722    9.343
  364.750    0.316    0.316   73.504  152.055    8.955
  365.000    0.287    0.326   74.779  153.232    8.186
  365.250    0.268    0.358   77.126  154.510    7.166
  365.500    0.247    0.377   81.371  156.740    5.806
  365.750    0.226    0.390   83.466  158.230    4.959
  366.000    0.212    0.384   84.866  159.403    4.398
  366.250    0.202    0.372   84.749  159.841    4.152
  366.500    0.214    0.363   85.328  160.171    4.048
  366.750    0.237    0.353   86.474  160.819    4.014
  367.000    0.262    0.345   88.379  161.782    4.010
  367.250    0.278    0.381   93.067  162.535    3.976
  367.500    0.281    0.409   93.014  163.395    3.890
  367.750    0.285    0.418   92.138  163.727    3.843
  368.000    0.290    0.420   90.885  164.164    3.740
  368.250    0.297    0.418   89.629  164.178    3.604
  368.500    0.310    0.407   87.931  164.194    3.454
  368.750    0.313    0.385   85.348  163.261    3.280
  369.000    0.302    0.356   82.830  160.116    3.197
  369.250    0.289    0.351   83.850  159.291    3.176
  369.500    0.267    0.356   86.956  159.728    3.276
  369.750    0.252    0.367   91.264  161.217    3.438
  370.000    0.235    0.379   94.877  163.444    3.711
  370.250    0.214    0.376   96.656  165.778    3.924
  370.500    0.202    0.384   95.907  167.796    4.141
  370.750    0.194    0.389   92.187  168.548    4.280
  371.000    0.188    0.390   92.893  168.459    4.432
  371.250    0.174    0.392   97.831  166.262    4.512
  371.500    0.173    0.391  102.392  165.436    4.586
  371.750    0.172    0.388  102.211  166.611    4.616
  372.000    0.176    0.377   98.555  168.523    4.630
  372.250    0.213    0.370   98.122  169.485    4.564
  372.500    0.237    0.368   96.550  169.605    4.492
  372.750    0.274    0.363   87.648  168.991    4.386
  373.000    0.315    0.359   80.324  167.425    4.269
  373.250    0.336    0.361   71.610  164.070    3.977
  373.500    0.343    0.369   63.844  161.029    3.783
  373.750    0.339    0.361   56.963  158.204    3.537
  374.000    0.330    0.353   60.513  157.375    3.449
  374.250    0.319    0.356   63.367  156.759    3.452
  374.500    0.309    0.374   66.158  156.563    3.501
  374.750    0.306    0.394   70.655  155.946    3.544
  375.000    0.319    0.381   74.520  155.435    3.574
  375.250    0.315    0.371   75.477  155.030    3.585
  375.500    0.307    0.374   71.569  154.940    3.561
  375.750    0.299    0.382   69.618  155.167    3.511
  376.000    0.290    0.382   68.742  155.812    3.482
  376.250    0.302    0.369   70.016  157.410    3.504
  376.500    0.357    0.354   72.301  158.583    3.575
  376.750    0.374    0.359   75.344  159.757    3.779
  377.000    0.357    0.402   76.238  160.616    4.004
  377.250    0.331    0.372   69.232  161.266    4.225
  377.500    0.310    0.353   63.109  161.701    4.544
  377.750    0.294    0.341   56.038  162.137    4.813
  378.000    0.288    0.339   52.381  162.469    4.910
  378.250    0.287    0.328   54.793  162.486    4.832
  378.500    0.290    0.316   57.458  162.711    4.536
  378.750    0.294    0.308   59.110  163.148    4.225
  379.000    0.297    0.313   60.447  162.955    4.057
  379.250    0.300    0.320   61.594  162.970    3.910
  379.500    0.302    0.323   62.301  162.986    3.798
  379.750    0.305    0.325   63.004  163.001    3.723
  380.000    0.306    0.328   63.456  163.016    3.650
  380.250    0.307    0.331   63.401  163.033    3.564
  380.500    0.308    0.337   61.642  163.261    3.528
  380.750    0.308    0.344   59.817  163.386    3.465
  381.000    0.310    0.343   59.953  163.501    3.430
  381.250    0.311    0.345   63.061  163.732    3.356
  381.500    0.314    0.349   66.356  163.848    3.302
  381.750    0.317    0.355   66.366  163.655    3.257
  382.000    0.325    0.362   64.289  163.456    3.180
  382.250    0.336    0.372   62.970  163.473    3.118
  382.500    0.340    0.386   62.159  163.489    3.034
  382.750    0.335    0.393   61.788  163.505    2.907
  383.000    0.328    0.387   60.914  163.520    2.845
  383.250    0.322    0.372   59.849  163.853    2.784
  383.500    0.326    0.368   58.404  163.971    2.755
  383.750    0.331    0.367   57.971  163.987    2.721
  384.000    0.330    0.366   58.422  163.478    2.735
  384.250    0.323    0.369   59.063  162.860    2.805
  384.500    0.315    0.375   60.211  162.454    2.927
  384.750    0.322    0.383   63.001  161.945    3.020
  385.000    0.331    0.385   66.551  161.855    3.086
  385.250    0.336    0.380   69.657  161.869    3.148
  385.500    0.338    0.372   70.425  161.885    3.163
  385.750    0.341    0.366   62.217  161.480    3.196
  386.000    0.342    0.361   61.152  161.072    3.187
  386.250    0.341    0.364   62.678  160.669    3.148
  386.500    0.338    0.372   62.751  160.367    3.109
  386.750    0.334    0.380   61.180  160.384    3.072
  387.000    0.332    0.366   59.862  160.191    3.034
  387.250    0.332    0.355   59.113  160.309    3.003
  387.500    0.332    0.351   63.989  160.113    2.972
  387.750    0.332    0.351   64.631  160.128    2.964
  388.000    0.332    0.350   63.060  160.252    2.950
  388.250    0.331    0.355   61.426  160.159    2.947
  388.500    0.331    0.369   60.297  160.492    2.944
  388.750    0.330    0.375   60.180  160.825    2.919
  389.000    0.329    0.382   59.811  160.945    2.878
  389.250    0.329    0.382   58.934  161.065    2.837
  389.500    0.328    0.366   58.123  160.870    2.819
  389.750    0.329    0.360   58.954  160.885    2.795
  390.000    0.330    0.368   60.543  160.587    2.772
  390.250    0.332    0.379   59.731  160.390    2.738
  390.500    0.335    0.373   57.908  160.302    2.684
  390.750    0.339    0.366   56.716  160.210    2.657
  391.000    0.344    0.362   56.724  160.332    2.624
  391.250    0.348    0.363   57.937  160.137    2.597
  391.500    0.350    0.361   60.474  159.732    2.595
  391.750    0.348    0.365   64.654  159.642    2.602
  392.000    0.345    0.373   66.497  159.235    2.619
  392.250    0.344    0.362   64.864  159.253    2.647
  392.500    0.343    0.351   64.050  159.265    2.664
  392.750    0.339    0.361   64.123  159.600    2.707
  393.000    0.336    0.388   65.902  159.828    2.772
  393.250    0.334    0.401   66.859  160.053    2.849
  393.500    0.332    0.377   67.501  160.172    2.906
  393.750    0.332    0.359   68.207  160.083    2.941
  394.000    0.333    0.364   68.468  160.097    2.956
  394.250    0.334    0.386   65.318  159.902    2.959
  394.500    0.335    0.389   64.884  160.023    2.967
  394.750    0.334    0.394   66.285  160.460    2.959
  395.000    0.328    0.406   67.431  161.215    2.945
  395.250    0.321    0.405   68.199  161.652    2.925
  395.500    0.312    0.393   68.271  161.666    2.901
  395.750    0.301    0.385   68.725  159.049    2.887
  396.000    0.291    0.369   68.290  156.114    2.879
  396.250    0.269    0.336   67.478  152.968    2.909
  396.500    0.189    0.318   64.960  155.303    3.035
  396.750    0.186    0.321   63.261  159.953    3.271
  397.000    0.212    0.341   60.868  162.182    3.550
  397.250    0.271    0.370   62.648  162.829    3.719
  397.500    0.302    0.386   64.806  163.056    3.764
  397.750    0.324    0.391   67.281  163.388    3.698
  398.000    0.324    0.378   69.757  163.404    3.497
  398.250    0.316    0.358   72.548  163.314    3.371
  398.500    0.306    0.376   74.706  163.012    3.330
  398.750    0.294    0.393   76.612  162.501    3.333
  399.000    0.293    0.386   77.000  153.246    3.355
  399.250    0.300    0.373   76.694  152.312    3.390
  399.500    0.307    0.368   76.829  155.174    3.412
  399.750    0.312    0.377   76.901  158.877    3.409
  400.000    0.315    0.395   76.469  161.105    3.419
  400.250    0.311    0.400   76.352  161.121    3.435
  400.500    0.300    0.392   76.867  160.819    3.451
  400.750    0.293    0.388   77.067  160.521    3.488
