~VERSION INFORMATION
 VERS.                 2.0:   CWLS LOG ASCII STANDARD -VERSION 2.0
 WRAP.                  NO:   ONE LINE PER DEPTH STEP
~WELL INFORMATION BLOCK
#MNEM.UNIT           DATA                    DESCRIPTION OF MNEMONIC
#---------    -------------------            -------------------------------
# Generated from Intellog Unique Number	CW_70_72/WELL/924
NULL.         -999.25                        : NULL_VALUE
WELL.         WINCAN ET AL CALLING LAKE 07-2 : Well_name    - WELL              
LOC .         07-26-071-21W4                 : Location     - LOCATION          
UWI .         02/07-26-071-21W4/0            : Uwi          - UNIQUE WELL ID    
ENTR.         JAYE                           : Entered      - ENTERED BY        
SRVC.         WESTERN ATLAS                  : Scn          - SERVICE COMPANY   
DATE.         14 MAR 83                      : Date         - LOG DATE          
STRT.M        328                            : top_depth    - START DEPTH       
STOP.M        505                            : bot_depth    - STOP DEPTH        
STEP.M        0.25                           : increment    - STEP LENGTH       
~CURVE INFORMATION BLOCK
#MNEM UNIT       ERCB CURVE CODE    CURVE DESCRIPTION
#-----------   ------------------   ----------------------------------
DEPT.M        00 001 00 00         : DEPTH        - DEPTH                       
DPHI.V/V      00 890 00 00         : PHID         - DENSITY POROSITY (SANDSTONE)
NPHI.V/V      00 330 00 00         : PHIN         - NEUTRON POROSITY (SANDSTONE)
GR  .API      00 310 00 00         : GR           - GAMMA RAY                   
CALI.MM       00 280 01 00         : CAL          - CALIPER                     
ILD .OHMM     00 120 00 00         : RESD         - DEEP RESISTIVITY (DIL)      
~PARAMETER INFORMATION       
#MNEM.UNIT           DATA             DESCRIPTION OF MNEMONIC
#---------         -----------     ------------------------------
GL  .M        595.4                : gl           - GROUND LEVEL ELEVATION      
EREF.M        598.6                : kb           - ELEVATION OF DEPTH REFERENCE
DATM.M        595.4                : datum        - DATUM ELEVATION             
TDD .M        505.6                : tdd          - TOTAL DEPTH DRILLER         
RUN .         ONE                  : Run          - RUN NUMBER                  
ENG .         THOKLE               : Engineer     - RECORDING ENGINEER          
BASE.         R.D.                 : Branch       - HOME BASE OF LOGGING UNIT   
MUD .         GEL CHEM             : Mud_type     - MUD TYPE                    
MATR.         SANDSTONE            : Logunit      - NEUTRON MATRIX              
TMAX.C        38                   : BHT          - MAXIMUM RECORDED TEMPERATURE
BHTD.M        503.1                : BHTDEP       - MAXIMUM RECORDED TEMPERATURE
RMT .C        15.8                 : MDTP         - TEMPERATURE OF MUD          
MUDD.KG/M     1110                 : MWT          - MUD DENSITY                 
NEUT.         1                    : NEUTRON      - NEUTRON TYPE                
RESI.         0                    : RESIST       - RESISTIVITY TYPE            
RM  .OHMM     3.2                  : RM           - RESISTIVITY OF MUD          
RMC .OHMM     0                    : RMC          - RESISTIVITY OF MUD CAKE     
RMF .OHMM     2.9                  : RMF          - RESISTIVITY OF MUD FILTRATE 
SUFT.C        0                    : SUFT         - SURFACE TEMPERATURE         
~A  DEPTH     PHID     PHIN       GR      CAL     RESD
# ...
  474.000    0.013    0.281   97.383  164.674    6.690
  474.250    0.011    0.273   89.933  163.634    7.877
  474.500    0.012    0.260   78.880  163.125    9.100
  474.750    0.014    0.237   70.672  163.454   10.012
  475.000    0.021    0.215   65.751  164.314   11.265
  475.250    0.030    0.234   68.985  165.384   11.957
  475.500    0.040    0.252   74.114  166.241   12.014
  475.750    0.055    0.272   81.583  167.101   10.497
  476.000    0.073    0.296   83.551  167.117    9.872
  476.250    0.098    0.305   85.521  166.711    9.023
  476.500    0.129    0.307   87.237  165.670    8.765
  476.750    0.125    0.307   90.407  163.897    8.544
  477.000    0.117    0.307   88.267  163.069    8.282
  477.250    0.113    0.310   87.266  162.664    8.028
  477.500    0.113    0.314   89.170  162.468    7.635
  477.750    0.114    0.312   92.594  162.801    7.430
  478.000    0.115    0.310   91.339  163.342    7.161
  478.250    0.119    0.320   90.906  164.094    6.850
  478.500    0.128    0.329   92.811  165.164    6.577
  478.750    0.136    0.324   95.540  166.022    6.377
  479.000    0.131    0.315   97.319  166.671    6.169
  479.250    0.117    0.313   98.466  167.002    6.093
  479.500    0.103    0.322   99.551  166.912    6.031
  479.750    0.086    0.321  101.519  166.717    6.072
  480.000    0.070    0.310  105.131  166.522    6.286
  480.250    0.051    0.299  102.042  166.538    6.597
  480.500    0.045    0.293   95.288  166.555    7.149
  480.750    0.088    0.296   88.660  166.571    7.630
  481.000    0.146    0.301   90.502  166.482    7.724
  481.250    0.154    0.304   94.495  166.286    7.630
  481.500    0.140    0.305   98.298  166.194    7.271
  481.750    0.125    0.301  102.478  166.000    6.941
  482.000    0.112    0.298  106.722  166.225    6.767
  482.250    0.103    0.294  108.818  166.242    6.660
  482.500    0.096    0.289  104.276  166.259    6.603
  482.750    0.077    0.290  101.504  166.063    6.634
  483.000    0.071    0.295   97.341  165.971    6.768
  483.250    0.070    0.303   96.782  165.988    6.917
  483.500    0.061    0.305   95.843  166.109    7.082
  483.750    0.048    0.296   93.513  166.440    7.347
  484.000    0.071    0.290   90.173  166.772    7.623
  484.250    0.104    0.301   92.838  166.894    7.516
  484.500    0.132    0.322   96.134  166.700    6.542
  484.750    0.156    0.356  102.275  165.870    5.094
  485.000    0.168    0.376  106.077  164.517    4.368
  485.250    0.176    0.390  111.017  164.322    3.661
  485.500    0.179    0.406  115.261  164.337    3.168
  485.750    0.144    0.378  116.978  164.773    2.810
  486.000    0.046    0.351  115.470  165.844    2.845
  486.250    0.020    0.304  102.394  167.017    3.190
  486.500    0.009    0.293   91.151  168.299    3.922
  486.750    0.019    0.294   82.564  169.261    5.114
  487.000    0.041    0.296   86.619  170.226    6.230
  487.250    0.066    0.301   92.001  170.767    7.050
  487.500    0.076    0.310   96.373  170.993    7.177
  487.750    0.088    0.317   99.290  171.115    6.699
  488.000    0.100    0.325  103.155  171.235    6.136
  488.250    0.112    0.317  105.692  171.252    5.815
  488.500    0.087    0.296  110.380  171.372    5.999
  488.750    0.028    0.277  107.861  171.389    7.077
  489.000    0.010    0.259   95.037  171.408    8.492
  489.250    0.001    0.247   77.916  171.420    9.518
  489.500    0.044    0.256   73.248  171.332   10.413
  489.750    0.071    0.275   81.475  171.345   11.092
  490.000    0.094    0.293   90.587  171.360   11.207
  490.250    0.111    0.306   93.757  171.376   10.461
  490.500    0.103    0.314   93.957  171.499    9.476
  490.750    0.095    0.322   93.713  171.407    8.232
  491.000    0.107    0.330   94.861  171.318    7.343
  491.250    0.123    0.327   96.386  170.916    6.880
  491.500    0.124    0.319   98.292  170.717    6.532
  491.750    0.116    0.319   98.556  170.419    6.296
  492.000    0.113    0.321   99.259  170.326    6.218
  492.250    0.114    0.322  101.229  170.447    6.155
  492.500    0.115    0.325  103.639  170.362    6.091
  492.750    0.107    0.333  104.850  170.373    5.926
  493.000    0.103    0.340  102.014  170.391    5.810
  493.250    0.099    0.345  103.414  170.406    5.740
  493.500    0.098    0.345  104.878  170.423    5.691
  493.750    0.084    0.340  106.278  170.436    5.642
  494.000    0.059    0.330  107.868  170.455    5.584
  494.250    0.025    0.319  107.687  170.467    5.558
  494.500    0.049    0.322   97.709  170.484    5.553
  494.750    0.065    0.324  102.902  170.289    5.621
  495.000    0.098    0.327  106.830  170.202    5.691
  495.250    0.102    0.329  110.569  170.003    5.849
  495.500    0.094    0.330  110.136  169.913    6.081
  495.750    0.080    0.322  104.203  170.139    6.368
  496.000    0.070    0.306  103.708  170.366    6.607
  496.250    0.085    0.299  104.539  170.382    6.880
  496.500    0.100    0.326  110.679  170.398    6.927
  496.750    0.113    0.343  118.528  170.415    6.714
  497.000    0.119    0.333  122.456  170.323    6.279
  497.250    0.108    0.325  120.189  170.131    5.928
  497.500    0.100    0.338  115.395  170.039    5.800
  497.750    0.088    0.344  114.646  170.264    5.795
  498.000    0.076    0.340  116.173  170.702    5.978
  498.250    0.042    0.330  118.078  171.033    6.179
  498.500    0.015    0.315  122.007  170.419    6.570
  498.750   -0.000    0.305  123.533  169.273    7.079
  499.000   -0.008    0.312  124.048  160.650    7.528
  499.250   -0.011    0.332  125.070  153.818    8.172
  499.500   -0.012    0.323  127.290  148.144    8.838
  499.750   -0.006    0.301  129.323  150.056    9.612
  500.000   -0.003    0.271  129.585  155.866   10.417
  500.250   -0.005    0.219  127.888  159.779   11.590
  500.500   -0.008    0.208  122.334  162.851   14.306
  500.750   -0.013    0.202  116.592  162.233   27.111
  501.000   -0.016    0.199  112.745  160.670   37.056
  501.250   -0.020    0.197  108.645  158.789   36.742
  501.500   -0.022    0.196  104.356  158.172   35.013
  501.750   -0.024    0.195  102.975  158.610   33.751
  502.000   -0.024    0.192  101.910  159.046   32.348
  502.250   -0.023    0.189  101.539  160.009   31.177
  502.500   -0.020    0.177  100.918  161.291   29.768
  502.750    0.133    0.167  100.736  161.621   28.909
  503.000    0.158    0.162  100.619  155.632   28.663
  503.250    0.249    0.163  100.503  148.483   28.637
  503.500    0.295    0.167  100.511  141.335   28.992
  503.750    0.303    0.168  100.521  140.721   29.129
  504.000    0.305    0.169  100.657  140.841   29.319
  504.250    0.303    0.169  100.793  140.961   29.407
  504.500    0.301    0.170  100.740  142.030   29.269
  504.750    0.299    0.170  100.560  143.310   28.631
  505.000    0.298    0.169  100.379  144.378   28.069
