~VERSION INFORMATION
 VERS.                 2.0:   CWLS LOG ASCII STANDARD -VERSION 2.0
 WRAP.                  NO:   ONE LINE PER DEPTH STEP
~WELL INFORMATION BLOCK
#MNEM.UNIT           DATA                    DESCRIPTION OF MNEMONIC
#---------    -------------------            -------------------------------
# Generated from Intellog Unique Number	CW_70_72/WELL/924
NULL.         -999.25                        : NULL_VALUE
WELL.         WINCAN ET AL CALLING LAKE 07-2 : Well_name    - WELL              
LOC .         07-26-071-21W4                 : Location     - LOCATION          
UWI .         02/07-26-071-21W4/0            : Uwi          - UNIQUE WELL ID    
ENTR.         JAYE                           : Entered      - ENTERED BY        
SRVC.         WESTERN ATLAS                  : Scn          - SERVICE COMPANY   
DATE.         14 MAR 83                      : Date         - LOG DATE          
STRT.M        328                            : top_depth    - START DEPTH       
STOP.M        505                            : bot_depth    - STOP DEPTH        
STEP.M        0.25                           : increment    - STEP LENGTH       
~CURVE INFORMATION BLOCK
#MNEM UNIT       ERCB CURVE CODE    CURVE DESCRIPTION
#-----------   ------------------   ----------------------------------
DEPT.M        00 001 00 00         : DEPTH        - DEPTH                       
DPHI.V/V      00 890 00 00         : PHID         - DENSITY POROSITY (SANDSTONE)
NPHI.V/V      00 330 00 00         : PHIN         - NEUTRON POROSITY (SANDSTONE)
GR  .API      00 310 00 00         : GR           - GAMMA RAY                   
CALI.MM       00 280 01 00         : CAL          - CALIPER                     
ILD .OHMM     00 120 00 00         : RESD         - DEEP RESISTIVITY (DIL)      
~PARAMETER INFORMATION       
#MNEM.UNIT           DATA             DESCRIPTION OF MNEMONIC
#---------         -----------     ------------------------------
GL  .M        595.4                : gl           - GROUND LEVEL ELEVATION      
EREF.M        598.6                : kb           - ELEVATION OF DEPTH REFERENCE
DATM.M        595.4                : datum        - DATUM ELEVATION             
TDD .M        505.6                : tdd          - TOTAL DEPTH DRILLER         
RUN .         ONE                  : Run          - RUN NUMBER                  
ENG .         THOKLE               : Engineer     - RECORDING ENGINEER          
BASE.         R.D.                 : Branch       - HOME BASE OF LOGGING UNIT   
MUD .         GEL CHEM             : Mud_type     - MUD TYPE                    
MATR.         SANDSTONE            : Logunit      - NEUTRON MATRIX              
TMAX.C        38                   : BHT          - MAXIMUM RECORDED TEMPERATURE
BHTD.M        503.1                : BHTDEP       - MAXIMUM RECORDED TEMPERATURE
RMT .C        15.8                 : MDTP         - TEMPERATURE OF MUD          
MUDD.KG/M     1110                 : MWT          - MUD DENSITY                 
NEUT.         1                    : NEUTRON      - NEUTRON TYPE                
RESI.         0                    : RESIST       - RESISTIVITY TYPE            
RM  .OHMM     3.2                  : RM           - RESISTIVITY OF MUD          
RMC .OHMM     0                    : RMC          - RESISTIVITY OF MUD CAKE     
RMF .OHMM     2.9                  : RMF          - RESISTIVITY OF MUD FILTRATE 
SUFT.C        0                    : SUFT         - SURFACE TEMPERATURE         
~A  DEPTH     PHID     PHIN       GR      CAL     RESD
# ...
  437.500    0.282    0.504  105.308  179.777    2.531
  437.750    0.282    0.487  107.088  179.370    2.232
  438.000    0.276    0.457  108.046  177.911    2.072
  438.250    0.258    0.413  109.634  176.346    2.125
  438.500    0.239    0.388  110.971  171.938    2.264
  438.750    0.226    0.375  110.159  168.372    2.505
  439.000    0.215    0.384  106.756  167.861    2.787
  439.250    0.224    0.394  106.132  167.980    3.107
  439.500    0.227    0.405  106.015  168.522    3.379
  439.750    0.223    0.409  104.697  167.487    3.682
  440.000    0.218    0.382  103.505  166.026    3.915
  440.250    0.210    0.374  101.746  163.936    4.062
  440.500    0.204    0.365   99.859  162.792    4.183
  440.750    0.200    0.361   97.908  161.857    4.283
  441.000    0.201    0.359   93.871  160.294    4.369
  441.250    0.203    0.356   88.191  159.783    4.464
  441.500    0.206    0.355   87.189  160.746    4.520
  441.750    0.212    0.356   89.728  161.920    4.619
  442.000    0.217    0.365   93.782  165.836    4.694
  442.250    0.213    0.380   97.711  168.694    4.815
  442.500    0.200    0.367  101.071  168.501    4.940
  442.750    0.188    0.350   91.345  167.882    5.039
  443.000    0.176    0.336   84.021  168.110    5.111
  443.250    0.189    0.331   88.393  168.757    5.164
  443.500    0.199    0.347   93.523  168.877    5.179
  443.750    0.194    0.361   96.883  168.788    5.193
  444.000    0.183    0.357   98.219  168.702    5.228
  444.250    0.165    0.337   96.838  168.609    5.302
  444.500    0.137    0.319   88.629  168.310    5.378
  444.750    0.159    0.330   85.920  167.800    5.466
  445.000    0.205    0.343   91.367  167.393    5.502
  445.250    0.226    0.356   94.915  166.357    5.455
  445.500    0.226    0.354   95.241  165.949    5.318
  445.750    0.222    0.352   95.251  166.280    5.125
  446.000    0.217    0.360   95.449  166.190    4.930
  446.250    0.212    0.370   96.280  166.417    4.816
  446.500    0.209    0.371   96.290  166.644    4.677
  446.750    0.206    0.360   93.202  166.977    4.611
  447.000    0.204    0.369   93.844  167.201    4.563
  447.250    0.202    0.382   95.749  167.110    4.543
  447.500    0.203    0.388   95.885  166.916    4.538
  447.750    0.207    0.366   89.952  166.825    4.551
  448.000    0.198    0.358   91.479  166.844    4.590
  448.250    0.184    0.352   94.902  166.964    4.673
  448.500    0.162    0.341   94.088  167.188    4.785
  448.750    0.151    0.329   86.386  167.309    5.020
  449.000    0.142    0.317   80.454  167.641    5.269
  449.250    0.140    0.310   80.463  167.869    5.676
  449.500    0.137    0.301   83.380  168.096    6.048
  449.750    0.134    0.291   85.855  168.532    6.589
  450.000    0.117    0.270   85.485  168.652    7.100
  450.250    0.088    0.235   81.512  168.878    7.767
  450.500    0.063    0.196   72.418  167.103    8.723
  450.750    0.024    0.174   63.009  163.221    9.816
  451.000   -0.003    0.149   51.197  162.184   11.194
  451.250   -0.010    0.133   52.092  164.937   12.811
  451.500   -0.013    0.140   51.470  168.219   15.056
  451.750   -0.008    0.153   48.760  169.394   16.751
  452.000    0.050    0.173   47.063  169.303   16.268
  452.250    0.096    0.201   49.980  168.266   13.870
  452.500    0.167    0.228   55.047  167.123   11.300
  452.750    0.229    0.276   59.861  165.244    9.000
  453.000    0.255    0.324   64.105  163.782    6.449
  453.250    0.261    0.342   67.844  162.850    5.003
  453.500    0.261    0.339   69.118  164.234    4.446
  453.750    0.265    0.330   67.800  166.569    4.111
  454.000    0.279    0.321   64.902  167.742    3.984
  454.250    0.281    0.327   64.405  168.602    3.965
  454.500    0.279    0.339   65.172  168.724    3.970
  454.750    0.276    0.350   66.194  168.740    4.004
  455.000    0.272    0.355   66.518  168.437    4.046
  455.250    0.269    0.359   67.160  168.032    4.042
  455.500    0.268    0.359   67.549  167.943    4.045
  455.750    0.267    0.359   67.938  167.963    4.064
  456.000    0.268    0.355   68.642  167.762    4.076
  456.250    0.270    0.365   69.916  167.040    4.064
  456.500    0.275    0.374   71.759  166.950    4.037
  456.750    0.275    0.364   74.106  166.654    4.019
  457.000    0.273    0.352   73.926  166.350    4.000
  457.250    0.271    0.343   71.788  165.736    3.974
  457.500    0.267    0.340   70.153  165.118    3.969
  457.750    0.264    0.357   69.087  165.030    3.950
  458.000    0.264    0.359   68.529  164.939    3.924
  458.250    0.269    0.349   67.589  165.062    3.915
  458.500    0.271    0.336   66.397  164.863    3.882
  458.750    0.271    0.334   64.765  164.565    3.892
  459.000    0.268    0.344   64.203  164.684    3.918
  459.250    0.254    0.343   65.035  165.123    3.997
  459.500    0.250    0.334   65.741  165.348    4.061
  459.750    0.237    0.323   66.191  165.468    4.174
  460.000    0.236    0.324   67.025  165.695    4.307
  460.250    0.247    0.337   67.538  165.922    4.451
  460.500    0.260    0.354   68.495  166.041    4.282
  460.750    0.262    0.349   71.349  166.061    4.096
  461.000    0.238    0.338   78.374  165.863    4.008
  461.250    0.163    0.316   89.510  164.718    3.974
  461.500    0.131    0.298   78.267  161.363    3.971
  461.750    0.150    0.289   68.099  161.379    4.020
  462.000    0.204    0.302   65.138  164.028    4.100
  462.250    0.223    0.300   66.096  166.993    4.183
  462.500    0.212    0.306   65.599  166.799    4.291
  462.750    0.194    0.308   63.840  167.341    4.502
  463.000    0.180    0.299   62.520  167.357    4.778
  463.250    0.174    0.289   60.444  166.848    5.148
  463.500    0.182    0.301   58.683  166.333    5.485
  463.750    0.200    0.314   57.428  166.349    5.428
  464.000    0.215    0.340   63.822  167.104    4.706
  464.250    0.208    0.372   77.928  167.858    3.998
  464.500    0.207    0.401   92.223  168.293    3.539
  464.750    0.208    0.434  101.967  168.625    3.254
  465.000    0.206    0.439  112.217  168.641    3.148
  465.250    0.199    0.400  110.899  167.288    3.235
  465.500    0.192    0.379  109.012  165.618    3.395
  465.750    0.182    0.375  106.494  164.473    3.610
  466.000    0.170    0.377   99.991  163.224    3.831
  466.250    0.158    0.370   98.484  162.503    4.120
  466.500    0.156    0.363  100.896  162.941    4.431
  466.750    0.155    0.351  100.841  163.588    4.783
  467.000    0.143    0.337   97.185  164.550    5.029
  467.250    0.156    0.337   97.636  165.725    5.139
  467.500    0.172    0.344   99.795  166.794    5.193
  467.750    0.175    0.342  102.459  167.760    5.207
  468.000    0.160    0.340  104.808  168.200    5.262
  468.250    0.129    0.338  105.385  168.211    5.317
  468.500    0.107    0.338   96.861  168.122    5.362
  468.750    0.120    0.349   90.675  167.928    5.399
  469.000    0.132    0.357   93.909  167.837    5.392
  469.250    0.129    0.347   98.975  167.748    5.409
  469.500    0.117    0.332  102.904  167.553    5.413
  469.750    0.101    0.320   94.569  167.569    5.409
  470.000    0.140    0.340   89.584  167.690    5.423
  470.250    0.166    0.360   94.589  167.811    5.429
  470.500    0.175    0.354  101.361  167.931    5.527
  470.750    0.170    0.342  102.067  168.267    5.606
  471.000    0.158    0.340   99.736  168.279    5.740
  471.250    0.149    0.331   97.470  168.188    5.855
  471.500    0.140    0.325   98.050  168.100    5.939
  471.750    0.128    0.345   98.944  168.009    5.967
  472.000    0.118    0.363   98.952  168.026    5.884
  472.250    0.132    0.355   99.278  167.619    5.757
  472.500    0.129    0.337  100.551  167.633    5.559
  472.750    0.120    0.340  102.773  167.650    5.328
  473.000    0.108    0.339  104.995  167.984    5.244
  473.250    0.089    0.325  107.090  167.787    5.329
  473.500    0.056    0.307  109.628  167.169    5.538
  473.750    0.036    0.288  105.846  165.817    5.945
