~VERSION INFORMATION
 VERS.                 2.0:   CWLS LOG ASCII STANDARD -VERSION 2.0
 WRAP.                  NO:   ONE LINE PER DEPTH STEP
~WELL INFORMATION BLOCK
#MNEM.UNIT           DATA                    DESCRIPTION OF MNEMONIC
#---------    -------------------            -------------------------------
# Generated from Intellog Unique Number	CW_70_72/WELL/924
NULL.         -999.25                        : NULL_VALUE
WELL.         WINCAN ET AL CALLING LAKE 07-2 : Well_name    - WELL              
LOC .         07-26-071-21W4                 : Location     - LOCATION          
UWI .         02/07-26-071-21W4/0            : Uwi          - UNIQUE WELL ID    
ENTR.         JAYE                           : Entered      - ENTERED BY        
SRVC.         WESTERN ATLAS                  : Scn          - SERVICE COMPANY   
DATE.         14 MAR 83                      : Date         - LOG DATE          
STRT.M        328                            : top_depth    - START DEPTH       
STOP.M        505                            : bot_depth    - STOP DEPTH        
STEP.M        0.25                           : increment    - STEP LENGTH       
~CURVE INFORMATION BLOCK
#MNEM UNIT       ERCB CURVE CODE    CURVE DESCRIPTION
#-----------   ------------------   ----------------------------------
DEPT.M        00 001 00 00         : DEPTH        - DEPTH                       
DPHI.V/V      00 890 00 00         : PHID         - DENSITY POROSITY (SANDSTONE)
NPHI.V/V      00 330 00 00         : PHIN         - NEUTRON POROSITY (SANDSTONE)
GR  .API      00 310 00 00         : GR           - GAMMA RAY                   
CALI.MM       00 280 01 00         : CAL          - CALIPER                     
ILD .OHMM     00 120 00 00         : RESD         - DEEP RESISTIVITY (DIL)      
~PARAMETER INFORMATION       
#MNEM.UNIT           DATA             DESCRIPTION OF MNEMONIC
#---------         -----------     ------------------------------
GL  .M        595.4                : gl           - GROUND LEVEL ELEVATION      
EREF.M        598.6                : kb           - ELEVATION OF DEPTH REFERENCE
DATM.M        595.4                : datum        - DATUM ELEVATION             
TDD .M        505.6                : tdd          - TOTAL DEPTH DRILLER         
RUN .         ONE                  : Run          - RUN NUMBER                  
ENG .         THOKLE               : Engineer     - RECORDING ENGINEER          
BASE.         R.D.                 : Branch       - HOME BASE OF LOGGING UNIT   
MUD .         GEL CHEM             : Mud_type     - MUD TYPE                    
MATR.         SANDSTONE            : Logunit      - NEUTRON MATRIX              
TMAX.C        38                   : BHT          - MAXIMUM RECORDED TEMPERATURE
BHTD.M        503.1                : BHTDEP       - MAXIMUM RECORDED TEMPERATURE
RMT .C        15.8                 : MDTP         - TEMPERATURE OF MUD          
MUDD.KG/M     1110                 : MWT          - MUD DENSITY                 
NEUT.         1                    : NEUTRON      - NEUTRON TYPE                
RESI.         0                    : RESIST       - RESISTIVITY TYPE            
RM  .OHMM     3.2                  : RM           - RESISTIVITY OF MUD          
RMC .OHMM     0                    : RMC          - RESISTIVITY OF MUD CAKE     
RMF .OHMM     2.9                  : RMF          - RESISTIVITY OF MUD FILTRATE 
SUFT.C        0                    : SUFT         - SURFACE TEMPERATURE         
~A  DEPTH     PHID     PHIN       GR      CAL     RESD
  328.000    0.239    0.482  102.405  181.999    2.688
  328.250    0.231    0.498  105.259  182.540    2.701
  328.500    0.224    0.482  105.902  182.876    2.745
  328.750    0.219    0.454  102.560  183.204    2.773
  329.000    0.213    0.437  104.403  183.536    2.781
  329.250    0.207    0.451  108.142  184.081    2.768
  329.500    0.200    0.446  108.846  184.410    2.766
  329.750    0.193    0.437  106.960  185.057    2.763
  330.000    0.185    0.439  104.377  185.601    2.761
  330.250    0.189    0.436  101.226  185.720    2.763
  330.500    0.205    0.419   98.896  185.630    2.782
  330.750    0.237    0.416   98.780  185.122    2.842
  331.000    0.254    0.408   98.157  183.662    2.966
  331.250    0.245    0.371   96.017  180.305    3.148
  331.500    0.229    0.351   94.192  175.685    3.672
  331.750    0.212    0.343   93.886  172.436    4.124
  332.000    0.192    0.336   94.907  170.242    4.623
  332.250    0.185    0.336   95.801  169.518    4.824
  332.500    0.195    0.342   96.000  169.111    4.684
  332.750    0.209    0.347   97.084  168.914    4.567
  333.000    0.217    0.350   99.939  169.036    4.368
  333.250    0.223    0.360  102.349  169.158    4.163
  333.500    0.231    0.363  101.855  169.174    3.967
  333.750    0.246    0.364  101.420  169.187    3.838
  334.000    0.260    0.359  100.040  169.203    3.784
  334.250    0.263    0.344   99.100  169.219    3.831
  334.500    0.243    0.329   95.506  169.555    4.028
  334.750    0.218    0.311   79.586  169.779    4.348
  335.000    0.205    0.298   65.183  169.793    4.856
  335.250    0.198    0.291   56.089  169.703    5.495
  335.500    0.193    0.300   54.329  169.507    5.966
  335.750    0.190    0.313   56.803  169.206    6.273
  336.000    0.187    0.317   61.111  168.699    6.290
  336.250    0.186    0.308   61.120  168.505    5.927
  336.500    0.185    0.324   59.993  168.414    5.398
  336.750    0.193    0.352   64.805  168.110    4.889
  337.000    0.213    0.382   73.096  168.443    4.477
  337.250    0.221    0.382   79.427  169.409    4.086
  337.500    0.225    0.380   84.177  169.843    3.807
  337.750    0.234    0.385   88.043  170.596    3.655
  338.000    0.249    0.395   91.971  170.929    3.583
  338.250    0.264    0.401   91.664  170.733    3.600
  338.500    0.282    0.399   86.111  170.118    3.645
  338.750    0.284    0.382   85.299  170.553    3.704
  339.000    0.272    0.353   88.217  171.517    3.792
  339.250    0.256    0.353   91.322  172.482    3.927
  339.500    0.248    0.361   95.757  173.130    4.106
  339.750    0.249    0.360   99.875  173.251    4.284
  340.000    0.248    0.350  103.298  172.528    4.469
  340.250    0.245    0.341  103.940  170.331    4.664
  340.500    0.248    0.335   98.891  167.293    4.748
  340.750    0.269    0.329   91.442  166.046    4.646
  341.000    0.288    0.338   84.561  165.744    4.538
  341.250    0.302    0.333   78.629  165.445    4.236
  341.500    0.294    0.324   74.213  165.142    3.938
  341.750    0.289    0.327   71.694  164.842    3.754
  342.000    0.294    0.326   70.250  164.651    3.477
  342.250    0.299    0.321   66.149  164.769    3.203
  342.500    0.304    0.316   59.458  164.995    3.030
  342.750    0.309    0.323   54.031  165.431    2.948
  343.000    0.304    0.332   54.293  165.762    2.934
  343.250    0.297    0.342   63.153  166.199    3.079
  343.500    0.283    0.341   66.133  166.425    3.273
  343.750    0.274    0.339   67.155  166.757    3.415
  344.000    0.265    0.346   69.566  167.092    3.571
  344.250    0.271    0.345   74.507  167.001    3.739
  344.500    0.280    0.338   77.486  167.333    3.844
  344.750    0.272    0.328   81.099  167.559    4.018
  345.000    0.261    0.322   84.079  167.573    4.129
  345.250    0.248    0.328   87.756  167.484    4.236
  345.500    0.238    0.341   92.631  167.289    4.453
  345.750    0.233    0.346   99.152  167.621    4.655
  346.000    0.232    0.339  101.816  168.057    4.767
  346.250    0.230    0.342  100.689  169.232    4.569
  346.500    0.223    0.387  100.507  171.146    4.169
  346.750    0.211    0.428  102.034  172.106    3.608
  347.000    0.209    0.449  108.364  173.494    3.105
  347.250    0.208    0.447  112.103  174.457    2.632
  347.500    0.213    0.428  114.894  174.997    2.416
  347.750    0.231    0.438  117.559  175.541    2.272
  348.000    0.246    0.457  119.845  175.770    2.240
  348.250    0.255    0.487  122.192  175.993    2.377
  348.500    0.248    0.416  125.236  176.115    2.655
  348.750    0.232    0.388  125.624  176.446    2.882
  349.000    0.219    0.362  120.324  175.622    3.207
  349.250    0.223    0.366  111.483  174.898    3.521
  349.500    0.230    0.370  110.164  173.754    3.801
  349.750    0.244    0.372  111.501  172.611    4.189
  350.000    0.269    0.378  110.942  171.153    4.420
  350.250    0.289    0.390  105.073  168.743    4.603
  350.500    0.322    0.391   96.990  165.493    4.714
  350.750    0.342    0.383   83.979  164.349    4.872
  351.000    0.339    0.379   76.591  164.156    5.027
  351.250    0.330    0.362   76.285  164.383    5.098
  351.500    0.322    0.366   78.761  164.502    5.104
  351.750    0.318    0.375   77.759  164.733    5.013
  352.000    0.317    0.371   75.871  165.379    4.750
  352.250    0.310    0.380   77.523  165.709    4.544
  352.500    0.301    0.380   78.228  165.830    4.338
  352.750    0.291    0.371   77.731  165.741    4.197
  353.000    0.280    0.358   75.719  165.649    4.131
  353.250    0.277    0.375   75.285  165.455    4.088
  353.500    0.275    0.386   75.547  164.837    4.107
  353.750    0.274    0.388   76.821  164.009    4.158
  354.000    0.270    0.395   80.371  161.182    4.242
  354.250    0.263    0.413   83.540  157.721    4.286
  354.500    0.254    0.398   86.648  160.266    4.306
  354.750    0.243    0.361   82.611  163.335    4.237
  355.000    0.242    0.341   76.299  166.407    4.163
  355.250    0.259    0.342   70.935  168.110    4.050
  355.500    0.282    0.365   69.048  168.231    3.918
  355.750    0.284    0.383   69.816  168.142    3.762
  356.000    0.277    0.395   76.526  168.155    3.640
  356.250    0.282    0.406   79.759  168.486    3.462
  356.500    0.302    0.409   77.114  168.927    3.344
  356.750    0.323    0.386   75.480  168.838    3.223
  357.000    0.322    0.368   75.110  168.854    3.159
  357.250    0.302    0.370   76.384  168.759    3.127
  357.500    0.277    0.372   79.176  167.194    3.111
  357.750    0.260    0.379   82.218  165.313    3.127
  358.000    0.240    0.386   87.095  163.856    3.178
  358.250    0.231    0.397   97.850  166.926    3.360
  358.500    0.246    0.401  102.791  171.367    3.579
  358.750    0.235    0.386  103.874  173.911    3.763
  359.000    0.216    0.371  104.642  173.504    3.978
  359.250    0.204    0.372  105.347  172.572    4.159
  359.500    0.190    0.364  108.454  172.271    4.291
  359.750    0.199    0.377  113.077  172.186    4.295
  360.000    0.223    0.387  117.828  172.619    4.251
  360.250    0.241    0.378  118.659  174.005    4.043
  360.500    0.250    0.362  110.324  174.335    3.774
  360.750    0.244    0.375   94.530  174.772    3.354
  361.000    0.275    0.409   90.367  175.739    2.969
  361.250    0.317    0.413   95.497  175.646    2.983
  361.500    0.338    0.383   98.793  170.183    3.208
  361.750    0.321    0.377   86.034  162.823    3.665
  362.000    0.313    0.372   77.636  155.887    4.125
  362.250    0.306    0.364   72.968  152.530    4.829
  362.500    0.290    0.355   72.663  153.600    5.675
  362.750    0.279    0.344   72.228  156.358    6.557
  363.000    0.266    0.332   71.479  157.004    7.472
  363.250    0.267    0.328   68.580  156.703    7.935
  363.500    0.288    0.351   67.136  155.874    8.828
  363.750    0.305    0.369   69.863  153.786    9.142
  364.000    0.323    0.384   73.412  152.642    9.256
  364.250    0.337    0.378   75.951  151.713    9.370
