~VERSION INFORMATION
 VERS.                 2.0:   CWLS LOG ASCII STANDARD -VERSION 2.0
 WRAP.                  NO:   ONE LINE PER DEPTH STEP
~WELL INFORMATION BLOCK
#MNEM.UNIT           DATA                    DESCRIPTION OF MNEMONIC
#---------    -------------------            -------------------------------
# Generated from Intellog Unique Number	CW_79_81/WELL/56
WELL.         04-13-079-23W4                 : Well_name    - WELL
LOC .         02/04-13-079-23W4/0            : Location     - LOCATION
UWI .         02/04-13-079-23W4/0            : Uwi          - UNIQUE WELL ID
ENTR.         JJ                             : Entered      - ENTERED BY
SRVC.         SCHLUMBERGER                   : Scn          - SERVICE COMPANY
DATE.         6 MAR 63                       : Date         - LOG DATE
STRT.M        329.794                        : top_depth    - START DEPTH
STOP.M        458.544                        : bot_depth    - STOP DEPTH
STEP.M        0.25                           : increment    - STEP LENGTH
 NULL. -999.2500:NULL Value
~CURVE INFORMATION BLOCK
#MNEM UNIT       ERCB CURVE CODE    CURVE DESCRIPTION
#-----------   ------------------   ----------------------------------
DEPT.M        00 001 00 00         : DEPTH        - DEPTH
DELT.US/F     00 520 00 00         : DELT         - SONIC TRAVEL TIME
GR  .API      00 310 00 00         : GR           - GAMMA RAY
ILD .OHMM     00 120 00 00         : RESD         - DEEP RESISTIVITY (DIL)
~PARAMETER INFORMATION
#MNEM.UNIT           DATA             DESCRIPTION OF MNEMONIC
#---------         -----------     ------------------------------
GL  .M        573.207              : gl           - GROUND LEVEL ELEVATION
EREF.M        575.31               : kb           - ELEVATION OF DEPTH REFERENCE
DATM.M        575.31               : datum        - DATUM ELEVATION
TDD .M        459.334              : tdd          - TOTAL DEPTH DRILLER
RUN .         ONE                  : Run          - RUN NUMBER
ENG .         HAINES               : Engineer     - RECORDING ENGINEER
BASE.         EDMONTON             : Branch       - HOME BASE OF LOGGING UNIT
MUD .         GEL                  : Mud_type     - MUD TYPE
MATR.         SANDSTONE            : Logunit      - NEUTRON MATRIX
TMAX.C        21.1111              : BHT          - MAXIMUM RECORDED TEMPERATURE
BHTD.M        460.248              : BHTDEP       - MAXIMUM RECORDED TEMPERATURE
RMT .C        22.2222              : MDTP         - TEMPERATURE OF MUD
MUDD.KG/M     1200                 : MWT          - MUD DENSITY
NEUT.         1                    : NEUTRON      - NEUTRON TYPE
RESI.         0                    : RESIST       - RESISTIVITY TYPE
RM  .OHMM     5.98                 : RM           - RESISTIVITY OF MUD
RMC .OHMM     6.2                  : RMC          - RESISTIVITY OF MUD CAKE
RMF .OHMM     4.5                  : RMF          - RESISTIVITY OF MUD FILTRATE
SUFT.C        5                    : SUFT         - SURFACE TEMPERATURE
~A  DEPTH     DELT       GR     RESD
# ...
  384.044  405.455   81.063   10.410
  384.294  378.555   75.367   11.124
  384.544  397.945   82.528   12.068
  384.794  396.658   87.672   13.301
  385.044  319.549   85.405   14.659
  385.294  290.217   77.491   16.663
  385.544  309.404   66.702   19.289
  385.794  363.394   69.881   21.313
  386.044  377.919   71.798   22.421
  386.294  359.466   71.396   23.032
  386.544  363.989   71.801   22.812
  386.794  383.380   73.769   21.928
  387.044  396.689   77.149   20.606
  387.294  383.372   82.041   19.119
  387.544  376.340   90.362   17.424
  387.794  333.425   82.800   16.580
  388.044  319.433   80.483   17.545
  388.294  365.718   77.711   18.531
  388.544  307.802   73.175   19.140
  388.794  293.133   65.866   19.668
  389.044  382.600   67.178   19.884
  389.294  340.361   67.986   19.976
  389.544  328.058   71.114   19.839
  389.794  377.993   74.847   19.473
  390.044  387.922   75.655   19.358
  390.294  316.355   71.875   19.534
  390.544  285.266   68.347   20.227
  390.794  334.728   65.323   21.793
  391.044  363.173   59.174   24.667
  391.294  205.582   53.982   28.767
  391.544  216.998   49.143   37.293
  391.794  218.683   45.111   41.144
  392.044  233.479   47.130   43.168
  392.294  235.637   50.005   41.037
  392.544  341.524   53.435   34.876
  392.794  373.348   58.832   31.041
  393.044  351.180   65.338   28.058
  393.294  334.957   67.155   26.384
  393.544  338.737   65.391   25.625
  393.794  323.056   62.569   25.798
  394.044  276.559   60.756   27.055
  394.294  340.279   62.623   27.789
  394.544  310.745   62.725   28.649
  394.794  293.239   62.324   28.284
  395.044  338.308   62.930   26.028
  395.294  366.753   66.461   22.109
  395.544  375.601   71.101   18.671
  395.794  381.747   76.699   16.954
  396.044  391.879   84.415   14.761
  396.294  394.781   79.728   13.834
  396.544  343.081   73.628   13.366
  396.794  377.946   68.840   13.228
  397.044  388.484   75.598   13.339
  397.294  382.938   78.927   13.619
  397.544  380.772   85.282   13.752
  397.794  363.469   86.847   13.323
  398.044  376.236   81.655   13.251
  398.294  358.933   78.530   13.425
  398.544  354.536   75.759   13.642
  398.794  345.342   71.928   13.773
  399.044  362.434   80.804   13.742
  399.294  373.513   86.251   13.603
  399.544  379.929   85.647   13.384
  399.794  363.436   80.859   13.143
  400.044  388.773   82.474   12.736
  400.294  387.890   86.106   12.286
  400.544  398.090   78.847   11.735
  400.794  373.488   78.950   11.244
  401.044  385.175   81.018   10.755
  401.294  398.348   88.431   10.702
  401.544  411.589   88.383   10.812
  401.794  370.905   85.460   11.258
  402.044  382.929   85.965   11.556
  402.294  380.560   85.362   12.167
  402.544  346.159   84.406   12.883
  402.794  351.493   87.130   13.493
  403.044  355.341   85.518   14.061
  403.294  358.378   80.276   14.942
  403.544  363.307   77.202   15.762
  403.794  305.864   75.287   16.123
  404.044  352.284   75.642   16.111
  404.294  370.255   80.433   14.789
  404.544  381.266   86.737   12.970
  404.794  380.857   93.848   11.815
  405.044  388.354   85.934   11.657
  405.294  404.568   76.204   13.535
  405.544  320.972   69.601   15.579
  405.794  259.136   64.359   17.665
  406.044  220.884   63.856   20.188
  406.294  346.031   75.807   21.692
  406.544  364.542   85.136   21.700
  406.794  365.417   89.726   18.176
  407.044  366.832   90.988   15.713
  407.294  373.923   92.351   13.789
  407.544  391.489   95.882   14.900
  407.794  257.482   92.001   16.320
  408.044  247.477   80.709   17.471
  408.294  319.846   74.357   19.391
  408.544  353.765   78.141   21.768
  408.794  314.567   81.369   23.479
  409.044  342.945   74.463   23.445
  409.294  357.132   69.876   21.419
  409.544  358.817   75.727   20.036
  409.794  359.758   77.846   19.005
  410.044  358.809   79.209   18.182
  410.294  360.764   81.530   17.298
  410.544  356.165   83.498   16.518
  410.794  349.877   81.634   15.966
  411.044  358.252   75.787   15.640
  411.294  357.842   75.990   15.296
  411.544  341.823   81.437   15.158
  411.794  389.730   83.556   15.167
  412.044  385.334   78.516   15.716
  412.294  361.205   71.811   16.783
  412.544  371.743   60.468   19.679
  412.794  387.349   54.671   23.509
  413.044  272.398   48.421   33.448
  413.294  387.949   41.364   38.255
  413.544  358.684   35.113   51.524
  413.794  359.964   28.812   62.931
  414.044  361.514   30.175   68.980
  414.294  352.050   32.295   73.381
  414.544  343.937   32.952   72.004
  414.794  351.974   33.457   68.785
  415.044  351.024   33.056   69.066
  415.294  341.154   33.208   71.602
  415.544  354.529   33.563   73.323
  415.794  363.716   31.447   74.009
  416.044  372.023   29.583   69.549
  416.294  367.424   27.366   63.226
  416.544  342.890   27.922   49.881
  416.794  334.034   32.109   49.168
  417.044  354.640   37.303   48.103
  417.294  355.244   33.322   46.271
  417.544  360.444   33.323   44.191
  417.794  351.182   37.005   42.007
  418.044  353.002   40.738   39.906
  418.294  351.039   42.656   37.555
  418.544  356.305   44.724   35.226
  418.794  359.748   47.197   32.814
  419.044  358.121   48.509   30.154
  419.294  349.535   49.216   27.347
  419.544  365.885   49.370   24.957
  419.794  368.922   49.875   23.684
  420.044  357.227   50.986   23.261
  420.294  351.614   54.013   23.854
  420.544  360.395   59.056   24.530
  420.794  373.027   58.806   23.133
  421.044  382.552   53.967   21.074
  421.294  360.991   50.943   19.366
  421.544  337.403   48.978   16.996
  421.794  362.740   62.140   15.039
  422.044  360.506   75.049   13.083
  422.294  382.194   81.000   11.356
  422.544  374.012   86.195   10.766
  422.794  343.667   77.121   11.483
  423.044  361.773   69.963   14.563
  423.294  398.936   62.048   18.741
  423.544  390.012   52.873   26.835
  423.794  357.639   50.001   32.297
  424.044  354.121   48.792   34.362
  424.294  361.821   50.408   33.753
  424.544  356.951   53.989   26.346
  424.794  338.769   59.738   19.210
  425.044  338.562   64.076   15.430
  425.294  358.831   73.607   12.728
  425.544  393.629   82.230   12.180
  425.794  361.593   88.030   14.224
  426.044  328.139   69.225   19.293
  426.294  369.762   53.647   33.687
  426.544  383.273   45.884   43.108
  426.794  358.468   39.179   65.265
  427.044  357.113   37.618   75.460
  427.294  354.474   42.460   78.023
  427.544  344.873   50.629   76.656
  427.794  341.288   47.051   70.749
  428.044  350.339   48.212   65.044
  428.294  349.389   48.416   59.965
  428.544  346.209   46.047   51.788
  428.794  354.111   47.612   49.364
  429.044  349.039   49.177   48.239
  429.294  347.007   52.809   44.206
  429.544  349.368   55.382   40.874
  429.794  348.621   57.652   38.306
  430.044  347.671   60.528   36.355
  430.294  356.925   60.680   34.818
  430.544  359.489   60.430   33.488
  430.794  349.348   59.120   31.992
  431.044  348.601   57.105   30.970
  431.294  342.515   58.871   30.464
  431.544  343.795   60.890   30.041
  431.794  349.737   60.135   29.411
  432.044  351.287   61.296   28.122
  432.294  340.809   64.323   25.985
  432.544  312.288   66.392   23.603
  432.794  324.177   67.805   22.416
  433.044  364.111   70.076   20.425
  433.294  355.119   67.808   18.434
  433.544  355.588   69.625   17.207
  433.794  352.610   69.778   16.144
  434.044  349.295   68.973   15.142
  434.294  343.209   68.974   13.770
  434.544  305.363   71.043   12.089
  434.794  264.002   76.036   10.613
  435.044  392.325   81.534    9.200
  435.294  396.984   88.039    8.198
  435.544  375.760   80.024    7.445
  435.794  376.094   72.765    7.126
  436.044  378.388   57.641    7.589
  436.294  418.254   25.424    8.527
  436.544  427.710   18.467    9.858
  436.794  392.094   31.427   11.538
  437.044  413.511   31.630   13.878
  437.294  360.933   15.699   16.529
  437.544  374.985   39.096   17.921
  437.794  398.159   50.038   17.167
  438.044  409.846   57.502   14.970
