~VERSION INFORMATION
 VERS.                 2.0:   CWLS LOG ASCII STANDARD -VERSION 2.0
 WRAP.                  NO:   ONE LINE PER DEPTH STEP
~WELL INFORMATION BLOCK
#MNEM.UNIT           DATA                    DESCRIPTION OF MNEMONIC
#---------    -------------------            -------------------------------
# Generated from Intellog Unique Number	CW_70_72/WELL/1035
NULL.         -999.25                        : NULL_VALUE
WELL.         H.B. CALLING LAKE 10-12        : Well_name    - WELL              
LOC .         10-12-072-19W4                 : Location     - LOCATION          
UWI .         00/10-12-072-19W4/0            : Uwi          - UNIQUE WELL ID    
ENTR.         JAYE                           : Entered      - ENTERED BY        
SRVC.         SCHLUMBERGER                   : Scn          - SERVICE COMPANY   
DATE.         25 FEB 66                      : Date         - LOG DATE          
STRT.M        316.992                        : top_depth    - START DEPTH       
STOP.M        510.242                        : bot_depth    - STOP DEPTH        
STEP.M        0.25                           : increment    - STEP LENGTH       
~CURVE INFORMATION BLOCK
#MNEM UNIT       ERCB CURVE CODE    CURVE DESCRIPTION
#-----------   ------------------   ----------------------------------
DEPT.M        00 001 00 00         : DEPTH        - DEPTH                       
DPHI.V/V      00 890 00 00         : PHID         - DENSITY POROSITY (SANDSTONE)
NPHI.V/V      00 330 00 00         : PHIN         - NEUTRON POROSITY (SANDSTONE)
GR  .API      00 310 00 00         : GR           - GAMMA RAY                   
CALI.MM       00 280 01 00         : CAL          - CALIPER                     
ILD .OHMM     00 120 00 00         : RESD         - DEEP RESISTIVITY (DIL)      
~PARAMETER INFORMATION       
#MNEM.UNIT           DATA             DESCRIPTION OF MNEMONIC
#---------         -----------     ------------------------------
GL  .M        608.686              : gl           - GROUND LEVEL ELEVATION      
EREF.M        612.648              : kb           - ELEVATION OF DEPTH REFERENCE
DATM.M        608.686              : datum        - DATUM ELEVATION             
TDD .M        542.544              : tdd          - TOTAL DEPTH DRILLER         
RUN .         ONE                  : Run          - RUN NUMBER                  
ENG .         BERRY                : Engineer     - RECORDING ENGINEER          
WIT .         MACINTOSH            : Witness      - WITNESSED BY                
BASE.         EDM                  : Branch       - HOME BASE OF LOGGING UNIT   
MUD .         GEL                  : Mud_type     - MUD TYPE                    
MATR.         SANDSTONE            : Logunit      - NEUTRON MATRIX              
TMAX.C        20.5556              : BHT          - MAXIMUM RECORDED TEMPERATURE
BHTD.M        543.458              : BHTDEP       - MAXIMUM RECORDED TEMPERATURE
RMT .C        17.2222              : MDTP         - TEMPERATURE OF MUD          
MUDD.KG/M     1140                 : MWT          - MUD DENSITY                 
NEUT.         1                    : NEUTRON      - NEUTRON TYPE                
RESI.         0                    : RESIST       - RESISTIVITY TYPE            
RM  .OHMM     4.04                 : RM           - RESISTIVITY OF MUD          
RMC .OHMM     4.62                 : RMC          - RESISTIVITY OF MUD CAKE     
RMF .OHMM     3.96                 : RMF          - RESISTIVITY OF MUD FILTRATE 
SUFT.C        -17.7778             : SUFT         - SURFACE TEMPERATURE         
~A  DEPTH     PHID     PHIN       GR      CAL     RESD
# ...
  389.992    0.231    0.443   89.084  164.073    6.571
  390.242    0.220    0.454   88.985  164.828    6.527
  390.492    0.240    0.472   89.189  166.309    6.433
  390.742    0.256    0.476   88.605  167.478    6.356
  390.992    0.262    0.476   89.053  168.032    6.327
  391.242    0.252    0.472   88.594  168.274    6.266
  391.492    0.238    0.467   90.621  168.724    6.204
  391.742    0.224    0.469   92.707  168.973    6.119
  391.992    0.218    0.465   90.239  168.814    6.016
  392.242    0.217    0.467   87.954  168.849    5.906
  392.492    0.213    0.476   88.767  168.680    5.796
  392.742    0.213    0.464   90.307  168.513    5.709
  392.992    0.214    0.462   92.275  168.548    5.599
  393.242    0.211    0.473   92.725  168.585    5.481
  393.492    0.208    0.481   89.161  168.323    5.345
  393.742    0.204    0.471   81.529  167.533    5.169
  393.992    0.217    0.472   72.379  161.297    4.902
  394.242    0.241    0.487   67.298  155.161    4.554
  394.492    0.266    0.503   68.295  154.790    4.278
  394.742    0.322    0.495   68.802  154.835    4.069
  394.992    0.335    0.476   66.579  155.281    3.992
  395.242    0.329    0.455   65.570  155.738    3.972
  395.492    0.334    0.464   64.437  155.980    4.000
  395.742    0.342    0.474   63.733  156.119    4.095
  395.992    0.341    0.479   63.449  156.154    4.182
  396.242    0.335    0.480   63.233  155.897    4.253
  396.492    0.327    0.469   62.404  155.929    4.414
  396.742    0.315    0.458   60.480  155.762    4.641
  396.992    0.298    0.449   60.322  155.599    4.868
  397.242    0.326    0.445   62.289  155.528    4.996
  397.492    0.325    0.442   62.677  155.260    5.066
  397.742    0.331    0.439   62.031  155.201    5.087
  397.992    0.341    0.448   61.020  155.026    5.100
  398.242    0.321    0.461   60.560  155.069    5.154
  398.492    0.311    0.470   61.799  154.904    5.200
  398.742    0.315    0.467   63.641  154.736    5.229
  398.992    0.323    0.452   66.642  154.876    5.382
  399.242    0.333    0.461   69.155  154.820    5.559
  399.492    0.332    0.468   68.146  155.060    5.720
  399.742    0.327    0.468   65.620  154.888    5.832
  399.992    0.317    0.464   64.789  154.924    5.754
  400.242    0.326    0.458   64.633  154.869    5.611
  400.492    0.333    0.450   63.865  155.014    5.574
  400.742    0.338    0.442   62.367  155.042    5.735
  400.992    0.346    0.430   60.993  155.183    6.159
  401.242    0.349    0.417   61.259  155.337    6.682
  401.492    0.342    0.403   63.286  155.575    7.575
  401.742    0.337    0.390   66.105  155.507    9.463
  401.992    0.332    0.412   64.670  155.237   10.142
  402.242    0.325    0.429   62.020  155.173    9.160
  402.492    0.319    0.444   59.067  155.727    8.194
  402.742    0.304    0.422   54.409  156.590    7.360
  402.992    0.286    0.391   47.874  157.964    6.698
  403.242    0.248    0.369   44.797  159.340    6.283
  403.492    0.176    0.346   42.878  159.895    5.950
  403.742    0.034    0.210   41.988  159.621    5.651
  403.992    0.016    0.160   41.099  159.153    5.507
  404.242    0.007    0.151   40.211  159.287    5.479
  404.492    0.004    0.147   42.240  159.842    5.574
  404.742    0.003    0.147   45.482  160.191    5.818
  404.992    0.005    0.157   48.969  160.128    6.085
  405.242    0.011    0.178   52.697  158.417    7.036
  405.492    0.022    0.208   58.428  155.783    8.274
  405.742    0.033    0.246   61.793  154.999    9.060
  405.992    0.105    0.279   61.574  154.829    8.728
  406.242    0.212    0.362   62.146  154.874    8.173
  406.492    0.291    0.411   62.901  155.221    7.643
  406.742    0.310    0.442   63.712  155.256    7.047
  406.992    0.313    0.442   64.462  155.506    6.764
  407.242    0.319    0.441   64.788  155.645    7.131
  407.492    0.329    0.460   64.748  155.682    8.303
  407.742    0.338    0.455   64.834  155.719   11.129
  407.992    0.345    0.449   64.372  155.564   16.299
  408.242    0.356    0.449   62.268  155.486   17.438
  408.492    0.356    0.466   60.649  155.221   18.562
  408.742    0.352    0.477   60.860  155.152   18.328
  408.992    0.348    0.468   61.181  154.989   17.173
  409.242    0.335    0.483   63.150  154.827   15.557
  409.492    0.345    0.493   62.623  154.656   14.797
  409.742    0.353    0.490   60.216  154.697   14.217
  409.992    0.352    0.486   60.303  154.632   13.901
  410.242    0.358    0.476   61.662  154.364   13.906
  410.492    0.343    0.467   64.174  154.395   14.207
  410.742    0.337    0.469   66.751  154.437   14.680
  410.992    0.342    0.492   67.502  154.272   15.244
  411.242    0.341    0.512   65.642  154.113   16.071
  411.492    0.340    0.520   62.932  154.044   16.849
  411.742    0.348    0.531   60.582  153.979   17.142
  411.992    0.366    0.521   58.358  153.913   16.908
  412.242    0.382    0.507   57.590  153.954    8.523
  412.492    0.397    0.496   58.406  153.791    7.927
  412.742    0.390    0.485   60.370  153.819    7.257
  412.992    0.407    0.479   63.491  153.864    6.612
  413.242    0.397    0.483   62.603  153.903    6.205
  413.492    0.392    0.471   60.076  153.937    5.832
  413.742    0.361    0.462   58.401  153.776    5.516
  413.992    0.368    0.452   57.205  153.811    5.372
  414.242    0.379    0.468   55.587  153.952    5.270
  414.492    0.368    0.458   53.304  154.197    5.176
  414.742    0.337    0.445   51.624  154.543    5.033
  414.992    0.350    0.450   52.743  154.689    4.906
  415.242    0.369    0.467   55.498  154.837    4.779
  415.492    0.364    0.479   53.639  154.981    4.701
  415.742    0.358    0.473   50.865  155.022    4.664
  415.992    0.357    0.457   52.589  154.950    4.620
  416.242    0.347    0.448   55.892  154.884    4.575
  416.492    0.341    0.437   54.821  155.034    4.531
  416.742    0.336    0.432   53.204  155.174    4.520
  416.992    0.331    0.433   54.204  155.108    4.507
  417.242    0.324    0.432   55.864  155.141    4.471
  417.492    0.308    0.431   58.740  155.078    4.411
  417.742    0.309    0.434   62.833  155.120    4.382
  417.992    0.325    0.440   61.524  155.050    4.361
  418.242    0.324    0.462   59.599  154.984    4.350
  418.492    0.329    0.457   57.496  154.922    4.346
  418.742    0.334    0.450   55.999  154.961    4.335
  418.992    0.329    0.457   54.686  155.000    4.315
  419.242    0.326    0.469   53.798  154.936    4.303
  419.492    0.320    0.476   56.495  154.565    4.299
  419.742    0.314    0.474   55.971  154.200    4.304
  419.992    0.328    0.458   53.079  154.025    4.309
  420.242    0.361    0.443   51.946  153.959    4.322
  420.492    0.363    0.436   54.158  153.793    4.342
  420.742    0.356    0.444   55.638  153.731    4.363
  420.992    0.350    0.432   55.722  153.769    4.377
  421.242    0.349    0.417   55.745  153.609    4.381
  421.492    0.359    0.423   56.677  153.534    4.360
  421.742    0.356    0.427   58.220  153.264    4.349
  421.992    0.345    0.440   61.342  152.896    4.354
  422.242    0.337    0.437   64.705  152.622    4.366
  422.492    0.327    0.423   61.510  152.969    4.412
  422.742    0.323    0.399   58.494  155.171    4.449
  422.992    0.307    0.377   58.578  156.448    4.521
  423.242    0.276    0.306   61.152  157.204    4.565
  423.492    0.192    0.289   64.517  158.062    4.595
  423.742    0.124    0.286   67.273  158.414    4.600
  423.992    0.135    0.308   69.363  157.934    4.563
  424.242    0.146    0.351   71.211  156.536    4.535
  424.492    0.160    0.379   72.507  155.649    4.540
  424.742    0.189    0.405   73.016  154.555    4.545
  424.992    0.257    0.429   73.470  153.462    4.574
  425.242    0.323    0.452   73.972  152.990    4.578
  425.492    0.322    0.463   75.028  152.512    4.583
  425.742    0.317    0.466   76.994  152.347    4.514
  425.992    0.314    0.454   79.995  152.898    4.419
  426.242    0.315    0.455   82.691  153.758    4.161
