~VERSION INFORMATION
 VERS.                 2.0:   CWLS LOG ASCII STANDARD -VERSION 2.0
 WRAP.                  NO:   ONE LINE PER DEPTH STEP
~WELL INFORMATION BLOCK
#MNEM.UNIT           DATA                    DESCRIPTION OF MNEMONIC
#---------    -------------------            -------------------------------
# Generated from Intellog Unique Number	CN_91_93/WELL/2613
WELL.         PARAMOUNT                      : Well_name    - WELL
LOC .         02/11-26-091-20W4/0            : Location     - LOCATION
UWI .         02/11-26-091-20W4/0            : Uwi          - UNIQUE WELL ID
ENTR.         TIM                            : Entered      - ENTERED BY
SRVC.         SCHLUMBERGER                   : Scn          - SERVICE COMPANY
DATE.         02/04/92                       : Date         - LOG DATE
STRT.M        185                            : top_depth    - START DEPTH
STOP.M        245                            : bot_depth    - STOP DEPTH
STEP.M        0.25                           : increment    - STEP LENGTH
 NULL. -999.2500:NULL Value
~CURVE INFORMATION BLOCK
#MNEM UNIT       ERCB CURVE CODE    CURVE DESCRIPTION
#-----------   ------------------   ----------------------------------
DEPT.M        00 001 00 00         : DEPTH        - DEPTH
GR  .API      00 310 00 00         : GR           - GAMMA RAY
CALI.MM       00 280 01 00         : CAL          - CALIPER
NPHI.V/V      00 330 00 00         : PHIN         - NEUTRON POROSITY (SANDSTONE)
DPHI.V/V      00 890 00 00         : PHID         - DENSITY POROSITY (SANDSTONE)
ILD .OHMM     00 120 00 00         : RESD         - DEEP RESISTIVITY (DIL)
~PARAMETER INFORMATION
#MNEM.UNIT           DATA             DESCRIPTION OF MNEMONIC
#---------         -----------     ------------------------------
GL  .M        510.7                : gl           - GROUND LEVEL ELEVATION
EREF.M        513                  : kb           - ELEVATION OF DEPTH REFERENCE
DATM.M        513                  : datum        - DATUM ELEVATION
TDD .M        458                  : tdd          - TOTAL DEPTH DRILLER
RUN .         ONE                  : Run          - RUN NUMBER
ENG .         BILL                 : Engineer     - RECORDING ENGINEER
WIT .         JIM                  : Witness      - WITNESSED BY
MUD .         GEL                  : Mud_type     - MUD TYPE
MATR.         SANDSTONE            : Logunit      - NEUTRON MATRIX
TMAX.C        22                   : BHT          - MAXIMUM RECORDED TEMPERATURE
BHTD.M        458                  : BHTDEP       - MAXIMUM RECORDED TEMPERATURE
RMT .C        22                   : MDTP         - TEMPERATURE OF MUD
MUDD.KG/M     9800                 : MWT          - MUD DENSITY
NEUT.         1                    : NEUTRON      - NEUTRON TYPE
RESI.         0                    : RESIST       - RESISTIVITY TYPE
RM  .OHMM     5.7                  : RM           - RESISTIVITY OF MUD
RMC .OHMM     4.5                  : RMC          - RESISTIVITY OF MUD CAKE
RMF .OHMM     4.5                  : RMF          - RESISTIVITY OF MUD FILTRATE
SUFT.C        4                    : SUFT         - SURFACE TEMPERATURE
~A  DEPTH       GR      CAL     PHIN     PHID     RESD
# ...
  221.500   45.379  180.634    0.437    0.324  420.122
  221.750   43.237  182.573    0.439    0.325  498.414
  222.000   42.000  184.994    0.442    0.318  624.545
  222.250   42.553  187.423    0.445    0.314  938.489
  222.500   44.005  189.362    0.449    0.314 1335.170
  222.750   45.174  189.783    0.451    0.315 1446.460
  223.000   46.926  187.696    0.446    0.314 1430.960
  223.250   48.084  185.126    0.431    0.314 1415.040
  223.500   48.947  185.056    0.431    0.317 1400.470
  223.750   48.905  186.994    0.435    0.313 1311.990
  224.000   48.863  190.424    0.441    0.315 1142.710
  224.250   48.810  193.336    0.444    0.316  724.089
  224.500   48.769  195.292    0.447    0.315  526.128
  224.750   48.721  198.212    0.443    0.312  202.257
  225.000   48.390  201.142    0.438    0.309   93.260
  225.250   49.248  202.580    0.434    0.313   63.562
  225.500   51.905  202.510    0.431    0.298   48.310
  225.750   56.962  201.940    0.433    0.272   40.946
  226.000   64.124  201.940    0.439    0.255   38.004
  226.250   73.081  200.792    0.442    0.262   38.996
  226.500   68.239  198.213    0.433    0.285   42.247
  226.750   61.888  196.652    0.423    0.301   48.342
  227.000   61.546  194.074    0.417    0.312   57.350
  227.250   63.009  193.004    0.411    0.294   53.727
  227.500   64.767  189.417    0.413    0.286   45.962
  227.750   68.314  185.365    0.417    0.270   41.892
  228.000   71.281  182.287    0.421    0.255   39.965
  228.250   75.439  183.726    0.426    0.245   39.537
  228.500   80.191  183.656    0.429    0.260   39.462
  228.750   76.555  181.077    0.425    0.276   39.387
  229.000   69.614  179.016    0.426    0.255   39.688
  229.250   59.668  177.938    0.431    0.229   39.571
  229.500   60.221  177.368    0.413    0.105   40.271
  229.750   58.679  175.789    0.384    0.077   40.957
  230.000   56.837  174.719    0.397    0.116   42.383
  230.250   59.195  174.149    0.427    0.290   43.896
  230.500   60.658  174.149    0.424    0.288   45.443
  230.750   62.110  172.983    0.412    0.281   45.367
  231.000   63.563  172.422    0.413    0.263   44.880
  231.250   65.321  171.852    0.420    0.253   44.805
  231.500   67.983  170.782    0.429    0.250   44.316
  231.750   70.946  170.212    0.438    0.254   43.435
  232.000   74.798  169.660    0.419    0.263   42.970
  232.250   78.661  169.090    0.409    0.279   42.519
  232.500   83.113  168.503    0.414    0.286   41.683
  232.750   86.675  168.424    0.419    0.283   41.613
  233.000   89.033  168.363    0.426    0.277   43.071
  233.250   73.388  167.775    0.431    0.272   44.599
  233.500   61.643  166.723    0.424    0.279   48.316
  233.750   55.297  166.153    0.407    0.288   52.343
  234.000   52.855  165.592    0.412    0.292   56.193
  234.250   53.708  165.504    0.424    0.291   58.717
  234.500   53.671  164.943    0.432    0.289   61.901
  234.750   53.629  164.373    0.438    0.291   63.504
  235.000   54.787  164.294    0.434    0.297   63.975
  235.250   54.745  164.715    0.425    0.302   63.854
  235.500   55.597  166.145    0.426    0.302   62.599
  235.750   58.260  168.084    0.435    0.297   59.706
  236.000   60.918  170.513    0.442    0.289   55.428
  236.250   64.775  173.443    0.434    0.285   39.541
  236.500   70.437  175.872    0.426    0.245   27.196
  236.750   76.694  177.302    0.427    0.226   15.457
  237.000   82.051  177.232    0.440    0.238    7.805
  237.250   86.508  176.162    0.464    0.245    5.516
  237.500   82.267  175.101    0.485    0.235    5.215
  237.750   73.521  171.514    0.488    0.250    5.858
  238.000   57.277  167.436    0.476    0.258    7.966
  238.250   45.832  164.875    0.448    0.278   11.233
  238.500   45.790  162.306    0.433    0.295   16.576
  238.750   49.647  160.236    0.404    0.263   33.009
  239.000   55.309  159.175    0.385    0.251   49.153
  239.250   52.562  158.087    0.372    0.219   50.886
  239.500   42.922  157.517    0.326    0.181   64.933
  239.750   28.777  157.439    0.209    0.085  429.203
  240.000   21.826  156.886    0.184    0.035  824.199
  240.250   17.890  156.316    0.181    0.032 1023.440
  240.500   15.443  155.746    0.183    0.022 1160.250
  240.750   15.101  155.176    0.187    0.019 1234.070
  241.000   15.059  154.607    0.195    0.021 1243.500
  241.250   14.712  154.519    0.209    0.024 1252.730
  241.500   13.770  154.458    0.215    0.027 1273.010
  241.750   13.128  154.388    0.219    0.032 1271.400
  242.000   12.486  154.809    0.223    0.043 1280.840
  242.250   12.439  154.748    0.231    0.054 1290.070
  242.500   12.397  154.669    0.234    0.060 1299.930
  242.750   12.360  154.590    0.239    0.070 1320.970
  243.000   12.313  154.538    0.261    0.099 1319.300
  243.250   11.976  154.459    0.285    0.128 1328.810
  243.500   11.629  154.380    0.305    0.114 1326.570
  243.750   11.587  153.810    0.318    0.097 1324.620
  244.000   11.550  153.749    0.328    0.116 1310.150
  244.250   11.203  153.170    0.321    0.113 1295.850
  244.500   10.866  153.100    0.310    0.074 1293.940
  244.750   10.219  152.539    0.268    0.052 1280.080
  245.000    9.272  152.469    0.246    0.028 1277.380
