~VERSION INFORMATION
 VERS.                 2.0:   CWLS LOG ASCII STANDARD -VERSION 2.0
 WRAP.                  NO:   ONE LINE PER DEPTH STEP
~WELL INFORMATION BLOCK
#MNEM.UNIT           DATA                    DESCRIPTION OF MNEMONIC
#---------    -------------------            -------------------------------
# Generated from Intellog Unique Number	CW_73_75/WELL/2739
WELL.         10-12-073-03W5                 : Well_name    - WELL
LOC .         02/10-12-073-03W5/0            : Location     - LOCATION
UWI .         02/10-12-073-03W5/0            : Uwi          - UNIQUE WELL ID
ENTR.         JAYE                           : Entered      - ENTERED BY
SRVC.         SCHLUMBERGER                   : Scn          - SERVICE COMPANY
DATE.         18 JAN 80                      : Date         - LOG DATE
STRT.M        400                            : top_depth    - START DEPTH
STOP.M        620                            : bot_depth    - STOP DEPTH
STEP.M        0.25                           : increment    - STEP LENGTH
 NULL. -999.2500:NULL Value
~CURVE INFORMATION BLOCK
#MNEM UNIT       ERCB CURVE CODE    CURVE DESCRIPTION
#-----------   ------------------   ----------------------------------
DEPT.M        00 001 00 00         : DEPTH        - DEPTH
DPHI.V/V      00 890 00 00         : PHID         - DENSITY POROSITY (SANDSTONE)
NPHI.V/V      00 330 00 00         : PHIN         - NEUTRON POROSITY (SANDSTONE)
GR  .API      00 310 00 00         : GR           - GAMMA RAY
CALI.MM       00 280 01 00         : CAL          - CALIPER
ILD .OHMM     00 120 00 00         : RESD         - DEEP RESISTIVITY (DIL)
~PARAMETER INFORMATION
#MNEM.UNIT           DATA             DESCRIPTION OF MNEMONIC
#---------         -----------     ------------------------------
GL  .M        601.1                : gl           - GROUND LEVEL ELEVATION
EREF.M        604.3                : kb           - ELEVATION OF DEPTH REFERENCE
DATM.M        601.1                : datum        - DATUM ELEVATION
TDD .M        624                  : tdd          - TOTAL DEPTH DRILLER
RUN .         ONE                  : Run          - RUN NUMBER
MATR.         SANDSTONE            : Logunit      - NEUTRON MATRIX
TMAX.C        95                   : BHT          - MAXIMUM RECORDED TEMPERATURE
BHTD.M        626                  : BHTDEP       - MAXIMUM RECORDED TEMPERATURE
RMT .C        51                   : MDTP         - TEMPERATURE OF MUD
MUDD.KG/M     0                    : MWT          - MUD DENSITY
NEUT.         1                    : NEUTRON      - NEUTRON TYPE
RESI.         0                    : RESIST       - RESISTIVITY TYPE
RM  .OHMM     3.68                 : RM           - RESISTIVITY OF MUD
RMC .OHMM     0                    : RMC          - RESISTIVITY OF MUD CAKE
RMF .OHMM     2.88                 : RMF          - RESISTIVITY OF MUD FILTRATE
SUFT.C        0                    : SUFT         - SURFACE TEMPERATURE
~A  DEPTH     PHID     PHIN       GR      CAL     RESD
# ...
  582.500    0.107    0.370   97.947  157.115    6.870
  582.750    0.078    0.350   93.233  157.189    7.997
  583.000    0.047    0.300   86.664  157.368    9.293
  583.250    0.021    0.259   80.960  157.851   10.520
  583.500    0.022    0.233   73.217  158.340   11.410
  583.750    0.054    0.239   74.744  159.959   11.420
  584.000    0.071    0.279   89.373  158.486   10.437
  584.250    0.090    0.314   90.778  158.352    8.705
  584.500    0.086    0.339   91.810  158.424    7.910
  584.750    0.074    0.336   93.151  159.222    7.558
  585.000    0.057    0.337   93.876  159.705    7.386
  585.250    0.066    0.337   93.303  159.984    7.340
  585.500    0.091    0.338   94.953  160.780    7.306
  585.750    0.111    0.340   97.285  161.474    7.315
  586.000    0.101    0.341   95.228  162.677    7.363
  586.250    0.106    0.337   96.694  163.468    7.359
  586.500    0.110    0.341   98.716  164.468    7.367
  586.750    0.113    0.335  100.675  165.266    7.443
  587.000    0.107    0.329  103.130  166.270    7.635
  587.250    0.096    0.336  104.225  167.683    7.859
  587.500    0.085    0.333  102.537  168.480    8.001
  587.750    0.069    0.326  100.482  168.862    8.145
  588.000    0.062    0.318   99.783  168.833    8.215
  588.250    0.091    0.324  101.559  168.285    8.058
  588.500    0.108    0.340  107.845  168.361    5.149
  588.750    0.123    0.352  113.637  168.329    3.898
  589.000    0.148    0.377  116.275  168.403    2.897
  589.250    0.168    0.464  115.827  170.128    2.372
  589.500    0.202    0.508  114.940  174.013    2.030
  589.750    0.218    0.518  114.556  181.294    1.777
  590.000    0.213    0.512  113.302  186.106    1.708
  590.250    0.203    0.503  111.059  192.875    1.729
  590.500    0.183    0.482  110.671  188.109    1.824
  590.750    0.157    0.447  110.159  169.642    1.971
  591.000    0.166    0.465  110.635  174.661    2.190
  591.250    0.165    0.469  112.100  173.188    2.470
  591.500    0.124    0.445  114.060  166.463    2.832
  591.750    0.083    0.374  109.470  162.620    3.384
  592.000    0.063    0.333  105.805  160.945    4.037
  592.250    0.065    0.343  110.177  160.092    4.519
  592.500    0.058    0.364  113.928  159.957    4.600
  592.750    0.085    0.371  116.507  160.136    4.745
  593.000    0.072    0.368  113.769  160.622    4.894
  593.250    0.068    0.361  110.662  161.313    5.028
  593.500    0.084    0.357  110.273  162.109    5.128
  593.750    0.098    0.353  110.071  163.314    5.192
  594.000    0.085    0.342  109.186  163.594    5.246
  594.250    0.086    0.381  107.749  164.079    5.321
  594.500    0.092    0.376  105.320  164.670    5.457
  594.750    0.079    0.347  102.892  160.209    5.597
  595.000    0.072    0.317  103.184  159.048    5.541
  595.250    0.068    0.339  104.895  161.386    5.355
  595.500    0.067    0.388  105.003  163.521    5.391
  595.750    0.077    0.383  102.637  165.346    5.559
  596.000    0.064    0.366   99.405  161.608    5.841
  596.250    0.076    0.352   99.450  161.370    6.173
  596.500    0.095    0.347  101.409  161.341    6.462
  596.750    0.087    0.367  105.347  162.960    6.665
  597.000    0.073    0.359  109.037  161.902    6.697
  597.250    0.065    0.347  113.035  157.856    6.642
  597.500    0.074    0.339  116.914  153.605    6.443
  597.750    0.081    0.351  120.419  153.986    6.054
  598.000    0.080    0.372  112.614  153.438    5.604
  598.250    0.078    0.378  100.853  153.102    5.549
  598.500    0.071    0.337   90.824  151.940    5.962
  598.750    0.148    0.314   77.148  149.540    6.564
  599.000    0.164    0.296   68.169  149.102    8.050
  599.250    0.169    0.287   61.476  149.485   10.344
  599.500    0.179    0.300   63.373  150.587   11.623
  599.750    0.171    0.318   66.323  150.867   12.350
  600.000    0.173    0.336   67.479  151.556   12.953
  600.250    0.237    0.362   66.412  152.143   14.101
  600.500    0.373    0.401   61.264  152.528   17.199
  600.750    0.386    0.464   49.875  153.013   21.976
  601.000    0.513    0.632   64.195  152.880   23.968
  601.250    0.607    0.662   90.197  152.744   23.684
  601.500    0.484    0.607   98.400  152.719   20.390
  601.750    0.456    0.380  101.410  152.692   16.661
  602.000    0.076    0.344   98.550  152.868   13.069
  602.250    0.063    0.301  101.808  152.735   11.250
  602.500    0.079    0.310  100.366  152.397   10.376
  602.750    0.097    0.305   99.795  152.369    9.897
  603.000    0.107    0.297  103.238  152.748    9.581
  603.250    0.096    0.317  103.159  153.438    9.379
  603.500    0.083    0.328   92.387  153.718    9.285
  603.750    0.077    0.325   81.677  153.797    9.227
  604.000    0.078    0.329   78.446  153.660    9.151
  604.250    0.098    0.338   79.849  153.733    9.042
  604.500    0.123    0.348   78.719  153.606    8.985
  604.750    0.150    0.358   76.601  151.709    8.978
  605.000    0.135    0.363   77.140  152.824    8.971
  605.250    0.116    0.352   79.097  153.719    8.965
  605.500    0.110    0.337   79.329  154.822    8.991
  605.750    0.110    0.315   79.557  155.004    8.934
  606.000    0.085    0.312   80.221  153.631    8.731
  606.250    0.101    0.319   81.872  152.366    8.421
  606.500    0.128    0.325   82.720  151.516    8.122
  606.750    0.141    0.333   80.476  150.661    7.590
  607.000    0.134    0.330   73.723  150.015    6.909
  607.250    0.143    0.288   67.093  148.850    6.553
  607.500    0.160    0.277   60.091  148.515    6.356
  607.750    0.167    0.275   54.943  148.482    6.199
  608.000    0.165    0.269   51.712  148.966    6.137
  608.250    0.151    0.262   49.037  149.043    6.132
  608.500    0.142    0.258   48.586  149.114    6.313
  608.750    0.132    0.259   51.534  149.497    6.427
  609.000    0.124    0.260   54.855  149.779    6.604
  609.250    0.121    0.258   64.356  150.159    6.773
  609.500    0.117    0.255   69.715  150.131    6.972
  609.750    0.111    0.252   75.630  149.896    7.152
  610.000    0.103    0.260   79.505  149.662    7.200
  610.250    0.107    0.273   81.899  148.907    7.194
  610.500    0.120    0.295   75.887  148.266    6.785
  610.750    0.139    0.303   65.917  147.721    6.189
  611.000    0.156    0.314   55.766  147.382    5.794
  611.250    0.191    0.307   47.404  146.940    5.495
  611.500    0.217    0.295   55.545  147.220    5.193
  611.750    0.205    0.288   77.158  147.604    5.037
  612.000    0.198    0.290   93.271  147.781    4.967
  612.250    0.149    0.318  110.497  148.161    4.908
  612.500    0.157    0.325  131.122  148.436    4.904
  612.750    0.187    0.330  139.323  148.517    4.928
  613.000    0.167    0.335  144.497  148.997    4.952
  613.250    0.187    0.341  145.716  149.693    5.004
  613.500    0.171    0.342  144.832  150.385    5.085
  613.750    0.184    0.343  141.479  150.970    5.186
  614.000    0.178    0.334  134.168  150.838    5.389
  614.250    0.170    0.323  125.374  150.500    5.600
  614.500    0.163    0.312  114.727  150.262    5.819
  614.750    0.169    0.289  100.803  150.238    6.023
  615.000    0.158    0.265  108.387  150.103    6.247
  615.250    0.138    0.246  120.174  149.147    6.348
  615.500    0.115    0.267  112.678  147.879    6.427
  615.750    0.140    0.272   91.276  147.543    6.678
  616.000    0.154    0.256   91.877  147.618    6.901
  616.250    0.128    0.277   95.073  148.002    6.908
  616.500    0.138    0.289   92.027  148.484    6.801
  616.750    0.156    0.296   87.436  148.562    6.499
  617.000    0.178    0.291   84.389  148.530    6.084
  617.250    0.174    0.282   82.086  148.708    5.600
  617.500    0.158    0.276   82.066  149.090    5.463
  617.750    0.123    0.275   84.213  149.473    5.308
  618.000    0.079    0.278   84.133  149.342    5.091
  618.250    0.049    0.306   75.278  148.797    4.784
  618.500    0.032    0.326   58.636  148.760    4.388
  618.750    0.014    0.340   40.015  148.634    3.667
