~VERSION INFORMATION
 VERS.                 2.0:   CWLS LOG ASCII STANDARD -VERSION 2.0
 WRAP.                  NO:   ONE LINE PER DEPTH STEP
~WELL INFORMATION BLOCK
#MNEM.UNIT           DATA                    DESCRIPTION OF MNEMONIC
#---------    -------------------            -------------------------------
# Generated from Intellog Unique Number	CS_71_72/WELL/874
WELL.         CAVALIER ET AL NIXON           : Well_name    - WELL
LOC .         02/10-30-072-14W4/0            : Location     - LOCATION
UWI .         02/10-30-072-14W4/0            : Uwi          - UNIQUE WELL ID
ENTR.         SP                             : Entered      - ENTERED BY
SRVC.         SCHLUMBERGER                   : Scn          - SERVICE COMPANY
STRT.M        265                            : top_depth    - START DEPTH
STOP.M        471                            : bot_depth    - STOP DEPTH
STEP.M        0.25                           : increment    - STEP LENGTH
 NULL. -999.2500:NULL Value
~CURVE INFORMATION BLOCK
#MNEM UNIT       ERCB CURVE CODE    CURVE DESCRIPTION
#-----------   ------------------   ----------------------------------
DEPT.M        00 001 00 00         : DEPTH        - DEPTH
GR  .API      00 310 00 00         : GR           - GAMMA RAY
NPHI.V/V      00 330 00 00         : PHIN         - NEUTRON POROSITY (LIMESTONE)
DPHI.V/V      00 890 00 00         : PHID         - DENSITY POROSITY (LIMESTONE)
ILD .OHMM     00 120 00 00         : RESD         - DEEP RESISTIVITY (DIL)
~PARAMETER INFORMATION
#MNEM.UNIT           DATA             DESCRIPTION OF MNEMONIC
#---------         -----------     ------------------------------
GL  .M        611.3                : gl           - GROUND LEVEL ELEVATION
EREF.M        614.8                : kb           - ELEVATION OF DEPTH REFERENCE
DATM.M        611.3                : datum        - DATUM ELEVATION
TDD .M        471                  : tdd          - TOTAL DEPTH DRILLER
RUN .         ONE                  : Run          - RUN NUMBER
ENG .         BILL                 : Engineer     - RECORDING ENGINEER
WIT .         JIM                  : Witness      - WITNESSED BY
MUD .         GEL                  : Mud_type     - MUD TYPE
MATR.         LIMESTONE            : Logunit      - NEUTRON MATRIX
TMAX.C        23                   : BHT          - MAXIMUM RECORDED TEMPERATURE
BHTD.M        471                  : BHTDEP       - MAXIMUM RECORDED TEMPERATURE
MATR.         1                    : LOGUNIT      - NEUTRON MATRIX
RMT .C        25                   : MDTP         - TEMPERATURE OF MUD
NEUT.         1                    : NEUTRON      - NEUTRON TYPE
RESI.         0                    : RESIST       - RESISTIVITY TYPE
RMC .OHMM     0.25                 : RMC          - RESISTIVITY OF MUD CAKE
RMF .OHMM     0.25                 : RMF          - RESISTIVITY OF MUD FILTRATE
SUFT.C        15                   : SUFT         - SURFACE TEMPERATURE
~A  DEPTH       GR     PHIN     PHID     RESD
# ...
  439.000   85.192    0.409    0.169    6.342
  439.250   89.451    0.378    0.157    5.665
  439.500   95.532    0.400    0.134    5.061
  439.750  100.397    0.444    0.186    4.437
  440.000  105.871    0.459    0.201    4.193
  440.250  105.880    0.461    0.215    3.963
  440.500  105.280    0.477    0.206    3.745
  440.750  107.112    0.493    0.202    3.539
  441.000  109.549    0.503    0.204    3.472
  441.250  110.769    0.500    0.203    3.472
  441.500  110.780    0.503    0.191    3.537
  441.750  107.145    0.510    0.182    3.603
  442.000  102.901    0.515    0.179    3.602
  442.250   99.871    0.507    0.175    3.535
  442.500  104.740    0.498    0.166    3.468
  442.750  109.605    0.494    0.158    3.403
  443.000  112.649    0.518    0.198    3.467
  443.250  113.871    0.531    0.206    3.599
  443.500  113.271    0.545    0.217    3.735
  443.750  110.243    0.557    0.199    3.878
  444.000  107.216    0.467    0.151    4.025
  444.250  107.830    0.471    0.125    4.024
  444.500  110.875    0.487    0.173    4.100
  444.750  110.275    0.493    0.202    4.176
  445.000  105.429    0.484    0.209    4.176
  445.250  103.005    0.478    0.209    4.175
  445.500  104.229    0.471    0.202    4.021
  445.750  107.272    0.468    0.196    3.799
  446.000  110.318    0.467    0.169    3.659
  446.250  112.146    0.471    0.193    3.523
  446.500  114.590    0.477    0.199    3.457
  446.750  114.594    0.493    0.196    4.249
  447.000  114.600    0.508    0.189    5.222
  447.250  108.537    0.518    0.204    6.419
  447.500  103.077    0.431    0.192    7.319
  447.750   93.976    0.401    0.164    8.189
  448.000   87.911    0.380    0.148    9.514
  448.250   86.098    0.357    0.115   10.848
  448.500   83.069    0.376    0.131   12.368
  448.750   75.792    0.370    0.134   14.103
  449.000   71.548    0.356    0.120   16.080
  449.250   67.303    0.349    0.162   17.659
  449.500   69.745    0.367    0.221   18.677
  449.750   71.571    0.380    0.250   17.985
  450.000   77.655    0.399    0.242   16.997
  450.250   81.308    0.413    0.237   16.678
  450.500   83.742    0.420    0.231   19.376
  450.750   87.396    0.425    0.227   23.369
  451.000   86.794    0.431    0.254   25.188
  451.250   81.944    0.430    0.265   26.643
  451.500   83.166    0.431    0.283   27.657
  451.750   88.032    0.419    0.287   23.351
  452.000   95.332    0.405    0.274   21.257
  452.250   97.765    0.401    0.259   17.948
  452.500  102.634    0.396    0.244   15.735
  452.750  105.677    0.396    0.232   13.795
  453.000  108.721    0.397    0.223   12.093
  453.250  112.983    0.401    0.216   11.430
  453.500  116.633    0.405    0.206   10.403
  453.750  119.676    0.413    0.194    9.649
  454.000  123.935    0.419    0.212    8.950
  454.250  130.018    0.421    0.206    8.300
  454.500  135.491    0.444    0.204    8.299
  454.750  139.750    0.460    0.199    9.823
  455.000  127.005    0.449    0.221   10.587
  455.250  122.762    0.446    0.217   11.847
  455.500  118.520    0.436    0.218   13.257
  455.750  113.670    0.429    0.242   14.559
  456.000  102.139    0.426    0.250   15.988
  456.250   96.075    0.425    0.259   16.910
  456.500   97.906    0.437    0.262   17.227
  456.750  102.773    0.428    0.268   16.904
  457.000  106.424    0.417    0.288   15.677
  457.250  108.859    0.419    0.249   15.097
  457.500  108.260    0.417    0.229   14.266
  457.750  102.194    0.411    0.221   13.738
  458.000   99.773    0.403    0.241   13.480
  458.250  101.604    0.388    0.226   12.982
  458.500  105.255    0.375    0.213   12.500
  458.750  109.514    0.370    0.202   12.037
  459.000  115.599    0.362    0.197   11.592
  459.250  118.643    0.366    0.213   10.749
  459.500  120.470    0.371    0.203   10.548
  459.750  120.483    0.387    0.222   10.350
  460.000  119.882    0.387    0.207   10.348
  460.250  119.888    0.387    0.195   10.346
  460.500  118.680    0.390    0.186   10.345
  460.750  109.581    0.387    0.207   11.575
  461.000  101.694    0.379    0.223   13.962
  461.250   93.808    0.374    0.246   16.221
  461.500   88.348    0.370    0.236   18.151
  461.750   84.105    0.371    0.222   21.087
  462.000   81.077    0.381    0.195   22.727
  462.250   82.908    0.389    0.213   22.724
  462.500   87.775    0.383    0.264   20.296
  462.750   91.425    0.399    0.260   19.545
  463.000   96.899    0.406    0.252   18.822
  463.250  103.589    0.412    0.253   17.788
  463.500  107.847    0.398    0.244   16.499
  463.750  112.714    0.385    0.229   14.738
  464.000  118.796    0.401    0.213   12.920
  464.250  126.698    0.412    0.201   11.983
  464.500  133.994    0.429    0.196   10.506
  464.750  140.076    0.448    0.206   11.537
  465.000  141.903    0.427    0.218   12.910
  465.250  138.876    0.396    0.229   14.446
  465.500  137.670    0.389    0.245   15.865
  465.750  135.856    0.389    0.254   17.421
  466.000  131.612    0.396    0.251   17.418
  466.250  127.978    0.412    0.240   16.155
  466.500  126.771    0.408    0.235   16.151
  466.750  127.992    0.396    0.230   18.764
  467.000  115.248    0.388    0.239   22.212
  467.250  101.896    0.394    0.260   25.327
  467.500   86.720    0.400    0.271   27.815
  467.750   71.546    0.400    0.285   31.714
  468.000   61.230    0.389    0.279   33.543
  468.250   44.235    0.385    0.265   34.171
  468.500   49.103    0.381    0.248   27.791
  468.750   53.968    0.383    0.238   23.467
  469.000   58.228    0.389    0.256   18.730
  469.250   58.842    0.391    0.248   14.950
  469.500   58.850    0.378    0.233   11.932
  469.750   55.822    0.361    0.213   10.659
  470.000   53.401    0.350    0.218   10.072
  470.250   50.979    0.299    0.241    9.884
  470.500   47.346    0.263    0.263    9.881
  470.750   43.711    0.254    0.252    9.880
  471.000   40.680    0.269    0.252   10.064
