~VERSION INFORMATION
 VERS.                 2.0:   CWLS LOG ASCII STANDARD -VERSION 2.0
 WRAP.                  NO:   ONE LINE PER DEPTH STEP
~WELL INFORMATION BLOCK
#MNEM.UNIT           DATA                    DESCRIPTION OF MNEMONIC
#---------    -------------------            -------------------------------
# Generated from Intellog Unique Number	CW_73_75/WELL/2739
WELL.         10-12-073-03W5                 : Well_name    - WELL
LOC .         02/10-12-073-03W5/0            : Location     - LOCATION
UWI .         02/10-12-073-03W5/0            : Uwi          - UNIQUE WELL ID
ENTR.         JAYE                           : Entered      - ENTERED BY
SRVC.         SCHLUMBERGER                   : Scn          - SERVICE COMPANY
DATE.         18 JAN 80                      : Date         - LOG DATE
STRT.M        400                            : top_depth    - START DEPTH
STOP.M        620                            : bot_depth    - STOP DEPTH
STEP.M        0.25                           : increment    - STEP LENGTH
 NULL. -999.2500:NULL Value
~CURVE INFORMATION BLOCK
#MNEM UNIT       ERCB CURVE CODE    CURVE DESCRIPTION
#-----------   ------------------   ----------------------------------
DEPT.M        00 001 00 00         : DEPTH        - DEPTH
DPHI.V/V      00 890 00 00         : PHID         - DENSITY POROSITY (SANDSTONE)
NPHI.V/V      00 330 00 00         : PHIN         - NEUTRON POROSITY (SANDSTONE)
GR  .API      00 310 00 00         : GR           - GAMMA RAY
CALI.MM       00 280 01 00         : CAL          - CALIPER
ILD .OHMM     00 120 00 00         : RESD         - DEEP RESISTIVITY (DIL)
~PARAMETER INFORMATION
#MNEM.UNIT           DATA             DESCRIPTION OF MNEMONIC
#---------         -----------     ------------------------------
GL  .M        601.1                : gl           - GROUND LEVEL ELEVATION
EREF.M        604.3                : kb           - ELEVATION OF DEPTH REFERENCE
DATM.M        601.1                : datum        - DATUM ELEVATION
TDD .M        624                  : tdd          - TOTAL DEPTH DRILLER
RUN .         ONE                  : Run          - RUN NUMBER
MATR.         SANDSTONE            : Logunit      - NEUTRON MATRIX
TMAX.C        95                   : BHT          - MAXIMUM RECORDED TEMPERATURE
BHTD.M        626                  : BHTDEP       - MAXIMUM RECORDED TEMPERATURE
RMT .C        51                   : MDTP         - TEMPERATURE OF MUD
MUDD.KG/M     0                    : MWT          - MUD DENSITY
NEUT.         1                    : NEUTRON      - NEUTRON TYPE
RESI.         0                    : RESIST       - RESISTIVITY TYPE
RM  .OHMM     3.68                 : RM           - RESISTIVITY OF MUD
RMC .OHMM     0                    : RMC          - RESISTIVITY OF MUD CAKE
RMF .OHMM     2.88                 : RMF          - RESISTIVITY OF MUD FILTRATE
SUFT.C        0                    : SUFT         - SURFACE TEMPERATURE
~A  DEPTH     PHID     PHIN       GR      CAL     RESD
  400.000    0.251    0.523   81.516  168.055    2.812
  400.250    0.223    0.449   76.618  164.626    3.316
  400.500    0.176    0.409   70.357  160.992    4.007
  400.750    0.148    0.361   67.374  157.049    5.025
  401.000    0.089    0.367   65.811  153.100    5.077
  401.250    0.211    0.383   69.749  152.352    4.980
  401.500    0.208    0.384   75.169  151.703    4.849
  401.750    0.198    0.388   82.076  151.368    4.659
  402.000    0.182    0.399   86.198  152.161    4.410
  402.250    0.176    0.407   85.129  153.056    4.168
  402.500    0.188    0.413   86.533  153.444    3.808
  402.750    0.203    0.422   86.020  153.619    3.506
  403.000    0.214    0.430   82.111  151.221    3.282
  403.250    0.230    0.415   78.385  150.057    3.090
  403.500    0.209    0.397   78.304  154.563    2.980
  403.750    0.186    0.408   83.293  160.197    2.912
  404.000    0.173    0.442   88.281  163.980    2.883
  404.250    0.190    0.470   94.075  168.686    2.908
  404.500    0.185    0.510   96.837  168.348    2.916
  404.750    0.182    0.522   95.584  164.408    2.898
  405.000    0.217    0.497   89.201  159.537    2.837
  405.250    0.255    0.446   81.828  154.768    2.762
  405.500    0.266    0.425   72.478  151.647    2.785
  405.750    0.246    0.410   72.893  150.487    2.922
  406.000    0.217    0.434   77.944  150.554    3.175
  406.250    0.213    0.455   80.398  151.454    3.443
  406.500    0.226    0.452   77.538  152.355    3.693
  406.750    0.222    0.428   73.936  153.461    3.830
  407.000    0.211    0.410   75.586  154.147    3.764
  407.250    0.199    0.409   77.052  154.325    3.510
  407.500    0.198    0.409   78.764  153.989    3.305
  407.750    0.200    0.413   81.837  153.240    3.088
  408.000    0.221    0.425   84.477  153.207    2.848
  408.250    0.220    0.446   90.641  154.105    2.503
  408.500    0.197    0.468   93.774  156.032    2.365
  408.750    0.185    0.484   95.178  157.960    2.485
  409.000    0.194    0.497   96.273  161.333    2.803
  409.250    0.211    0.512   93.782  168.720    3.374
  409.500    0.223    0.526   88.573  174.972    3.701
  409.750    0.236    0.545   84.045  178.446    3.947
  410.000    0.246    0.491   77.908  175.740    3.973
  410.250    0.243    0.452   69.300  157.067    3.963
  410.500    0.260    0.432   63.967  151.368    4.072
  410.750    0.271    0.425   65.000  150.001    4.319
  411.000    0.259    0.432   65.291  149.764    4.572
  411.250    0.253    0.432   65.213  149.835    4.637
  411.500    0.256    0.425   66.060  149.912    4.423
  411.750    0.246    0.413   67.959  150.191    4.156
  412.000    0.222    0.411   70.908  150.365    3.876
  412.250    0.173    0.413   73.610  150.637    3.595
  412.500    0.197    0.415   71.305  150.826    3.273
  412.750    0.234    0.408   62.016  151.106    3.175
  413.000    0.269    0.399   56.125  151.076    3.367
  413.250    0.285    0.408   53.947  150.630    3.632
  413.500    0.271    0.418   56.585  149.680    4.134
  413.750    0.253    0.424   60.092  148.826    4.551
  414.000    0.237    0.418   67.490  149.208    4.963
  414.250    0.226    0.408   74.581  149.900    5.264
  414.500    0.201    0.398   77.530  150.897    4.838
  414.750    0.175    0.383   75.594  151.798    4.323
  415.000    0.167    0.389   76.443  152.901    3.674
  415.250    0.183    0.408   87.118  154.314    3.326
  415.500    0.174    0.424   94.085  154.285    3.329
  415.750    0.187    0.438   97.157  154.462    3.498
  416.000    0.195    0.436   94.853  156.591    3.731
  416.250    0.190    0.435   97.987  158.214    4.017
  416.500    0.176    0.441  103.285  161.276    4.205
  416.750    0.179    0.440  103.761  164.028    4.249
  417.000    0.184    0.410   97.993  159.670    4.215
  417.250    0.191    0.414   93.961  154.699    3.953
  417.500    0.201    0.426   88.628  154.255    3.687
  417.750    0.206    0.440   82.491  155.769    3.516
  418.000    0.218    0.453   75.366  155.639    3.423
  418.250    0.252    0.445   67.871  154.681    3.459
  418.500    0.270    0.411   58.088  153.520    3.601
  418.750    0.245    0.394   53.187  152.659    3.735
  419.000    0.227    0.384   57.311  152.329    3.838
  419.250    0.239    0.374   62.422  151.988    3.842
  419.500    0.218    0.364   63.826  151.858    3.712
  419.750    0.218    0.370   64.119  152.651    3.587
  420.000    0.252    0.400   63.359  153.551    3.486
  420.250    0.281    0.391   61.487  153.211    3.483
  420.500    0.293    0.393   60.605  152.460    3.572
  420.750    0.286    0.401   61.452  152.428    3.623
  421.000    0.279    0.406   62.115  152.502    3.668
  421.250    0.278    0.401   62.344  152.679    3.658
  421.500    0.271    0.394   64.799  152.651    3.642
  421.750    0.259    0.391   68.488  152.522    3.599
  422.000    0.252    0.396   68.472  152.388    3.582
  422.250    0.259    0.398   64.870  152.050    3.607
  422.500    0.270    0.392   57.991  151.812    3.686
  422.750    0.278    0.389   58.530  151.469    3.851
  423.000    0.280    0.387   62.653  151.548    4.017
  423.250    0.273    0.385   67.394  151.415    4.166
  423.500    0.260    0.384   71.641  151.692    4.337
  423.750    0.238    0.383   77.556  152.286    4.342
  424.000    0.210    0.384   82.916  153.800    4.156
  424.250    0.219    0.390   93.034  155.831    3.763
  424.500    0.191    0.404   98.765  158.583    3.356
  424.750    0.153    0.421  104.680  161.850    3.107
  425.000    0.152    0.435  113.748  165.734    2.958
  425.250    0.150    0.451  115.769  169.518    3.079
  425.500    0.139    0.465  114.145  167.120    3.272
  425.750    0.155    0.457  116.413  164.511    3.497
  426.000    0.164    0.469  112.318  170.253    3.827
  426.250    0.201    0.431  100.619  168.679    3.992
  426.500    0.182    0.397   91.084  162.057    3.996
  426.750    0.194    0.380   84.454  156.466    3.833
  427.000    0.217    0.367   76.896  154.581    3.718
  427.250    0.241    0.353   70.018  151.463    3.442
  427.500    0.216    0.373   73.275  150.915    3.192
  427.750    0.215    0.402   70.044  152.227    2.950
  428.000    0.246    0.379   59.520  152.298    2.819
  428.250    0.280    0.361   48.130  152.164    2.801
  428.500    0.285    0.357   39.090  151.721    2.867
  428.750    0.273    0.351   45.931  151.383    2.974
  429.000    0.265    0.352   49.623  151.148    3.061
  429.250    0.257    0.357   53.065  151.121    3.181
  429.500    0.258    0.364   56.076  151.295    3.306
  429.750    0.262    0.371   60.385  151.373    3.493
  430.000    0.255    0.379   68.341  151.758    3.657
  430.250    0.232    0.386   81.425  152.445    3.814
  430.500    0.209    0.382   87.464  153.038    3.941
  430.750    0.193    0.378   93.442  153.519    4.072
  431.000    0.171    0.389  101.212  153.801    4.200
  431.250    0.157    0.406  104.284  154.081    4.316
  431.500    0.146    0.403  106.924  155.496    4.377
  431.750    0.139    0.416  109.625  158.452    4.144
  432.000    0.169    0.419  110.906  160.585    3.745
  432.250    0.188    0.413  112.742  162.824    3.100
  432.500    0.177    0.413  115.567  163.308    2.591
  432.750    0.176    0.447  120.247  162.147    2.298
  433.000    0.180    0.508  124.247  164.898    2.204
  433.250    0.186    0.529  125.712  167.754    2.290
  433.500    0.195    0.511  125.757  165.663    2.602
  433.750    0.212    0.504  122.834  161.617    2.995
  434.000    0.214    0.497  119.109  157.362    3.468
  434.250    0.197    0.480  111.921  155.070    3.712
  434.500    0.181    0.439  108.875  155.453    3.779
  434.750    0.173    0.429  109.600  159.851    3.790
  435.000    0.178    0.420  107.852  161.468    3.766
  435.250    0.187    0.423  105.547  160.615    3.729
  435.500    0.204    0.435   93.787  158.424    3.719
  435.750    0.223    0.449   84.436  155.095    3.709
  436.000    0.251    0.454   74.159  153.111    3.713
  436.250    0.261    0.447   66.355  152.051    3.738
