~VERSION INFORMATION
 VERS.                 2.0:   CWLS LOG ASCII STANDARD -VERSION 2.0
 WRAP.                  NO:   ONE LINE PER DEPTH STEP
~WELL INFORMATION BLOCK
#MNEM.UNIT           DATA                    DESCRIPTION OF MNEMONIC
#---------    -------------------            -------------------------------
# Generated from Intellog Unique Number	CW_70_72/WELL/1035
NULL.         -999.25                        : NULL_VALUE
WELL.         H.B. CALLING LAKE 10-12        : Well_name    - WELL              
LOC .         10-12-072-19W4                 : Location     - LOCATION          
UWI .         00/10-12-072-19W4/0            : Uwi          - UNIQUE WELL ID    
ENTR.         JAYE                           : Entered      - ENTERED BY        
SRVC.         SCHLUMBERGER                   : Scn          - SERVICE COMPANY   
DATE.         25 FEB 66                      : Date         - LOG DATE          
STRT.M        316.992                        : top_depth    - START DEPTH       
STOP.M        510.242                        : bot_depth    - STOP DEPTH        
STEP.M        0.25                           : increment    - STEP LENGTH       
~CURVE INFORMATION BLOCK
#MNEM UNIT       ERCB CURVE CODE    CURVE DESCRIPTION
#-----------   ------------------   ----------------------------------
DEPT.M        00 001 00 00         : DEPTH        - DEPTH                       
DPHI.V/V      00 890 00 00         : PHID         - DENSITY POROSITY (SANDSTONE)
NPHI.V/V      00 330 00 00         : PHIN         - NEUTRON POROSITY (SANDSTONE)
GR  .API      00 310 00 00         : GR           - GAMMA RAY                   
CALI.MM       00 280 01 00         : CAL          - CALIPER                     
ILD .OHMM     00 120 00 00         : RESD         - DEEP RESISTIVITY (DIL)      
~PARAMETER INFORMATION       
#MNEM.UNIT           DATA             DESCRIPTION OF MNEMONIC
#---------         -----------     ------------------------------
GL  .M        608.686              : gl           - GROUND LEVEL ELEVATION      
EREF.M        612.648              : kb           - ELEVATION OF DEPTH REFERENCE
DATM.M        608.686              : datum        - DATUM ELEVATION             
TDD .M        542.544              : tdd          - TOTAL DEPTH DRILLER         
RUN .         ONE                  : Run          - RUN NUMBER                  
ENG .         BERRY                : Engineer     - RECORDING ENGINEER          
WIT .         MACINTOSH            : Witness      - WITNESSED BY                
BASE.         EDM                  : Branch       - HOME BASE OF LOGGING UNIT   
MUD .         GEL                  : Mud_type     - MUD TYPE                    
MATR.         SANDSTONE            : Logunit      - NEUTRON MATRIX              
TMAX.C        20.5556              : BHT          - MAXIMUM RECORDED TEMPERATURE
BHTD.M        543.458              : BHTDEP       - MAXIMUM RECORDED TEMPERATURE
RMT .C        17.2222              : MDTP         - TEMPERATURE OF MUD          
MUDD.KG/M     1140                 : MWT          - MUD DENSITY                 
NEUT.         1                    : NEUTRON      - NEUTRON TYPE                
RESI.         0                    : RESIST       - RESISTIVITY TYPE            
RM  .OHMM     4.04                 : RM           - RESISTIVITY OF MUD          
RMC .OHMM     4.62                 : RMC          - RESISTIVITY OF MUD CAKE     
RMF .OHMM     3.96                 : RMF          - RESISTIVITY OF MUD FILTRATE 
SUFT.C        -17.7778             : SUFT         - SURFACE TEMPERATURE         
~A  DEPTH     PHID     PHIN       GR      CAL     RESD
# ...
  462.992    0.265    0.377   75.434  152.377    9.121
  463.242    0.283    0.360   76.979  151.901    9.052
  463.492    0.297    0.353   77.544  151.837    8.628
  463.742    0.236    0.370   77.631  151.877    8.082
  463.992    0.160    0.377   78.078  151.808    7.469
  464.242    0.119    0.361   79.071  152.053    6.750
  464.492    0.106    0.328   81.949  154.869    6.130
  464.742    0.120    0.331   87.743  158.410    5.937
  464.992    0.176    0.356   92.930  158.138    5.934
  465.242    0.204    0.385  105.955  160.130    5.996
  465.492    0.211    0.438  104.824  165.518    6.199
  465.742    0.200    0.464   99.075  158.769    6.252
  465.992    0.218    0.484   96.732  157.266    6.414
  466.242    0.206    0.476   97.237  157.509    6.459
  466.492    0.204    0.452  100.545  157.449    6.513
  466.742    0.195    0.445  103.177  157.380    6.525
  466.992    0.203    0.438  102.960  157.020    6.514
  467.242    0.226    0.428  102.494  156.846    6.469
  467.492    0.228    0.434  103.428  156.679    6.408
  467.742    0.211    0.444  105.942  156.927    6.314
  467.992    0.189    0.430  103.655  157.164    6.278
  468.242    0.176    0.420  104.651  157.825    6.315
  468.492    0.207    0.421  111.113  158.374    6.418
  468.742    0.213    0.425  114.114  158.721    6.415
  468.992    0.204    0.409  113.713  158.964    6.296
  469.242    0.217    0.422  110.879  159.517    6.112
  469.492    0.229    0.438  106.284  163.156    5.960
  469.742    0.203    0.441  110.561  162.372    5.808
  469.992    0.211    0.409  108.579  159.945    5.657
  470.242    0.203    0.383  103.256  158.541    5.546
  470.492    0.188    0.386   96.352  157.660    5.477
  470.742    0.203    0.395   93.156  157.075    5.358
  470.992    0.217    0.402  102.109  156.912    5.025
  471.242    0.217    0.408  102.617  156.847    4.347
  471.492    0.201    0.417   98.268  156.574    3.801
  471.742    0.179    0.412   95.252  156.822    3.263
  471.992    0.158    0.406   93.271  157.989    2.765
  472.242    0.132    0.409   94.450  160.909    2.227
  472.492    0.126    0.414   97.389  163.731    1.961
  472.742    0.156    0.414  102.454  165.104    1.875
  472.992    0.217    0.416  107.638  165.861    2.208
  473.242    0.243    0.423  112.584  165.591    2.624
  473.492    0.235    0.442  114.247  163.576    3.098
  473.742    0.226    0.461  115.606  162.789    3.719
  473.992    0.226    0.490  116.237  163.343    4.472
  474.242    0.233    0.509  114.864  164.207    5.604
  474.492    0.235    0.527  112.214  165.067    6.168
  474.742    0.240    0.539  108.348  166.443    6.098
  474.992    0.211    0.549  103.994  167.206    5.330
  475.242    0.191    0.556   96.728  167.551    5.072
  475.492    0.160    0.546   90.738  167.486    5.060
  475.742    0.132    0.408   90.941  167.422    5.138
  475.992    0.112    0.377   95.460  167.666    5.447
  476.242    0.180    0.356  106.055  167.915    5.781
  476.492    0.192    0.394  107.291  168.154    6.147
  476.742    0.180    0.428  100.693  168.913    6.547
  476.992    0.165    0.438  102.479  170.804    6.831
  477.242    0.180    0.428  106.511  171.978    6.515
  477.492    0.170    0.417  104.528  172.115    5.763
  477.742    0.155    0.431   98.721  171.126    4.583
  477.992    0.137    0.444   92.606  169.724    3.971
  478.242    0.093    0.454   85.340  168.529    3.548
  478.492    0.064    0.454   82.324  167.334    3.717
  478.742    0.096    0.348   88.546  166.138    4.190
  478.992    0.178    0.345   96.403  164.333    4.853
  479.242    0.209    0.355  104.326  162.927    5.285
  479.492    0.225    0.374  108.357  162.654    5.652
  479.742    0.199    0.399  113.908  163.311    5.756
  479.992    0.180    0.448  112.777  166.128    5.694
  480.242    0.208    0.473  107.697  167.400    5.386
  480.492    0.197    0.501  103.468  168.262    5.169
  480.742    0.176    0.501   99.239  168.403    4.977
  480.992    0.154    0.462   96.468  168.241    4.865
  481.242    0.113    0.444   95.456  170.128    4.756
  481.492    0.133    0.430   95.357  171.812    4.686
  481.742    0.155    0.428   96.475  171.546    4.650
  481.992    0.156    0.429  100.689  171.271    4.605
  482.242    0.125    0.426  104.720  172.755    4.552
  482.492    0.115    0.417  107.599  167.956    4.482
  482.742    0.135    0.412  109.203  168.303    4.470
  482.992    0.157    0.442  108.739  170.094    4.508
  483.242    0.164    0.471  105.909  171.671    4.571
  483.492    0.104    0.484  104.230  172.021    4.665
  483.742    0.095    0.480  108.022  170.315    4.760
  483.992    0.148    0.439  112.537  169.018    4.930
  484.242    0.185    0.420  118.029  168.440    5.041
  484.492    0.191    0.434  121.695  168.475    5.153
  484.742    0.189    0.456  120.564  169.745    5.207
  484.992    0.208    0.467  116.824  171.433    5.187
  485.242    0.188    0.468  115.688  171.782    5.134
  485.492    0.182    0.452  115.230  172.125    5.172
  485.742    0.195    0.432  114.278  173.090    5.382
  485.992    0.196    0.437  111.325  173.954    5.715
  486.242    0.199    0.452  110.617  174.301    6.098
  486.492    0.199    0.448  114.227  174.337    6.506
  486.742    0.186    0.433  118.864  173.556    7.325
  486.992    0.184    0.424  120.834  172.358    8.053
  487.242    0.183    0.436  120.007  170.957    8.971
  487.492    0.177    0.454  117.842  170.792    9.485
  487.742    0.184    0.473  116.343  174.532    9.663
  487.992    0.181    0.445  113.815  175.294    9.980
  488.242    0.159    0.437  105.940  174.610   10.191
  488.492    0.138    0.443   97.338  174.446   10.236
  488.742    0.117    0.427   77.615  171.294   10.306
  488.992    0.145    0.392   63.848  168.966   10.344
  489.242    0.226    0.349   62.354  165.614   10.588
  489.492    0.244    0.319   65.475  164.522   10.970
  489.742    0.234    0.311   70.416  164.977   11.197
  489.992    0.210    0.325   77.791  165.006   11.638
  490.242    0.205    0.342   87.536  165.155   11.930
  490.492    0.219    0.339   96.184  164.981   12.050
  490.742    0.206    0.324  103.922  164.300   12.046
  490.992    0.194    0.309  142.401  165.680   12.026
  491.242    0.178    0.316  148.562  170.035   12.023
  491.492    0.114    0.327  151.681  175.532   12.044
  491.742    0.108    0.340  154.620  176.801   12.098
  491.992    0.101    0.371  164.788  178.072   12.135
  492.242    0.118    0.386  153.451  179.863   12.140
  492.492    0.130    0.391  151.651  180.622   12.087
  492.742    0.139    0.376  146.754  181.177   11.944
  492.992    0.157    0.362  143.010  180.701   11.743
  493.242    0.149    0.379  145.889  176.107   11.541
  493.492    0.142    0.400  155.996  172.751   11.390
  493.742    0.135    0.396  166.104  170.732   11.337
  493.992    0.126    0.389  170.501  170.258   11.350
  494.242    0.159    0.378  163.781  170.605   11.371
  494.492    0.165    0.373  153.537  171.261   11.425
  494.742    0.160    0.367  144.144  172.644   11.529
  494.992    0.172    0.358  136.147  174.327   11.599
  495.242    0.163    0.354  132.281  176.727   11.661
  495.492    0.147    0.359  130.968  180.264   11.675
  495.742    0.135    0.365  125.766  176.495   11.761
  495.992    0.157    0.364  120.017  174.274   11.865
  496.242    0.160    0.365  117.066  175.757   11.836
  496.492    0.160    0.375  115.204  177.542   11.668
  496.742    0.168    0.386  112.191  177.889   11.443
  496.992    0.181    0.394  110.450  175.867   11.291
  497.242    0.181    0.399  109.807  178.789   11.279
  497.492    0.175    0.404  109.768  181.608   11.358
  497.742    0.171    0.411  109.063  180.103   11.526
  497.992    0.181    0.419  107.748  178.286   11.795
  498.242    0.173    0.408  104.671  171.946   11.948
  498.492    0.131    0.405  100.868  168.796   11.993
  498.742    0.028    0.405   94.814  173.982   11.883
  498.992   -0.015    0.401   85.542  178.241   11.608
  499.242   -0.026    0.390   86.235  173.542   11.324
