~VERSION INFORMATION
 VERS.                 2.0:   CWLS LOG ASCII STANDARD -VERSION 2.0
 WRAP.                  NO:   ONE LINE PER DEPTH STEP
~WELL INFORMATION BLOCK
#MNEM.UNIT           DATA                    DESCRIPTION OF MNEMONIC
#---------    -------------------            -------------------------------
# Generated from Intellog Unique Number	CS_71_72/WELL/874
WELL.         CAVALIER ET AL NIXON           : Well_name    - WELL
LOC .         02/10-30-072-14W4/0            : Location     - LOCATION
UWI .         02/10-30-072-14W4/0            : Uwi          - UNIQUE WELL ID
ENTR.         SP                             : Entered      - ENTERED BY
SRVC.         SCHLUMBERGER                   : Scn          - SERVICE COMPANY
STRT.M        265                            : top_depth    - START DEPTH
STOP.M        471                            : bot_depth    - STOP DEPTH
STEP.M        0.25                           : increment    - STEP LENGTH
 NULL. -999.2500:NULL Value
~CURVE INFORMATION BLOCK
#MNEM UNIT       ERCB CURVE CODE    CURVE DESCRIPTION
#-----------   ------------------   ----------------------------------
DEPT.M        00 001 00 00         : DEPTH        - DEPTH
GR  .API      00 310 00 00         : GR           - GAMMA RAY
NPHI.V/V      00 330 00 00         : PHIN         - NEUTRON POROSITY (LIMESTONE)
DPHI.V/V      00 890 00 00         : PHID         - DENSITY POROSITY (LIMESTONE)
ILD .OHMM     00 120 00 00         : RESD         - DEEP RESISTIVITY (DIL)
~PARAMETER INFORMATION
#MNEM.UNIT           DATA             DESCRIPTION OF MNEMONIC
#---------         -----------     ------------------------------
GL  .M        611.3                : gl           - GROUND LEVEL ELEVATION
EREF.M        614.8                : kb           - ELEVATION OF DEPTH REFERENCE
DATM.M        611.3                : datum        - DATUM ELEVATION
TDD .M        471                  : tdd          - TOTAL DEPTH DRILLER
RUN .         ONE                  : Run          - RUN NUMBER
ENG .         BILL                 : Engineer     - RECORDING ENGINEER
WIT .         JIM                  : Witness      - WITNESSED BY
MUD .         GEL                  : Mud_type     - MUD TYPE
MATR.         LIMESTONE            : Logunit      - NEUTRON MATRIX
TMAX.C        23                   : BHT          - MAXIMUM RECORDED TEMPERATURE
BHTD.M        471                  : BHTDEP       - MAXIMUM RECORDED TEMPERATURE
MATR.         1                    : LOGUNIT      - NEUTRON MATRIX
RMT .C        25                   : MDTP         - TEMPERATURE OF MUD
NEUT.         1                    : NEUTRON      - NEUTRON TYPE
RESI.         0                    : RESIST       - RESISTIVITY TYPE
RMC .OHMM     0.25                 : RMC          - RESISTIVITY OF MUD CAKE
RMF .OHMM     0.25                 : RMF          - RESISTIVITY OF MUD FILTRATE
SUFT.C        15                   : SUFT         - SURFACE TEMPERATURE
~A  DEPTH       GR     PHIN     PHID     RESD
# ...
  352.000   93.913    0.429    0.237    7.071
  352.250   98.781    0.417    0.230    7.069
  352.500  100.608    0.455    0.221    7.068
  352.750   97.579    0.469    0.207    6.935
  353.000   96.982    0.468    0.198    6.934
  353.250   99.420    0.471    0.223    6.677
  353.500  100.033    0.457    0.210    6.676
  353.750   98.222    0.449    0.223    6.428
  354.000   97.015    0.464    0.221    6.190
  354.250   99.455    0.473    0.237    6.074
  354.500  100.674    0.472    0.230    5.848
  354.750  103.110    0.480    0.241    5.631
  355.000  106.158    0.475    0.231    5.526
  355.250  106.164    0.472    0.247    5.422
  355.500  104.956    0.468    0.221    5.421
  355.750  102.536    0.464    0.218    5.319
  356.000  100.118    0.469    0.213    5.219
  356.250   99.516    0.475    0.229    5.121
  356.500   97.701    0.481    0.220    5.025
  356.750   91.642    0.500    0.219    4.930
  357.000   89.824    0.518    0.228    5.118
  357.250   84.974    0.492    0.230    5.516
  357.500   81.337    0.483    0.243    5.726
  357.750   75.273    0.468    0.294    6.171
  358.000   70.423    0.468    0.320    6.527
  358.250   65.572    0.458    0.331    6.776
  358.500   62.543    0.451    0.324    7.033
  358.750   61.336    0.446    0.313    7.165
  359.000   61.954    0.456    0.320    7.163
  359.250   62.570    0.467    0.319    7.162
  359.500   63.182    0.474    0.300    7.296
  359.750   64.406    0.457    0.292    7.295
  360.000   64.415    0.450    0.293    7.294
  360.250   62.604    0.443    0.297    7.292
  360.500   62.609    0.440    0.296    7.290
  360.750   63.830    0.451    0.288    7.289
  361.000   65.054    0.462    0.288    7.287
  361.250   65.062    0.481    0.303    7.286
  361.500   63.248    0.498    0.313    7.284
  361.750   61.435    0.506    0.314    7.283
  362.000   63.265    0.489    0.315    7.281
  362.250   66.916    0.474    0.325    7.280
  362.500   69.963    0.464    0.308    7.279
  362.750   71.791    0.452    0.294    7.141
  363.000   73.013    0.444    0.299    7.140
  363.250   71.808    0.438    0.300    6.748
  363.500   71.814    0.431    0.300    6.498
  363.750   74.859    0.438    0.297    6.141
  364.000   77.904    0.455    0.292    5.590
  364.250   80.344    0.477    0.298    4.720
  364.500   80.956    0.498    0.308    4.061
  364.750   83.394    0.514    0.321    3.838
  365.000   90.690    0.532    0.317    3.910
  365.250   95.556    0.516    0.347    4.214
  365.500   94.352    0.521    0.305    4.715
  365.750   91.928    0.524    0.322    5.178
  366.000   87.687    0.493    0.364    5.476
  366.250   85.265    0.486    0.399    5.685
  366.500   87.095    0.474    0.361    6.013
  366.750   91.355    0.475    0.268    6.012
  367.000   97.437    0.488    0.245    6.125
  367.250   99.872    0.496    0.215    5.471
  367.500   97.453    0.486    0.222    5.268
  367.750   96.851    0.498    0.206    4.886
  368.000   98.682    0.509    0.190    4.204
  368.250  100.512    0.497    0.203    3.973
  368.500   99.912    0.500    0.202    3.972
  368.750  100.530    0.500    0.194    4.281
  369.000  101.750    0.505    0.223    4.614
  369.250   98.118    0.493    0.240    5.163
  369.500   95.088    0.488    0.236    5.461
  369.750   92.665    0.495    0.231    5.776
  370.000   89.031    0.489    0.224    6.342
  370.250   86.608    0.480    0.238    6.584
  370.500   85.403    0.467    0.234    6.708
  370.750   86.019    0.461    0.252    6.707
  371.000   87.850    0.464    0.257    6.705
  371.250   88.462    0.471    0.266    6.579
  371.500   90.293    0.456    0.263    6.335
  371.750   92.730    0.449    0.247    6.216
  372.000   93.952    0.454    0.262    6.333
  372.250   89.712    0.467    0.264    6.451
  372.500   87.895    0.477    0.270    6.450
  372.750   83.654    0.483    0.292    6.695
  373.000   80.019    0.472    0.306    6.950
  373.250   77.598    0.466    0.302    7.351
  373.500   74.570    0.462    0.291    7.630
  373.750   73.362    0.444    0.273    7.774
  374.000   72.761    0.418    0.246    7.773
  374.250   74.594    0.386    0.220    7.627
  374.500   76.423    0.349    0.164    7.073
  374.750   79.467    0.395    0.234    6.684
  375.000   80.690    0.436    0.254    6.559
  375.250   81.915    0.466    0.284    6.557
  375.500   83.134    0.483    0.281    6.556
  375.750   84.359    0.485    0.286    6.679
  376.000   84.972    0.479    0.280    6.804
  376.250   86.195    0.473    0.269    6.931
  376.500   86.811    0.473    0.275    6.929
  376.750   86.212    0.473    0.263    6.928
  377.000   85.005    0.474    0.251    6.798
  377.250   83.801    0.483    0.246    6.670
  377.500   87.450    0.490    0.251    6.545
  377.750   92.317    0.493    0.246    6.303
  378.000   89.291    0.486    0.242    6.070
  378.250   87.474    0.478    0.248    5.955
  378.500   86.269    0.475    0.243    5.954
  378.750   85.064    0.488    0.257    5.953
  379.000   85.070    0.481    0.258    6.064
  379.250   86.294    0.488    0.246    6.178
  379.500   88.124    0.492    0.257    6.062
  379.750   89.953    0.470    0.268    5.948
  380.000   91.175    0.463    0.264    5.728
  380.250   93.004    0.477    0.257    5.727
  380.500   94.227    0.472    0.252    5.726
  380.750   95.450    0.480    0.254    5.943
  381.000   91.209    0.489    0.265    6.169
  381.250   88.789    0.486    0.291    6.285
  381.500   88.187    0.494    0.296    6.284
  381.750   88.197    0.498    0.289    6.401
  382.000   90.029    0.483    0.278    6.400
  382.250   90.640    0.474    0.265    6.398
  382.500   90.044    0.462    0.249    6.397
  382.750   88.834    0.458    0.244    6.518
  383.000   89.451    0.472    0.258    6.516
  383.250   90.674    0.487    0.275    6.515
  383.500   90.075    0.498    0.269    6.513
  383.750   88.261    0.507    0.271    6.512
  384.000   85.841    0.502    0.272    6.389
  384.250   84.632    0.474    0.275    6.388
  384.500   82.819    0.462    0.267    6.387
  384.750   85.862    0.475    0.247    6.267
  385.000   90.731    0.486    0.269    6.266
  385.250   88.916    0.492    0.278    6.264
  385.500   84.675    0.474    0.288    6.263
  385.750   82.254    0.469    0.303    6.146
  386.000   81.045    0.469    0.289    6.144
  386.250   80.449    0.463    0.292    6.028
  386.500   79.240    0.459    0.293    6.027
  386.750   79.247    0.455    0.283    5.804
  387.000   81.078    0.455    0.287    5.803
  387.250   85.339    0.465    0.295    5.694
  387.500   86.559    0.474    0.300    5.587
  387.750   85.357    0.470    0.293    5.482
  388.000   84.148    0.461    0.303    5.481
  388.250   83.547    0.449    0.315    5.480
  388.500   81.126    0.459    0.315    5.479
  388.750   79.920    0.465    0.305    5.581
  389.000   81.752    0.461    0.299    5.580
  389.250   82.975    0.477    0.293    5.579
  389.500   82.983    0.475    0.289    5.578
  389.750   82.988    0.466    0.285    5.682
  390.000   82.392    0.463    0.281    5.681
  390.250   82.398    0.466    0.291    5.574
  390.500   83.624    0.469    0.287    5.074
  390.750   84.847    0.467    0.288    4.706
  391.000   85.460    0.464    0.291    3.974
  391.250   89.114    0.461    0.293    3.484
  391.500   91.549    0.465    0.279    3.112
  391.750   93.377    0.528    0.268    2.886
  392.000   97.030    0.550    0.298    2.627
  392.250   98.860    0.569    0.285    2.530
  392.500  100.084    0.577    0.282    2.831
  392.750  100.698    0.587    0.274    2.994
  393.000  100.099    0.585    0.258    3.227
  393.250   98.893    0.566    0.255    3.749
  393.500   97.686    0.541    0.263    4.195
  393.750   97.694    0.512    0.278    4.607
  394.000   97.702    0.495    0.271    4.694
  394.250   95.283    0.487    0.260    4.872
  394.500   93.468    0.481    0.262    4.963
  394.750   92.261    0.467    0.258    5.056
  395.000   93.482    0.477    0.267    5.055
  395.250   94.705    0.487    0.275    5.054
