~VERSION INFORMATION
 VERS.                 2.0:   CWLS LOG ASCII STANDARD -VERSION 2.0
 WRAP.                  NO:   ONE LINE PER DEPTH STEP
~WELL INFORMATION BLOCK
#MNEM.UNIT           DATA                    DESCRIPTION OF MNEMONIC
#---------    -------------------            -------------------------------
# Generated from Intellog Unique Number	CS_71_72/WELL/874
WELL.         CAVALIER ET AL NIXON           : Well_name    - WELL
LOC .         02/10-30-072-14W4/0            : Location     - LOCATION
UWI .         02/10-30-072-14W4/0            : Uwi          - UNIQUE WELL ID
ENTR.         SP                             : Entered      - ENTERED BY
SRVC.         SCHLUMBERGER                   : Scn          - SERVICE COMPANY
STRT.M        265                            : top_depth    - START DEPTH
STOP.M        471                            : bot_depth    - STOP DEPTH
STEP.M        0.25                           : increment    - STEP LENGTH
 NULL. -999.2500:NULL Value
~CURVE INFORMATION BLOCK
#MNEM UNIT       ERCB CURVE CODE    CURVE DESCRIPTION
#-----------   ------------------   ----------------------------------
DEPT.M        00 001 00 00         : DEPTH        - DEPTH
GR  .API      00 310 00 00         : GR           - GAMMA RAY
NPHI.V/V      00 330 00 00         : PHIN         - NEUTRON POROSITY (LIMESTONE)
DPHI.V/V      00 890 00 00         : PHID         - DENSITY POROSITY (LIMESTONE)
ILD .OHMM     00 120 00 00         : RESD         - DEEP RESISTIVITY (DIL)
~PARAMETER INFORMATION
#MNEM.UNIT           DATA             DESCRIPTION OF MNEMONIC
#---------         -----------     ------------------------------
GL  .M        611.3                : gl           - GROUND LEVEL ELEVATION
EREF.M        614.8                : kb           - ELEVATION OF DEPTH REFERENCE
DATM.M        611.3                : datum        - DATUM ELEVATION
TDD .M        471                  : tdd          - TOTAL DEPTH DRILLER
RUN .         ONE                  : Run          - RUN NUMBER
ENG .         BILL                 : Engineer     - RECORDING ENGINEER
WIT .         JIM                  : Witness      - WITNESSED BY
MUD .         GEL                  : Mud_type     - MUD TYPE
MATR.         LIMESTONE            : Logunit      - NEUTRON MATRIX
TMAX.C        23                   : BHT          - MAXIMUM RECORDED TEMPERATURE
BHTD.M        471                  : BHTDEP       - MAXIMUM RECORDED TEMPERATURE
MATR.         1                    : LOGUNIT      - NEUTRON MATRIX
RMT .C        25                   : MDTP         - TEMPERATURE OF MUD
NEUT.         1                    : NEUTRON      - NEUTRON TYPE
RESI.         0                    : RESIST       - RESISTIVITY TYPE
RMC .OHMM     0.25                 : RMC          - RESISTIVITY OF MUD CAKE
RMF .OHMM     0.25                 : RMF          - RESISTIVITY OF MUD FILTRATE
SUFT.C        15                   : SUFT         - SURFACE TEMPERATURE
~A  DEPTH       GR     PHIN     PHID     RESD
# ...
  308.500  107.081    0.478    0.252    6.547
  308.750  104.051    0.472    0.251    6.546
  309.000  102.238    0.468    0.248    6.668
  309.250  103.458    0.472    0.262    6.667
  309.500  103.469    0.493    0.273    6.542
  309.750  102.869    0.507    0.264    6.182
  310.000  104.092    0.496    0.281    5.626
  310.250  107.136    0.524    0.266    5.418
  310.500  112.004    0.556    0.285    4.932
  310.750  114.438    0.544    0.304    4.750
  311.000  118.090    0.494    0.250    4.573
  311.250  118.098    0.496    0.231    4.573
  311.500  115.680    0.525    0.197    4.836
  311.750  113.260    0.556    0.170    4.927
  312.000  111.443    0.568    0.194    5.310
  312.250  110.843    0.531    0.184    5.723
  312.500  110.245    0.500    0.164    6.285
  312.750  109.039    0.463    0.156    6.524
  313.000  105.402    0.462    0.215    7.031
  313.250   99.944    0.463    0.241    7.163
  313.500   94.489    0.454    0.248    7.162
  313.750   90.852    0.447    0.256    6.896
  314.000   92.682    0.445    0.271    6.766
  314.250   96.944    0.454    0.266    6.894
  314.500   99.379    0.463    0.259    7.023
  314.750  101.817    0.469    0.265    7.154
  315.000  104.863    0.467    0.272    7.427
  315.250  105.474    0.458    0.277    7.151
  315.500  104.270    0.453    0.287    7.017
  315.750  106.101    0.469    0.284    6.631
  316.000  106.715    0.496    0.271    6.507
  316.250  107.939    0.503    0.255    6.384
  316.500  110.982    0.512    0.295    6.383
  316.750  115.245    0.496    0.316    6.625
  317.000  116.463    0.479    0.292    6.750
  317.250  118.292    0.474    0.276    6.748
  317.500  110.406    0.482    0.297    6.875
  317.750  103.734    0.504    0.293    6.874
  318.000   97.669    0.529    0.287    6.872
  318.250   92.212    0.504    0.268    6.871
  318.500   97.084    0.474    0.260    6.999
  318.750  100.128    0.455    0.259    6.998
  319.000  101.348    0.447    0.251    7.264
  319.250  103.177    0.436    0.245    7.400
  319.500  101.971    0.430    0.238    7.399
  319.750   98.944    0.437    0.244    7.398
  320.000  100.164    0.446    0.229    7.396
  320.250  103.208    0.441    0.208    7.394
  320.500  107.471    0.450    0.246    7.256
  320.750  109.906    0.463    0.268    6.857
  321.000  112.342    0.463    0.261    6.125
  321.250  115.994    0.463    0.233    5.681
  321.500  118.434    0.464    0.219    5.269
  321.750  119.655    0.469    0.232    5.073
  322.000  121.484    0.486    0.243    5.169
  322.250  122.706    0.500    0.239    5.266
  322.500  120.284    0.513    0.232    5.264
  322.750  114.220    0.520    0.229    5.264
  323.000  109.370    0.533    0.235    5.165
  323.250  104.521    0.531    0.244    5.067
  323.500  101.490    0.503    0.272    5.066
  323.750  108.183    0.509    0.273    5.161
  324.000  110.009    0.525    0.241    5.459
  324.250  108.201    0.524    0.216    5.774
  324.500  106.385    0.480    0.233    5.994
  324.750  105.176    0.453    0.239    6.107
  325.000  103.364    0.450    0.249    6.339
  325.250  105.193    0.456    0.267    6.458
  325.500  107.022    0.472    0.242    6.703
  325.750  105.208    0.486    0.235    6.958
  326.000  102.184    0.501    0.226    6.957
  326.250  101.582    0.481    0.228    7.358
  326.500   97.340    0.460    0.226    7.496
  326.750   96.130    0.457    0.236    7.637
  327.000   96.748    0.460    0.244    7.926
  327.250   97.969    0.473    0.261    8.075
  327.500   97.370    0.483    0.274    8.074
  327.750   91.912    0.462    0.289    8.072
  328.000   89.492    0.444    0.297    8.071
  328.250   90.713    0.437    0.296    7.627
  328.500   92.543    0.428    0.294    7.484
  328.750   95.590    0.430    0.280    7.072
  329.000   96.203    0.444    0.109    6.939
  329.250   93.782    0.461    0.076    6.809
  329.500   97.436    0.472    0.067    6.557
  329.750   99.875    0.482    0.196    6.556
  330.000  101.098    0.490    0.235    6.678
  330.250  101.103    0.498    0.253    6.803
  330.500   99.289    0.490    0.265    6.931
  330.750   93.227    0.468    0.278    7.061
  331.000   90.196    0.465    0.262    7.193
  331.250   87.170    0.461    0.268    7.192
  331.500   86.568    0.458    0.282    7.056
  331.750   85.970    0.457    0.290    6.924
  332.000   88.407    0.463    0.287    6.668
  332.250   92.666    0.477    0.276    6.421
  332.500   95.710    0.484    0.262    6.183
  332.750   97.540    0.479    0.240    5.628
  333.000   96.334    0.477    0.255    5.419
  333.250   96.348    0.480    0.263    5.219
  333.500   96.959    0.501    0.270    5.316
  333.750   97.572    0.517    0.280    5.838
  334.000   98.187    0.511    0.274    6.175
  334.250   95.161    0.480    0.231    6.532
  334.500   95.169    0.470    0.214    6.780
  334.750   96.391    0.479    0.239    7.038
  335.000   93.365    0.484    0.257    7.170
  335.250   92.762    0.490    0.250    7.304
  335.500   93.379    0.476    0.258    7.303
  335.750   93.993    0.447    0.241    7.302
  336.000   92.183    0.426    0.238    7.299
  336.250   90.972    0.432    0.249    7.163
  336.500   88.552    0.440    0.260    7.028
  336.750   84.311    0.452    0.271    6.642
  337.000   81.282    0.462    0.280    6.517
  337.250   78.254    0.476    0.316    6.275
  337.500   75.226    0.485    0.337    6.274
  337.750   77.054    0.469    0.344    6.273
  338.000   81.317    0.452    0.346    6.271
  338.250   82.537    0.460    0.348    6.270
  338.500   77.080    0.470    0.347    6.508
  338.750   74.657    0.468    0.347    6.507
  339.000   72.235    0.462    0.344    6.630
  339.250   72.854    0.468    0.343    6.881
  339.500   72.254    0.470    0.337    7.010
  339.750   71.045    0.485    0.339    7.009
  340.000   68.017    0.528    0.343    7.140
  340.250   63.168    0.528    0.331    7.139
  340.500   60.138    0.498    0.323    7.137
  340.750   58.325    0.460    0.309    7.136
  341.000   60.154    0.426    0.316    7.134
  341.250   63.204    0.421    0.322    7.000
  341.500   65.032    0.437    0.326    7.000
  341.750   67.471    0.450    0.336    6.614
  342.000   68.690    0.454    0.342    6.613
  342.250   69.306    0.443    0.349    6.489
  342.500   68.706    0.449    0.344    6.367
  342.750   66.892    0.470    0.340    6.365
  343.000   65.684    0.487    0.336    6.246
  343.250   69.339    0.496    0.332    6.245
  343.500   71.779    0.486    0.336    6.243
  343.750   72.999    0.500    0.332    6.242
  344.000   74.223    0.486    0.338    6.124
  344.250   74.837    0.485    0.348    6.123
  344.500   75.451    0.475    0.348    6.122
  344.750   74.246    0.471    0.348    6.237
  345.000   74.862    0.466    0.346    6.236
  345.250   75.476    0.471    0.340    6.234
  345.500   75.482    0.467    0.328    6.351
  345.750   75.493    0.477    0.327    6.350
  346.000   75.499    0.472    0.318    6.469
  346.250   73.686    0.455    0.313    6.591
  346.500   73.085    0.454    0.322    6.841
  346.750   75.527    0.461    0.328    6.969
  347.000   76.139    0.475    0.350    7.100
  347.250   77.363    0.470    0.355    7.370
  347.500   77.978    0.466    0.345    7.650
  347.750   78.592    0.467    0.340    7.649
  348.000   77.385    0.476    0.333    7.792
  348.250   78.610    0.462    0.322    7.646
  348.500   81.048    0.449    0.310    7.363
  348.750   84.094    0.466    0.306    7.224
  349.000   84.706    0.486    0.300    7.223
  349.250   87.753    0.470    0.294    7.086
  349.500   90.188    0.457    0.283    7.085
  349.750   93.841    0.454    0.278    7.084
  350.000   96.884    0.452    0.267    7.082
  350.250   99.929    0.471    0.251    7.081
  350.500   99.332    0.479    0.248    7.080
  350.750   98.730    0.492    0.236    7.077
  351.000   97.525    0.490    0.253    7.211
  351.250   95.712    0.473    0.268    7.209
  351.500   94.504    0.461    0.257    7.207
  351.750   92.689    0.440    0.245    7.206
