~VERSION INFORMATION
 VERS.                 2.0:   CWLS LOG ASCII STANDARD -VERSION 2.0
 WRAP.                  NO:   ONE LINE PER DEPTH STEP
~WELL INFORMATION BLOCK
#MNEM.UNIT           DATA                    DESCRIPTION OF MNEMONIC
#---------    -------------------            -------------------------------
# Generated from Intellog Unique Number	CW_73_75/WELL/2739
WELL.         10-12-073-03W5                 : Well_name    - WELL
LOC .         02/10-12-073-03W5/0            : Location     - LOCATION
UWI .         02/10-12-073-03W5/0            : Uwi          - UNIQUE WELL ID
ENTR.         JAYE                           : Entered      - ENTERED BY
SRVC.         SCHLUMBERGER                   : Scn          - SERVICE COMPANY
DATE.         18 JAN 80                      : Date         - LOG DATE
STRT.M        400                            : top_depth    - START DEPTH
STOP.M        620                            : bot_depth    - STOP DEPTH
STEP.M        0.25                           : increment    - STEP LENGTH
 NULL. -999.2500:NULL Value
~CURVE INFORMATION BLOCK
#MNEM UNIT       ERCB CURVE CODE    CURVE DESCRIPTION
#-----------   ------------------   ----------------------------------
DEPT.M        00 001 00 00         : DEPTH        - DEPTH
DPHI.V/V      00 890 00 00         : PHID         - DENSITY POROSITY (SANDSTONE)
NPHI.V/V      00 330 00 00         : PHIN         - NEUTRON POROSITY (SANDSTONE)
GR  .API      00 310 00 00         : GR           - GAMMA RAY
CALI.MM       00 280 01 00         : CAL          - CALIPER
ILD .OHMM     00 120 00 00         : RESD         - DEEP RESISTIVITY (DIL)
~PARAMETER INFORMATION
#MNEM.UNIT           DATA             DESCRIPTION OF MNEMONIC
#---------         -----------     ------------------------------
GL  .M        601.1                : gl           - GROUND LEVEL ELEVATION
EREF.M        604.3                : kb           - ELEVATION OF DEPTH REFERENCE
DATM.M        601.1                : datum        - DATUM ELEVATION
TDD .M        624                  : tdd          - TOTAL DEPTH DRILLER
RUN .         ONE                  : Run          - RUN NUMBER
MATR.         SANDSTONE            : Logunit      - NEUTRON MATRIX
TMAX.C        95                   : BHT          - MAXIMUM RECORDED TEMPERATURE
BHTD.M        626                  : BHTDEP       - MAXIMUM RECORDED TEMPERATURE
RMT .C        51                   : MDTP         - TEMPERATURE OF MUD
MUDD.KG/M     0                    : MWT          - MUD DENSITY
NEUT.         1                    : NEUTRON      - NEUTRON TYPE
RESI.         0                    : RESIST       - RESISTIVITY TYPE
RM  .OHMM     3.68                 : RM           - RESISTIVITY OF MUD
RMC .OHMM     0                    : RMC          - RESISTIVITY OF MUD CAKE
RMF .OHMM     2.88                 : RMF          - RESISTIVITY OF MUD FILTRATE
SUFT.C        0                    : SUFT         - SURFACE TEMPERATURE
~A  DEPTH     PHID     PHIN       GR      CAL     RESD
# ...
  436.500    0.267    0.440   64.111  151.094    3.791
  436.750    0.270    0.430   63.971  150.855    3.845
  437.000    0.264    0.419   66.116  150.832    3.893
  437.250    0.246    0.407   70.795  150.799    3.963
  437.500    0.236    0.420   73.743  150.876    4.012
  437.750    0.228    0.429   75.331  151.154    4.002
  438.000    0.235    0.431   75.996  151.331    3.917
  438.250    0.245    0.432   75.237  151.404    3.814
  438.500    0.236    0.440   73.674  151.171    3.692
  438.750    0.241    0.447   74.645  150.934    3.548
  439.000    0.248    0.447   77.286  150.595    3.403
  439.250    0.253    0.438   81.162  150.980    3.375
  439.500    0.246    0.443   82.133  152.083    3.416
  439.750    0.245    0.466   82.855  155.041    3.452
  440.000    0.227    0.481   85.621  157.585    3.587
  440.250    0.247    0.501   86.282  156.112    3.763
  440.500    0.258    0.480   82.186  151.964    3.895
  440.750    0.253    0.461   78.644  149.978    3.792
  441.000    0.249    0.455   76.588  150.054    3.517
  441.250    0.252    0.447   76.571  150.639    3.244
  441.500    0.258    0.452   75.934  151.128    3.065
  441.750    0.275    0.444   74.063  152.021    2.979
  442.000    0.275    0.427   73.861  152.614    2.889
  442.250    0.249    0.430   75.388  152.997    2.844
  442.500    0.261    0.440   70.488  152.759    2.826
  442.750    0.275    0.422   65.897  152.526    2.888
  443.000    0.293    0.420   61.429  151.467    2.951
  443.250    0.291    0.430   62.277  151.232    3.106
  443.500    0.282    0.425   71.406  150.893    3.276
  443.750    0.269    0.425   77.754  151.581    3.501
  444.000    0.244    0.437   85.894  154.645    3.665
  444.250    0.241    0.456   91.995  155.952    3.794
  444.500    0.252    0.440   88.950  153.969    3.884
  444.750    0.259    0.418   81.825  151.054    3.969
  445.000    0.274    0.424   76.428  149.994    4.071
  445.250    0.273    0.415   74.930  149.757    4.198
  445.500    0.257    0.406   75.591  150.038    4.274
  445.750    0.237    0.398   79.034  150.937    4.239
  446.000    0.218    0.397   82.539  152.760    4.036
  446.250    0.241    0.417   82.708  152.732    3.863
  446.500    0.250    0.434   77.683  151.259    3.706
  446.750    0.258    0.449   70.497  150.203    3.547
  447.000    0.263    0.463   64.485  149.552    3.434
  447.250    0.278    0.453   59.151  149.215    3.331
  447.500    0.286    0.434   54.932  148.672    3.254
  447.750    0.291    0.420   52.071  148.436    3.222
  448.000    0.293    0.399   50.940  148.505    3.232
  448.250    0.283    0.402   53.332  148.678    3.272
  448.500    0.276    0.403   55.232  148.862    3.343
  448.750    0.287    0.400   54.287  149.037    3.403
  449.000    0.288    0.406   52.972  148.907    3.478
  449.250    0.283    0.413   54.251  148.876    3.514
  449.500    0.283    0.419   56.582  148.746    3.479
  449.750    0.281    0.425   58.542  149.026    3.431
  450.000    0.273    0.431   59.761  149.200    3.340
  450.250    0.259    0.436   61.412  149.274    3.192
  450.500    0.261    0.439   58.613  149.448    3.055
  450.750    0.273    0.426   54.949  149.419    2.953
  451.000    0.287    0.414   51.162  149.085    2.837
  451.250    0.301    0.404   50.526  149.158    2.737
  451.500    0.310    0.404   50.879  152.112    2.694
  451.750    0.311    0.408   51.233  152.701    2.722
  452.000    0.308    0.408   51.708  152.260    2.855
  452.250    0.305    0.400   52.310  151.719    3.079
  452.500    0.297    0.396   52.477  150.862    3.334
  452.750    0.295    0.395   52.150  150.215    3.649
  453.000    0.300    0.402   51.392  149.878    3.878
  453.250    0.291    0.418   48.841  150.055    4.037
  453.500    0.262    0.386   46.968  150.542    4.012
  453.750    0.231    0.318   45.713  152.468    3.618
  454.000    0.156    0.285   45.200  157.794    3.191
  454.250    0.203    0.383   44.997  156.737    2.884
  454.500    0.256    0.423   45.476  151.141    2.766
  454.750    0.301    0.446   47.189  148.642    2.748
  455.000    0.319    0.444   48.656  147.681    2.756
  455.250    0.313    0.436   49.997  147.862    2.795
  455.500    0.320    0.428   51.338  147.934    2.835
  455.750    0.319    0.421   52.432  147.805    2.886
  456.000    0.323    0.415   53.096  147.769    2.933
  456.250    0.321    0.412   54.315  147.644    2.980
  456.500    0.318    0.415   54.977  147.503    3.028
  456.750    0.315    0.422   53.167  147.270    3.077
  457.000    0.311    0.434   52.964  147.239    3.115
  457.250    0.299    0.445   53.317  147.005    3.125
  457.500    0.290    0.448   54.103  146.879    3.105
  457.750    0.299    0.442   55.569  146.641    3.068
  458.000    0.309    0.432   56.539  146.611    3.043
  458.250    0.322    0.423   57.137  147.095    3.018
  458.500    0.308    0.418   57.493  148.305    3.084
  458.750    0.286    0.412   58.155  151.264    3.364
  459.000    0.269    0.413   60.855  153.809    3.886
  459.250    0.266    0.421   63.803  153.678    4.215
  459.500    0.270    0.437   66.569  153.132    4.413
  459.750    0.274    0.451   69.828  153.103    4.353
  460.000    0.283    0.467   74.568  153.689    4.269
  460.250    0.295    0.499   81.412  154.688    4.258
  460.500    0.258    0.519   87.266  155.796    4.343
  460.750    0.222    0.484   90.091  158.754    4.487
  461.000    0.217    0.456   88.529  157.695    4.663
  461.250    0.226    0.432   88.942  151.793    4.721
  461.500    0.221    0.437   90.222  151.663    4.682
  461.750    0.212    0.442   89.834  152.764    4.583
  462.000    0.199    0.446   89.876  155.515    4.546
  462.250    0.178    0.442   89.922  156.930    4.602
  462.500    0.175    0.439   90.336  157.517    4.918
  462.750    0.179    0.448   92.296  158.005    5.505
  463.000    0.196    0.458   97.349  158.590    5.699
  463.250    0.222    0.475   97.577  160.726    5.456
  463.500    0.254    0.488   93.914  161.728    5.136
  463.750    0.402    0.504   81.536  156.547    4.863
  464.000    0.503    0.525   68.787  154.355    4.647
  464.250    0.391    0.544   78.411  160.711    4.465
  464.500    0.253    0.560   95.388  165.627    4.330
  464.750    0.238    0.432   95.924  154.059    4.161
  465.000    0.233    0.420   93.993  149.705    3.999
  465.250    0.233    0.408   91.503  149.470    3.966
  465.500    0.227    0.409   89.755  151.398    3.962
  465.750    0.209    0.419   87.946  154.249    3.953
  466.000    0.205    0.417   86.816  156.901    3.949
  466.250    0.236    0.411   86.180  155.017    3.903
  466.500    0.246    0.405   85.111  152.101    3.856
  466.750    0.256    0.409   83.611  151.349    3.918
  467.000    0.261    0.405   80.997  151.013    3.959
  467.250    0.252    0.403   78.569  150.985    3.994
  467.500    0.255    0.412   77.500  151.058    4.020
  467.750    0.255    0.419   75.814  150.515    4.093
  468.000    0.252    0.420   73.758  150.896    4.229
  468.250    0.253    0.416   70.896  150.146    4.354
  468.500    0.258    0.420   70.755  150.319    4.491
  468.750    0.265    0.418   72.777  150.500    4.546
  469.000    0.266    0.409   77.085  150.673    4.576
  469.250    0.252    0.402   81.703  151.470    4.633
  469.500    0.237    0.415   84.282  152.986    4.682
  469.750    0.220    0.410   87.168  154.710    4.600
  470.000    0.210    0.404   89.066  155.605    4.580
  470.250    0.203    0.405   90.163  156.298    4.593
  470.500    0.195    0.412   91.010  156.888    4.581
  470.750    0.189    0.424   90.869  158.403    4.569
  471.000    0.186    0.423   89.799  157.136    4.583
  471.250    0.206    0.416   88.792  154.943    4.665
  471.500    0.205    0.420   87.541  155.119    4.741
  471.750    0.200    0.432   86.348  155.707    4.835
  472.000    0.180    0.425   89.482  156.191    4.895
  472.250    0.183    0.413   94.656  156.268    5.002
  472.500    0.177    0.423   99.337  157.373    5.120
  472.750    0.168    0.435   98.638  159.197    5.213
