~VERSION INFORMATION
 VERS.                 2.0:   CWLS LOG ASCII STANDARD -VERSION 2.0
 WRAP.                  NO:   ONE LINE PER DEPTH STEP
~WELL INFORMATION BLOCK
#MNEM.UNIT           DATA                    DESCRIPTION OF MNEMONIC
#---------    -------------------            -------------------------------
# Generated from Intellog Unique Number	CN_91_93/WELL/2613
WELL.         PARAMOUNT                      : Well_name    - WELL
LOC .         02/11-26-091-20W4/0            : Location     - LOCATION
UWI .         02/11-26-091-20W4/0            : Uwi          - UNIQUE WELL ID
ENTR.         TIM                            : Entered      - ENTERED BY
SRVC.         SCHLUMBERGER                   : Scn          - SERVICE COMPANY
DATE.         02/04/92                       : Date         - LOG DATE
STRT.M        185                            : top_depth    - START DEPTH
STOP.M        245                            : bot_depth    - STOP DEPTH
STEP.M        0.25                           : increment    - STEP LENGTH
 NULL. -999.2500:NULL Value
~CURVE INFORMATION BLOCK
#MNEM UNIT       ERCB CURVE CODE    CURVE DESCRIPTION
#-----------   ------------------   ----------------------------------
DEPT.M        00 001 00 00         : DEPTH        - DEPTH
GR  .API      00 310 00 00         : GR           - GAMMA RAY
CALI.MM       00 280 01 00         : CAL          - CALIPER
NPHI.V/V      00 330 00 00         : PHIN         - NEUTRON POROSITY (SANDSTONE)
DPHI.V/V      00 890 00 00         : PHID         - DENSITY POROSITY (SANDSTONE)
ILD .OHMM     00 120 00 00         : RESD         - DEEP RESISTIVITY (DIL)
~PARAMETER INFORMATION
#MNEM.UNIT           DATA             DESCRIPTION OF MNEMONIC
#---------         -----------     ------------------------------
GL  .M        510.7                : gl           - GROUND LEVEL ELEVATION
EREF.M        513                  : kb           - ELEVATION OF DEPTH REFERENCE
DATM.M        513                  : datum        - DATUM ELEVATION
TDD .M        458                  : tdd          - TOTAL DEPTH DRILLER
RUN .         ONE                  : Run          - RUN NUMBER
ENG .         BILL                 : Engineer     - RECORDING ENGINEER
WIT .         JIM                  : Witness      - WITNESSED BY
MUD .         GEL                  : Mud_type     - MUD TYPE
MATR.         SANDSTONE            : Logunit      - NEUTRON MATRIX
TMAX.C        22                   : BHT          - MAXIMUM RECORDED TEMPERATURE
BHTD.M        458                  : BHTDEP       - MAXIMUM RECORDED TEMPERATURE
RMT .C        22                   : MDTP         - TEMPERATURE OF MUD
MUDD.KG/M     9800                 : MWT          - MUD DENSITY
NEUT.         1                    : NEUTRON      - NEUTRON TYPE
RESI.         0                    : RESIST       - RESISTIVITY TYPE
RM  .OHMM     5.7                  : RM           - RESISTIVITY OF MUD
RMC .OHMM     4.5                  : RMC          - RESISTIVITY OF MUD CAKE
RMF .OHMM     4.5                  : RMF          - RESISTIVITY OF MUD FILTRATE
SUFT.C        4                    : SUFT         - SURFACE TEMPERATURE
~A  DEPTH       GR      CAL     PHIN     PHID     RESD
  185.000   79.802  244.014    0.464    0.359   11.949
  185.250   79.754  252.434    0.442    0.374   12.261
  185.500   79.723  249.364    0.426    0.340   14.675
  185.750   79.981  240.296    0.417    0.299   15.193
  186.000   82.338  231.727    0.420    0.419   12.766
  186.250   87.696  219.151    0.473    0.428   10.623
  186.500   90.948  195.576    0.450    0.372   12.266
  186.750   90.911  186.508    0.439    0.290   12.248
  187.000   91.169  184.938    0.433    0.257    9.920
  187.250   92.621  184.368    0.427    0.256    8.182
  187.500   95.274  186.289    0.429    0.247    7.660
  187.750   97.636  188.227    0.449    0.252    7.514
  188.000  101.199  190.648    0.506    0.259    7.233
  188.250  102.052  192.069    0.526    0.249    7.220
  188.500   98.410  190.482    0.491    0.228    8.186
  188.750   95.369  188.421    0.452    0.218    9.538
  189.000   92.927  185.860    0.423    0.213   10.425
  189.250   90.785  182.291    0.412    0.200   11.096
  189.500   87.744  178.204    0.431    0.174   13.521
  189.750   84.097  176.152    0.424    0.103   13.139
  190.000   88.855  176.073    0.415    0.110   12.306
  190.250   92.117  178.011    0.420    0.167   11.531
  190.500   95.669  180.941    0.426    0.208   10.802
  190.750   98.327  183.861    0.435    0.195   10.305
  191.000  100.085  185.791    0.441    0.201   11.266
  191.250  101.248  186.230    0.444    0.211   12.542
  191.500   99.701  185.160    0.447    0.197   14.093
  191.750   94.260  182.590    0.427    0.181   17.335
  192.000   87.619  176.013    0.350    0.113   18.610
  192.250   83.667  170.435    0.311    0.072   19.446
  192.500   86.019  168.874    0.322    0.117   18.716
  192.750   88.087  168.874    0.340    0.180   17.538
  193.000   91.939  167.708    0.355    0.221   16.576
  193.250   94.302  167.646    0.366    0.208   17.009
  193.500   96.055  167.646    0.367    0.205   16.076
  193.750   94.818  167.515    0.371    0.224   16.798
  194.000   90.877  167.515    0.369    0.222   18.198
  194.250   88.130  166.831    0.368    0.216   20.440
  194.500   85.088  166.805    0.368    0.175   22.760
  194.750   81.447  166.235    0.347    0.089   24.429
  195.000   81.705  166.113    0.294    0.045   22.679
  195.250   85.562  166.095    0.300    0.106   21.640
  195.500   88.520  165.499    0.351    0.160   20.458
  195.750   91.467  165.499    0.381    0.203   18.988
  196.000   89.030  165.342    0.402    0.180   18.272
  196.250   88.694  164.798    0.387    0.193   17.758
  196.500   88.346  164.728    0.382    0.205   17.725
  196.750   86.505  164.649    0.374    0.203   19.202
  197.000   82.563  164.597    0.376    0.193   20.614
  197.250   80.722  164.597    0.382    0.181   21.940
  197.500   78.875  164.422    0.374    0.182   24.420
  197.750   74.633  164.369    0.363    0.186   27.685
  198.000   67.993  164.299    0.355    0.172   29.992
  198.250   63.746  165.238    0.359    0.150   30.490
  198.500   62.799  166.667    0.348    0.149   28.564
  198.750   64.262  168.097    0.326    0.132   26.283
  199.000   66.620  171.018    0.314    0.146   21.482
  199.250   71.982  172.947    0.334    0.166   19.057
  199.500   77.639  173.886    0.379    0.186   18.016
  199.750   82.691  175.307    0.429    0.200   15.976
  200.000   87.753  177.236    0.436    0.157   15.103
  200.250   86.811  179.166    0.412    0.136   14.806
  200.500   88.564  181.596    0.414    0.162   14.651
  200.750   91.521  184.016    0.437    0.188   14.491
  201.000   92.979  185.455    0.456    0.210   14.466
  201.250   91.742  186.893    0.425    0.221   14.442
  201.500   88.101  186.823    0.398    0.195   14.287
  201.750   90.153  186.745    0.383    0.176   14.131
  202.000   88.911  186.157    0.411    0.175   14.104
  202.250   86.170  185.105    0.425    0.137   14.342
  202.500   87.622  182.535    0.406    0.098   14.448
  202.750   92.385  184.456    0.401    0.200   14.421
  203.000   95.042  187.394    0.414    0.199   14.013
  203.250   94.100  189.824    0.423    0.195   13.487
  203.500   92.848  190.254    0.432    0.207   13.105
  203.750   93.416  189.675    0.440    0.212   12.734
  204.000   93.969  188.105    0.444    0.198   12.598
  204.250   92.422  186.527    0.448    0.187   12.576
  204.500   90.580  184.966    0.448    0.174   12.902
  204.750   89.939  182.887    0.437    0.144   13.479
  205.000   91.102  181.326    0.428    0.124   13.828
  205.250   92.559  180.248    0.433    0.192   14.052
  205.500   91.917  180.187    0.439    0.162   14.153
  205.750   92.465  180.117    0.433    0.175   14.007
  206.000   93.633  181.038    0.427    0.181   13.482
  206.250   98.090  182.941    0.429    0.195   13.097
  206.500  103.142  184.897    0.436    0.212   12.609
  206.750  104.000  189.317    0.456    0.210   12.136
  207.000  102.763  192.755    0.449    0.198   12.008
  207.250   99.722  195.185    0.449    0.183   11.770
  207.500   90.676  182.617    0.440    0.154   11.434
  207.750   85.535  175.540    0.424    0.112   11.420
  208.000   90.892  176.469    0.428    0.200   11.500
  208.250   92.345  183.907    0.441    0.206   11.691
  208.500   93.802  186.827    0.457    0.198   11.998
  208.750   97.365  187.240    0.431    0.194   12.307
  209.000  103.322  187.187    0.422    0.210   12.740
  209.250  104.174  186.118    0.416    0.219   13.313
  209.500  102.638  184.548    0.422    0.209   14.818
  209.750   99.886  183.478    0.431    0.204   16.056
  210.000   97.144  181.408    0.414    0.155   16.316
  210.250   95.608  180.838    0.371    0.108   16.148
  210.500   98.565  182.268    0.339    0.029   15.542
  210.750  107.227  187.680    0.348    0.055   14.966
  211.000  111.684  192.117    0.427    0.167   13.640
  211.250  115.242  194.056    0.423    0.232   11.989
  211.500  115.494  194.477    0.414    0.227   10.638
  211.750  113.942  193.898    0.419    0.214    9.608
  212.000  112.111  193.828    0.424    0.216    9.083
  212.250  109.359  194.767    0.433    0.227    8.984
  212.500  107.828  197.688    0.451    0.228    9.473
  212.750  104.786  199.626    0.469    0.214   10.354
  213.000  104.144  201.056    0.416    0.186   10.625
  213.250  103.492  189.488    0.417    0.169   10.602
  213.500  104.055  188.900    0.428    0.159   10.396
  213.750  104.308  192.347    0.451    0.202   10.194
  214.000  103.966  195.776    0.463    0.227    9.633
  214.250  103.618  199.688    0.469    0.226    9.109
  214.500  102.387  200.601    0.448    0.216    8.926
  214.750   99.646  200.057    0.437    0.201    9.161
  215.000   96.299  196.979    0.448    0.193   10.291
  215.250   95.352  192.409    0.446    0.216   11.152
  215.500   94.410  187.849    0.441    0.218   13.595
  215.750   87.469  181.271    0.436    0.236   17.348
  216.000   79.629  175.194    0.429    0.246   23.805
  216.250   61.884  170.633    0.422    0.255   30.370
  216.500   50.439  167.046    0.427    0.266   37.032
  216.750   38.094  164.985    0.433    0.264   46.394
  217.000   32.653  163.915    0.441    0.251   60.836
  217.250   30.806  163.793    0.461    0.288   75.526
  217.500   31.064  163.267    0.479    0.304   88.007
  217.750   31.622  163.267    0.479    0.321  104.385
  218.000   32.169  162.601    0.475    0.320  119.445
  218.250   31.832  162.057    0.472    0.320  137.866
  218.500   31.191  161.978    0.474    0.322  152.127
  218.750   31.454  162.417    0.476    0.320  166.310
  219.000   32.012  162.417    0.479    0.315  161.567
  219.250   32.869  162.277    0.476    0.304  152.772
  219.500   33.422  163.706    0.472    0.290  139.244
  219.750   33.685  164.636    0.472    0.266  130.418
  220.000   34.533  166.066    0.458    0.255  116.779
  220.250   36.885  168.478    0.453    0.303  114.483
  220.500   38.958  170.416    0.445    0.309  139.540
  220.750   41.616  172.855    0.440    0.309  147.138
  221.000   43.968  175.775    0.441    0.314  231.374
  221.250   45.421  177.714    0.440    0.320  341.421
