~VERSION INFORMATION
 VERS.                 2.0:   CWLS LOG ASCII STANDARD -VERSION 2.0
 WRAP.                  NO:   ONE LINE PER DEPTH STEP
~WELL INFORMATION BLOCK
#MNEM.UNIT           DATA                    DESCRIPTION OF MNEMONIC
#---------    -------------------            -------------------------------
# Generated from Intellog Unique Number	CW_70_72/WELL/1035
NULL.         -999.25                        : NULL_VALUE
WELL.         H.B. CALLING LAKE 10-12        : Well_name    - WELL              
LOC .         10-12-072-19W4                 : Location     - LOCATION          
UWI .         00/10-12-072-19W4/0            : Uwi          - UNIQUE WELL ID    
ENTR.         JAYE                           : Entered      - ENTERED BY        
SRVC.         SCHLUMBERGER                   : Scn          - SERVICE COMPANY   
DATE.         25 FEB 66                      : Date         - LOG DATE          
STRT.M        316.992                        : top_depth    - START DEPTH       
STOP.M        510.242                        : bot_depth    - STOP DEPTH        
STEP.M        0.25                           : increment    - STEP LENGTH       
~CURVE INFORMATION BLOCK
#MNEM UNIT       ERCB CURVE CODE    CURVE DESCRIPTION
#-----------   ------------------   ----------------------------------
DEPT.M        00 001 00 00         : DEPTH        - DEPTH                       
DPHI.V/V      00 890 00 00         : PHID         - DENSITY POROSITY (SANDSTONE)
NPHI.V/V      00 330 00 00         : PHIN         - NEUTRON POROSITY (SANDSTONE)
GR  .API      00 310 00 00         : GR           - GAMMA RAY                   
CALI.MM       00 280 01 00         : CAL          - CALIPER                     
ILD .OHMM     00 120 00 00         : RESD         - DEEP RESISTIVITY (DIL)      
~PARAMETER INFORMATION       
#MNEM.UNIT           DATA             DESCRIPTION OF MNEMONIC
#---------         -----------     ------------------------------
GL  .M        608.686              : gl           - GROUND LEVEL ELEVATION      
EREF.M        612.648              : kb           - ELEVATION OF DEPTH REFERENCE
DATM.M        608.686              : datum        - DATUM ELEVATION             
TDD .M        542.544              : tdd          - TOTAL DEPTH DRILLER         
RUN .         ONE                  : Run          - RUN NUMBER                  
ENG .         BERRY                : Engineer     - RECORDING ENGINEER          
WIT .         MACINTOSH            : Witness      - WITNESSED BY                
BASE.         EDM                  : Branch       - HOME BASE OF LOGGING UNIT   
MUD .         GEL                  : Mud_type     - MUD TYPE                    
MATR.         SANDSTONE            : Logunit      - NEUTRON MATRIX              
TMAX.C        20.5556              : BHT          - MAXIMUM RECORDED TEMPERATURE
BHTD.M        543.458              : BHTDEP       - MAXIMUM RECORDED TEMPERATURE
RMT .C        17.2222              : MDTP         - TEMPERATURE OF MUD          
MUDD.KG/M     1140                 : MWT          - MUD DENSITY                 
NEUT.         1                    : NEUTRON      - NEUTRON TYPE                
RESI.         0                    : RESIST       - RESISTIVITY TYPE            
RM  .OHMM     4.04                 : RM           - RESISTIVITY OF MUD          
RMC .OHMM     4.62                 : RMC          - RESISTIVITY OF MUD CAKE     
RMF .OHMM     3.96                 : RMF          - RESISTIVITY OF MUD FILTRATE 
SUFT.C        -17.7778             : SUFT         - SURFACE TEMPERATURE         
~A  DEPTH     PHID     PHIN       GR      CAL     RESD
  316.992    0.217    0.504  101.519  193.768    2.912
  317.242    0.204    0.497  100.267  198.437    2.942
  317.492    0.217    0.494   99.498  205.057    2.922
  317.742    0.240    0.490   98.124  201.806    2.877
  317.992    0.249    0.489   96.265  189.603    2.874
  318.242    0.233    0.493   93.431  179.455    2.902
  318.492    0.258    0.521   90.783  170.236    3.006
  318.742    0.294    0.526   85.032  164.823    3.166
  318.992    0.273    0.449   80.683  162.598    3.427
  319.242    0.243    0.438   82.345  163.665    3.670
  319.492    0.243    0.428   86.377  166.074    3.987
  319.742    0.236    0.427   88.163  168.063    4.328
  319.992    0.221    0.436   90.921  169.958    4.777
  320.242    0.213    0.448   93.555  172.669    5.242
  320.492    0.209    0.457   97.161  175.899    5.396
  320.742    0.171    0.462   98.827  180.666    5.376
  320.992    0.152    0.460   97.391  183.794    5.306
  321.242    0.221    0.455   97.473  177.248    5.088
  321.492    0.243    0.444   99.865  167.822    4.871
  321.742    0.238    0.413  100.012  165.811    4.777
  321.992    0.256    0.400  100.095  165.431    4.765
  322.242    0.252    0.387  100.663  165.160    4.902
  322.492    0.243    0.382  103.786  165.616    5.112
  322.742    0.230    0.386  104.112  166.784    5.355
  322.992    0.220    0.392  100.068  168.676    5.655
  323.242    0.216    0.397   95.837  168.303    5.890
  323.492    0.237    0.405   91.304  166.490    6.118
  323.742    0.261    0.402   86.708  164.882    6.271
  323.992    0.251    0.389   81.871  163.687    6.291
  324.242    0.260    0.387   77.882  162.694    6.272
  324.492    0.288    0.387   76.206  162.017    6.242
  324.742    0.288    0.395   76.169  161.641    6.190
  324.992    0.282    0.406   76.434  161.067    6.047
  325.242    0.274    0.414   76.820  160.592    5.821
  325.492    0.266    0.420   76.843  160.524    5.562
  325.742    0.293    0.420   77.412  160.354    5.336
  325.992    0.286    0.411   78.226  159.991    5.144
  326.242    0.277    0.407   77.219  159.717    5.001
  326.492    0.292    0.406   75.538  159.648    4.972
  326.742    0.291    0.415   75.319  159.803    5.042
  326.992    0.280    0.421   77.893  160.045    5.129
  327.242    0.287    0.426   81.987  160.179    5.134
  327.492    0.282    0.435   86.385  160.115    5.139
  327.742    0.282    0.449   90.901  160.154    5.094
  327.992    0.265    0.451   99.004  160.293    5.033
  328.242    0.242    0.434  104.192  161.259    4.956
  328.492    0.216    0.419  108.407  164.081    4.927
  328.742    0.186    0.444  115.234  167.101    4.899
  328.992    0.150    0.460  111.671  169.713    4.837
  329.242    0.119    0.477  105.194  172.223    4.752
  329.492    0.089    0.487  113.785  174.112    4.658
  329.742    0.134    0.500  120.914  176.416    4.605
  329.992    0.168    0.512  129.504  177.893    4.486
  330.242    0.172    0.527  132.261  178.956    4.228
  330.492    0.178    0.539  133.257  182.492    3.994
  330.742    0.210    0.552  133.404  188.604    3.760
  330.992    0.195    0.561  133.243  189.053    3.600
  331.242    0.196    0.550  132.110  183.535    3.449
  331.492    0.200    0.540  128.367  184.194    3.346
  331.742    0.218    0.529  127.902  182.892    3.252
  331.992    0.228    0.515  133.697  180.154    3.191
  332.242    0.216    0.503  133.781  185.541    3.146
  332.492    0.203    0.487  127.304  189.593    3.151
  332.742    0.197    0.470  119.674  182.846    3.180
  332.992    0.214    0.436  114.288  179.385    3.283
  333.242    0.204    0.411  110.182  177.266    3.527
  333.492    0.192    0.429  107.347  175.865    3.876
  333.742    0.217    0.443  101.054  174.050    4.564
  333.992    0.227    0.453   94.272  170.179    5.383
  334.242    0.223    0.462   91.377  167.131    5.971
  334.492    0.256    0.458   91.098  163.366    6.083
  334.742    0.276    0.439   95.128  160.417    6.071
  334.992    0.292    0.435  100.926  160.661    5.845
  335.242    0.283    0.442  104.773  163.890    5.719
  335.492    0.269    0.438  108.447  167.324    5.748
  335.742    0.253    0.420  109.679  169.733    5.844
  335.992    0.239    0.420  109.704  170.390    6.029
  336.242    0.229    0.425  105.170  170.629    6.214
  336.492    0.216    0.434   97.841  170.159    6.417
  336.742    0.208    0.452   91.788  169.785    6.561
  336.992    0.196    0.466   86.951  168.482    6.713
  337.242    0.214    0.475   82.601  165.435    6.760
  337.492    0.231    0.457   85.176  164.963    6.871
  337.742    0.215    0.436   87.689  166.852    7.139
  337.992    0.216    0.416   86.921  169.162    7.546
  338.242    0.263    0.419   81.780  169.401    7.872
  338.492    0.264    0.434   77.186  169.028    8.124
  338.742    0.271    0.449   74.050  167.520    8.218
  338.992    0.286    0.453   69.334  164.579    8.379
  339.242    0.304    0.438   70.818  163.485    8.548
  339.492    0.315    0.424   78.493  163.218    8.915
  339.742    0.308    0.417   86.477  163.051    9.520
  339.992    0.291    0.419   91.298  163.293   10.717
  340.242    0.274    0.434   94.724  164.771   11.651
  340.492    0.288    0.436   97.600  166.558   12.355
  340.742    0.294    0.427  102.423  168.654   11.874
  340.992    0.268    0.432  107.307  170.751   11.319
  341.242    0.227    0.442  112.007  172.332   10.362
  341.492    0.199    0.457  111.242  172.582    9.536
  341.742    0.217    0.462  108.772  171.284    8.932
  341.992    0.243    0.463  109.038  168.337    8.640
  342.242    0.230    0.465  114.104  168.271    8.415
  342.492    0.230    0.471  118.925  170.573    8.075
  342.742    0.232    0.474  125.996  172.566    7.643
  342.992    0.221    0.464  122.678  173.534    7.138
  343.242    0.229    0.448  117.174  173.879    6.591
  343.492    0.243    0.425  113.064  173.916    6.143
  343.742    0.240    0.438  107.984  173.338    5.926
  343.992    0.230    0.434  105.516  173.482    5.840
  344.242    0.232    0.424  109.488  174.652    5.721
  344.492    0.213    0.412  115.405  176.237    5.644
  344.742    0.201    0.428  120.591  177.609    5.640
  344.992    0.188    0.446  128.997  179.090    5.727
  345.242    0.198    0.460  125.924  180.160    5.830
  345.492    0.209    0.484  121.267  180.196    5.827
  345.742    0.206    0.482  122.506  180.029    5.766
  345.992    0.170    0.478  119.006  177.699    5.524
  346.242    0.209    0.482  114.166  176.710    5.035
  346.492    0.224    0.496  107.327  180.658    4.431
  346.742    0.232    0.517  101.881  179.771    4.008
  346.992    0.242    0.511   95.281  170.964    3.798
  347.242    0.245    0.486   81.513  166.683    3.598
  347.492    0.237    0.475   84.574  162.403    3.561
  347.742    0.227    0.485   82.895  160.178    3.722
  347.992    0.238    0.481   81.764  158.980    3.850
  348.242    0.277    0.470   84.888  157.995    4.192
  348.492    0.293    0.458   86.672  157.827    4.542
  348.742    0.295    0.441   87.788  158.688    5.057
  348.992    0.294    0.438   88.721  159.238    5.703
  349.242    0.286    0.425   93.001  160.304    6.645
  349.492    0.276    0.410   98.791  163.431    6.929
  349.742    0.265    0.411  106.165  168.201    6.679
  349.992    0.249    0.438   99.203  166.289    6.421
  350.242    0.224    0.458   95.034  163.033    6.228
  350.492    0.279    0.456   93.963  161.944    6.133
  350.742    0.268    0.448   94.653  161.059    6.147
  350.992    0.249    0.449   92.796  160.579    6.340
  351.242    0.254    0.462   89.109  160.519    6.674
  351.492    0.254    0.473   89.619  160.244    7.123
  351.742    0.243    0.481   91.222  160.182    7.654
  351.992    0.230    0.454   92.646  160.014    8.284
  352.242    0.221    0.447   93.396  160.260    8.658
  352.492    0.236    0.452   94.149  161.119    8.465
  352.742    0.252    0.472   96.357  164.760    7.993
  352.992    0.242    0.464   95.528  170.972    7.463
  353.242    0.203    0.454   90.267  173.683    7.065
