~VERSION INFORMATION
 VERS.                 2.0:   CWLS LOG ASCII STANDARD -VERSION 2.0
 WRAP.                  NO:   ONE LINE PER DEPTH STEP
~WELL INFORMATION BLOCK
#MNEM.UNIT           DATA                    DESCRIPTION OF MNEMONIC
#---------    -------------------            -------------------------------
# Generated from Intellog Unique Number	CW_70_72/WELL/1035
NULL.         -999.25                        : NULL_VALUE
WELL.         H.B. CALLING LAKE 10-12        : Well_name    - WELL              
LOC .         10-12-072-19W4                 : Location     - LOCATION          
UWI .         00/10-12-072-19W4/0            : Uwi          - UNIQUE WELL ID    
ENTR.         JAYE                           : Entered      - ENTERED BY        
SRVC.         SCHLUMBERGER                   : Scn          - SERVICE COMPANY   
DATE.         25 FEB 66                      : Date         - LOG DATE          
STRT.M        316.992                        : top_depth    - START DEPTH       
STOP.M        510.242                        : bot_depth    - STOP DEPTH        
STEP.M        0.25                           : increment    - STEP LENGTH       
~CURVE INFORMATION BLOCK
#MNEM UNIT       ERCB CURVE CODE    CURVE DESCRIPTION
#-----------   ------------------   ----------------------------------
DEPT.M        00 001 00 00         : DEPTH        - DEPTH                       
DPHI.V/V      00 890 00 00         : PHID         - DENSITY POROSITY (SANDSTONE)
NPHI.V/V      00 330 00 00         : PHIN         - NEUTRON POROSITY (SANDSTONE)
GR  .API      00 310 00 00         : GR           - GAMMA RAY                   
CALI.MM       00 280 01 00         : CAL          - CALIPER                     
ILD .OHMM     00 120 00 00         : RESD         - DEEP RESISTIVITY (DIL)      
~PARAMETER INFORMATION       
#MNEM.UNIT           DATA             DESCRIPTION OF MNEMONIC
#---------         -----------     ------------------------------
GL  .M        608.686              : gl           - GROUND LEVEL ELEVATION      
EREF.M        612.648              : kb           - ELEVATION OF DEPTH REFERENCE
DATM.M        608.686              : datum        - DATUM ELEVATION             
TDD .M        542.544              : tdd          - TOTAL DEPTH DRILLER         
RUN .         ONE                  : Run          - RUN NUMBER                  
ENG .         BERRY                : Engineer     - RECORDING ENGINEER          
WIT .         MACINTOSH            : Witness      - WITNESSED BY                
BASE.         EDM                  : Branch       - HOME BASE OF LOGGING UNIT   
MUD .         GEL                  : Mud_type     - MUD TYPE                    
MATR.         SANDSTONE            : Logunit      - NEUTRON MATRIX              
TMAX.C        20.5556              : BHT          - MAXIMUM RECORDED TEMPERATURE
BHTD.M        543.458              : BHTDEP       - MAXIMUM RECORDED TEMPERATURE
RMT .C        17.2222              : MDTP         - TEMPERATURE OF MUD          
MUDD.KG/M     1140                 : MWT          - MUD DENSITY                 
NEUT.         1                    : NEUTRON      - NEUTRON TYPE                
RESI.         0                    : RESIST       - RESISTIVITY TYPE            
RM  .OHMM     4.04                 : RM           - RESISTIVITY OF MUD          
RMC .OHMM     4.62                 : RMC          - RESISTIVITY OF MUD CAKE     
RMF .OHMM     3.96                 : RMF          - RESISTIVITY OF MUD FILTRATE 
SUFT.C        -17.7778             : SUFT         - SURFACE TEMPERATURE         
~A  DEPTH     PHID     PHIN       GR      CAL     RESD
# ...
  353.492    0.215    0.461   85.794  168.989    6.782
  353.742    0.249    0.471   88.552  163.473    6.655
  353.992    0.250    0.465   91.671  165.674    6.577
  354.242    0.228    0.459   87.564  167.772    6.466
  354.492    0.219    0.451   78.716  166.884    6.266
  354.742    0.251    0.448   72.482  162.705    6.049
  354.992    0.282    0.461   72.688  161.200    5.897
  355.242    0.304    0.446   77.510  160.518    5.819
  355.492    0.298    0.432   78.443  160.248    5.782
  355.742    0.298    0.428   78.834  160.392    5.837
  355.992    0.295    0.428   80.800  160.944    5.924
  356.242    0.282    0.415   82.339  162.627    6.027
  356.492    0.268    0.412   85.828  167.501    6.155
  356.742    0.256    0.432   82.508  167.542    6.356
  356.992    0.243    0.464   75.118  164.083    6.534
  357.242    0.243    0.499   64.509  161.041    6.497
  357.492    0.249    0.498   56.818  160.156    6.181
  357.742    0.293    0.473   57.691  160.293    6.038
  357.992    0.307    0.440   65.734  160.334    6.026
  358.242    0.267    0.411   72.316  160.264    6.196
  358.492    0.245    0.405   70.396  160.106    6.521
  358.742    0.252    0.415   62.644  160.138    7.044
  358.992    0.266    0.438   55.192  160.387    7.829
  359.242    0.281    0.440   52.542  160.625    8.467
  359.492    0.301    0.443   55.240  160.776    9.056
  359.742    0.319    0.451   56.841  160.815    9.678
  359.992    0.328    0.449   54.921  160.849   10.184
  360.242    0.321    0.432   52.514  160.885   10.773
  360.492    0.317    0.429   54.120  161.025   11.912
  360.742    0.314    0.442   56.327  160.968   12.970
  360.992    0.307    0.441   59.750  161.007   13.846
  361.242    0.297    0.442   62.447  161.046   14.377
  361.492    0.317    0.451   59.620  161.079   14.176
  361.742    0.313    0.458   57.390  161.016   13.358
  361.992    0.305    0.448   54.497  160.643   12.137
  362.242    0.319    0.438   52.700  160.379   11.328
  362.492    0.335    0.443   51.627  160.307   10.855
  362.742    0.352    0.449   47.033  160.149   10.548
  362.992    0.350    0.441   48.026  160.082   10.380
  363.242    0.343    0.437   49.571  159.911   10.204
  363.492    0.342    0.439   51.415  159.855    9.846
  363.742    0.342    0.441   55.082  159.683    9.341
  363.992    0.350    0.435   50.489  159.721    9.411
  364.242    0.345    0.437   47.596  159.768    9.029
  364.492    0.345    0.446   47.863  159.805    7.348
  364.742    0.342    0.456   48.733  160.146    6.612
  364.992    0.335    0.459   49.305  160.495    6.197
  365.242    0.342    0.451   51.088  160.736    6.079
  365.492    0.350    0.435   49.839  160.990    6.018
  365.742    0.361    0.422   47.857  161.028    5.973
  365.992    0.356    0.412   48.245  161.066    5.945
  366.242    0.347    0.413   49.662  160.797    5.924
  366.492    0.337    0.427   52.359  160.729    5.888
  366.742    0.343    0.428   54.872  160.771    5.787
  366.992    0.353    0.428   54.289  160.904    5.708
  367.242    0.356    0.428   51.576  160.948    5.639
  367.492    0.353    0.431   50.140  160.885    5.587
  367.742    0.350    0.432   51.382  161.131    5.550
  367.992    0.348    0.434   52.192  161.162    5.514
  368.242    0.349    0.439   51.364  161.106    5.478
  368.492    0.346    0.443   52.177  161.039    5.441
  368.742    0.346    0.445   54.265  161.082    5.404
  368.992    0.336    0.440   56.111  161.011    5.383
  369.242    0.337    0.432   57.044  161.054    5.389
  369.492    0.337    0.432   56.888  160.993    5.393
  369.742    0.345    0.434   56.786  161.341    5.407
  369.992    0.353    0.430   57.234  161.181    5.411
  370.242    0.347    0.430   58.721  161.103    5.407
  370.492    0.349    0.437   59.408  161.043    5.403
  370.742    0.368    0.447   60.465  161.088    5.424
  370.992    0.367    0.450   59.819  161.125    5.455
  371.242    0.352    0.454   59.295  161.060    5.467
  371.492    0.364    0.468   59.622  161.099    5.464
  371.742    0.362    0.472   58.796  160.929    5.459
  371.992    0.356    0.454   58.880  160.861    5.480
  372.242    0.348    0.443   60.602  160.900    5.518
  372.492    0.324    0.439   61.656  161.051    5.540
  372.742    0.334    0.434   61.197  161.087    5.544
  372.992    0.345    0.441   60.791  161.018    5.533
  373.242    0.357    0.449   62.090  160.854    5.520
  373.492    0.368    0.456   62.296  160.989    5.533
  373.742    0.367    0.457   60.741  161.039    5.514
  373.992    0.357    0.463   60.763  161.279    5.510
  374.242    0.348    0.471   60.483  161.312    5.506
  374.492    0.349    0.481   58.621  161.562    5.495
  374.742    0.359    0.479   57.309  161.701    5.507
  374.992    0.358    0.469   56.726  161.738    5.528
  375.242    0.354    0.466   56.749  161.789    5.557
  375.492    0.344    0.464   56.770  161.822    5.570
  375.742    0.363    0.467   56.912  162.062    5.607
  375.992    0.367    0.477   56.997  162.202    5.629
  376.242    0.360    0.484   57.085  162.144    5.618
  376.492    0.353    0.483   57.955  161.972    5.638
  376.742    0.352    0.478   59.741  162.021    5.627
  376.992    0.346    0.468   60.672  161.955    5.631
  377.242    0.336    0.461   59.784  161.993    5.628
  377.492    0.328    0.458   57.865  161.725    5.632
  377.742    0.337    0.464   56.308  161.869    5.637
  377.992    0.353    0.481   55.177  161.792    5.625
  378.242    0.362    0.494   54.895  161.837    5.622
  378.492    0.364    0.486   55.100  161.770    5.610
  378.742    0.353    0.477   55.551  161.603    5.622
  378.992    0.346    0.480   56.181  161.640    5.635
  379.242    0.350    0.482   56.632  161.986    5.666
  379.492    0.346    0.479   57.138  162.025    5.686
  379.742    0.341    0.473   59.044  162.064    5.682
  379.992    0.349    0.485   62.163  161.898    5.687
  380.242    0.347    0.475   66.561  161.832    5.724
  380.492    0.343    0.466   65.307  161.882    5.779
  380.742    0.351    0.464   61.142  162.020    5.841
  380.992    0.343    0.461   61.224  162.159    5.894
  381.242    0.353    0.458   61.674  162.298    6.096
  381.492    0.351    0.465   61.149  162.033    6.356
  381.742    0.329    0.471   59.894  161.866    6.673
  381.992    0.303    0.475   57.487  161.796    7.262
  382.242    0.250    0.455   52.650  163.380    7.752
  382.492    0.183    0.437   49.637  164.859    8.340
  382.742    0.135    0.411   51.116  164.691    8.608
  382.992    0.098    0.250   52.718  164.012    8.054
  383.242    0.100    0.240   55.354  163.020    7.441
  383.492    0.103    0.244   58.596  162.034    6.747
  383.742    0.095    0.250   62.326  161.040    6.299
  383.992    0.125    0.277   65.568  156.969    5.999
  384.242    0.182    0.327   68.689  154.020    5.848
  384.492    0.231    0.372   67.679  153.954    5.729
  384.742    0.313    0.449   66.309  154.712    5.701
  384.992    0.320    0.453   66.027  155.163    5.722
  385.242    0.322    0.446   66.474  155.820    5.759
  385.492    0.328    0.461   67.229  155.966    5.789
  385.742    0.333    0.478   67.736  155.700    5.826
  385.992    0.327    0.489   68.911  155.530    5.897
  386.242    0.337    0.492   71.790  155.674    5.959
  386.492    0.335    0.503   74.728  156.016    6.030
  386.742    0.336    0.501   78.882  156.671    6.083
  386.992    0.338    0.490   83.522  157.329    6.138
  387.242    0.327    0.475   86.646  161.583    6.167
  387.492    0.307    0.473   87.638  164.610    6.147
  387.742    0.285    0.467   87.904  165.982    6.127
  387.992    0.262    0.458   88.961  164.070    6.090
  388.242    0.235    0.448   87.100  161.842    6.152
  388.492    0.219    0.467   86.638  161.573    6.272
  388.742    0.240    0.488   88.850  161.817    6.400
  388.992    0.244    0.492   90.996  162.065    6.438
  389.242    0.236    0.480   87.860  162.824    6.450
  389.492    0.220    0.459   87.276  163.991    6.530
  389.742    0.228    0.446   88.027  164.339    6.567
