~VERSION INFORMATION
 VERS.                 2.0:   CWLS LOG ASCII STANDARD -VERSION 2.0
 WRAP.                  NO:   ONE LINE PER DEPTH STEP
~WELL INFORMATION BLOCK
#MNEM.UNIT           DATA                    DESCRIPTION OF MNEMONIC
#---------    -------------------            -------------------------------
# Generated from Intellog Unique Number	CW_70_72/WELL/1035
NULL.         -999.25                        : NULL_VALUE
WELL.         H.B. CALLING LAKE 10-12        : Well_name    - WELL              
LOC .         10-12-072-19W4                 : Location     - LOCATION          
UWI .         00/10-12-072-19W4/0            : Uwi          - UNIQUE WELL ID    
ENTR.         JAYE                           : Entered      - ENTERED BY        
SRVC.         SCHLUMBERGER                   : Scn          - SERVICE COMPANY   
DATE.         25 FEB 66                      : Date         - LOG DATE          
STRT.M        316.992                        : top_depth    - START DEPTH       
STOP.M        510.242                        : bot_depth    - STOP DEPTH        
STEP.M        0.25                           : increment    - STEP LENGTH       
~CURVE INFORMATION BLOCK
#MNEM UNIT       ERCB CURVE CODE    CURVE DESCRIPTION
#-----------   ------------------   ----------------------------------
DEPT.M        00 001 00 00         : DEPTH        - DEPTH                       
DPHI.V/V      00 890 00 00         : PHID         - DENSITY POROSITY (SANDSTONE)
NPHI.V/V      00 330 00 00         : PHIN         - NEUTRON POROSITY (SANDSTONE)
GR  .API      00 310 00 00         : GR           - GAMMA RAY                   
CALI.MM       00 280 01 00         : CAL          - CALIPER                     
ILD .OHMM     00 120 00 00         : RESD         - DEEP RESISTIVITY (DIL)      
~PARAMETER INFORMATION       
#MNEM.UNIT           DATA             DESCRIPTION OF MNEMONIC
#---------         -----------     ------------------------------
GL  .M        608.686              : gl           - GROUND LEVEL ELEVATION      
EREF.M        612.648              : kb           - ELEVATION OF DEPTH REFERENCE
DATM.M        608.686              : datum        - DATUM ELEVATION             
TDD .M        542.544              : tdd          - TOTAL DEPTH DRILLER         
RUN .         ONE                  : Run          - RUN NUMBER                  
ENG .         BERRY                : Engineer     - RECORDING ENGINEER          
WIT .         MACINTOSH            : Witness      - WITNESSED BY                
BASE.         EDM                  : Branch       - HOME BASE OF LOGGING UNIT   
MUD .         GEL                  : Mud_type     - MUD TYPE                    
MATR.         SANDSTONE            : Logunit      - NEUTRON MATRIX              
TMAX.C        20.5556              : BHT          - MAXIMUM RECORDED TEMPERATURE
BHTD.M        543.458              : BHTDEP       - MAXIMUM RECORDED TEMPERATURE
RMT .C        17.2222              : MDTP         - TEMPERATURE OF MUD          
MUDD.KG/M     1140                 : MWT          - MUD DENSITY                 
NEUT.         1                    : NEUTRON      - NEUTRON TYPE                
RESI.         0                    : RESIST       - RESISTIVITY TYPE            
RM  .OHMM     4.04                 : RM           - RESISTIVITY OF MUD          
RMC .OHMM     4.62                 : RMC          - RESISTIVITY OF MUD CAKE     
RMF .OHMM     3.96                 : RMF          - RESISTIVITY OF MUD FILTRATE 
SUFT.C        -17.7778             : SUFT         - SURFACE TEMPERATURE         
~A  DEPTH     PHID     PHIN       GR      CAL     RESD
# ...
  426.492    0.311    0.468   85.995  161.616    3.837
  426.742    0.307    0.481   89.601  169.061    3.635
  426.992    0.300    0.496   93.634  168.898    3.475
  427.242    0.265    0.502   95.845  170.681    3.357
  427.492    0.261    0.513   97.082  173.295    3.197
  427.742    0.252    0.501   98.445  173.949    3.136
  427.992    0.252    0.516   99.498  171.826    3.173
  428.242    0.250    0.531  101.223  170.529    3.310
  428.492    0.261    0.543  100.941  171.495    3.635
  428.742    0.274    0.528   97.501  170.092    4.133
  428.992    0.249    0.519   91.634  168.179    4.418
  429.242    0.228    0.502   89.284  164.310    4.619
  429.492    0.254    0.454   90.827  162.595    4.838
  429.742    0.255    0.448   92.611  162.636    4.867
  429.992    0.251    0.457   95.003  162.984    4.790
  430.242    0.261    0.462   98.064  162.919    4.786
  430.492    0.261    0.471   92.133  161.108    4.807
  430.742    0.262    0.482   89.239  158.265    4.993
  430.992    0.242    0.492   87.259  157.587    5.228
  431.242    0.253    0.494   87.708  157.215    5.389
  431.492    0.256    0.489   88.399  157.259    5.459
  431.742    0.246    0.477   89.333  157.396    5.464
  431.992    0.229    0.464   88.019  157.746    5.509
  432.242    0.224    0.454   88.892  157.987    5.580
  432.492    0.236    0.445   89.766  158.124    5.650
  432.742    0.255    0.454   86.143  157.854    5.688
  432.992    0.236    0.465   81.913  156.766    5.750
  433.242    0.249    0.472   81.693  156.185    5.772
  433.492    0.257    0.479   83.781  156.946    5.759
  433.742    0.250    0.486   81.921  157.290    5.691
  433.992    0.236    0.502   82.858  156.609    5.637
  434.242    0.224    0.476   86.644  155.104    5.593
  434.492    0.213    0.458   90.619  154.529    5.565
  434.742    0.226    0.446   90.765  154.776    5.520
  434.992    0.228    0.438   90.298  155.839    5.417
  435.242    0.244    0.452   89.470  158.349    5.331
  435.492    0.264    0.438   89.435  159.105    5.255
  435.742    0.255    0.453   88.547  156.064    5.209
  435.992    0.266    0.481   86.380  159.803    5.165
  436.242    0.257    0.500   87.255  159.535    5.154
  436.492    0.263    0.483   90.197  155.249    5.141
  436.742    0.262    0.479   90.825  155.907    5.121
  436.992    0.250    0.480   88.902  157.384    5.117
  437.242    0.243    0.475   84.493  158.971    5.204
  437.492    0.228    0.471   84.699  156.129    5.439
  437.742    0.259    0.473   85.268  152.872    5.740
  437.992    0.236    0.483   85.106  151.572    6.287
  438.242    0.224    0.490   81.971  151.715    7.229
  438.492    0.246    0.489   77.557  153.400    9.348
  438.742    0.270    0.486   69.744  153.652   11.039
  438.992    0.285    0.485   62.294  154.301   11.208
  439.242    0.281    0.479   56.303  155.676   11.245
  439.492    0.245    0.419   51.161  159.217   10.716
  439.742    0.196    0.384   51.853  159.664    8.902
  439.992    0.152    0.360   53.455  158.577    8.158
  440.242    0.136    0.325   57.063  156.661    7.234
  440.492    0.137    0.339   61.278  155.252    5.906
  440.742    0.162    0.371   65.492  153.547    4.636
  440.992    0.191    0.396   68.918  152.970    4.320
  441.242    0.243    0.413   69.488  153.005    4.201
  441.492    0.283    0.454   65.805  153.870    4.123
  441.742    0.320    0.485   63.097  154.424    4.153
  441.992    0.337    0.495   62.875  154.874    4.157
  442.242    0.339    0.488   64.173  155.122    4.195
  442.492    0.334    0.480   66.204  154.948    4.191
  442.742    0.324    0.469   67.079  154.887    4.056
  442.992    0.328    0.480   67.036  155.135    4.340
  443.242    0.333    0.484   67.119  155.170    4.403
  443.492    0.331    0.475   67.992  155.206    4.449
  443.742    0.338    0.458   66.924  155.348    4.446
  443.992    0.324    0.453   67.070  155.596    4.433
  444.242    0.317    0.450   68.551  155.634    4.479
  444.492    0.326    0.453   70.028  155.363    4.509
  444.742    0.319    0.459   73.272  154.899    4.505
  444.992    0.313    0.461   75.726  154.425    4.469
  445.242    0.308    0.469   74.290  154.243    4.448
  445.492    0.306    0.471   73.766  153.777    4.477
  445.742    0.302    0.468   74.397  153.706    4.581
  445.992    0.304    0.472   75.817  153.642    4.667
  446.242    0.334    0.479   75.962  153.377    5.256
  446.492    0.324    0.494   75.317  153.413    5.771
  446.742    0.314    0.496   74.065  153.245    6.219
  446.992    0.319    0.495   72.083  153.383    6.241
  447.242    0.317    0.488   69.370  154.965    5.637
  447.492    0.304    0.462   67.512  156.141    5.214
  447.742    0.291    0.423   68.266  155.560    4.980
  447.992    0.259    0.402   69.926  153.334    4.812
  448.242    0.211    0.359   71.285  151.835    4.620
  448.492    0.177    0.372   71.978  151.153    4.509
  448.742    0.281    0.414   72.304  150.981    4.472
  448.992    0.301    0.453   74.148  151.330    4.428
  449.242    0.303    0.474   76.115  151.167    4.440
  449.492    0.295    0.460   76.198  151.204    4.412
  449.742    0.289    0.469   75.130  151.657    4.449
  449.992    0.301    0.468   74.727  152.003    4.783
  450.242    0.319    0.474   75.356  152.358    5.133
  450.492    0.316    0.478   76.472  152.287    5.689
  450.742    0.297    0.489   78.439  152.426    5.998
  450.992    0.299    0.491   81.014  153.086    5.772
  451.242    0.320    0.490   82.677  154.455    5.332
  451.492    0.314    0.483   78.084  154.496    4.893
  451.742    0.289    0.470   75.311  154.226    4.215
  451.992    0.268    0.463   81.410  153.855    3.726
  452.242    0.260    0.454   91.275  153.688    3.435
  452.492    0.252    0.440   97.920  154.034    3.366
  452.742    0.239    0.426  100.556  157.366    3.329
  452.992    0.219    0.427   99.244  160.594    3.244
  453.242    0.234    0.475   99.570  161.452    3.224
  453.492    0.251    0.500  100.321  158.097    3.236
  453.742    0.270    0.525  100.649  156.809    3.265
  453.992    0.271    0.534  100.853  156.327    3.304
  454.242    0.278    0.544  102.334  156.366    3.357
  454.492    0.284    0.542  104.422  157.022    3.395
  454.742    0.261    0.531  107.058  157.574    3.531
  454.992    0.275    0.531  109.448  158.643    3.782
  455.242    0.274    0.548  106.012  159.300    4.050
  455.492    0.262    0.564  102.752  159.953    4.417
  455.742    0.271    0.557  100.526  161.433    4.718
  455.992    0.266    0.548   97.815  164.352    4.837
  456.242    0.252    0.544   93.950  166.754    4.883
  456.492    0.235    0.538   90.875  165.250    4.929
  456.742    0.230    0.523   93.329  157.885    4.991
  456.992    0.221    0.520   97.603  159.265    4.980
  457.242    0.203    0.510  102.790  163.620    4.950
  457.492    0.184    0.477  105.124  168.291    4.973
  457.742    0.153    0.448  103.627  164.214    5.010
  457.992    0.172    0.481  101.766  161.059    5.104
  458.242    0.209    0.499  101.001  159.144    5.290
  458.492    0.232    0.501  101.143  158.371    5.460
  458.742    0.245    0.490  102.200  158.195    5.579
  458.992    0.245    0.486  105.502  157.925    5.674
  459.242    0.206    0.470  108.625  157.659    5.844
  459.492    0.187    0.464  107.675  158.724    6.012
  459.742    0.195    0.457  104.538  161.023    6.486
  459.992    0.189    0.466   99.461  161.377    7.083
  460.242    0.201    0.462   95.107  160.281    8.280
  460.492    0.166    0.434   87.171  158.880    9.987
  460.742    0.145    0.414   78.265  158.410   11.390
  460.992    0.143    0.388   72.576  158.342   12.258
  461.242    0.167    0.356   67.071  157.350   12.403
  461.492    0.193    0.348   64.056  156.571   11.807
  461.742    0.202    0.384   62.317  155.993   10.398
  461.992    0.198    0.381   66.045  155.410    9.711
  462.242    0.204    0.363   69.593  155.038    8.745
  462.492    0.217    0.366   70.223  154.663    8.059
  462.742    0.243    0.377   72.131  153.364    8.729
