~VERSION INFORMATION
 VERS.                 2.0:   CWLS LOG ASCII STANDARD -VERSION 2.0
 WRAP.                  NO:   ONE LINE PER DEPTH STEP
~WELL INFORMATION BLOCK
#MNEM.UNIT           DATA                    DESCRIPTION OF MNEMONIC
#---------    -------------------            -------------------------------
# Generated from Intellog Unique Number	CW_73_75/WELL/2739
WELL.         10-12-073-03W5                 : Well_name    - WELL
LOC .         02/10-12-073-03W5/0            : Location     - LOCATION
UWI .         02/10-12-073-03W5/0            : Uwi          - UNIQUE WELL ID
ENTR.         JAYE                           : Entered      - ENTERED BY
SRVC.         SCHLUMBERGER                   : Scn          - SERVICE COMPANY
DATE.         18 JAN 80                      : Date         - LOG DATE
STRT.M        400                            : top_depth    - START DEPTH
STOP.M        620                            : bot_depth    - STOP DEPTH
STEP.M        0.25                           : increment    - STEP LENGTH
 NULL. -999.2500:NULL Value
~CURVE INFORMATION BLOCK
#MNEM UNIT       ERCB CURVE CODE    CURVE DESCRIPTION
#-----------   ------------------   ----------------------------------
DEPT.M        00 001 00 00         : DEPTH        - DEPTH
DPHI.V/V      00 890 00 00         : PHID         - DENSITY POROSITY (SANDSTONE)
NPHI.V/V      00 330 00 00         : PHIN         - NEUTRON POROSITY (SANDSTONE)
GR  .API      00 310 00 00         : GR           - GAMMA RAY
CALI.MM       00 280 01 00         : CAL          - CALIPER
ILD .OHMM     00 120 00 00         : RESD         - DEEP RESISTIVITY (DIL)
~PARAMETER INFORMATION
#MNEM.UNIT           DATA             DESCRIPTION OF MNEMONIC
#---------         -----------     ------------------------------
GL  .M        601.1                : gl           - GROUND LEVEL ELEVATION
EREF.M        604.3                : kb           - ELEVATION OF DEPTH REFERENCE
DATM.M        601.1                : datum        - DATUM ELEVATION
TDD .M        624                  : tdd          - TOTAL DEPTH DRILLER
RUN .         ONE                  : Run          - RUN NUMBER
MATR.         SANDSTONE            : Logunit      - NEUTRON MATRIX
TMAX.C        95                   : BHT          - MAXIMUM RECORDED TEMPERATURE
BHTD.M        626                  : BHTDEP       - MAXIMUM RECORDED TEMPERATURE
RMT .C        51                   : MDTP         - TEMPERATURE OF MUD
MUDD.KG/M     0                    : MWT          - MUD DENSITY
NEUT.         1                    : NEUTRON      - NEUTRON TYPE
RESI.         0                    : RESIST       - RESISTIVITY TYPE
RM  .OHMM     3.68                 : RM           - RESISTIVITY OF MUD
RMC .OHMM     0                    : RMC          - RESISTIVITY OF MUD CAKE
RMF .OHMM     2.88                 : RMF          - RESISTIVITY OF MUD FILTRATE
SUFT.C        0                    : SUFT         - SURFACE TEMPERATURE
~A  DEPTH     PHID     PHIN       GR      CAL     RESD
# ...
  473.000    0.159    0.434   97.014  159.169    5.317
  473.250    0.169    0.432   97.800  158.006    5.423
  473.500    0.166    0.426  101.304  156.534    5.541
  473.750    0.143    0.415  106.850  159.589    5.620
  474.000    0.128    0.411  108.810  162.760    5.721
  474.250    0.144    0.403  106.624  166.027    5.792
  474.500    0.154    0.393  105.560  166.306    5.864
  474.750    0.144    0.381  103.626  165.963    5.947
  475.000    0.141    0.390  101.941  165.935    5.975
  475.250    0.142    0.409  100.501  165.703    6.016
  475.500    0.145    0.401   99.804  165.466    6.068
  475.750    0.153    0.390   99.291  165.644    6.108
  476.000    0.157    0.390   98.410  165.304    6.149
  476.250    0.154    0.388   95.115  163.213    6.156
  476.500    0.151    0.380   93.800  162.157    6.163
  476.750    0.157    0.396   93.350  160.785    6.147
  477.000    0.164    0.406   95.062  159.933    6.120
  477.250    0.156    0.400   97.456  159.178    6.069
  477.500    0.157    0.397   98.303  158.430    5.998
  477.750    0.158    0.404   96.247  157.783    5.893
  478.000    0.159    0.405   92.087  157.033    5.748
  478.250    0.170    0.401   90.155  156.696    5.575
  478.500    0.165    0.400   91.311  156.251    5.347
  478.750    0.154    0.402   94.755  156.219    5.090
  479.000    0.152    0.400   96.468  156.610    4.901
  479.250    0.162    0.391   95.399  156.478    4.613
  479.500    0.171    0.400   94.887  156.964    4.425
  479.750    0.170    0.400   94.745  157.344    4.196
  480.000    0.168    0.396   95.654  158.136    4.055
  480.250    0.161    0.396   98.107  159.139    3.926
  480.500    0.165    0.414  100.439  159.729    3.894
  480.750    0.157    0.431  102.216  159.494    3.949
  481.000    0.147    0.444  100.590  158.229    4.043
  481.250    0.182    0.436   96.803  157.063    4.063
  481.500    0.206    0.436   90.729  155.799    4.044
  481.750    0.218    0.420   86.324  154.532    3.974
  482.000    0.242    0.402   80.991  153.162    3.862
  482.250    0.243    0.382   73.186  152.107    3.752
  482.500    0.240    0.372   71.809  150.938    3.680
  482.750    0.233    0.368   71.913  150.400    3.583
  483.000    0.245    0.368   69.980  149.956    3.468
  483.250    0.238    0.370   67.862  149.414    3.402
  483.500    0.247    0.374   65.620  148.864    3.355
  483.750    0.255    0.386   63.192  148.739    3.334
  484.000    0.261    0.400   62.680  148.709    3.325
  484.250    0.268    0.407   68.472  148.880    3.316
  484.500    0.264    0.412   74.758  148.754    3.302
  484.750    0.264    0.408   72.453  148.825    3.318
  485.000    0.263    0.397   68.048  149.001    3.327
  485.250    0.253    0.396   67.101  149.173    3.343
  485.500    0.256    0.402   67.395  149.252    3.347
  485.750    0.263    0.407   67.437  149.118    3.351
  486.000    0.270    0.411   67.667  148.886    3.374
  486.250    0.272    0.413   68.392  148.548    3.403
  486.500    0.265    0.421   68.680  148.516    3.445
  486.750    0.260    0.419   68.726  148.691    3.514
  487.000    0.258    0.409   68.092  148.657    3.577
  487.250    0.239    0.393   65.603  148.937    3.703
  487.500    0.241    0.403   64.657  148.906    3.884
  487.750    0.235    0.406   64.947  148.565    4.051
  488.000    0.238    0.405   65.302  148.341    4.264
  488.250    0.229    0.397   65.347  148.209    4.548
  488.500    0.225    0.389   65.267  148.076    4.850
  488.750    0.215    0.378   66.051  147.936    5.050
  489.000    0.208    0.368   66.035  147.910    5.199
  489.250    0.211    0.360   63.421  147.668    5.080
  489.500    0.207    0.361   62.724  147.651    4.685
  489.750    0.200    0.370   63.014  147.518    4.361
  490.000    0.195    0.369   61.452  147.384    4.129
  490.250    0.185    0.360   61.806  147.249    3.975
  490.500    0.177    0.349   64.383  147.321    3.863
  490.750    0.169    0.340   68.260  147.391    3.768
  491.000    0.194    0.357   72.878  147.055    3.674
  491.250    0.234    0.384   77.926  146.927    3.584
  491.500    0.246    0.395   81.187  146.996    3.470
  491.750    0.242    0.403   75.914  147.280    3.359
  492.000    0.236    0.403   69.409  148.385    3.209
  492.250    0.240    0.399   72.049  149.900    3.050
  492.500    0.232    0.392   76.294  151.110    2.887
  492.750    0.203    0.428   79.613  151.489    2.774
  493.000    0.183    0.467   82.193  151.462    2.706
  493.250    0.205    0.485   79.765  150.506    2.827
  493.500    0.221    0.466   75.173  146.975    2.977
  493.750    0.233    0.445   71.448  146.430    3.082
  494.000    0.253    0.436   71.491  145.886    3.051
  494.250    0.253    0.443   73.143  145.956    2.840
  494.500    0.270    0.439   75.844  146.443    2.659
  494.750    0.277    0.431   78.053  147.032    2.603
  495.000    0.268    0.440   78.590  147.724    2.771
  495.250    0.251    0.438   83.826  148.417    3.045
  495.500    0.228    0.427   89.557  149.829    3.421
  495.750    0.176    0.436   96.894  153.193    3.732
  496.000    0.187    0.456   99.719  156.260    4.025
  496.250    0.205    0.474   93.830  160.866    4.097
  496.500    0.214    0.461   87.571  164.751    4.265
  496.750    0.244    0.431   81.496  153.082    4.246
  497.000    0.241    0.411   81.662  153.464    4.119
  497.250    0.224    0.425   85.537  152.709    3.987
  497.500    0.202    0.439   87.995  151.346    3.889
  497.750    0.179    0.437   90.880  152.241    3.843
  498.000    0.191    0.432   91.111  156.540    3.861
  498.250    0.203    0.436   87.942  166.707    3.938
  498.500    0.210    0.430   87.121  154.834    4.100
  498.750    0.214    0.430   89.080  147.800    4.197
  499.000    0.208    0.430   89.372  147.664    4.257
  499.250    0.202    0.425   88.797  148.360    4.309
  499.500    0.190    0.417   91.065  149.565    4.338
  499.750    0.174    0.414   93.831  151.593    4.392
  500.000    0.179    0.418   98.571  152.900    4.437
  500.250    0.189    0.422   98.801  152.671    4.501
  500.500    0.177    0.422   96.001  152.741    4.573
  500.750    0.165    0.420   93.820  153.119    4.588
  501.000    0.172    0.411   93.928  153.510    4.567
  501.250    0.176    0.408   94.897  153.580    4.520
  501.500    0.174    0.412   95.560  153.964    4.518
  501.750    0.169    0.410   96.038  154.657    4.514
  502.000    0.169    0.404   95.278  155.138    4.536
  502.250    0.166    0.396   95.694  155.423    4.566
  502.500    0.161    0.400   96.540  155.391    4.563
  502.750    0.159    0.413   96.893  155.565    4.568
  503.000    0.176    0.420   93.910  155.231    4.573
  503.250    0.176    0.418   95.685  155.203    4.613
  503.500    0.170    0.430   99.129  154.964    4.687
  503.750    0.163    0.438  102.572  155.140    4.763
  504.000    0.152    0.421  104.532  155.110    4.821
  504.250    0.157    0.423  101.239  154.875    4.624
  504.500    0.172    0.427   96.338  154.334    4.273
  504.750    0.193    0.415   89.090  152.861    4.023
  505.000    0.223    0.401   79.925  149.124    3.787
  505.250    0.203    0.385   79.846  149.612    3.632
  505.500    0.179    0.372   80.445  151.333    3.670
  505.750    0.179    0.358   80.118  152.025    3.736
  506.000    0.211    0.396   80.349  150.138    3.825
  506.250    0.255    0.426   80.886  149.287    3.858
  506.500    0.247    0.430   82.043  148.641    3.869
  506.750    0.254    0.431   84.685  148.196    3.888
  507.000    0.240    0.435   89.239  148.582    3.914
  507.250    0.221    0.445   94.662  150.921    3.926
  507.500    0.202    0.459   91.924  152.637    3.937
  507.750    0.215    0.444   85.603  152.611    3.935
  508.000    0.236    0.427   81.073  152.477    3.954
  508.250    0.248    0.423   81.180  152.552    3.950
  508.500    0.248    0.423   82.707  152.421    3.955
  508.750    0.234    0.420   85.533  152.185    3.996
  509.000    0.217    0.407   83.413  151.952    4.015
  509.250    0.213    0.401   77.896  151.820    3.983
