~VERSION INFORMATION
 VERS.                 2.0:   CWLS LOG ASCII STANDARD -VERSION 2.0
 WRAP.                  NO:   ONE LINE PER DEPTH STEP
~WELL INFORMATION BLOCK
#MNEM.UNIT           DATA                    DESCRIPTION OF MNEMONIC
#---------    -------------------            -------------------------------
# Generated from Intellog Unique Number	CS_71_72/WELL/874
WELL.         CAVALIER ET AL NIXON           : Well_name    - WELL
LOC .         02/10-30-072-14W4/0            : Location     - LOCATION
UWI .         02/10-30-072-14W4/0            : Uwi          - UNIQUE WELL ID
ENTR.         SP                             : Entered      - ENTERED BY
SRVC.         SCHLUMBERGER                   : Scn          - SERVICE COMPANY
STRT.M        265                            : top_depth    - START DEPTH
STOP.M        471                            : bot_depth    - STOP DEPTH
STEP.M        0.25                           : increment    - STEP LENGTH
 NULL. -999.2500:NULL Value
~CURVE INFORMATION BLOCK
#MNEM UNIT       ERCB CURVE CODE    CURVE DESCRIPTION
#-----------   ------------------   ----------------------------------
DEPT.M        00 001 00 00         : DEPTH        - DEPTH
GR  .API      00 310 00 00         : GR           - GAMMA RAY
NPHI.V/V      00 330 00 00         : PHIN         - NEUTRON POROSITY (LIMESTONE)
DPHI.V/V      00 890 00 00         : PHID         - DENSITY POROSITY (LIMESTONE)
ILD .OHMM     00 120 00 00         : RESD         - DEEP RESISTIVITY (DIL)
~PARAMETER INFORMATION
#MNEM.UNIT           DATA             DESCRIPTION OF MNEMONIC
#---------         -----------     ------------------------------
GL  .M        611.3                : gl           - GROUND LEVEL ELEVATION
EREF.M        614.8                : kb           - ELEVATION OF DEPTH REFERENCE
DATM.M        611.3                : datum        - DATUM ELEVATION
TDD .M        471                  : tdd          - TOTAL DEPTH DRILLER
RUN .         ONE                  : Run          - RUN NUMBER
ENG .         BILL                 : Engineer     - RECORDING ENGINEER
WIT .         JIM                  : Witness      - WITNESSED BY
MUD .         GEL                  : Mud_type     - MUD TYPE
MATR.         LIMESTONE            : Logunit      - NEUTRON MATRIX
TMAX.C        23                   : BHT          - MAXIMUM RECORDED TEMPERATURE
BHTD.M        471                  : BHTDEP       - MAXIMUM RECORDED TEMPERATURE
MATR.         1                    : LOGUNIT      - NEUTRON MATRIX
RMT .C        25                   : MDTP         - TEMPERATURE OF MUD
NEUT.         1                    : NEUTRON      - NEUTRON TYPE
RESI.         0                    : RESIST       - RESISTIVITY TYPE
RMC .OHMM     0.25                 : RMC          - RESISTIVITY OF MUD CAKE
RMF .OHMM     0.25                 : RMF          - RESISTIVITY OF MUD FILTRATE
SUFT.C        15                   : SUFT         - SURFACE TEMPERATURE
~A  DEPTH       GR     PHIN     PHID     RESD
# ...
  395.500   92.288    0.492    0.258    5.149
  395.750   91.685    0.443    0.245    5.147
  396.000   91.693    0.446    0.244    5.147
  396.250   92.312    0.459    0.259    5.145
  396.500   92.923    0.474    0.258    5.242
  396.750   93.539    0.483    0.240    5.241
  397.000   93.547    0.489    0.229    5.240
  397.250   91.734    0.496    0.239    5.239
  397.500   88.098    0.501    0.264    5.238
  397.750   83.856    0.506    0.259    5.139
  398.000   79.612    0.485    0.264    5.138
  398.250   75.368    0.461    0.286    5.042
  398.500   70.519    0.441    0.320    5.041
  398.750   66.275    0.418    0.331    4.946
  399.000   62.641    0.407    0.330    4.945
  399.250   61.434    0.412    0.341    4.944
  399.500   61.442    0.422    0.329    5.037
  399.750   60.237    0.430    0.322    5.131
  400.000   60.243    0.435    0.330    5.130
  400.250   60.254    0.438    0.328    5.325
  400.500   60.867    0.445    0.332    5.848
  400.750   63.304    0.456    0.321    6.544
  401.000   66.956    0.442    0.314    8.043
  401.250   70.609    0.407    0.309    9.344
  401.500   73.046    0.368    0.273   10.654
  401.750   73.055    0.307    0.111   11.483
  402.000   67.596    0.180    0.051   13.340
  402.250   63.961    0.183    0.011   11.917
  402.500   64.575    0.209    0.117    7.452
  402.750   71.265    0.252    0.238    5.729
  403.000   74.309    0.290    0.293    5.022
  403.250   77.354    0.466    0.320    4.836
  403.500   79.184    0.506    0.332    4.746
  403.750   79.190    0.466    0.319    4.656
  404.000   80.416    0.452    0.304    4.655
  404.250   81.638    0.462    0.291    4.654
  404.500   82.251    0.465    0.307    4.653
  404.750   83.475    0.469    0.291    4.740
  405.000   82.874    0.473    0.274    4.829
  405.250   85.923    0.467    0.261    4.828
  405.500   88.360    0.472    0.254    4.919
  405.750   89.584    0.463    0.250    4.918
  406.000   89.588    0.473    0.243    5.010
  406.250   88.382    0.479    0.256    5.009
  406.500   87.175    0.470    0.248    5.007
  406.750   87.791    0.467    0.238    5.006
  407.000   88.410    0.459    0.255    5.005
  407.250   88.415    0.451    0.269    5.004
  407.500   88.421    0.470    0.267    5.004
  407.750   86.610    0.475    0.271    5.003
  408.000   84.796    0.482    0.281    5.002
  408.250   82.980    0.490    0.320    5.001
  408.500   81.776    0.482    0.331    5.095
  408.750   81.786    0.485    0.331    5.190
  409.000   81.791    0.469    0.326    5.287
  409.250   79.976    0.466    0.312    5.286
  409.500   82.419    0.466    0.308    5.285
  409.750   84.855    0.476    0.299    5.186
  410.000   86.682    0.487    0.306    5.185
  410.250   89.725    0.498    0.295    5.183
  410.500   91.557    0.509    0.282    5.182
  410.750   92.170    0.494    0.304    5.181
  411.000   92.184    0.479    0.257    5.278
  411.250   92.188    0.469    0.251    5.277
  411.500   92.195    0.465    0.248    5.376
  411.750   92.208    0.479    0.241    5.375
  412.000   93.429    0.485    0.246    5.476
  412.250   94.648    0.478    0.252    5.578
  412.500   92.230    0.476    0.261    5.577
  412.750   91.021    0.474    0.254    5.576
  413.000   93.460    0.466    0.252    5.575
  413.250   94.681    0.476    0.278    5.471
  413.500   94.690    0.478    0.280    5.469
  413.750   94.697    0.475    0.262    5.468
  414.000   94.706    0.483    0.255    5.265
  414.250   94.713    0.484    0.255    5.265
  414.500   94.723    0.492    0.246    5.263
  414.750   93.515    0.499    0.236    5.164
  415.000   91.096    0.515    0.232    5.164
  415.250   92.319    0.526    0.267    5.066
  415.500   92.935    0.530    0.264    4.971
  415.750   92.332    0.531    0.261    4.878
  416.000   91.734    0.528    0.260    4.786
  416.250   91.138    0.536    0.277    4.608
  416.500   91.751    0.503    0.286    4.522
  416.750   93.582    0.484    0.293    4.355
  417.000   94.195    0.499    0.253    4.273
  417.250   94.812    0.509    0.246    4.192
  417.500   94.821    0.497    0.244    4.192
  417.750   96.042    0.489    0.263    4.603
  418.000   98.481    0.488    0.253    5.658
  418.250   98.486    0.493    0.242    6.954
  418.500   93.028    0.485    0.233    7.928
  418.750   86.356    0.454    0.222    8.386
  419.000   77.862    0.430    0.203    8.705
  419.250   74.228    0.372    0.099    8.704
  419.500   75.452    0.331    0.072    8.380
  419.750   79.709    0.362    0.082    8.223
  420.000   83.968    0.396    0.193    7.771
  420.250   83.368    0.427    0.190    7.483
  420.500   77.913    0.423    0.136    7.482
  420.750   76.098    0.428    0.147    7.481
  421.000   78.538    0.449    0.182    7.765
  421.250   79.151    0.465    0.228    7.911
  421.500   79.766    0.374    0.216    7.617
  421.750   80.990    0.357    0.191    7.335
  422.000   82.818    0.401    0.148    6.933
  422.250   86.472    0.441    0.199    6.551
  422.500   90.126    0.467    0.271    6.309
  422.750   91.344    0.477    0.256    5.962
  423.000   91.353    0.466    0.232    5.849
  423.250   90.146    0.480    0.235    5.740
  423.500   88.334    0.488    0.237    5.847
  423.750   88.342    0.497    0.244    5.847
  424.000   89.563    0.482    0.247    6.069
  424.250   88.359    0.466    0.232    6.300
  424.500   86.548    0.457    0.188    6.418
  424.750   85.946    0.446    0.174    6.788
  425.000   85.953    0.462    0.165    6.916
  425.250   85.961    0.461    0.187    7.045
  425.500   84.755    0.452    0.202    6.913
  425.750   83.549    0.415    0.193    6.533
  426.000   82.949    0.403    0.150    6.174
  426.250   87.209    0.392    0.094    5.945
  426.500   90.859    0.429    0.136    5.834
  426.750   93.903    0.459    0.183    5.724
  427.000   94.519    0.476    0.210    5.723
  427.250   94.527    0.479    0.215    5.940
  427.500   98.790    0.462    0.220    6.166
  427.750  101.224    0.457    0.222    6.281
  428.000  104.269    0.447    0.200    6.399
  428.250  105.491    0.448    0.200    6.398
  428.500  107.928    0.463    0.216    6.397
  428.750  109.153    0.472    0.219    6.277
  429.000  108.553    0.468    0.239    6.275
  429.250  107.345    0.460    0.243    6.274
  429.500  101.888    0.449    0.217    6.272
  429.750   99.467    0.442    0.201    6.271
  430.000   98.870    0.436    0.194    6.270
  430.250   99.483    0.435    0.210    6.153
  430.500   96.457    0.427    0.220    6.150
  430.750   92.821    0.438    0.200    6.035
  431.000   89.793    0.452    0.183    5.922
  431.250   89.190    0.421    0.165    5.921
  431.500   91.020    0.431    0.177    5.702
  431.750   92.851    0.447    0.215    4.814
  432.000   93.469    0.458    0.248    3.701
  432.250   93.475    0.459    0.245    2.845
  432.500   95.308    0.490    0.272    2.590
  432.750   95.920    0.530    0.279    2.447
  433.000   97.751    0.556    0.281    2.401
  433.250   98.977    0.574    0.276    2.356
  433.500  100.199    0.570    0.267    2.400
  433.750  100.812    0.556    0.257    2.492
  434.000  101.425    0.564    0.251    2.895
  434.250  102.045    0.526    0.241    3.363
  434.500  102.049    0.526    0.235    3.625
  434.750   99.628    0.518    0.239    4.056
  435.000   93.564    0.504    0.229    4.712
  435.250   89.320    0.474    0.175    4.984
  435.500   90.543    0.453    0.177    5.174
  435.750   95.410    0.445    0.199    5.270
  436.000   97.847    0.447    0.196    5.369
  436.250   95.426    0.454    0.184    5.368
  436.500   90.576    0.464    0.180    5.572
  436.750   88.763    0.419    0.191    6.005
  437.000   91.808    0.401    0.170    6.234
  437.250   94.245    0.415    0.189    6.471
  437.500   96.073    0.432    0.201    6.718
  437.750   93.654    0.448    0.212    7.377
  438.000   89.409    0.428    0.221    7.515
  438.250   84.560    0.415    0.195    7.801
  438.500   81.533    0.433    0.189    7.947
  438.750   80.931    0.449    0.196    7.798
