~VERSION INFORMATION
 VERS.                 2.0:   CWLS LOG ASCII STANDARD -VERSION 2.0
 WRAP.                  NO:   ONE LINE PER DEPTH STEP
~WELL INFORMATION BLOCK
#MNEM.UNIT           DATA                    DESCRIPTION OF MNEMONIC
#---------    -------------------            -------------------------------
# Generated from Intellog Unique Number	CW_73_75/WELL/2739
WELL.         10-12-073-03W5                 : Well_name    - WELL
LOC .         02/10-12-073-03W5/0            : Location     - LOCATION
UWI .         02/10-12-073-03W5/0            : Uwi          - UNIQUE WELL ID
ENTR.         JAYE                           : Entered      - ENTERED BY
SRVC.         SCHLUMBERGER                   : Scn          - SERVICE COMPANY
DATE.         18 JAN 80                      : Date         - LOG DATE
STRT.M        400                            : top_depth    - START DEPTH
STOP.M        620                            : bot_depth    - STOP DEPTH
STEP.M        0.25                           : increment    - STEP LENGTH
 NULL. -999.2500:NULL Value
~CURVE INFORMATION BLOCK
#MNEM UNIT       ERCB CURVE CODE    CURVE DESCRIPTION
#-----------   ------------------   ----------------------------------
DEPT.M        00 001 00 00         : DEPTH        - DEPTH
DPHI.V/V      00 890 00 00         : PHID         - DENSITY POROSITY (SANDSTONE)
NPHI.V/V      00 330 00 00         : PHIN         - NEUTRON POROSITY (SANDSTONE)
GR  .API      00 310 00 00         : GR           - GAMMA RAY
CALI.MM       00 280 01 00         : CAL          - CALIPER
ILD .OHMM     00 120 00 00         : RESD         - DEEP RESISTIVITY (DIL)
~PARAMETER INFORMATION
#MNEM.UNIT           DATA             DESCRIPTION OF MNEMONIC
#---------         -----------     ------------------------------
GL  .M        601.1                : gl           - GROUND LEVEL ELEVATION
EREF.M        604.3                : kb           - ELEVATION OF DEPTH REFERENCE
DATM.M        601.1                : datum        - DATUM ELEVATION
TDD .M        624                  : tdd          - TOTAL DEPTH DRILLER
RUN .         ONE                  : Run          - RUN NUMBER
MATR.         SANDSTONE            : Logunit      - NEUTRON MATRIX
TMAX.C        95                   : BHT          - MAXIMUM RECORDED TEMPERATURE
BHTD.M        626                  : BHTDEP       - MAXIMUM RECORDED TEMPERATURE
RMT .C        51                   : MDTP         - TEMPERATURE OF MUD
MUDD.KG/M     0                    : MWT          - MUD DENSITY
NEUT.         1                    : NEUTRON      - NEUTRON TYPE
RESI.         0                    : RESIST       - RESISTIVITY TYPE
RM  .OHMM     3.68                 : RM           - RESISTIVITY OF MUD
RMC .OHMM     0                    : RMC          - RESISTIVITY OF MUD CAKE
RMF .OHMM     2.88                 : RMF          - RESISTIVITY OF MUD FILTRATE
SUFT.C        0                    : SUFT         - SURFACE TEMPERATURE
~A  DEPTH     PHID     PHIN       GR      CAL     RESD
# ...
  546.000    0.159    0.401  101.322  162.643    5.268
  546.250    0.169    0.390  100.997  163.332    5.167
  546.500    0.182    0.382  101.164  163.921    5.011
  546.750    0.174    0.389  104.175  164.510    4.798
  547.000    0.161    0.397  108.422  164.479    4.567
  547.250    0.143    0.404  110.816  164.554    4.463
  547.500    0.137    0.407  108.943  164.419    4.459
  547.750    0.140    0.404  105.898  164.393    4.548
  548.000    0.138    0.403  105.509  164.364    4.691
  548.250    0.140    0.409  104.132  164.541    4.930
  548.500    0.148    0.417  102.136  164.609    5.317
  548.750    0.158    0.427   98.411  164.481    5.777
  549.000    0.147    0.414   91.717  162.598    6.184
  549.250    0.142    0.399   85.334  158.553    6.695
  549.500    0.148    0.383   80.805  160.375    7.823
  549.750    0.115    0.355   78.315  161.994    8.693
  550.000    0.080    0.330   83.859  163.923    8.169
  550.250    0.093    0.341   92.803  164.821    6.675
  550.500    0.108    0.360   98.841  164.685    5.844
  550.750    0.115    0.395  101.112  164.760    5.280
  551.000    0.110    0.414  102.267  164.728    4.825
  551.250    0.110    0.414  102.558  164.702    4.484
  551.500    0.114    0.407  103.593  164.881    4.349
  551.750    0.119    0.386  105.244  164.951    4.345
  552.000    0.124    0.388  106.030  165.122    4.465
  552.250    0.137    0.385  103.602  165.301    4.762
  552.500    0.145    0.391   99.628  165.376    5.050
  552.750    0.157    0.409   96.584  165.555    5.161
  553.000    0.172    0.421   93.228  165.835    5.215
  553.250    0.164    0.416   88.143  165.807    5.241
  553.500    0.190    0.411   84.356  165.676    5.237
  553.750    0.210    0.406   84.214  165.434    5.222
  554.000    0.216    0.403   83.886  165.307    5.228
  554.250    0.198    0.408   82.076  165.069    5.293
  554.500    0.187    0.411   80.329  164.938    5.439
  554.750    0.191    0.420   79.076  164.907    5.537
  555.000    0.198    0.430   78.069  164.880    5.616
  555.250    0.205    0.428   78.484  164.746    5.643
  555.500    0.215    0.431   78.713  164.410    5.702
  555.750    0.214    0.444   78.882  163.859    5.751
  556.000    0.205    0.451   80.162  163.731    5.790
  556.250    0.198    0.438   80.700  163.700    5.938
  556.500    0.192    0.415   79.941  164.082    6.090
  556.750    0.189    0.417   79.490  164.365    6.165
  557.000    0.185    0.400   79.782  164.337    6.150
  557.250    0.182    0.395   80.321  164.515    6.088
  557.500    0.192    0.408   81.416  164.686    6.027
  557.750    0.198    0.405   84.240  164.868    5.956
  558.000    0.196    0.404   84.098  165.042    5.885
  558.250    0.190    0.403   83.278  165.320    5.783
  558.500    0.193    0.393   84.249  165.288    5.661
  558.750    0.189    0.384   86.395  165.262    5.521
  559.000    0.181    0.392   87.922  165.437    5.385
  559.250    0.173    0.393   88.955  165.614    5.282
  559.500    0.177    0.399   90.791  165.583    5.151
  559.750    0.175    0.410   96.337  165.557    5.024
  560.000    0.162    0.416  102.191  165.524    4.900
  560.250    0.146    0.417  108.600  165.495    4.806
  560.500    0.140    0.423  109.633  165.260    4.732
  560.750    0.147    0.416  110.479  165.337    4.650
  561.000    0.151    0.417  112.379  165.608    4.595
  561.250    0.151    0.421  107.108  165.584    4.591
  561.500    0.148    0.418  102.825  165.560    4.596
  561.750    0.140    0.415   99.781  165.324    4.670
  562.000    0.134    0.415   98.341  165.290    4.746
  562.250    0.142    0.412   99.869  165.159    4.804
  562.500    0.147    0.421  100.593  165.133    5.029
  562.750    0.147    0.424  100.018  164.486    5.464
  563.000    0.152    0.410   99.444  162.910    5.774
  563.250    0.146    0.393   99.675  161.335    6.090
  563.500    0.142    0.378   98.109  160.066    6.472
  563.750    0.124    0.364   95.312  159.320    6.889
  564.000    0.090    0.347   90.474  158.774    7.253
  564.250    0.075    0.331   85.575  158.745    7.664
  564.500    0.092    0.310   84.878  158.098    7.601
  564.750    0.116    0.331   89.680  157.246    7.064
  565.000    0.128    0.362   94.792  156.909    6.466
  565.250    0.122    0.390  101.079  157.805    6.133
  565.500    0.124    0.387  105.202  160.039    5.892
  565.750    0.130    0.392  106.606  161.043    5.769
  566.000    0.137    0.392  103.745  161.837    5.690
  566.250    0.148    0.386   98.969  162.528    5.644
  566.500    0.157    0.378   94.377  162.911    5.639
  566.750    0.150    0.366   91.640  163.190    5.625
  567.000    0.141    0.366   91.252  163.365    5.630
  567.250    0.129    0.371   93.644  163.545    5.647
  567.500    0.131    0.375   97.583  163.722    5.665
  567.750    0.143    0.368  101.211  163.790    5.703
  568.000    0.129    0.370  104.407  163.761    5.795
  568.250    0.116    0.375  106.923  163.526    5.909
  568.500    0.107    0.382  108.884  163.500    5.972
  568.750    0.112    0.390  110.598  163.471    6.046
  569.000    0.122    0.396  110.147  163.441    6.121
  569.250    0.120    0.399  108.460  163.303    6.219
  569.500    0.114    0.392  106.217  163.176    6.342
  569.750    0.103    0.378  104.656  163.043    6.409
  570.000    0.096    0.366  105.256  162.803    6.488
  570.250    0.099    0.367  106.473  162.365    6.544
  570.500    0.104    0.382  105.342  161.921    6.637
  570.750    0.102    0.393  104.770  161.692    6.682
  571.000    0.100    0.385  106.606  161.248    6.702
  571.250    0.103    0.376  109.801  161.012    6.659
  571.500    0.107    0.386  111.885  161.083    6.496
  571.750    0.111    0.400  112.982  161.158    6.115
  572.000    0.123    0.384  111.912  161.133    5.986
  572.250    0.116    0.366  108.186  160.690    6.314
  572.500    0.105    0.355  102.050  160.354    7.094
  572.750    0.092    0.351   97.522  160.319    7.767
  573.000    0.110    0.357   92.313  160.290    8.177
  573.250    0.106    0.344   85.682  160.574    8.465
  573.500    0.103    0.332   80.040  161.265    8.585
  573.750    0.097    0.325   79.589  161.649    8.547
  574.000    0.114    0.333   83.096  160.485    8.121
  574.250    0.125    0.348   85.241  158.185    7.603
  574.500    0.133    0.362   85.718  157.128    7.184
  574.750    0.142    0.355   84.772  156.483    6.865
  575.000    0.151    0.353   87.475  156.040    6.733
  575.250    0.149    0.347   90.300  155.908    6.918
  575.500    0.141    0.338   90.282  155.466    7.420
  575.750    0.097    0.323   89.029  155.229    7.900
  576.000    0.078    0.307   85.856  154.990    8.616
  576.250    0.063    0.292   80.897  154.759    9.432
  576.500    0.060    0.286   79.273  154.623   10.461
  576.750    0.067    0.282   79.626  154.395   11.431
  577.000    0.066    0.280   83.378  154.467   11.594
  577.250    0.079    0.279   94.053  154.952   10.653
  577.500    0.092    0.309  106.086  156.055    9.449
  577.750    0.104    0.331  111.446  157.676    8.180
  578.000    0.112    0.347  113.962  158.984    7.296
  578.250    0.126    0.356  114.933  158.746    6.856
  578.500    0.110    0.357  113.926  157.586    6.928
  578.750    0.088    0.353  109.954  156.114    7.013
  579.000    0.083    0.344  100.233  155.158    7.260
  579.250    0.076    0.319   94.653  155.127    7.714
  579.500    0.064    0.287   93.091  155.307    8.092
  579.750    0.059    0.297   94.618  155.588    8.629
  580.000    0.048    0.306   96.824  155.863    9.413
  580.250    0.019    0.285   94.583  156.147   11.374
  580.500   -0.012    0.235   83.503  156.525   13.950
  580.750   -0.020    0.200   73.596  156.910   14.658
  581.000    0.035    0.240   76.236  157.087   13.494
  581.250    0.065    0.277   86.787  157.365   11.748
  581.500    0.091    0.320   94.371  157.543    9.405
  581.750    0.107    0.355   98.926  157.824    7.962
  582.000    0.109    0.381  100.329  157.795    6.867
  582.250    0.112    0.383  101.426  157.351    6.441
