~VERSION INFORMATION
 VERS.                 2.0:   CWLS LOG ASCII STANDARD -VERSION 2.0
 WRAP.                  NO:   ONE LINE PER DEPTH STEP
~WELL INFORMATION BLOCK
#MNEM.UNIT           DATA                    DESCRIPTION OF MNEMONIC
#---------    -------------------            -------------------------------
# Generated from Intellog Unique Number	CW_73_75/WELL/2739
WELL.         10-12-073-03W5                 : Well_name    - WELL
LOC .         02/10-12-073-03W5/0            : Location     - LOCATION
UWI .         02/10-12-073-03W5/0            : Uwi          - UNIQUE WELL ID
ENTR.         JAYE                           : Entered      - ENTERED BY
SRVC.         SCHLUMBERGER                   : Scn          - SERVICE COMPANY
DATE.         18 JAN 80                      : Date         - LOG DATE
STRT.M        400                            : top_depth    - START DEPTH
STOP.M        620                            : bot_depth    - STOP DEPTH
STEP.M        0.25                           : increment    - STEP LENGTH
 NULL. -999.2500:NULL Value
~CURVE INFORMATION BLOCK
#MNEM UNIT       ERCB CURVE CODE    CURVE DESCRIPTION
#-----------   ------------------   ----------------------------------
DEPT.M        00 001 00 00         : DEPTH        - DEPTH
DPHI.V/V      00 890 00 00         : PHID         - DENSITY POROSITY (SANDSTONE)
NPHI.V/V      00 330 00 00         : PHIN         - NEUTRON POROSITY (SANDSTONE)
GR  .API      00 310 00 00         : GR           - GAMMA RAY
CALI.MM       00 280 01 00         : CAL          - CALIPER
ILD .OHMM     00 120 00 00         : RESD         - DEEP RESISTIVITY (DIL)
~PARAMETER INFORMATION
#MNEM.UNIT           DATA             DESCRIPTION OF MNEMONIC
#---------         -----------     ------------------------------
GL  .M        601.1                : gl           - GROUND LEVEL ELEVATION
EREF.M        604.3                : kb           - ELEVATION OF DEPTH REFERENCE
DATM.M        601.1                : datum        - DATUM ELEVATION
TDD .M        624                  : tdd          - TOTAL DEPTH DRILLER
RUN .         ONE                  : Run          - RUN NUMBER
MATR.         SANDSTONE            : Logunit      - NEUTRON MATRIX
TMAX.C        95                   : BHT          - MAXIMUM RECORDED TEMPERATURE
BHTD.M        626                  : BHTDEP       - MAXIMUM RECORDED TEMPERATURE
RMT .C        51                   : MDTP         - TEMPERATURE OF MUD
MUDD.KG/M     0                    : MWT          - MUD DENSITY
NEUT.         1                    : NEUTRON      - NEUTRON TYPE
RESI.         0                    : RESIST       - RESISTIVITY TYPE
RM  .OHMM     3.68                 : RM           - RESISTIVITY OF MUD
RMC .OHMM     0                    : RMC          - RESISTIVITY OF MUD CAKE
RMF .OHMM     2.88                 : RMF          - RESISTIVITY OF MUD FILTRATE
SUFT.C        0                    : SUFT         - SURFACE TEMPERATURE
~A  DEPTH     PHID     PHIN       GR      CAL     RESD
# ...
  509.500    0.233    0.416   78.805  151.890    3.813
  509.750    0.240    0.430   82.371  152.064    3.685
  510.000    0.227    0.421   83.651  152.039    3.430
  510.250    0.190    0.432   83.634  152.004    3.253
  510.500    0.204    0.429   82.442  151.772    3.324
  510.750    0.225    0.418   80.508  151.743    3.632
  511.000    0.244    0.406   76.968  151.400    3.853
  511.250    0.278    0.408   73.304  151.376    3.981
  511.500    0.284    0.420   68.590  151.655    4.030
  511.750    0.274    0.418   65.481  151.727    4.020
  512.000    0.275    0.410   65.401  151.905    3.935
  512.250    0.263    0.401   66.064  151.982    3.802
  512.500    0.236    0.391   66.910  151.541    3.750
  512.750    0.228    0.378   67.389  151.509    3.692
  513.000    0.240    0.395   68.667  151.480    3.668
  513.250    0.258    0.400   69.764  151.450    3.645
  513.500    0.254    0.406   70.178  151.110    3.629
  513.750    0.252    0.408   69.605  151.081    3.640
  514.000    0.263    0.396   66.002  151.154    3.671
  514.250    0.273    0.394   64.811  151.228    3.635
  514.500    0.270    0.397   66.337  151.199    3.531
  514.750    0.260    0.394   68.978  151.276    3.413
  515.000    0.254    0.394   71.061  151.238    3.316
  515.250    0.252    0.396   71.848  151.526    3.252
  515.500    0.256    0.418   69.111  151.909    3.238
  515.750    0.260    0.425   68.166  152.291    3.296
  516.000    0.268    0.421   68.519  152.363    3.306
  516.250    0.267    0.405   68.808  152.334    3.304
  516.500    0.261    0.376   68.421  152.199    3.264
  516.750    0.247    0.363   67.169  151.760    3.226
  517.000    0.235    0.341   66.162  148.643    3.175
  517.250    0.217    0.361   68.555  150.157    3.126
  517.500    0.220    0.389   73.358  150.850    3.043
  517.750    0.238    0.411   76.863  150.920    2.979
  518.000    0.243    0.423   80.245  151.099    2.922
  518.250    0.257    0.430   77.941  151.277    2.882
  518.500    0.266    0.429   78.662  151.453    2.853
  518.750    0.275    0.422   79.757  151.937    2.970
  519.000    0.287    0.417   79.865  153.143    3.168
  519.250    0.281    0.410   78.488  153.733    3.462
  519.500    0.270    0.404   76.739  154.014    3.624
  519.750    0.260    0.402   75.359  153.983    3.745
  520.000    0.249    0.413   75.037  153.852    3.862
  520.250    0.238    0.413   74.338  154.127    3.939
  520.500    0.220    0.404   73.888  153.895    3.988
  520.750    0.186    0.374   73.004  153.865    4.014
  521.000    0.201    0.394   71.627  153.838    4.064
  521.250    0.224    0.410   71.671  153.290    4.184
  521.500    0.254    0.421   72.396  152.741    4.421
  521.750    0.233    0.430   72.873  152.409    4.707
  522.000    0.211    0.431   75.758  152.790    5.133
  522.250    0.183    0.390   78.338  152.762    6.203
  522.500    0.139    0.310   78.136  152.219    7.636
  522.750    0.097    0.279   72.740  153.323    9.278
  523.000    0.069    0.258   65.676  156.074   10.742
  523.250    0.013    0.233   60.283  157.688   11.120
  523.500   -0.010    0.196   53.035  157.867    8.919
  523.750    0.045    0.187   50.791  157.944    6.918
  524.000    0.073    0.215   57.758  157.915    6.113
  524.250    0.114    0.256   63.920  157.780    5.351
  524.500    0.154    0.325   69.217  157.441    4.642
  524.750    0.193    0.385   70.496  155.761    3.886
  525.000    0.246    0.412   70.850  154.500    3.453
  525.250    0.253    0.439   71.388  153.541    3.306
  525.500    0.255    0.445   73.103  152.997    3.260
  525.750    0.257    0.438   74.075  153.276    3.264
  526.000    0.264    0.431   73.501  154.068    3.280
  526.250    0.262    0.429   72.802  154.659    3.277
  526.500    0.264    0.428   72.353  154.942    3.281
  526.750    0.271    0.424   72.086  155.324    3.297
  527.000    0.265    0.416   72.934  155.502    3.312
  527.250    0.258    0.430   75.389  155.262    3.310
  527.500    0.251    0.425   74.013  154.819    3.308
  527.750    0.244    0.418   72.758  154.277    3.280
  528.000    0.233    0.407   72.615  153.527    3.260
  528.250    0.251    0.416   72.599  153.296    3.257
  528.500    0.252    0.427   72.396  153.362    3.261
  528.750    0.246    0.440   72.380  153.437    3.320
  529.000    0.237    0.429   72.609  153.515    3.475
  529.250    0.252    0.415   75.990  153.589    3.665
  529.500    0.247    0.429   77.395  153.241    3.910
  529.750    0.240    0.428   77.007  153.215    4.304
  530.000    0.229    0.413   75.443  153.190    4.642
  530.250    0.220    0.416   72.767  153.575    4.646
  530.500    0.205    0.439   72.750  153.544    4.482
  530.750    0.186    0.409   75.205  153.409    4.275
  531.000    0.167    0.382   78.216  153.072    4.062
  531.250    0.216    0.393   79.434  152.320    3.889
  531.500    0.247    0.422   78.861  150.440    3.793
  531.750    0.240    0.412   78.841  150.204    3.776
  532.000    0.226    0.403   79.752  153.985    3.902
  532.250    0.220    0.408   80.352  155.192    4.224
  532.500    0.212    0.407   80.088  155.470    4.607
  532.750    0.206    0.400   80.750  155.237    4.913
  533.000    0.194    0.393   82.030  155.516    4.946
  533.250    0.189    0.382   82.322  155.792    4.915
  533.500    0.215    0.387   81.192  156.073    4.875
  533.750    0.208    0.396   81.606  156.560    4.862
  534.000    0.180    0.403   81.835  156.839    4.868
  534.250    0.169    0.415   79.222  157.223    4.864
  534.500    0.187    0.385   76.548  157.502    4.806
  534.750    0.188    0.366   76.282  157.370    4.653
  535.000    0.185    0.369   78.119  157.235    4.446
  535.250    0.189    0.379   82.058  157.001    4.304
  535.500    0.191    0.392   85.809  156.863    4.182
  535.750    0.194    0.413   89.315  156.530    4.156
  536.000    0.193    0.406   93.129  156.088    4.168
  536.250    0.181    0.390   94.346  155.956    4.196
  536.500    0.166    0.387   95.936  155.827    4.201
  536.750    0.167    0.393   99.937  156.108    4.229
  537.000    0.160    0.403  101.711  156.386    4.281
  537.250    0.161    0.410  102.063  156.144    4.334
  537.500    0.175    0.415  102.292  155.911    4.412
  537.750    0.184    0.423  102.460  155.575    4.467
  538.000    0.195    0.431  102.753  155.548    4.480
  538.250    0.189    0.410  102.425  155.824    4.493
  538.500    0.206    0.398  103.769  156.306    4.473
  538.750    0.208    0.402  106.221  157.314    4.461
  539.000    0.200    0.413  103.177  158.622    4.466
  539.250    0.194    0.428   95.743  159.831    4.505
  539.500    0.184    0.419   96.776  160.111    4.612
  539.750    0.174    0.415   99.972  158.944    4.748
  540.000    0.161    0.411  102.179  158.093    4.718
  540.250    0.150    0.417  101.297  157.139    4.731
  540.500    0.164    0.424   99.363  156.178    4.772
  540.750    0.172    0.418   98.911  156.047    4.787
  541.000    0.179    0.425   99.698  156.020    4.765
  541.250    0.186    0.442  100.855  156.194    4.735
  541.500    0.180    0.445  100.157  156.265    4.705
  541.750    0.169    0.445   98.781  156.339    4.718
  542.000    0.167    0.448   97.712  156.514    4.742
  542.250    0.165    0.448   96.828  156.484    4.747
  542.500    0.161    0.427   96.379  156.359    4.761
  542.750    0.155    0.416   95.805  156.426    4.775
  543.000    0.164    0.405   97.024  156.811    4.789
  543.250    0.171    0.402   99.167  156.786    4.795
  543.500    0.160    0.404  100.635  157.167    4.809
  543.750    0.158    0.393  100.987  157.544    4.842
  544.000    0.160    0.391   99.548  158.240    4.883
  544.250    0.165    0.395   99.655  159.038    4.924
  544.500    0.160    0.399   99.636  159.728    4.949
  544.750    0.158    0.404   98.446  160.420    4.972
  545.000    0.159    0.408   99.478  161.213    4.997
  545.250    0.157    0.418  101.685  161.591    5.021
  545.500    0.167    0.419  102.965  161.769    5.140
  545.750    0.164    0.411  101.957  162.256    5.253
