~VERSION INFORMATION
 VERS.                 2.0:   CWLS LOG ASCII STANDARD -VERSION 2.0
 WRAP.                  NO:   ONE LINE PER DEPTH STEP
~WELL INFORMATION BLOCK
#MNEM.UNIT           DATA                    DESCRIPTION OF MNEMONIC
#---------    -------------------            -------------------------------
# Generated from Intellog Unique Number	CS_71_72/WELL/874
WELL.         CAVALIER ET AL NIXON           : Well_name    - WELL
LOC .         02/10-30-072-14W4/0            : Location     - LOCATION
UWI .         02/10-30-072-14W4/0            : Uwi          - UNIQUE WELL ID
ENTR.         SP                             : Entered      - ENTERED BY
SRVC.         SCHLUMBERGER                   : Scn          - SERVICE COMPANY
STRT.M        265                            : top_depth    - START DEPTH
STOP.M        471                            : bot_depth    - STOP DEPTH
STEP.M        0.25                           : increment    - STEP LENGTH
 NULL. -999.2500:NULL Value
~CURVE INFORMATION BLOCK
#MNEM UNIT       ERCB CURVE CODE    CURVE DESCRIPTION
#-----------   ------------------   ----------------------------------
DEPT.M        00 001 00 00         : DEPTH        - DEPTH
GR  .API      00 310 00 00         : GR           - GAMMA RAY
NPHI.V/V      00 330 00 00         : PHIN         - NEUTRON POROSITY (LIMESTONE)
DPHI.V/V      00 890 00 00         : PHID         - DENSITY POROSITY (LIMESTONE)
ILD .OHMM     00 120 00 00         : RESD         - DEEP RESISTIVITY (DIL)
~PARAMETER INFORMATION
#MNEM.UNIT           DATA             DESCRIPTION OF MNEMONIC
#---------         -----------     ------------------------------
GL  .M        611.3                : gl           - GROUND LEVEL ELEVATION
EREF.M        614.8                : kb           - ELEVATION OF DEPTH REFERENCE
DATM.M        611.3                : datum        - DATUM ELEVATION
TDD .M        471                  : tdd          - TOTAL DEPTH DRILLER
RUN .         ONE                  : Run          - RUN NUMBER
ENG .         BILL                 : Engineer     - RECORDING ENGINEER
WIT .         JIM                  : Witness      - WITNESSED BY
MUD .         GEL                  : Mud_type     - MUD TYPE
MATR.         LIMESTONE            : Logunit      - NEUTRON MATRIX
TMAX.C        23                   : BHT          - MAXIMUM RECORDED TEMPERATURE
BHTD.M        471                  : BHTDEP       - MAXIMUM RECORDED TEMPERATURE
MATR.         1                    : LOGUNIT      - NEUTRON MATRIX
RMT .C        25                   : MDTP         - TEMPERATURE OF MUD
NEUT.         1                    : NEUTRON      - NEUTRON TYPE
RESI.         0                    : RESIST       - RESISTIVITY TYPE
RMC .OHMM     0.25                 : RMC          - RESISTIVITY OF MUD CAKE
RMF .OHMM     0.25                 : RMF          - RESISTIVITY OF MUD FILTRATE
SUFT.C        15                   : SUFT         - SURFACE TEMPERATURE
~A  DEPTH       GR     PHIN     PHID     RESD
  265.000  107.493    0.524    0.247    3.027
  265.250  107.499    0.530    0.249    3.083
  265.500  108.724    0.517    0.260    3.141
  265.750  109.944    0.502    0.298    3.082
  266.000  111.170    0.510    0.316    3.081
  266.250  110.568    0.523    0.305    3.023
  266.500  108.754    0.539    0.299    2.967
  266.750  108.762    0.549    0.257    2.966
  267.000  103.307    0.563    0.259    2.965
  267.250   99.670    0.572    0.263    2.965
  267.500  100.286    0.583    0.259    2.964
  267.750  102.723    0.557    0.271    2.964
  268.000  103.946    0.558    0.260    2.908
  268.250  103.955    0.577    0.247    2.800
  268.500  103.355    0.578    0.245    2.696
  268.750  102.147    0.572    0.250    2.646
  269.000  103.371    0.564    0.239    2.645
  269.250  103.985    0.568    0.248    2.695
  269.500  102.172    0.564    0.251    2.745
  269.750   99.146    0.568    0.245    2.850
  270.000   97.332    0.547    0.228    2.958
  270.250   96.730    0.536    0.231    2.958
  270.500   99.170    0.529    0.259    2.902
  270.750   99.175    0.550    0.270    2.794
  271.000  102.224    0.572    0.259    2.794
  271.250  103.444    0.581    0.248    2.793
  271.500  104.665    0.539    0.242    2.793
  271.750   99.209    0.547    0.250    2.792
  272.000   99.218    0.573    0.253    2.740
  272.250  101.655    0.584    0.265    2.638
  272.500  103.482    0.573    0.261    2.589
  272.750  106.528    0.559    0.273    2.540
  273.000  107.751    0.546    0.278    2.588
  273.250  106.545    0.562    0.288    2.587
  273.500  105.338    0.570    0.279    2.635
  273.750  102.919    0.578    0.261    2.685
  274.000  101.711    0.593    0.271    2.684
  274.250  103.543    0.589    0.254    2.634
  274.500  104.763    0.585    0.261    2.536
  274.750  107.202    0.563    0.257    2.536
  275.000  108.423    0.581    0.254    2.583
  275.250  109.039    0.604    0.271    2.632
  275.500  109.654    0.614    0.285    2.732
  275.750  107.841    0.598    0.280    2.783
  276.000  106.025    0.590    0.258    2.835
  276.250  107.248    0.580    0.254    2.888
  276.500  108.474    0.570    0.247    2.942
  276.750  109.087    0.577    0.238    2.998
  277.000  107.882    0.566    0.232    3.054
  277.250  106.066    0.555    0.232    3.170
  277.500  103.645    0.537    0.230    3.290
  277.750  101.832    0.525    0.234    3.352
  278.000  103.056    0.520    0.252    3.480
  278.250  106.707    0.522    0.255    3.545
  278.500  107.321    0.526    0.223    3.611
  278.750  101.867    0.538    0.220    3.749
  279.000  100.050    0.510    0.216    3.819
  279.250   95.809    0.508    0.179    3.964
  279.500   93.993    0.512    0.174    4.115
  279.750   92.179    0.520    0.192    4.271
  280.000   97.656    0.528    0.217    4.191
  280.250  100.093    0.522    0.239    4.036
  280.500  102.530    0.508    0.266    3.744
  280.750  103.143    0.525    0.269    3.282
  281.000  101.329    0.537    0.259    3.160
  281.250   97.695    0.543    0.229    2.986
  281.500   97.703    0.544    0.236    3.042
  281.750   98.927    0.551    0.256    3.100
  282.000   97.718    0.543    0.274    3.341
  282.250  101.977    0.561    0.286    3.403
  282.500  107.452    0.573    0.291    3.339
  282.750  109.282    0.576    0.323    3.276
  283.000  109.897    0.554    0.349    3.215
  283.250  108.691    0.515    0.292    3.214
  283.500  106.879    0.512    0.254    3.154
  283.750  105.670    0.529    0.253    3.153
  284.000  103.250    0.533    0.259    3.152
  284.250   99.612    0.537    0.269    3.272
  284.500   97.799    0.521    0.291    3.397
  284.750   98.414    0.516    0.300    3.526
  285.000   99.031    0.519    0.262    3.660
  285.250   98.430    0.519    0.251    3.660
  285.500   94.796    0.524    0.236    3.591
  285.750   95.410    0.510    0.225    3.394
  286.000   94.811    0.483    0.223    3.268
  286.250   88.140    0.489    0.249    3.329
  286.500   82.681    0.519    0.258    3.456
  286.750   76.010    0.543    0.276    3.867
  287.000   71.766    0.483    0.287    4.753
  287.250   69.952    0.466    0.132    5.219
  287.500   71.782    0.483    0.218    5.731
  287.750   72.400    0.496    0.340    6.062
  288.000   73.015    0.469    0.313    6.061
  288.250   74.846    0.453    0.310    5.728
  288.500   76.674    0.452    0.313    5.620
  288.750   79.112    0.464    0.308    5.515
  289.000   79.727    0.470    0.308    5.513
  289.250   79.128    0.479    0.304    5.512
  289.500   76.707    0.456    0.293    5.409
  289.750   73.679    0.436    0.285    5.307
  290.000   71.258    0.436    0.300    5.306
  290.250   70.050    0.447    0.309    5.405
  290.500   76.739    0.450    0.314    5.404
  290.750   82.819    0.441    0.303    5.506
  291.000   85.864    0.439    0.287    5.609
  291.250   87.695    0.440    0.286    5.822
  291.500   88.918    0.442    0.287    6.044
  291.750   90.747    0.445    0.275    6.042
  292.000   94.399    0.446    0.293    6.155
  292.250   98.661    0.454    0.311    6.040
  292.500   99.880    0.474    0.333    5.927
  292.750  101.713    0.501    0.298    5.707
  293.000  102.934    0.511    0.284    5.600
  293.250  102.943    0.485    0.283    5.392
  293.500  102.343    0.465    0.293    5.193
  293.750   98.098    0.455    0.275    5.000
  294.000   87.785    0.449    0.292    4.815
  294.250   79.897    0.444    0.314    4.725
  294.500   70.188    0.425    0.312    4.636
  294.750   60.478    0.408    0.311    4.634
  295.000   63.523    0.405    0.328    4.721
  295.250   70.214    0.425    0.328    4.720
  295.500   73.257    0.440    0.317    4.719
  295.750   78.734    0.452    0.312    4.719
  296.000   80.561    0.474    0.315    4.807
  296.250   84.216    0.481    0.325    4.897
  296.500   85.434    0.476    0.316    5.179
  296.750   86.658    0.488    0.316    5.377
  297.000   88.487    0.493    0.322    5.581
  297.250   83.031    0.460    0.301    5.794
  297.500   75.750    0.432    0.290    6.128
  297.750   64.220    0.411    0.277    6.243
  298.000   58.763    0.405    0.261    6.126
  298.250   54.519    0.397    0.260    5.899
  298.500   46.632    0.404    0.268    5.897
  298.750   57.572    0.387    0.267    6.008
  299.000   70.334    0.384    0.240    6.354
  299.250   78.843    0.387    0.210    6.596
  299.500   85.531    0.398    0.206    6.720
  299.750   88.576    0.423    0.211    6.594
  300.000   76.439    0.436    0.223    6.002
  300.250   64.908    0.449    0.239    5.672
  300.500   60.059    0.440    0.279    5.066
  300.750   61.282    0.433    0.267    4.972
  301.000   68.579    0.414    0.280    4.878
  301.250   76.482    0.415    0.268    4.698
  301.500   80.737    0.436    0.247    4.697
  301.750   88.033    0.443    0.239    4.785
  302.000   93.508    0.451    0.241    5.060
  302.250   95.944    0.482    0.223    5.155
  302.500   95.953    0.497    0.214    5.059
  302.750   96.567    0.512    0.222    4.871
  303.000  102.649    0.530    0.244    4.780
  303.250  105.693    0.550    0.233    4.690
  303.500  108.131    0.561    0.312    4.689
  303.750  110.571    0.576    0.296    4.688
  304.000  111.790    0.581    0.312    4.600
  304.250  114.230    0.537    0.261    4.513
  304.500  115.451    0.512    0.195    4.346
  304.750  119.105    0.512    0.171    4.107
  305.000  122.149    0.512    0.169    3.810
  305.250  123.980    0.533    0.132    3.403
  305.500  125.201    0.536    0.111    3.156
  305.750  125.816    0.545    0.154    3.097
  306.000  127.038    0.564    0.171    3.096
  306.250  124.617    0.586    0.179    3.337
  306.500  121.590    0.595    0.188    4.339
  306.750  121.598    0.592    0.213    5.333
  307.000  119.175    0.531    0.246    6.313
  307.250  113.718    0.505    0.281    6.431
  307.500  110.082    0.468    0.260    6.677
  307.750  108.271    0.473    0.257    6.675
  308.000  109.491    0.474    0.268    6.673
  308.250  110.714    0.467    0.265    6.548
