~VERSION INFORMATION
 VERS.                 2.0:   CWLS LOG ASCII STANDARD -VERSION 2.0
 WRAP.                  NO:   ONE LINE PER DEPTH STEP
~WELL INFORMATION BLOCK
#MNEM.UNIT           DATA                    DESCRIPTION OF MNEMONIC
#---------    -------------------            -------------------------------
# Generated from Intellog Unique Number	CN_94_101/WELL/2634
WELL.         IMPERIAL OIL LTD.              : Well_name    - WELL
LOC .         03/06-36-094-16W4/0            : Location     - LOCATION
UWI .         03/06-36-094-16W400            : Uwi          - UNIQUE WELL ID
ENTR.         JOETTE                         : Entered      - ENTERED BY
SRVC.         SCHLUMBERGER                   : Scn          - SERVICE COMPANY
DATE.         06/18/92                       : Date         - LOG DATE
STRT.F        300                            : top_depth    - START DEPTH
STOP.F        910.236                        : bot_depth    - STOP DEPTH
STEP.F        0.82                           : increment    - STEP LENGTH
 NULL. -999.2500:NULL Value
~CURVE INFORMATION BLOCK
#MNEM UNIT       ERCB CURVE CODE    CURVE DESCRIPTION
#-----------   ------------------   ----------------------------------
DEPT.F        00 001 00 00         : DEPTH        - DEPTH
GR  .API      00 310 00 00         : GR           - GAMMA RAY
NPHI.V/V      00 330 00 00         : PHIN         - NEUTRON POROSITY (SANDSTONE)
ILD .OHMM     00 120 00 00         : RESD         - DEEP RESISTIVITY (DIL)
~PARAMETER INFORMATION
#MNEM.UNIT           DATA             DESCRIPTION OF MNEMONIC
#---------         -----------     ------------------------------
GL  .F        1751.9               : gl           - GROUND LEVEL ELEVATION
EREF.F        1754.4               : kb           - ELEVATION OF DEPTH REFERENCE
DATM.F        1754.4               : datum        - DATUM ELEVATION
TDD .F        907                  : tdd          - TOTAL DEPTH DRILLER
RUN .         ONE                  : Run          - RUN NUMBER
ENG .         JO                   : Engineer     - RECORDING ENGINEER
WIT .         TIM                  : Witness      - WITNESSED BY
MUD .         GEL                  : Mud_type     - MUD TYPE
MATR.         SANDSTONE            : Logunit      - NEUTRON MATRIX
TMAX.F        54                   : BHT          - MAXIMUM RECORDED TEMPERATURE
BHTD.F        907                  : BHTDEP       - MAXIMUM RECORDED TEMPERATURE
RMT .F        114                  : MDTP         - TEMPERATURE OF MUD
MUDD.LB/G     1                    : MWT          - MUD DENSITY
NEUT.         1                    : NEUTRON      - NEUTRON TYPE
RESI.         0                    : RESIST       - RESISTIVITY TYPE
RM  .OHMM     5.2                  : RM           - RESISTIVITY OF MUD
RMC .OHMM     5.2                  : RMC          - RESISTIVITY OF MUD CAKE
RMF .OHMM     5.2                  : RMF          - RESISTIVITY OF MUD FILTRATE
SUFT.F        39.2                 : SUFT         - SURFACE TEMPERATURE
~A  DEPTH       GR     PHIN     RESD
# ...
  477.986   78.119    0.476   15.553
  478.806   63.582    0.504   14.200
  479.626   66.341    0.512   18.535
  480.446   79.383    0.497   22.869
  481.266   92.424    0.496   15.849
  482.087   91.400    0.496    9.579
  482.907   87.673    0.471    8.934
  483.727   90.986    0.463   10.457
  484.547   85.083    0.448   12.666
  485.367   82.451    0.444   18.418
  486.188   83.574    0.457   20.649
  487.008   82.549    0.478   17.900
  487.828   78.822    0.468   15.881
  488.648   81.041    0.469   15.944
  489.469   86.516    0.474   16.737
  490.289   84.410    0.441   17.530
  491.109   74.738    0.421   19.740
  491.929   68.835    0.444   20.575
  492.749   70.527    0.455   18.535
  493.570   73.840    0.383   18.619
  494.390   72.275    0.362   20.120
  495.210   72.857    0.340   27.976
  496.030   71.292    0.396   42.250
  496.850   68.646    0.491   25.354
  497.671   75.743    0.526   21.876
  498.491   83.906    0.540   15.585
  499.311   92.084    0.521   10.710
  500.131   95.383    0.515    9.378
  500.951   98.141    0.512    9.463
  501.772   89.010    0.519   10.277
  502.592   89.606    0.519   10.341
  503.412   96.162    0.500   11.133
  504.232  100.002    0.498    9.114
  505.052   97.356    0.501    7.782
  505.873   95.278    0.490    7.866
  506.693   96.942    0.483    9.389
  507.513  100.782    0.539    9.473
  508.333  105.702    0.542    9.537
  509.154  108.461    0.499   10.330
  509.974  100.410    0.498   13.248
  510.794   86.969    0.548   13.375
  511.614   89.727    0.547   11.355
  512.434   92.472    0.543   10.689
  513.255  101.190    0.561   10.816
  514.075  110.974    0.560   10.858
  514.895  108.328    0.542   11.673
  515.715  110.561    0.545   11.757
  516.535  108.455    0.543   11.842
  517.356  110.687    0.510   11.260
  518.176  107.487    0.504   10.594
  518.996  101.057    0.505   10.742
  519.816   94.642    0.502   10.763
  520.636   97.927    0.518   10.140
  521.457   99.619    0.523   10.288
  522.277   96.959    0.512   11.059
  523.097   93.772    0.518   11.123
  523.917   90.045    0.488   12.645
  524.738   87.413    0.486   13.417
  525.558   84.241    0.464   14.919
  526.378   82.647    0.461   15.712
  527.198   76.759    0.470   13.734
  528.018   77.896    0.495   12.381
  528.839   85.533    0.516   11.736
  529.659   90.994    0.491   11.133
  530.479   93.212    0.485   11.197
  531.299   91.675    0.476   11.990
  532.119   89.555    0.486   15.638
  532.940   82.031    0.484   18.556
  533.760   74.521    0.469   20.765
  534.580   69.713    0.463   20.850
  535.400   68.702    0.490   18.122
  536.220   71.987    0.504   16.061
  537.041   80.165    0.514   12.645
  537.861   85.626    0.505   11.292
  538.681   90.020    0.506    9.981
  539.501   94.400    0.506    9.357
  540.322  100.984    0.531    9.442
  541.142   97.769    0.540   10.235
  541.962   93.516    0.550   10.298
  542.782   93.032    0.544   10.383
  543.602   92.021    0.528   10.467
  544.423   92.049    0.522   10.573
  545.243   92.120    0.526   10.658
  546.063   92.716    0.498   10.742
  546.883   92.232    0.493   11.535
  547.703   90.667    0.497   12.349
  548.524   90.183    0.507   13.851
  549.344   92.415    0.478   14.644
  550.164   91.931    0.472   14.020
  550.984   90.366    0.468   12.688
  551.804   89.341    0.462   12.064
  552.625   87.222    0.454   15.712
  553.445   83.495    0.473   14.379
  554.265   79.227    0.515   10.922
  555.085   78.743    0.532    9.590
  555.906   92.865    0.530    8.987
  556.726   97.246    0.534    9.759
  557.546  104.342    0.507   13.386
  558.366  109.263    0.491   19.158
  559.186  107.157    0.494   29.160
  560.007  100.187    0.537   28.537
  560.827   88.353    0.557   21.537
  561.647   88.409    0.561   13.121
  562.467  102.532    0.552    8.955
  563.287  113.398    0.547    9.791
  564.108  115.089    0.552   10.541
  564.928  110.808    0.561   11.334
  565.748  110.878    0.562   11.482
  566.568  115.813    0.551   11.525
  567.388  116.410    0.546   10.922
  568.209  108.885    0.546   10.277
  569.029  107.348    0.531   10.383
  569.849  109.012    0.500   11.155
  570.669  108.528    0.507   11.969
  571.490  104.246    0.530   12.762
  572.310   95.655    0.529   14.263
  573.130   98.428    0.496   15.077
  573.950  100.119    0.471   15.849
  574.770   94.757    0.472   15.934
  575.591   90.490    0.473   16.727
  576.411   94.870    0.461   16.832
  577.231   94.926    0.449   15.479
  578.051   91.739    0.439   14.897
  578.871   91.796    0.441   17.837
  579.692   90.771    0.455   19.296
  580.512   90.287    0.479   20.089
  581.332   84.938    0.493   18.757
  582.152   84.995    0.467   16.029
  582.972   93.186    0.448   14.675
  583.793   93.257    0.455   14.115
  584.613   92.744    0.484   14.178
  585.433   99.841    0.496   15.701
  586.253  102.599    0.509   16.452
  587.073   98.332    0.486   17.245
  587.894   92.457    0.482   17.350
  588.714   90.878    0.477   16.769
  589.534   95.272    0.474   16.103
  590.354   94.788    0.499   16.209
  591.175   94.844    0.479   16.314
  591.995   97.603    0.485   16.357
  592.815   98.200    0.502   15.733
  593.635   91.770    0.472   15.817
  594.455   85.881    0.473   15.944
  595.276   90.802    0.488   17.445
  596.096   96.263    0.453   19.677
  596.916   94.712    0.444   20.427
  597.736   92.052    0.447   20.554
  598.556   88.325    0.458   20.596
  599.377   82.976    0.468   19.994
  600.197   79.249    0.460   17.287
  601.017   91.210    0.450   15.934
  601.837   91.280    0.459   14.580
  602.657   87.539    0.488   13.248
  603.478   84.367    0.494   13.375
  604.298   88.192    0.489   13.417
  605.118   94.208    0.483   16.378
  605.938   96.966    0.471   17.149
  606.759   99.725    0.462   17.942
  607.579   97.648    0.449   16.631
  608.399   94.447    0.466   14.591
  609.219   91.275    0.474   17.488
  610.039   89.709    0.476   16.864
  610.860   87.604    0.493   11.990
  611.680   84.944    0.516   12.074
  612.500   88.243    0.522   13.597
  613.320   99.677    0.494   18.640
  614.140  102.422    0.441   23.684
  614.961   99.776    0.401   30.186
  615.781   92.806    0.501   29.541
  616.601   87.998    0.539   21.833
  617.421   88.068    0.510   16.980
  618.241   92.975    0.482   14.210
  619.062  102.774    0.457   15.003
  619.882  101.749    0.477   16.526
  620.702   86.658    0.514   17.340
  621.522   87.297    0.539   16.695
  622.343   87.866    0.536   15.363
  623.163   91.705    0.514   11.926
  623.983  102.044    0.514   10.615
  624.803  104.263    0.517    9.949
  625.623  102.157    0.521   10.763
  626.444   94.661    0.515   13.703
  627.264   93.082    0.492   15.162
  628.084   92.057    0.483   18.809
  628.904   95.911    0.469   16.790
  629.724   99.750    0.452   12.624
  630.545   96.023    0.454    9.167
  631.365   87.958    0.492    8.543
  632.185   82.610    0.506   11.440
  633.005   99.435    0.163   21.463
  633.825  113.017    0.098   48.488
  634.646  122.816    0.106   94.661
  635.466   74.188    0.190  164.231
  636.286   51.530    0.454  142.335
  637.106   67.274    0.445  113.354
  637.927   95.463    0.448   16.325
  638.747  110.666    0.463   16.430
  639.567   88.549    0.438   20.057
  640.387   79.958    0.429   22.975
  641.207   77.312    0.435   23.747
  642.028   89.799    0.444   22.436
  642.848   96.910    0.446   21.104
  643.668   96.426    0.451   19.750
  644.488   95.401    0.455   18.439
  645.308   99.227    0.429   17.837
  646.129   98.202    0.419   17.900
  646.949   96.651    0.423   18.006
  647.769   99.950    0.433   17.361
  648.589  101.628    0.446   17.488
  649.409   96.293    0.449   17.551
  650.230   99.578    0.465   17.636
  651.050  106.134    0.439   17.054
  651.870   98.084    0.389   17.097
  652.690   91.114    0.329   21.453
  653.510   92.791    0.285   37.122
  654.331   91.767    0.313   44.999
  655.151   85.323    0.353   48.647
