~VERSION INFORMATION
 VERS.                 2.0:   CWLS LOG ASCII STANDARD -VERSION 2.0
 WRAP.                  NO:   ONE LINE PER DEPTH STEP
~WELL INFORMATION BLOCK
#MNEM.UNIT           DATA                    DESCRIPTION OF MNEMONIC
#---------    -------------------            -------------------------------
# Generated from Intellog Unique Number	CN_94_101/WELL/2634
WELL.         IMPERIAL OIL LTD.              : Well_name    - WELL
LOC .         03/06-36-094-16W4/0            : Location     - LOCATION
UWI .         03/06-36-094-16W400            : Uwi          - UNIQUE WELL ID
ENTR.         JOETTE                         : Entered      - ENTERED BY
SRVC.         SCHLUMBERGER                   : Scn          - SERVICE COMPANY
DATE.         06/18/92                       : Date         - LOG DATE
STRT.F        300                            : top_depth    - START DEPTH
STOP.F        910.236                        : bot_depth    - STOP DEPTH
STEP.F        0.82                           : increment    - STEP LENGTH
 NULL. -999.2500:NULL Value
~CURVE INFORMATION BLOCK
#MNEM UNIT       ERCB CURVE CODE    CURVE DESCRIPTION
#-----------   ------------------   ----------------------------------
DEPT.F        00 001 00 00         : DEPTH        - DEPTH
GR  .API      00 310 00 00         : GR           - GAMMA RAY
NPHI.V/V      00 330 00 00         : PHIN         - NEUTRON POROSITY (SANDSTONE)
ILD .OHMM     00 120 00 00         : RESD         - DEEP RESISTIVITY (DIL)
~PARAMETER INFORMATION
#MNEM.UNIT           DATA             DESCRIPTION OF MNEMONIC
#---------         -----------     ------------------------------
GL  .F        1751.9               : gl           - GROUND LEVEL ELEVATION
EREF.F        1754.4               : kb           - ELEVATION OF DEPTH REFERENCE
DATM.F        1754.4               : datum        - DATUM ELEVATION
TDD .F        907                  : tdd          - TOTAL DEPTH DRILLER
RUN .         ONE                  : Run          - RUN NUMBER
ENG .         JO                   : Engineer     - RECORDING ENGINEER
WIT .         TIM                  : Witness      - WITNESSED BY
MUD .         GEL                  : Mud_type     - MUD TYPE
MATR.         SANDSTONE            : Logunit      - NEUTRON MATRIX
TMAX.F        54                   : BHT          - MAXIMUM RECORDED TEMPERATURE
BHTD.F        907                  : BHTDEP       - MAXIMUM RECORDED TEMPERATURE
RMT .F        114                  : MDTP         - TEMPERATURE OF MUD
MUDD.LB/G     1                    : MWT          - MUD DENSITY
NEUT.         1                    : NEUTRON      - NEUTRON TYPE
RESI.         0                    : RESIST       - RESISTIVITY TYPE
RM  .OHMM     5.2                  : RM           - RESISTIVITY OF MUD
RMC .OHMM     5.2                  : RMC          - RESISTIVITY OF MUD CAKE
RMF .OHMM     5.2                  : RMF          - RESISTIVITY OF MUD FILTRATE
SUFT.F        39.2                 : SUFT         - SURFACE TEMPERATURE
~A  DEPTH       GR     PHIN     RESD
# ...
  655.971   76.732    0.405   21.083
  656.791   76.788    0.256   29.668
  657.612   89.290    0.247   43.942
  658.432   91.508    0.289   59.632
  659.252   95.902    0.416   57.592
  660.072   91.094    0.464   49.884
  660.892   84.665    0.465   40.759
  661.713   85.816    0.455   33.739
  662.533   88.034    0.444   21.072
  663.353   88.076    0.446   19.740
  664.173   92.456    0.452   19.137
  664.993   93.608    0.449   18.513
  665.814   89.340    0.441   21.410
  666.634   87.235    0.428   22.246
  667.454   84.603    0.416   19.497
  668.274   83.037    0.416   20.290
  669.094   85.256    0.420   23.916
  669.915   88.000    0.414   25.418
  670.735   91.328    0.416   24.064
  671.555   92.465    0.430   22.796
  672.375   89.264    0.241   27.797
  673.196   89.320    0.225   57.655
  674.016   91.539    0.226  123.684
  674.836   63.476    0.228  100.370
  675.656   57.061    0.208   94.830
  676.476   53.334    0.144   98.435
  677.297   50.688    0.120  101.374
  678.117   48.028    0.162   87.249
  678.937   54.029    0.408   66.790
  679.757   73.571    0.431   28.579
  680.577   77.951    0.489   13.079
  681.398   86.114    0.491   10.330
  682.218   99.156    0.469   11.123
  683.038  100.833    0.468   11.916
  683.858   98.728    0.466   13.438
  684.678   98.784    0.470   14.231
  685.499  101.016    0.482   15.067
  686.319  100.532    0.489   15.109
  687.139  101.129    0.460   15.215
  687.959  102.266    0.453   15.299
  688.780  105.039    0.451   15.363
  689.600  102.393    0.468   15.447
  690.420   99.747    0.398   15.553
  691.240   99.803    0.379   16.346
  692.060  103.102    0.417   21.389
  692.881  106.956    0.451   38.496
  693.701   99.431    0.494   40.706
  694.521   87.057    0.499   17.393
  695.341   98.463    0.488   10.393
  696.161  107.181    0.506   11.937
  696.982  106.156    0.511   12.751
  697.802  106.213    0.515   12.793
  698.622   96.555    0.513   12.191
  699.442  103.082    0.504   10.837
  700.262  103.153    0.477    9.526
  701.083  103.223    0.461   11.736
  701.903   98.401    0.465   15.384
  702.723  101.700    0.456   15.447
  703.543  105.540    0.453   13.428
  704.364  111.015    0.498   12.074
  705.184  108.909    0.485   11.472
  706.004  103.020    0.465   11.535
  706.824  104.158    0.440   16.600
  707.644  109.619    0.433   21.643
  708.465  111.837    0.428   22.457
  709.285  105.962    0.407   19.021
  710.105  100.614    0.472   17.646
  710.925  101.210    0.464   17.044
  711.745  103.969    0.435   19.962
  712.566  103.485    0.410   27.131
  713.386  108.946    0.447   31.465
  714.206  104.678    0.476   22.341
  715.026   95.006    0.452   17.467
  715.846   95.062    0.448   16.156
  716.667  104.307    0.457   16.219
  717.487  114.106    0.468   17.763
  718.307  109.298    0.496   19.973
  719.127  101.787    0.471   20.078
  719.948  102.384    0.461   19.433
  720.768  102.981    0.454   18.080
  721.588  100.335    0.465   18.894
  722.408   95.527    0.486   21.812
  723.228   88.557    0.516   16.209
  724.049   91.316    0.520    9.960
  724.869  104.371    0.508    9.294
  725.689  106.035    0.496    8.691
  726.509  104.470    0.473   10.214
  727.329  104.526    0.460   13.819
  728.150  108.394    0.465   18.862
  728.970  104.653    0.466   31.719
  729.790   98.238    0.378   41.034
  730.610   92.875    0.370   38.285
  731.430   83.729    0.230   41.203
  732.251   63.234    0.191   81.000
  733.071   51.940    0.291  112.275
  733.891   41.727    0.329   94.650
  734.711   33.122    0.432   63.544
  735.531   46.704    0.423   38.814
  736.352   49.463    0.398   35.356
  737.172   54.398    0.376   27.649
  737.992   58.778    0.347   23.504
  738.812   63.172    0.313   22.193
  739.633   67.580    0.296   22.944
  740.453   64.379    0.282   29.404
  741.273   61.719    0.282   34.489
  742.093   57.992    0.304   35.261
  742.913   54.265    0.326  106.957
  743.734   50.538    0.362  107.042
  744.554   44.649    0.368  101.480
  745.374   45.815    0.358  102.960
  746.194   46.924    0.355  104.462
  747.014   49.711    0.398   82.586
  747.835   50.834    0.422   61.398
  748.655   53.066    0.442   53.690
  749.475   54.189    0.386   48.107
  750.295   56.435    0.339   35.462
  751.115   57.004    0.318   37.630
  751.936   58.724    0.303   39.152
  752.756   59.293    0.325   97.367
  753.576   57.187    0.336   89.659
  754.396   54.001    0.413   58.554
  755.217   53.530    0.421   51.554
  756.037   56.830    0.419   59.431
  756.857   60.129    0.416   93.561
  757.677   59.644    0.413   90.104
  758.497   57.026    0.424   82.396
  759.318   55.433    0.452   81.064
  760.138   53.328    0.460   95.316
  760.958   47.979    0.461  114.549
  761.778   45.333    0.451  167.118
  762.598   43.256    0.429  249.440
  763.419   42.203    0.424  297.029
  764.239   40.638    0.426  222.669
  765.059   38.532    0.434  231.984
  765.879   38.589    0.439  238.444
  766.699   50.563    0.424   46.384
  767.520   55.470    0.410   81.931
  768.340   55.540    0.394  103.288
  769.160   53.961    0.387   99.831
  769.980   50.234    0.394   79.351
  770.801   45.426    0.424   63.142
  771.621   41.699    0.419   47.642
  772.441   39.053    0.382   45.623
  773.261   41.285    0.403   61.271
  774.081   46.746    0.412   65.627
  774.902   47.912    0.383  119.592
  775.722   46.873    0.354  239.501
  776.542   45.308    0.346  255.191
  777.362   48.607    0.376  275.153
  778.182   53.527    0.395  295.073
  779.003   52.503    0.396  161.186
  779.823   39.047    0.367  165.521
  780.643   47.751    0.348  179.774
  781.463   46.726    0.343  203.965
  782.283   34.920    0.336  238.095
  783.104   33.882    0.335  254.472
  783.924   32.857    0.393  302.083
  784.744   32.913    0.407  180.218
  785.564   30.267    0.421  150.508
  786.385   27.067    0.433   37.873
  787.205   26.056    0.425   52.167
  788.025   39.084    0.403   67.128
  788.845   50.504    0.392   89.903
  789.665   59.762    0.384  108.406
  790.486   60.900    0.389  119.137
  791.306   49.066    0.401   78.801
  792.126   46.419    0.398  120.723
  792.946   43.233    0.394   93.889
  793.766   41.127    0.391   75.534
  794.587   42.265    0.448   59.304
  795.407   45.023    0.462   43.804
  796.227   48.863    0.456   36.805
  797.047   50.014    0.457   36.889
  797.867   45.747    0.455   32.703
  798.688   43.627    0.436   24.308
  799.508   49.102    0.421   27.226
  800.328   70.251    0.446   40.104
  801.148   76.252    0.449   41.563
  801.969   71.985    0.424   40.981
  802.789   63.948    0.416   43.878
  803.609   61.843    0.407   44.692
  804.429   60.277    0.407   47.589
  805.249   63.036    0.420   52.675
  806.070   62.039    0.408   34.299
  806.890   60.987    0.401   56.386
  807.710   61.597    0.373   71.347
  808.530   64.883    0.365  101.935
  809.350   68.182    0.372  123.980
  810.171   53.645    0.363  141.087
  810.991   46.135    0.356   89.416
  811.811   40.246    0.344  116.462
  812.631   36.519    0.350  113.713
  813.451   35.495    0.340  105.984
  814.272   36.091    0.318   75.587
  815.092   37.242    0.342  143.741
  815.912   38.920    0.435   75.048
  816.732   40.612    0.443   64.506
  817.552   42.816    0.431   66.008
  818.373   46.656    0.425   83.115
  819.193   51.590    0.424   88.179
  820.013   55.444    0.419   65.574
  820.833   53.352    0.408   56.450
  821.654   52.314    0.412   55.826
  822.474   52.384    0.412   52.368
  823.294   53.493    0.403   46.077
  824.114   56.806    0.386   51.829
  824.934   59.025    0.384   73.208
  825.755   60.716    0.383   90.294
  826.575   58.597    0.389   98.171
  827.395   52.708    0.385   76.295
  828.215   48.440    0.400   63.608
  829.035   43.632    0.399   65.838
  829.856   39.919    0.392   60.235
  830.676   41.071    0.385   58.194
  831.496   41.099    0.378   60.446
  832.316   41.710    0.381   58.384
  833.136   41.225    0.417   60.594
