~VERSION INFORMATION
 VERS.                 2.0:   CWLS LOG ASCII STANDARD -VERSION 2.0
 WRAP.                  NO:   ONE LINE PER DEPTH STEP
~WELL INFORMATION BLOCK
#MNEM.UNIT           DATA                    DESCRIPTION OF MNEMONIC
#---------    -------------------            -------------------------------
# Generated from Intellog Unique Number	CN_94_101/WELL/2634
WELL.         IMPERIAL OIL LTD.              : Well_name    - WELL
LOC .         03/06-36-094-16W4/0            : Location     - LOCATION
UWI .         03/06-36-094-16W400            : Uwi          - UNIQUE WELL ID
ENTR.         JOETTE                         : Entered      - ENTERED BY
SRVC.         SCHLUMBERGER                   : Scn          - SERVICE COMPANY
DATE.         06/18/92                       : Date         - LOG DATE
STRT.F        300                            : top_depth    - START DEPTH
STOP.F        910.236                        : bot_depth    - STOP DEPTH
STEP.F        0.82                           : increment    - STEP LENGTH
 NULL. -999.2500:NULL Value
~CURVE INFORMATION BLOCK
#MNEM UNIT       ERCB CURVE CODE    CURVE DESCRIPTION
#-----------   ------------------   ----------------------------------
DEPT.F        00 001 00 00         : DEPTH        - DEPTH
GR  .API      00 310 00 00         : GR           - GAMMA RAY
NPHI.V/V      00 330 00 00         : PHIN         - NEUTRON POROSITY (SANDSTONE)
ILD .OHMM     00 120 00 00         : RESD         - DEEP RESISTIVITY (DIL)
~PARAMETER INFORMATION
#MNEM.UNIT           DATA             DESCRIPTION OF MNEMONIC
#---------         -----------     ------------------------------
GL  .F        1751.9               : gl           - GROUND LEVEL ELEVATION
EREF.F        1754.4               : kb           - ELEVATION OF DEPTH REFERENCE
DATM.F        1754.4               : datum        - DATUM ELEVATION
TDD .F        907                  : tdd          - TOTAL DEPTH DRILLER
RUN .         ONE                  : Run          - RUN NUMBER
ENG .         JO                   : Engineer     - RECORDING ENGINEER
WIT .         TIM                  : Witness      - WITNESSED BY
MUD .         GEL                  : Mud_type     - MUD TYPE
MATR.         SANDSTONE            : Logunit      - NEUTRON MATRIX
TMAX.F        54                   : BHT          - MAXIMUM RECORDED TEMPERATURE
BHTD.F        907                  : BHTDEP       - MAXIMUM RECORDED TEMPERATURE
RMT .F        114                  : MDTP         - TEMPERATURE OF MUD
MUDD.LB/G     1                    : MWT          - MUD DENSITY
NEUT.         1                    : NEUTRON      - NEUTRON TYPE
RESI.         0                    : RESIST       - RESISTIVITY TYPE
RM  .OHMM     5.2                  : RM           - RESISTIVITY OF MUD
RMC .OHMM     5.2                  : RMC          - RESISTIVITY OF MUD CAKE
RMF .OHMM     5.2                  : RMF          - RESISTIVITY OF MUD FILTRATE
SUFT.F        39.2                 : SUFT         - SURFACE TEMPERATURE
~A  DEPTH       GR     PHIN     RESD
  300.000   80.615    0.494  133.305
  300.820   81.738    0.462  126.306
  301.640   83.956    0.461  122.140
  302.461   81.310    0.464  152.707
  303.281   68.381    0.472  182.586
  304.101   67.370    0.475  225.925
  304.921   69.048    0.448  358.585
  305.741   69.659    0.444  376.401
  306.562   67.013    0.442  343.878
  307.382   64.893    0.449  314.897
  308.202   66.044    0.454  266.769
  309.022   68.789    0.461  195.242
  309.843   73.723    0.475  157.052
  310.663   79.184    0.488  204.642
  311.483   87.376    0.441  256.481
  312.303   73.892    0.446  301.945
  313.123   68.558    0.482  341.034
  313.944   81.045    0.488  173.789
  314.764   85.966    0.500  108.659
  315.584   88.738    0.488  102.368
  316.404   91.511    0.471  143.561
  317.224   88.851    0.483  157.835
  318.045   87.300    0.491  131.687
  318.865   86.802    0.486   94.914
  319.685   84.710    0.498  105.625
  320.505   85.833    0.337  146.839
  321.325   81.025    0.342  190.886
  322.146   73.515    0.377  205.160
  322.966   62.762    0.398  139.300
  323.786   63.899    0.434  207.454
  324.606   84.507    0.461  174.952
  325.427   94.847    0.484  122.573
  326.247   98.700    0.495  109.177
  327.067   97.121    0.493  102.178
  327.887   91.773    0.512  127.078
  328.707   88.586    0.519  139.205
  329.528   79.454    0.491  126.560
  330.348   83.294    0.493  173.419
  331.168   80.108    0.485  155.794
  331.988   74.233    0.517  104.832
  332.808   80.220    0.531   99.958
  333.629   98.126    0.508   94.375
  334.449  110.087    0.501   85.229
  335.269   99.334    0.502  100.920
  336.089   91.269    0.528  106.693
  336.909   90.244    0.532   98.964
  337.730   82.734    0.530   94.090
  338.550   95.249    0.543  126.094
  339.370   99.075    0.511  111.990
  340.190   86.159    0.498   87.968
  341.010   74.311    0.503   98.700
  341.831   68.963    0.505  107.993
  342.651   95.531    0.500  103.827
  343.471   97.222    0.505   94.703
  344.291   94.562    0.511   98.351
  345.112   90.309    0.519   92.038
  345.932   88.189    0.503  122.647
  346.752   86.652    0.510  124.128
  347.572   88.302    0.535  115.003
  348.392   93.236    0.548   83.897
  349.213  103.561    0.523  115.172
  350.033  106.875    0.521  118.820
  350.853   90.703    0.535  101.882
  351.673   99.975    0.530   91.341
  352.493   98.396    0.501  108.427
  353.314   90.331    0.486  115.616
  354.134   98.509    0.538   96.553
  354.954  103.970    0.529   76.094
  355.774  102.404    0.560   79.742
  356.594   97.597    0.549   82.660
  357.415  104.693    0.495   80.620
  358.235  108.533    0.427   68.640
  359.055   72.363    0.424   74.392
  359.875   47.544    0.433   85.124
  360.696   41.655    0.439   75.270
  361.516   46.575    0.437   53.394
  362.336   50.956    0.426   42.831
  363.156   50.471    0.434   39.374
  363.976   46.218    0.400   43.751
  364.797   50.612    0.389   43.815
  365.617   49.573    0.395   42.483
  366.437   45.846    0.437   42.567
  367.257   46.984    0.429   45.485
  368.077   49.756    0.414   46.321
  368.898   47.110    0.436   42.134
  369.718   44.991    0.437   42.218
  370.538   47.209    0.423   43.741
  371.358   49.981    0.424   44.534
  372.178   48.416    0.412   44.597
  372.999   49.554    0.407   45.390
  373.819   48.529    0.393   48.351
  374.639   39.938    0.410   51.269
  375.459   39.454    0.411   50.666
  376.280   40.605    0.400   49.292
  377.100   36.864    0.403   45.147
  377.920   38.556    0.415   39.543
  378.740   38.086    0.401   34.669
  379.560   38.142    0.424   36.170
  380.381   38.739    0.430   41.965
  381.201   42.564    0.426   43.487
  382.021   45.863    0.410   44.259
  382.841   42.691    0.386   45.073
  383.661   47.071    0.372   45.115
  384.482   46.587    0.393   44.491
  385.302   37.995    0.394   45.306
  386.122   40.242    0.393   43.973
  386.942   42.446    0.411   45.475
  387.762   44.123    0.435   38.475
  388.583   42.018    0.446   33.601
  389.403   39.358    0.448   41.478
  390.223   38.347    0.451   49.376
  391.043   38.404    0.394   64.337
  391.864   36.298    0.414   84.986
  392.684   34.733    0.425   91.468
  393.504   36.410    0.418   46.881
  394.324   40.791    0.416   39.173
  395.144   42.496    0.408   42.112
  395.965   43.620    0.415   43.614
  396.785   46.378    0.420   45.115
  397.605   42.111    0.429   46.659
  398.425   38.384    0.418   47.431
  399.245   39.521    0.426   46.828
  400.066   44.996    0.416   46.162
  400.886   47.769    0.403   41.996
  401.706   41.866    0.428   38.539
  402.526   43.003    0.450   35.124
  403.346   45.776    0.428   37.291
  404.167   45.291    0.410   43.773
  404.987   44.281    0.412   48.107
  405.807   45.959    0.428   43.963
  406.627   48.163    0.453   44.026
  407.448   52.543    0.473   44.111
  408.268   61.275    0.485   25.777
  409.088   75.397    0.488   13.798
  409.908   79.763    0.498   13.216
  410.728   74.415    0.462   11.176
  411.549   76.093    0.444   26.116
  412.369   77.230    0.495   36.139
  413.189   76.760    0.507   36.932
  414.009   81.680    0.483   12.931
  414.829   88.763    0.445   11.599
  415.650   86.657    0.423   15.225
  416.470   62.919    0.477   20.269
  417.290   68.394    0.501   29.583
  418.110   81.976    0.500   33.210
  418.930   93.382    0.495   16.980
  419.751  101.559    0.512    9.981
  420.571  105.939    0.534    6.524
  421.391  103.293    0.546    7.338
  422.211  109.849    0.551    8.152
  423.031  109.920    0.551    8.236
  423.852  111.583    0.546    7.613
  424.672  112.194    0.550    7.697
  425.492  110.629    0.558    7.095
  426.312  117.171    0.556    7.179
  427.133  118.863    0.550    7.221
  427.953  116.757    0.521    8.057
  428.773  113.571    0.516    8.120
  429.593  108.749    0.520    8.955
  430.413  112.048    0.547    8.998
  431.234  108.861    0.547    9.082
  432.054  107.851    0.517    9.188
  432.874  112.231    0.528    9.273
  433.694  112.287    0.544    8.670
  434.514  110.722    0.559    8.733
  435.335  112.400    0.563    8.818
  436.155  108.673    0.535    8.194
  436.975  106.567    0.534    8.300
  437.795  105.542    0.547    7.655
  438.615  108.329    0.557    7.782
  439.436  103.507    0.564    7.888
  440.256  105.185    0.571    7.221
  441.076  110.105    0.545    7.327
  441.896  111.783    0.536    7.391
  442.717  108.056    0.522    7.517
  443.537  102.708    0.526    7.560
  444.357   97.900    0.530    7.687
  445.177   93.632    0.518    7.042
  445.997   91.527    0.521    7.126
  446.818   91.043    0.546    7.232
  447.638   95.991    0.555    7.317
  448.458   98.195    0.514    7.401
  449.278   96.630    0.522    7.507
  450.098   92.903    0.535    7.591
  450.919   91.338    0.534    7.676
  451.739   94.097    0.535    8.448
  452.559  100.667    0.559    7.845
  453.379  100.723    0.562    7.221
  454.199   98.063    0.573    5.889
  455.020  100.295    0.542    4.578
  455.840  103.040    0.523    4.620
  456.660   99.313    0.523    4.018
  457.480   93.978    0.538    4.853
  458.301  100.520    0.557    4.916
  459.121  103.279    0.586    5.688
  459.941  100.633    0.587    6.502
  460.761  105.027    0.556    6.587
  461.581  100.205    0.536    7.380
  462.402   93.776    0.554    7.465
  463.222   91.144    0.549    7.549
  464.042  107.969    0.556    6.925
  464.862  110.187    0.547    6.344
  465.682  107.000    0.558    6.386
  466.503  105.449    0.568    6.471
  467.323  106.032    0.557    5.889
  468.143  108.805    0.565    5.974
  468.963  108.861    0.577    6.058
  469.783  107.836    0.567    6.143
  470.604  106.798    0.518    6.228
  471.424   93.882    0.520    6.333
  472.244  101.519    0.537    6.376
  473.064   97.778    0.520    8.628
  473.885   92.430    0.469    9.399
  474.705   96.824    0.476   13.734
  475.525   87.678    0.480   15.944
  476.345   76.385    0.470   18.217
  477.165   80.765    0.465   18.260
