~VERSION INFORMATION
 VERS.                 2.0:   CWLS LOG ASCII STANDARD -VERSION 2.0
 WRAP.                  NO:   ONE LINE PER DEPTH STEP
~WELL INFORMATION BLOCK
#MNEM.UNIT           DATA                    DESCRIPTION OF MNEMONIC
#---------    -------------------            -------------------------------
# Generated from Intellog Unique Number	CW_82_90/WELL/3426
WELL.         UNION SIMON OV                 : Well_name    - WELL
LOC .         AA/07-11-088-19W4/0            : Location     - LOCATION
UWI .         AA/07-11-088-19W400            : Uwi          - UNIQUE WELL ID
ENTR.         MAX                            : Entered      - ENTERED BY
SRVC.         SCHLUMBERGER                   : Scn          - SERVICE COMPANY
STRT.M        140                            : top_depth    - START DEPTH
STOP.M        265                            : bot_depth    - STOP DEPTH
STEP.M        0.25                           : increment    - STEP LENGTH
 NULL. -999.2500:NULL Value
~CURVE INFORMATION BLOCK
#MNEM UNIT       ERCB CURVE CODE    CURVE DESCRIPTION
#-----------   ------------------   ----------------------------------
DEPT.M        00 001 00 00         : DEPTH        - DEPTH
ILD .OHMM     00 120 00 00         : RESD         - DEEP RESISTIVITY (DIL)
NPHI.V/V      00 330 00 00         : PHIN         - NEUTRON POROSITY (SANDSTONE)
DPHI.V/V      00 890 00 00         : PHID         - DENSITY POROSITY (SANDSTONE)
CALI.MM       00 280 01 00         : CAL          - CALIPER
GR  .API      00 310 00 00         : GR           - GAMMA RAY
~PARAMETER INFORMATION
#MNEM.UNIT           DATA             DESCRIPTION OF MNEMONIC
#---------         -----------     ------------------------------
GL  .M        522.76               : gl           - GROUND LEVEL ELEVATION
EREF.M        527.06               : kb           - ELEVATION OF DEPTH REFERENCE
DATM.M        522.76               : datum        - DATUM ELEVATION
TDD .M        353                  : tdd          - TOTAL DEPTH DRILLER
RUN .         ONE                  : Run          - RUN NUMBER
ENG .         BILL                 : Engineer     - RECORDING ENGINEER
WIT .         JIM                  : Witness      - WITNESSED BY
MUD .         GEL                  : Mud_type     - MUD TYPE
MATR.         SANDSTONE            : Logunit      - NEUTRON MATRIX
TMAX.C        26.6                 : BHT          - MAXIMUM RECORDED TEMPERATURE
BHTD.M        353                  : BHTDEP       - MAXIMUM RECORDED TEMPERATURE
MATR.         1                    : LOGUNIT      - NEUTRON MATRIX
RMT .C        13                   : MDTP         - TEMPERATURE OF MUD
NEUT.         1                    : NEUTRON      - NEUTRON TYPE
RESI.         0                    : RESIST       - RESISTIVITY TYPE
RMC .OHMM     1.79                 : RMC          - RESISTIVITY OF MUD CAKE
RMF .OHMM     1.7                  : RMF          - RESISTIVITY OF MUD FILTRATE
SUFT.C        -20                  : SUFT         - SURFACE TEMPERATURE
~A  DEPTH     RESD     PHIN     PHID      CAL       GR
# ...
  176.500    9.201    0.616    0.584  372.591   52.627
  176.750    9.294    0.623    0.600  384.009   53.833
  177.000    9.388    0.607    0.602  384.037   56.523
  177.250    9.570    0.582    0.511  384.078   59.804
  177.500    9.939    0.549    0.479  384.092   63.386
  177.750   10.131    0.520    0.445  382.136   65.184
  178.000   10.621    0.535    0.395  377.217   64.310
  178.250   11.029    0.527    0.418  373.285   63.437
  178.500   11.454    0.511    0.433  377.767   65.535
  178.750   11.894    0.510    0.437  357.992   67.628
  179.000   12.351    0.512    0.403  348.616   67.350
  179.250   13.066    0.482    0.372  375.866   65.584
  179.500   13.826    0.450    0.327  346.691   63.815
  179.750   14.223    0.434    0.313  324.940   60.861
  180.000   14.908    0.432    0.314  327.937   60.585
  180.250   15.920    0.427    0.302  332.917   61.490
  180.500   16.840    0.404    0.277  327.497   63.288
  180.750   17.651    0.404    0.273  324.554   63.604
  181.000   15.952    0.462    0.330  328.050   61.837
  181.250   12.319    0.521    0.409  329.559   59.182
  181.500    9.339    0.581    0.482  337.014   57.417
  181.750    8.761    0.619    0.545  373.174   56.243
  182.000    8.848    0.616    0.582  387.555   53.290
  182.250    8.854    0.591    0.586  384.121   52.420
  182.500    9.110    0.576    0.510  392.563   53.026
  182.750    9.462    0.561    0.408  397.540   55.125
  183.000   10.104    0.566    0.358  390.642   57.813
  183.250   10.491    0.529    0.368  381.261   60.205
  183.500   10.796    0.514    0.389  366.935   61.708
  183.750   10.314    0.501    0.387  331.817   62.614
  184.000    8.498    0.515    0.378  332.342   62.337
  184.250    7.402    0.610    0.414  352.663   60.568
  184.500    7.008    0.631    0.529  365.065   58.208
  184.750    7.413    0.631    0.575  381.924   51.988
  185.000    8.446    0.600    0.596  399.275   51.114
  185.250    8.935    0.583    0.558  393.858   53.508
  185.500    8.303    0.559    0.497  385.966   55.900
  185.750    7.232    0.522    0.296  379.064   58.889
  186.000    5.850    0.490    0.257  366.223   62.766
  186.250    5.095    0.510    0.300  370.210   68.126
  186.500    4.479    0.519    0.325  348.462   74.676
  186.750    4.240    0.535    0.381  361.850   78.555
  187.000    4.444    0.549    0.391  373.269   80.056
  187.250    4.879    0.532    0.356  371.309   81.855
  187.500    5.610    0.518    0.320  366.882   85.435
  187.750    6.882    0.505    0.286  375.822   84.263
  188.000    7.768    0.481    0.255  386.739   77.746
  188.250    8.932    0.467    0.299  365.486   72.419
  188.500    9.989    0.451    0.265  375.905   73.921
  188.750   10.277    0.461    0.242  338.813   74.531
  189.000   10.479    0.469    0.241  358.144   72.766
  189.250   11.188    0.455    0.270  350.744   72.188
  189.500   11.092    0.452    0.257  343.347   71.314
  189.750   10.697    0.451    0.248  335.950   69.550
  190.000    9.849    0.467    0.307  341.425   68.674
  190.250    8.422    0.511    0.415  350.854   66.908
  190.500    7.544    0.542    0.470  381.575   63.064
  190.750    7.409    0.568    0.546  393.479   58.628
  191.000    7.414    0.607    0.580  405.880   55.970
  191.250    7.990    0.623    0.509  403.443   55.394
  191.500    9.187    0.588    0.413  392.574   57.190
  191.750   10.663    0.542    0.346  381.709   61.661
  192.000   11.814    0.494    0.319  363.423   67.323
  192.250   12.268    0.472    0.315  344.642   68.230
  192.500   12.052    0.507    0.373  357.542   67.061
  192.750   11.305    0.500    0.339  381.822   63.216
  193.000   11.631    0.456    0.304  382.840   61.449
  193.250   13.251    0.438    0.175  361.089   59.980
  193.500   15.810    0.401    0.161  325.476   60.296
  193.750   19.575    0.376    0.150  322.540   62.092
  194.000   25.861    0.341    0.128  325.042   59.436
  194.250   28.390    0.318    0.115  325.066   56.483
  194.500   27.131    0.316    0.143  325.592   55.313
  194.750   24.749    0.365    0.176  326.115   56.221
  195.000   20.202    0.402    0.212  327.132   59.504
  195.250   16.646    0.434    0.253  331.116   62.195
  195.500   15.471    0.448    0.267  362.824   60.428
  195.750   15.341    0.459    0.269  388.593   57.775
  196.000   15.636    0.443    0.291  365.357   57.790
  196.250   15.796    0.436    0.279  352.017   58.105
  196.500   15.091    0.446    0.251  329.771   58.120
  196.750   14.023    0.480    0.298  329.307   57.540
  197.000   11.555    0.546    0.424  342.695   56.375
  197.250   10.640    0.608    0.534  381.828   55.791
  197.500    9.528    0.593    0.559  391.755   55.216
  197.750    8.454    0.567    0.523  336.841   56.123
  198.000    8.152    0.571    0.565  367.556   55.546
  198.250    8.546    0.596    0.575  390.352   55.267
  198.500   10.103    0.604    0.543  391.373   55.282
  198.750   14.371    0.562    0.438  395.855   55.298
  199.000   22.430    0.508    0.128  368.656   55.020
  199.250   26.029    0.346    0.110  334.531   54.444
  199.500   30.484    0.335    0.124  325.653   55.347
  199.750   33.468    0.364    0.127  326.667   57.443
  200.000   31.391    0.369    0.124  327.192   60.728
  200.250   25.388    0.368    0.130  327.220   61.041
  200.500   18.207    0.382    0.166  328.732   61.062
  200.750   14.727    0.415    0.224  332.719   62.856
  201.000   12.247    0.456    0.267  341.161   66.436
  201.250   11.489    0.470    0.278  372.371   72.095
  201.500   12.153    0.468    0.259  372.893   72.415
  201.750   12.621    0.455    0.224  331.839   73.617
  202.000   12.172    0.451    0.215  328.405   75.414
  202.250   11.522    0.459    0.223  329.426   75.727
  202.500   11.424    0.459    0.258  333.406   76.341
  202.750   11.864    0.452    0.262  351.751   76.952
  203.000   12.208    0.448    0.246  391.873   76.964
  203.250   12.795    0.435    0.235  352.795   74.308
  203.500   12.923    0.439    0.217  329.068   72.547
  203.750   12.349    0.454    0.203  331.075   71.965
  204.000   12.472    0.466    0.242  330.604   73.469
  204.250   12.834    0.461    0.221  329.642   75.269
  204.500   11.928    0.456    0.215  334.127   75.877
  204.750   11.608    0.472    0.215  345.542   74.413
  205.000   11.510    0.487    0.286  356.951   74.132
  205.250   11.414    0.489    0.371  367.372   75.036
  205.500   11.528    0.477    0.401  393.141   75.646
  205.750   11.751    0.472    0.395  383.761   74.475
  206.000   11.980    0.487    0.430  357.555   73.897
  206.250   12.101    0.493    0.406  351.643   74.510
  206.500   12.221    0.476    0.371  358.105   74.827
  206.750   12.459    0.491    0.422  373.971   73.656
  207.000   12.702    0.514    0.451  346.776   71.888
  207.250   12.136    0.549    0.490  374.033   70.422
  207.500   11.177    0.525    0.451  373.562   69.545
  207.750   10.482    0.522    0.409  371.610   66.293
  208.000    9.388    0.556    0.555  359.761   60.671
  208.250    9.481    0.592    0.588  372.159   58.609
  208.500    9.488    0.610    0.601  381.096   56.544
  208.750    9.764    0.601    0.575  386.572   54.482
  209.000   10.328    0.577    0.524  393.034   55.090
  209.250   11.130    0.541    0.487  393.064   57.482
  209.500   12.446    0.513    0.447  396.058   61.065
  209.750   13.665    0.479    0.435  399.055   66.130
  210.000   14.189    0.463    0.373  344.634   72.086
  210.250   14.332    0.443    0.251  328.327   73.294
  210.500   14.079    0.425    0.324  328.850   73.010
  210.750   13.832    0.455    0.344  343.234   73.028
  211.000   15.045    0.442    0.345  372.465   72.750
  211.250   16.826    0.428    0.306  345.273   72.764
  211.500   18.301    0.401    0.264  330.943   73.671
  211.750   20.277    0.380    0.212  325.532   74.284
  212.000   22.260    0.356    0.128  325.556   74.595
  212.250   22.691    0.321    0.093  326.574   74.018
  212.500   19.401    0.288    0.152  326.601   70.174
  212.750   15.839    0.353    0.373  327.618   69.002
