~VERSION INFORMATION
 VERS.                 2.0:   CWLS LOG ASCII STANDARD -VERSION 2.0
 WRAP.                  NO:   ONE LINE PER DEPTH STEP
~WELL INFORMATION BLOCK
#MNEM.UNIT           DATA                    DESCRIPTION OF MNEMONIC
#---------    -------------------            -------------------------------
# Generated from Intellog Unique Number	CN_94_101/WELL/3595
WELL.         08-30-096-16W4                 : Well_name    - WELL
LOC .         AA/08-30-096-16W4/0            : Location     - LOCATION
UWI .         AA/08-30-096-16W400            : Uwi          - UNIQUE WELL ID
ENTR.         JOETTE                         : Entered      - ENTERED BY
SRVC.         SCHLUMBERGER                   : Scn          - SERVICE COMPANY
DATE.         08/03/92                       : Date         - LOG DATE
STRT.M        200                            : top_depth    - START DEPTH
STOP.M        410                            : bot_depth    - STOP DEPTH
STEP.M        0.25                           : increment    - STEP LENGTH
 NULL. -999.2500:NULL Value
~CURVE INFORMATION BLOCK
#MNEM UNIT       ERCB CURVE CODE    CURVE DESCRIPTION
#-----------   ------------------   ----------------------------------
DEPT.M        00 001 00 00         : DEPTH        - DEPTH
GR  .API      00 310 00 00         : GR           - GAMMA RAY
ILD .OHMM     00 120 00 00         : RESD         - DEEP RESISTIVITY (DIL)
NPHI.V/V      00 330 00 00         : PHIN         - NEUTRON POROSITY (SANDSTONE)
DPHI.V/V      00 890 00 00         : PHID         - DENSITY POROSITY (SANDSTONE)
~PARAMETER INFORMATION
#MNEM.UNIT           DATA             DESCRIPTION OF MNEMONIC
#---------         -----------     ------------------------------
GL  .M        661.6                : gl           - GROUND LEVEL ELEVATION
EREF.M        665                  : kb           - ELEVATION OF DEPTH REFERENCE
DATM.M        665                  : datum        - DATUM ELEVATION
TDD .M        415                  : tdd          - TOTAL DEPTH DRILLER
RUN .         ONE                  : Run          - RUN NUMBER
ENG .         JO                   : Engineer     - RECORDING ENGINEER
WIT .         TIM                  : Witness      - WITNESSED BY
MUD .         GEL                  : Mud_type     - MUD TYPE
MATR.         SANDSTONE            : Logunit      - NEUTRON MATRIX
TMAX.C        10                   : BHT          - MAXIMUM RECORDED TEMPERATURE
BHTD.M        415                  : BHTDEP       - MAXIMUM RECORDED TEMPERATURE
RMT .C        10.1                 : MDTP         - TEMPERATURE OF MUD
MUDD.KG/M     1115                 : MWT          - MUD DENSITY
NEUT.         1                    : NEUTRON      - NEUTRON TYPE
RESI.         0                    : RESIST       - RESISTIVITY TYPE
RM  .OHMM     0.49                 : RM           - RESISTIVITY OF MUD
RMC .OHMM     0.49                 : RMC          - RESISTIVITY OF MUD CAKE
RMF .OHMM     0.731                : RMF          - RESISTIVITY OF MUD FILTRATE
SUFT.C        4                    : SUFT         - SURFACE TEMPERATURE
~A  DEPTH       GR     RESD     PHIN     PHID
# ...
  287.000   96.989    4.632    0.527    0.286
  287.250   94.672    5.234    0.515    0.280
  287.500   88.120    6.279    0.499    0.273
  287.750   77.860    7.104    0.464    0.264
  288.000   74.364    7.720    0.411    0.250
  288.250   70.825    8.079    0.380    0.184
  288.500   75.884    8.130    0.380    0.167
  288.750   83.472    7.994    0.407    0.159
  289.000   84.864    7.728    0.428    0.200
  289.250   86.299    7.045    0.448    0.250
  289.500   87.691    6.550    0.467    0.258
  289.750   89.126    6.457    0.477    0.259
  290.000   89.822    6.356    0.476    0.266
  290.250   91.214    6.144    0.472    0.272
  290.500   92.081    5.940    0.455    0.280
  290.750   93.516    5.749    0.443    0.278
  291.000   93.643    5.779    0.450    0.264
  291.250   95.078    6.166    0.460    0.257
  291.500   95.206    6.563    0.483    0.265
  291.750   95.376    7.282    0.491    0.271
  292.000   94.366    7.761    0.510    0.270
  292.250   93.229    7.791    0.483    0.277
  292.500   87.900    7.841    0.466    0.280
  292.750   80.695    7.892    0.457    0.286
  293.000   73.490    8.068    0.459    0.278
  293.250   69.994    8.464    0.450    0.273
  293.500   70.775    8.824    0.441    0.276
  293.750   72.821    9.067    0.439    0.270
  294.000   74.213    9.102    0.436    0.262
  294.250   74.383    8.810    0.431    0.236
  294.500   76.386    8.495    0.423    0.216
  294.750   81.445    7.897    0.416    0.198
  295.000   93.268    7.191    0.464    0.215
  295.250   97.758    6.184    0.482    0.245
  295.500  100.373    5.310    0.500    0.257
  295.750  103.683    4.662    0.538    0.266
  296.000  103.853    4.420    0.558    0.269
  296.250  103.981    4.357    0.556    0.269
  296.500  103.583    4.553    0.527    0.267
  296.750  103.142    4.942    0.521    0.262
  297.000  102.090    5.274    0.513    0.254
  297.250  102.302    5.512    0.507    0.241
  297.500  101.819    5.554    0.490    0.235
  297.750  101.989    5.461    0.489    0.235
  298.000  100.980    5.184    0.493    0.239
  298.250   99.317    5.306    0.499    0.250
  298.500   97.000    5.996    0.516    0.256
  298.750   95.863    6.653    0.511    0.257
  299.000   92.367    7.090    0.508    0.249
  299.250   85.773    7.715    0.507    0.234
  299.500   77.957    8.063    0.486    0.220
  299.750   71.405    7.804    0.458    0.210
  300.000   72.797    7.673    0.409    0.181
  300.250   79.774    7.564    0.389    0.172
  300.500   83.568    7.752    0.371    0.209
  300.750   86.836    7.802    0.422    0.223
  301.000   87.007    7.832    0.442    0.231
  301.250   86.566    7.883    0.457    0.232
  301.500   85.599    7.760    0.464    0.228
  301.750   85.073    7.511    0.463    0.222
  302.000   84.674    7.540    0.463    0.212
  302.250   84.802    7.289    0.459    0.209
  302.500   85.668    7.185    0.459    0.217
  302.750   85.754    7.082    0.458    0.229
  303.000   86.535    7.119    0.458    0.237
  303.250   86.748    7.017    0.458    0.243
  303.500   86.349    7.053    0.457    0.251
  303.750   85.866    7.089    0.456    0.254
  304.000   84.771    7.135    0.454    0.258
  304.250   81.360    6.897    0.453    0.263
  304.500   78.475    6.659    0.449    0.275
  304.750   77.338    6.071    0.442    0.282
  305.000   75.632    5.644    0.440    0.289
  305.250   81.956    5.139    0.446    0.291
  305.500   90.723    4.595    0.455    0.278
  305.750   95.782    4.109    0.475    0.266
  306.000   99.092    4.734    0.495    0.268
  306.250   96.165    6.140    0.531    0.274
  306.500   91.404    7.366    0.542    0.277
  306.750   86.686    8.825    0.535    0.274
  307.000   81.925    9.984    0.513    0.268
  307.250   74.762   10.435    0.455    0.257
  307.500   71.835   10.516    0.442    0.247
  307.750   70.782   10.556    0.428    0.235
  308.000   70.342   10.610    0.414    0.222
  308.250   71.123    9.864    0.399    0.212
  308.500   73.126    9.339    0.378    0.203
  308.750   79.492    8.351    0.363    0.192
  309.000   83.982    7.466    0.377    0.172
  309.250   86.554    6.676    0.429    0.182
  309.500   88.642    6.071    0.449    0.249
  309.750   88.728    5.435    0.454    0.261
  310.000   89.509    5.357    0.457    0.260
  310.250   90.944    5.274    0.469    0.264
  310.500   91.767    5.199    0.479    0.269
  310.750   93.202    5.131    0.476    0.272
  311.000   93.330    5.259    0.475    0.267
  311.250   94.069    5.490    0.481    0.258
  311.500   94.935    5.981    0.487    0.252
  311.750   95.631    6.122    0.492    0.246
  312.000   97.108    6.662    0.486    0.236
  312.250   97.321    7.392    0.474    0.228
  312.500   97.449    7.715    0.466    0.230
  312.750   97.008    7.908    0.463    0.234
  313.000   96.567    7.352    0.459    0.237
  313.250   96.780    6.446    0.445    0.241
  313.500   96.865    5.756    0.441    0.244
  313.750   98.257    5.147    0.447    0.245
  314.000  100.260    4.692    0.458    0.247
  314.250  103.528    4.363    0.462    0.251
  314.500  106.143    4.217    0.471    0.254
  314.750  108.757    4.152    0.478    0.248
  315.000  110.192    4.092    0.486    0.241
  315.250  109.183    4.361    0.500    0.237
  315.500  108.088    4.845    0.525    0.228
  315.750  106.383    5.266    0.527    0.222
  316.000  102.318    5.404    0.523    0.217
  316.250  101.834    5.313    0.513    0.204
  316.500  103.838    4.844    0.489    0.182
  316.750  108.328    4.598    0.454    0.126
  317.000  113.387    4.610    0.447    0.176
  317.250  117.266    4.919    0.493    0.199
  317.500  116.214    5.243    0.518    0.208
  317.750  113.371    5.705    0.524    0.211
  318.000  112.845    6.199    0.531    0.214
  318.250  111.836    7.152    0.479    0.219
  318.500  112.006    7.772    0.441    0.222
  318.750  111.565    9.144    0.428    0.224
  319.000  109.248    9.937    0.414    0.224
  319.250  103.962   10.385    0.398    0.224
  319.500  101.602   10.644    0.393    0.223
  319.750   98.106   11.125    0.396    0.218
  320.000   95.221   11.642    0.396    0.212
  320.250   91.682   11.254    0.395    0.192
  320.500   89.408   10.274    0.384    0.143
  320.750   87.745    9.715    0.372    0.102
  321.000   89.749    9.032    0.347    0.070
  321.250   94.281    8.903    0.349    0.104
  321.500   96.327    8.937    0.374    0.122
  321.750   96.412    9.364    0.416    0.139
  322.000   95.445    9.586    0.447    0.178
  322.250   94.962    9.850    0.465    0.231
  322.500   93.868    9.875    0.460    0.249
  322.750   93.427    9.939    0.442    0.268
  323.000   93.028    9.990    0.416    0.291
  323.250   92.019    9.847    0.396    0.259
  323.500   90.882   10.508    0.396    0.239
  323.750   89.304   10.743    0.406    0.235
  324.000   88.167   11.242    0.417    0.225
  324.250   86.546   11.285    0.406    0.212
  324.500   86.631   11.138    0.373    0.193
  324.750   92.386   10.767    0.370    0.167
  325.000   96.876   10.409    0.401    0.222
  325.250   96.436   10.247    0.418    0.251
  325.500   95.383   10.101    0.436    0.250
  325.750   94.985    9.956    0.436    0.248
  326.000   95.070    9.814    0.431    0.249
  326.250   96.463    9.674    0.426    0.241
  326.500   97.244    9.376    0.418    0.232
  326.750   96.845    9.412    0.416    0.221
  327.000   94.614    9.460    0.426    0.218
  327.250   93.519    9.509    0.440    0.220
  327.500   93.036    9.558    0.445    0.221
  327.750   93.291    9.607    0.448    0.223
  328.000   93.419    9.458    0.444    0.225
  328.250   93.632    9.154    0.433    0.229
  328.500   94.370    9.012    0.424    0.227
  328.750   95.109    8.712    0.418    0.224
  329.000   97.112    8.422    0.414    0.224
  329.250  101.034    8.301    0.420    0.219
  329.500  103.648    8.344    0.428    0.218
  329.750  101.943    8.225    0.437    0.224
  330.000   99.058    8.430    0.446    0.229
  330.250   94.908    7.696    0.404    0.225
