~VERSION INFORMATION
 VERS.                 2.0:   CWLS LOG ASCII STANDARD -VERSION 2.0
 WRAP.                  NO:   ONE LINE PER DEPTH STEP
~WELL INFORMATION BLOCK
#MNEM.UNIT           DATA                    DESCRIPTION OF MNEMONIC
#---------    -------------------            -------------------------------
# Generated from Intellog Unique Number	CN_94_101/WELL/3271
WELL.         CDC OIL & GAS LTD.             : Well_name    - WELL
LOC .         AA/01-01-095-07W4/0            : Location     - LOCATION
UWI .         AA/01-01-095-07W400            : Uwi          - UNIQUE WELL ID
ENTR.         TIM                            : Entered      - ENTERED BY
SRVC.         SCHLUMBERGER                   : Scn          - SERVICE COMPANY
DATE.         07/22/92                       : Date         - LOG DATE
STRT.M        90                             : top_depth    - START DEPTH
STOP.M        300                            : bot_depth    - STOP DEPTH
STEP.M        0.25                           : increment    - STEP LENGTH
 NULL. -999.2500:NULL Value
~CURVE INFORMATION BLOCK
#MNEM UNIT       ERCB CURVE CODE    CURVE DESCRIPTION
#-----------   ------------------   ----------------------------------
DEPT.M        00 001 00 00         : DEPTH        - DEPTH
GR  .API      00 310 00 00         : GR           - GAMMA RAY
ILD .OHMM     00 120 00 00         : RESD         - DEEP RESISTIVITY (DIL)
NPHI.V/V      00 330 00 00         : PHIN         - NEUTRON POROSITY (SANDSTONE)
DPHI.V/V      00 890 00 00         : PHID         - DENSITY POROSITY (SANDSTONE)
~PARAMETER INFORMATION
#MNEM.UNIT           DATA             DESCRIPTION OF MNEMONIC
#---------         -----------     ------------------------------
GL  .M        530.35               : gl           - GROUND LEVEL ELEVATION
EREF.M        531.35               : kb           - ELEVATION OF DEPTH REFERENCE
DATM.M        531.35               : datum        - DATUM ELEVATION
TDD .M        298                  : tdd          - TOTAL DEPTH DRILLER
RUN .         0.000000             : Run          - RUN NUMBER
MUD .         GEL                  : Mud_type     - MUD TYPE
MATR.         SANDSTONE            : Logunit      - NEUTRON MATRIX
TMAX.C        18                   : BHT          - MAXIMUM RECORDED TEMPERATURE
BHTD.M        298.5                : BHTDEP       - MAXIMUM RECORDED TEMPERATURE
RMT .C        18                   : MDTP         - TEMPERATURE OF MUD
MUDD.KG/M     1140                 : MWT          - MUD DENSITY
NEUT.         1                    : NEUTRON      - NEUTRON TYPE
RESI.         0                    : RESIST       - RESISTIVITY TYPE
RM  .OHMM     5.88                 : RM           - RESISTIVITY OF MUD
RMC .OHMM     5.88                 : RMC          - RESISTIVITY OF MUD CAKE
RMF .OHMM     6.6                  : RMF          - RESISTIVITY OF MUD FILTRATE
SUFT.C        4                    : SUFT         - SURFACE TEMPERATURE
BTZC.MM       0                    : BITZC        - BIT SIZE CONSTANT
MDW .KG/M     1120                 : MDW          - MUD WEIGHT
~A  DEPTH       GR     RESD     PHIN     PHID
# ...
  264.000   29.527  313.364    0.353    0.293
  264.250   30.121  201.494    0.347    0.293
  264.500   33.174  167.703    0.338    0.282
  264.750   38.689   96.526    0.346    0.247
  265.000   51.585   74.629    0.373    0.244
  265.250   67.557   54.595    0.379    0.247
  265.500   66.920   47.146    0.387    0.274
  265.750   60.132   43.035    0.401    0.284
  266.000   53.958   43.068    0.412    0.302
  266.250   44.704   46.398    0.421    0.329
  266.500   37.300   49.977    0.421    0.326
  266.750   37.267   53.841    0.415    0.319
  267.000   39.096   64.799    0.403    0.308
  267.250   40.925   79.424    0.392    0.297
  267.500   42.749   97.349    0.391    0.286
  267.750   40.876  117.140    0.397    0.277
  268.000   37.169  138.381    0.404    0.280
  268.250   32.226  163.473    0.414    0.327
  268.500   32.198  189.589    0.409    0.329
  268.750   32.797  232.421    0.399    0.322
  269.000   34.005  245.820    0.385    0.308
  269.250   32.748  208.402    0.374    0.290
  269.500   30.881  164.122    0.385    0.286
  269.750   32.699  120.042    0.408    0.282
  270.000   33.918   75.778    0.419    0.308
  270.250   36.351   52.453    0.428    0.327
  270.500   39.405   53.469    0.428    0.322
  270.750   40.614   63.165    0.426    0.326
  271.000   36.906   84.895    0.432    0.336
  271.250   37.499  109.991    0.427    0.342
  271.500   39.323  110.074    0.424    0.347
  271.750   39.290   91.632    0.418    0.333
  272.000   38.038   80.601    0.417    0.325
  272.250   36.791   70.898    0.420    0.317
  272.500   34.919   65.909    0.417    0.321
  272.750   34.276   68.435    0.425    0.333
  273.000   34.265   71.045    0.433    0.335
  273.250   34.243   76.539    0.433    0.336
  273.500   33.606   83.991    0.430    0.336
  273.750   32.349  104.862    0.427    0.340
  274.000   29.866  157.417    0.428    0.347
  274.250   27.389  211.611    0.429    0.346
  274.500   23.671  200.341    0.425    0.342
  274.750   23.034  176.223    0.420    0.342
  275.000   23.627  138.781    0.419    0.344
  275.250   24.841  107.298    0.423    0.347
  275.500   27.280   72.915    0.424    0.346
  275.750   26.028   66.546    0.420    0.345
  276.000   26.615   61.886    0.414    0.345
  276.250   28.439   60.779    0.408    0.346
  276.500   30.257   56.512    0.408    0.348
  276.750   30.246   52.535    0.418    0.344
  277.000   28.373   47.071    0.420    0.338
  277.250   25.885   42.951    0.424    0.337
  277.500   22.788   39.928    0.419    0.338
  277.750   21.536   39.236    0.414    0.340
  278.000   22.744   40.733    0.406    0.333
  278.250   25.183   43.882    0.397    0.328
  278.500   27.622   47.275    0.397    0.328
  278.750   28.209   52.844    0.406    0.333
  279.000   28.198   55.890    0.406    0.337
  279.250   26.331   54.911    0.405    0.344
  279.500   23.843   53.959    0.403    0.352
  279.750   21.976   60.314    0.404    0.352
  280.000   21.954   75.301    0.406    0.346
  280.250   21.932   92.296    0.405    0.341
  280.500   21.910  119.558    0.400    0.336
  280.750   23.119  115.339    0.395    0.331
  281.000   24.327   97.764    0.401    0.333
  281.250   23.690   72.850    0.409    0.351
  281.500   22.443   65.273    0.417    0.357
  281.750   20.576   58.494    0.416    0.355
  282.000   18.709   63.005    0.408    0.352
  282.250   18.681   80.125    0.399    0.351
  282.500   19.884  120.282    0.405    0.347
  282.750   20.477  170.883    0.405    0.340
  283.000   21.686  205.625    0.395    0.330
  283.250   22.274  238.474    0.378    0.315
  283.500   22.263  234.295    0.378    0.306
  283.750   21.626  276.780    0.394    0.306
  284.000   20.374  371.996    0.407    0.308
  284.250   18.506  455.951    0.420    0.317
  284.500   17.869  672.092    0.433    0.320
  284.750   17.227  808.731    0.419    0.323
  285.000   17.205  937.929    0.401    0.325
  285.250   17.804 1048.400    0.396    0.318
  285.500   19.007 1193.680    0.402    0.310
  285.750   18.990 1194.580    0.409    0.314
  286.000   18.968 1173.870    0.418    0.319
  286.250   19.556 1196.610    0.414    0.323
  286.500   20.149 1265.830    0.411    0.323
  286.750   20.128 1314.110    0.403    0.324
  287.000   20.111 1416.260    0.401    0.326
  287.250   20.078 1469.990    0.403    0.323
  287.500   20.677 1526.340    0.415    0.315
  287.750   21.270 1584.860    0.415    0.318
  288.000   23.094 1615.860    0.402    0.319
  288.250   24.308 1502.150    0.390    0.306
  288.500   26.131 1448.880    0.386    0.298
  288.750   28.570 1449.970    0.373    0.285
  289.000   32.854 1424.560    0.359    0.294
  289.250   36.523 1349.200    0.356    0.305
  289.500   35.886 1325.060    0.373    0.324
  289.750   25.396 1254.730    0.388    0.322
  290.000   24.759  901.138    0.390    0.292
  290.250   27.203  464.371    0.377    0.257
  290.500   27.796  293.139    0.366    0.246
  290.750   27.774  145.620    0.371    0.239
  291.000   31.443   83.831    0.394    0.236
  291.250   33.882   76.508    0.397    0.249
  291.500   33.860   76.566    0.386    0.255
  291.750   33.838   76.638    0.375    0.249
  292.000   33.811   78.123    0.363    0.244
  292.250   33.174   79.636    0.364    0.238
  292.500   34.388   81.179    0.364    0.235
  292.750   40.517   82.736    0.366    0.235
  293.000   57.105   87.522    0.369    0.242
  293.250   73.697   90.877    0.370    0.247
  293.500   89.669   89.285    0.365    0.250
  293.750   87.187   83.017    0.358    0.247
  294.000   84.704   81.547    0.350    0.241
  294.250   80.986   80.118    0.342    0.233
  294.500   77.268   80.194    0.342    0.217
  294.750   77.867   80.224    0.340    0.215
  295.000   79.685   75.966    0.336    0.209
  295.250   77.817   66.821    0.332    0.203
  295.500   74.725   37.076    0.328    0.190
  295.750   71.012   22.977    0.326    0.177
  296.000   66.679   18.435    0.325    0.147
  296.250   64.812   15.917    0.323    0.114
  296.500   63.565   13.494    0.323    0.094
  296.750   61.698   13.018    0.324    0.083
  297.000   61.670   13.766    0.322    0.072
  297.250   61.648   15.387    0.322    0.061
  297.500   61.627   17.845    0.324    0.040
  297.750   61.610   19.583    0.324    0.034
  298.000   61.588   21.893    0.324    0.033
  298.250   61.561   22.317    0.324    0.023
  298.500   61.539   21.930    0.324    0.003
  298.750   61.517   21.542    0.325   -0.001
  299.000   61.495   20.778    0.328    0.016
  299.250   61.473   20.414    0.329    0.036
  299.500   61.446   20.429    0.330    0.052
  299.750   61.430   20.825    0.331    0.069
  300.000   61.408   20.841    0.331    0.081
