~VERSION INFORMATION
 VERS.                 2.0:   CWLS LOG ASCII STANDARD -VERSION 2.0
 WRAP.                  NO:   ONE LINE PER DEPTH STEP
~WELL INFORMATION BLOCK
#MNEM.UNIT           DATA                    DESCRIPTION OF MNEMONIC
#---------    -------------------            -------------------------------
# Generated from Intellog Unique Number	CX_WELLS/WELL/3877
WELL.         H.B. S.M.T.                    : Well_name    - WELL
LOC .         AA/05-30-087-16W4/0            : Location     - LOCATION
UWI .         AA/05-30-087-16W400            : Uwi          - UNIQUE WELL ID
ENTR.         TIM                            : Entered      - ENTERED BY
SRVC.         SCHLUMBERGER                   : Scn          - SERVICE COMPANY
STRT.F        100                            : top_depth    - START DEPTH
STOP.F        739.764                        : bot_depth    - STOP DEPTH
STEP.F        0.82                           : increment    - STEP LENGTH
 NULL. -999.2500:NULL Value
~CURVE INFORMATION BLOCK
#MNEM UNIT       ERCB CURVE CODE    CURVE DESCRIPTION
#-----------   ------------------   ----------------------------------
DEPT.F        00 001 00 00         : DEPTH        - DEPTH
GR  .API      00 310 00 00         : GR           - GAMMA RAY
NPHI.V/V      00 330 00 00         : PHIN         - NEUTRON POROSITY (SANDSTONE)
ILD .OHMM     00 120 00 00         : RESD         - DEEP RESISTIVITY (DIL)
~PARAMETER INFORMATION
#MNEM.UNIT           DATA             DESCRIPTION OF MNEMONIC
#---------         -----------     ------------------------------
GL  .F        1686                 : gl           - GROUND LEVEL ELEVATION
EREF.F        1686                 : kb           - ELEVATION OF DEPTH REFERENCE
DATM.F        1686                 : datum        - DATUM ELEVATION
TDD .F        747                  : tdd          - TOTAL DEPTH DRILLER
RUN .         ONE                  : Run          - RUN NUMBER
ENG .         BILL                 : Engineer     - RECORDING ENGINEER
WIT .         JIM                  : Witness      - WITNESSED BY
MUD .         GEL                  : Mud_type     - MUD TYPE
MATR.         SANDSTONE            : Logunit      - NEUTRON MATRIX
TMAX.F        50                   : BHT          - MAXIMUM RECORDED TEMPERATURE
BHTD.F        747                  : BHTDEP       - MAXIMUM RECORDED TEMPERATURE
MATR.         1                    : LOGUNIT      - NEUTRON MATRIX
RMT .F        50                   : MDTP         - TEMPERATURE OF MUD
NEUT.         1                    : NEUTRON      - NEUTRON TYPE
RESI.         6                    : RESIST       - RESISTIVITY TYPE
RMC .OHMM     6                    : RMC          - RESISTIVITY OF MUD CAKE
RMF .OHMM     6                    : RMF          - RESISTIVITY OF MUD FILTRATE
SUFT.F        39.2                 : SUFT         - SURFACE TEMPERATURE
~A  DEPTH       GR     PHIN     RESD
# ...
  277.986   16.124    0.356   48.755
  278.806   20.551    0.333   65.500
  279.626   22.296    0.253   66.948
  280.446   19.135    0.227   54.193
  281.266   17.328    0.310   42.893
  282.087   14.622    0.385   38.151
  282.907   11.469    0.383   36.319
  283.727    9.193    0.382   35.585
  284.547    8.715    0.384   34.117
  285.367    8.684    0.392   33.383
  286.188    8.653    0.398   31.188
  287.008    8.629    0.403   29.358
  287.828    9.044    0.404   26.434
  288.648    8.113    0.401   25.700
  289.469    6.744    0.395   24.963
  290.289    6.251    0.383   26.412
  291.109    6.227    0.171   33.683
  291.929    6.196    0.045   38.047
  292.749    5.711    0.035   63.898
  293.570    5.234    0.163   48.956
  294.390    4.749    0.216   41.300
  295.210    4.733    0.359   35.462
  296.030    5.148    0.376   34.724
  296.850    6.000    0.376   35.079
  297.671    7.299    0.377   35.435
  298.491    7.721    0.380   35.429
  299.311    8.574    0.370   35.419
  300.131    8.989    0.358   35.775
  300.951    9.411    0.350   37.589
  301.772   11.163    0.365   40.859
  302.592   11.562    0.385   44.490
  303.412    9.309    0.381   41.566
  304.232    7.041    0.372   39.011
  305.052    5.679    0.366   36.817
  305.873    4.310    0.362   36.077
  306.693    2.933    0.362   36.070
  307.513    2.894    0.362   36.062
  308.333    3.309    0.365   35.690
  309.154    3.723    0.367   35.679
  309.974    4.146    0.371   35.671
  310.794    4.999    0.377   35.661
  311.614    5.851    0.381   35.652
  312.434    6.281    0.382   35.648
  313.255    7.588    0.382   36.364
  314.075    7.987    0.381   36.356
  314.895    6.618    0.380   35.257
  315.715    5.257    0.380   33.792
  316.535    4.333    0.383   34.876
  317.356    4.294    0.386   35.961
  318.176    4.247    0.394   35.588
  318.996    4.670    0.400   35.213
  319.816    4.638    0.403   35.205
  320.636    5.507    0.406   34.831
  321.457    7.251    0.406   33.728
  322.277    9.003    0.400   33.359
  323.097    8.534    0.394   32.254
  323.917    7.603    0.386   32.250
  324.738    7.118    0.381   31.872
  325.558    6.649    0.382   31.867
  326.378    7.055    0.387   31.855
  327.198    7.478    0.391   31.851
  328.018    8.338    0.394   32.203
  328.839    9.645    0.398   32.196
  329.659   10.943    0.399   32.188
  330.479   12.249    0.395   32.178
  331.299   11.319    0.388   32.169
  332.119   10.849    0.384   31.795
  332.940   10.364    0.388   31.789
  333.760    9.887    0.390   31.782
  334.580    9.410    0.385   31.772
  335.400    8.025    0.384   31.759
  336.220    7.556    0.392   31.755
  337.041    8.862    0.403   32.111
  337.861   11.068    0.408   32.467
  338.681   15.496    0.402   31.366
  339.501   20.807    0.392   26.624
  340.322   21.668    0.398   20.422
  341.142   24.312    0.402   21.506
  341.962   26.964    0.404   25.502
  342.782   30.945    0.410   22.218
  343.602   30.014    0.413   18.932
  344.423   26.854    0.419   17.467
  345.243   24.147    0.420   16.728
  346.063   22.332    0.422   15.992
  346.883   20.072    0.425   18.166
  347.703   23.162    0.430   20.345
  348.524   31.610    0.435   18.878
  349.344   36.929    0.432   17.413
  350.164   41.357    0.403   15.586
  350.984   37.751    0.388   23.226
  351.804   29.693    0.371   26.493
  352.625   21.182    0.341   23.571
  353.445   17.138    0.345   29.754
  354.265   15.323    0.352   33.023
  355.085   25.993    0.319   32.651
  355.906   29.967    0.274   30.093
  356.726   27.714    0.246   31.542
  357.546   24.554    0.219   34.083
  358.366   20.509    0.264   37.348
  359.186   17.357    0.332   35.157
  360.007   14.650    0.370   32.961
  360.827   14.165    0.375   31.498
  361.647   13.688    0.377   30.033
  362.467   12.319    0.381   29.297
  363.287   11.841    0.381   27.099
  364.108   13.148    0.380   25.998
  364.928   16.676    0.382   24.897
  365.748   18.866    0.385   24.525
  366.568   19.296    0.387   24.519
  367.388   17.020    0.388   24.144
  368.209   15.205    0.380   23.770
  369.029   13.844    0.378   23.397
  369.849   12.913    0.379   23.027
  370.669   13.765    0.380   22.654
  371.490   14.196    0.383   22.282
  372.310   14.157    0.384   22.271
  373.130   12.780    0.384   22.265
  373.950   12.310    0.384   21.890
  374.770   12.725    0.383   21.516
  375.591   18.936    0.382   21.510
  376.411   21.134    0.381   21.135
  377.231   20.203    0.380   20.398
  378.051   20.618    0.380   20.028
  378.871   22.808    0.383   19.654
  379.692   24.122    0.391   19.277
  380.512   24.975    0.401   18.907
  381.332   25.836    0.384   18.532
  382.152   26.696    0.332   18.526
  382.972   25.781    0.275   18.517
  383.793   23.958    0.042   18.511
  384.613   16.331    0.021   18.865
  385.433   15.861   -0.006   21.768
  386.253   14.946   -0.003   36.694
  387.073   13.569    0.029   49.432
  387.894   11.747    0.148   41.047
  388.714   12.607    0.195   32.660
  389.534   16.151    0.272   30.105
  390.354   19.687    0.394   20.990
  391.175   24.114    0.391   18.793
  391.995   23.183    0.383   18.424
  392.815   20.031    0.377   17.688
  393.635   15.986    0.381   16.584
  394.455   13.280    0.387   16.576
  395.276   15.032    0.392   16.930
  396.096   17.668    0.393   17.648
  396.916   19.428    0.385   18.008
  397.736   21.180    0.366   17.636
  398.556   20.257    0.330   16.897
  399.377   15.759    0.304   16.887
  400.197   12.607    0.321   16.882
  401.017   13.467    0.371   28.892
  401.837   17.003    0.387   36.532
  402.657   21.423    0.393   35.429
  403.478   22.737    0.384   27.042
  404.298   24.474    0.376   24.851
  405.118   25.780    0.382   20.837
  405.938   27.094    0.392   18.639
  406.759   28.401    0.396   18.269
  407.579   28.807    0.398   18.258
  408.399   29.230    0.396   18.250
  409.219   29.629    0.395   18.244
  410.039   29.613    0.390   18.231
  410.860   29.136    0.391   18.223
  411.680   28.205    0.401   18.581
  412.500   27.712    0.407   18.573
  413.320   27.696    0.405   18.928
  414.140   27.657    0.400   18.916
  414.961   28.510    0.401   18.546
  415.781   28.494    0.404   18.175
  416.601   28.885    0.403   17.801
  417.421   28.869    0.387   17.426
  418.241   28.384    0.366   17.420
  419.062   28.353    0.290   18.140
  419.882   28.776    0.258   20.317
  420.702   30.082    0.290   24.315
  421.522   31.834    0.338   26.127
  422.343   32.225    0.362   22.111
  423.163   32.648    0.385   19.915
  423.983   32.624    0.398   18.084
  424.803   32.147    0.400   18.078
  425.623   32.108    0.401   18.070
  426.444   32.084    0.397   18.063
  427.264   32.921    0.396   17.689
  428.084   34.236    0.396   17.683
  428.904   35.542    0.398   18.036
  429.724   36.856    0.398   18.390
  430.545   39.054    0.397   18.746
  431.365   39.915    0.398   19.464
  432.185   39.430    0.399   19.460
  433.005   38.507    0.399   19.816
  433.825   37.138    0.396   18.711
  434.646   34.869    0.395   17.610
  435.466   33.508    0.401   17.604
  436.286   37.489    0.418   16.501
  437.106   45.930    0.432   14.307
  437.927   49.466    0.447   13.207
  438.747   53.894    0.463   13.198
  439.567   56.538    0.465   12.826
  440.387   57.844    0.463   12.087
  441.207   55.130    0.459   11.352
  442.028   52.423    0.456   10.978
  442.848   51.938    0.451   10.970
  443.668   52.806    0.450   10.959
  444.488   55.896    0.448   10.951
  445.308   58.986    0.445   10.579
  446.129   57.617    0.439   10.932
  446.949   53.565    0.433   10.928
  447.769   49.513    0.439   13.105
  448.589   47.706    0.453   16.374
  449.409   47.220    0.458   15.274
  450.230   48.980    0.444   12.350
  451.050   52.516    0.434    9.790
  451.870   54.269    0.426   11.241
  452.690   51.093    0.420   15.602
  453.510   49.724    0.407   16.685
  454.331   47.471    0.402   15.584
  455.151   39.413    0.462   14.119
