~VERSION INFORMATION
 VERS.                 2.0:   CWLS LOG ASCII STANDARD -VERSION 2.0
 WRAP.                  NO:   ONE LINE PER DEPTH STEP
~WELL INFORMATION BLOCK
#MNEM.UNIT           DATA                    DESCRIPTION OF MNEMONIC
#---------    -------------------            -------------------------------
# Generated from Intellog Unique Number	CN_94_101/WELL/2856
WELL.         06-25-095-16W4                 : Well_name    - WELL
LOC .         AA/06-25-095-16W4/0            : Location     - LOCATION
UWI .         AA/06-25-095-16W400            : Uwi          - UNIQUE WELL ID
ENTR.         JOETTE                         : Entered      - ENTERED BY
SRVC.         SCHLUMBERGER                   : Scn          - SERVICE COMPANY
DATE.         07/27/92                       : Date         - LOG DATE
STRT.F        400                            : top_depth    - START DEPTH
STOP.F        1079.95                        : bot_depth    - STOP DEPTH
STEP.F        0.82                           : increment    - STEP LENGTH
 NULL. -999.2500:NULL Value
~CURVE INFORMATION BLOCK
#MNEM UNIT       ERCB CURVE CODE    CURVE DESCRIPTION
#-----------   ------------------   ----------------------------------
DEPT.F        00 001 00 00         : DEPTH        - DEPTH
GR  .API      00 310 00 00         : GR           - GAMMA RAY
ILD .OHMM     00 120 00 00         : RESD         - DEEP RESISTIVITY (DIL)
DPHI.V/V      00 890 00 00         : PHID         - DENSITY POROSITY (SANDSTONE)
NPHI.V/V      00 330 00 00         : PHIN         - NEUTRON POROSITY (SANDSTONE)
~PARAMETER INFORMATION
#MNEM.UNIT           DATA             DESCRIPTION OF MNEMONIC
#---------         -----------     ------------------------------
GL  .F        1876.64              : gl           - GROUND LEVEL ELEVATION
EREF.F        1887.47              : kb           - ELEVATION OF DEPTH REFERENCE
DATM.F        1887.47              : datum        - DATUM ELEVATION
TDD .F        1100                 : tdd          - TOTAL DEPTH DRILLER
RUN .         ONE                  : Run          - RUN NUMBER
ENG .         JO                   : Engineer     - RECORDING ENGINEER
WIT .         TIM                  : Witness      - WITNESSED BY
MUD .         GEL                  : Mud_type     - MUD TYPE
MATR.         SANDSTONE            : Logunit      - NEUTRON MATRIX
TMAX.F        62.6                 : BHT          - MAXIMUM RECORDED TEMPERATURE
BHTD.F        1100                 : BHTDEP       - MAXIMUM RECORDED TEMPERATURE
RMT .F        44.6                 : MDTP         - TEMPERATURE OF MUD
MUDD.LB/G     1.073                : MWT          - MUD DENSITY
NEUT.         1                    : NEUTRON      - NEUTRON TYPE
RESI.         0                    : RESIST       - RESISTIVITY TYPE
RM  .OHMM     0.35                 : RM           - RESISTIVITY OF MUD
RMC .OHMM     0.35                 : RMC          - RESISTIVITY OF MUD CAKE
RMF .OHMM     0.35                 : RMF          - RESISTIVITY OF MUD FILTRATE
SUFT.F        39.2                 : SUFT         - SURFACE TEMPERATURE
~A  DEPTH       GR     RESD     PHID     PHIN
# ...
  542.717   90.432    8.286    0.318    0.453
  543.537   84.554    9.418    0.297    0.426
  544.357   79.268    9.070    0.294    0.378
  545.177   78.065    6.042    0.292    0.343
  545.997   79.214    5.407    0.262    0.330
  546.818   80.939    4.661    0.265    0.350
  547.638   82.081    4.490    0.268    0.373
  548.458   82.631    4.568    0.273    0.384
  549.278   83.772    4.735    0.276    0.374
  550.098   85.505    5.383    0.283    0.381
  550.919   90.152    8.212    0.293    0.403
  551.739   96.552    8.055    0.299    0.426
  552.559  101.200    6.573    0.303    0.443
  553.379  104.678    7.069    0.313    0.463
  554.199  104.644    8.971    0.319    0.461
  555.020  102.280   13.686    0.328    0.452
  555.840   98.746   17.053    0.335    0.443
  556.660   95.805   20.107    0.344    0.433
  557.480   90.518   21.229    0.345    0.433
  558.301   85.219   22.000    0.336    0.450
  559.121   83.445   19.687    0.286    0.449
  559.941   86.917   12.410    0.258    0.452
  560.761   83.975   10.509    0.238    0.416
  561.581   86.869    7.679    0.231    0.420
  562.402   88.004    5.023    0.236    0.423
  563.222   85.646    4.493    0.243    0.411
  564.042   82.099    4.408    0.254    0.398
  564.862   80.917    4.322    0.259    0.391
  565.682   83.227    4.320    0.267    0.384
  566.503   91.965    4.316    0.273    0.383
  567.323  103.039    4.157    0.281    0.407
  568.143  104.174    4.553    0.277    0.429
  568.963  102.978    6.453    0.258    0.445
  569.783  103.535   10.214    0.239    0.407
  570.604  105.268   12.267    0.250    0.390
  571.424  106.395   14.200    0.278    0.420
  572.244  106.382   13.925    0.283    0.451
  573.064  104.003   12.234    0.258    0.471
  573.885  101.639    8.774    0.256    0.449
  574.705   99.859    6.180    0.254    0.443
  575.525   98.670    4.273    0.250    0.430
  576.345   98.058    3.823    0.244    0.418
  577.165  103.874    3.612    0.244    0.420
  577.986  109.106    3.610    0.250    0.429
  578.806  115.506    3.606    0.257    0.441
  579.626  121.315    3.603    0.259    0.439
  580.446  124.794    3.534    0.250    0.432
  581.266  126.526    3.531    0.248    0.432
  582.087  128.829    3.463    0.240    0.453
  582.907  129.393    3.460    0.240    0.464
  583.727  129.950    3.457    0.249    0.467
  584.547  129.916    3.453    0.245    0.467
  585.367  129.305    3.515    0.238    0.463
  586.188  129.277    3.511    0.236    0.466
  587.008  129.834    3.507    0.232    0.484
  587.828  129.807    3.442    0.240    0.461
  588.648  129.780    3.315    0.251    0.454
  589.469  129.168    3.191    0.243    0.482
  590.289  126.804    3.188    0.238    0.497
  591.109  126.776    3.245    0.246    0.486
  591.929  129.671    3.302    0.258    0.480
  592.749  131.396    3.239    0.270    0.476
  593.570  129.025    3.176    0.263    0.467
  594.390  127.836    3.174    0.254    0.465
  595.210  126.049    3.171    0.247    0.459
  596.030  126.022    3.227    0.244    0.454
  596.850  125.410    3.344    0.243    0.459
  597.671  124.221    3.531    0.241    0.471
  598.491  122.427    3.798    0.242    0.492
  599.311  121.829    3.937    0.245    0.476
  600.131  122.964    4.006    0.245    0.470
  600.951  124.112    4.002    0.244    0.475
  601.772  125.247    3.999    0.240    0.477
  602.592  125.226    4.145    0.227    0.471
  603.412  122.848    4.375    0.201    0.450
  604.232  119.892    4.454    0.170    0.451
  605.052  118.710    4.288    0.153    0.453
  605.873  118.098    4.207    0.204    0.449
  606.693  120.408    3.905    0.216    0.444
  607.513  122.127    3.692    0.233    0.433
  608.333  121.516    3.303    0.255    0.423
  609.154  120.327    3.123    0.265    0.416
  609.974  119.124    3.007    0.283    0.429
  610.794  119.674    2.896    0.297    0.451
  611.614  120.245    2.736    0.313    0.463
  612.434  123.139    2.587    0.317    0.488
  613.255  125.449    2.538    0.298    0.508
  614.075  126.577    2.536    0.286    0.526
  614.895  125.979    2.628    0.284    0.532
  615.715  124.192    2.675    0.278    0.538
  616.535  123.580    2.673    0.261    0.529
  617.356  122.962    2.720    0.223    0.503
  618.176  121.766    2.819    0.199    0.491
  618.996  121.161    2.976    0.226    0.495
  619.816  120.550    3.142    0.255    0.503
  620.636  118.769    3.140    0.269    0.510
  621.457  118.151    2.914    0.280    0.517
  622.277  118.708    2.755    0.293    0.511
  623.097  119.849    2.703    0.297    0.512
  623.917  119.822    2.801    0.292    0.492
  624.738  119.211    2.904    0.290    0.478
  625.558  118.599    3.010    0.290    0.487
  626.378  117.987    3.357    0.284    0.497
  627.198  116.791    3.546    0.265    0.493
  628.018  115.004    3.956    0.248    0.483
  628.839  113.808    6.036    0.216    0.479
  629.659  112.613    7.947    0.193    0.475
  630.479  114.338   11.264    0.221    0.464
  631.299  114.895   10.262    0.230    0.443
  632.119  112.531    8.376    0.233    0.400
  632.940  108.998    6.007    0.234    0.375
  633.760  107.224    5.785    0.236    0.373
  634.580  104.275    6.455    0.238    0.375
  635.400  101.320    6.213    0.239    0.380
  636.220  103.045    5.986    0.243    0.385
  637.041  105.355    5.355    0.250    0.391
  637.861  106.497    4.971    0.252    0.399
  638.681  107.040    4.787    0.260    0.400
  639.501  107.026    5.054    0.266    0.391
  640.322  107.577    6.182    0.263    0.389
  641.142  108.134    7.288    0.254    0.399
  641.962  109.282    6.889    0.242    0.407
  642.782  111.008    6.514    0.227    0.419
  643.602  112.733    7.268    0.208    0.433
  644.423  113.290    8.891    0.172    0.382
  645.243  112.679    8.406    0.185    0.361
  646.063  110.899    6.987    0.248    0.371
  646.883  109.696    5.105    0.260    0.391
  647.703  109.084    4.322    0.272    0.403
  648.524  108.479    3.462    0.276    0.403
  649.344  108.445    2.930    0.264    0.399
  650.164  107.827    2.875    0.252    0.408
  650.984  108.391    3.208    0.253    0.429
  651.804  109.532    3.713    0.252    0.442
  652.625  112.420    4.542    0.243    0.459
  653.445  114.145    4.621    0.229    0.469
  654.265  115.280    4.369    0.236    0.473
  655.085  115.851    4.446    0.240    0.466
  655.906  116.992    4.524    0.238    0.464
  656.726  118.133    4.522    0.229    0.464
  657.546  118.106    4.602    0.217    0.457
  658.366  118.079    4.681    0.202    0.448
  659.186  117.461    4.188    0.172    0.414
  660.007  115.680    3.888    0.134    0.396
  660.827  113.316    6.383    0.159    0.407
  661.647  113.288    6.865    0.206    0.418
  662.467  117.358    4.575    0.240    0.435
  663.287  119.084    3.599    0.236    0.445
  664.108  117.881    2.883    0.233    0.467
  664.928  116.679    3.044    0.238    0.494
  665.748  116.651    3.154    0.244    0.363
  666.568  116.631    3.211    0.242    0.370
  667.388  113.682    3.581    0.237    0.406
  668.209  108.396    3.782    0.220    0.444
  669.029  108.368    4.219    0.222    0.466
  669.849  113.009    4.623    0.227    0.467
  670.669  111.229    5.351    0.234    0.459
  671.490  110.617    5.345    0.237    0.449
  672.310  114.687    5.243    0.238    0.433
  673.130  117.574    5.337    0.243    0.417
  673.950  116.963    5.739    0.245    0.397
  674.770  116.942    5.425    0.253    0.393
  675.591  115.162    5.835    0.266    0.398
  676.411  108.701    6.880    0.277    0.401
  677.231  103.414    7.263    0.266    0.403
  678.051  102.803    6.618    0.254    0.399
  678.871  105.113    5.812    0.254    0.397
  679.692  105.670    5.201    0.253    0.390
  680.512  106.213    4.485    0.247    0.383
  681.332  106.193    4.012    0.239    0.378
  682.152  103.828    4.083    0.227    0.374
  682.972  101.471    6.345    0.228    0.390
  683.793   98.522    7.762    0.282    0.409
  684.613  103.747    8.658    0.305    0.424
