~VERSION INFORMATION
 VERS.                 2.0:   CWLS LOG ASCII STANDARD -VERSION 2.0
 WRAP.                  NO:   ONE LINE PER DEPTH STEP
~WELL INFORMATION BLOCK
#MNEM.UNIT           DATA                    DESCRIPTION OF MNEMONIC
#---------    -------------------            -------------------------------
# Generated from Intellog Unique Number	CX_WELLS/WELL/2595
NULL.         -999.25                        : NULL_VALUE
WELL.         ARCO                           : Well_name    - WELL              
LOC .         AA/07-08-080-10W4/0            : Location     - LOCATION          
UWI .         AA/07-08-080-10W400            : Uwi          - UNIQUE WELL ID    
ENTR.         T                              : Entered      - ENTERED BY        
SRVC.         SCHLUMBERGER                   : Scn          - SERVICE COMPANY   
STRT.F        940                            : top_depth    - START DEPTH       
STOP.F        1569.92                        : bot_depth    - STOP DEPTH        
STEP.F        0.82                           : increment    - STEP LENGTH       
~CURVE INFORMATION BLOCK
#MNEM UNIT       ERCB CURVE CODE    CURVE DESCRIPTION
#-----------   ------------------   ----------------------------------
DEPT.F        00 001 00 00         : DEPTH        - DEPTH                       
GR  .API      00 310 00 00         : GR           - GAMMA RAY                   
NPHI.V/V      00 330 00 00         : PHIN         - NEUTRON POROSITY (SANDSTONE)
ILD .OHMM     00 120 00 00         : RESD         - DEEP RESISTIVITY (DIL)      
~PARAMETER INFORMATION       
#MNEM.UNIT           DATA             DESCRIPTION OF MNEMONIC
#---------         -----------     ------------------------------
GL  .F        2245                 : gl           - GROUND LEVEL ELEVATION      
EREF.F        2260                 : kb           - ELEVATION OF DEPTH REFERENCE
DATM.F        2260                 : datum        - DATUM ELEVATION             
TDD .F        1562                 : tdd          - TOTAL DEPTH DRILLER         
RUN .         ONE                  : Run          - RUN NUMBER                  
ENG .         BILL                 : Engineer     - RECORDING ENGINEER          
WIT .         JIM                  : Witness      - WITNESSED BY                
MUD .         GEL                  : Mud_type     - MUD TYPE                    
MATR.         SANDSTONE            : Logunit      - NEUTRON MATRIX              
TMAX.F        73                   : BHT          - MAXIMUM RECORDED TEMPERATURE
BHTD.F        1562                 : BHTDEP       - MAXIMUM RECORDED TEMPERATURE
MATR.         1                    : LOGUNIT      - NEUTRON MATRIX              
RMT .F        65                   : MDTP         - TEMPERATURE OF MUD          
NEUT.         1                    : NEUTRON      - NEUTRON TYPE                
RESI.         7.1                  : RESIST       - RESISTIVITY TYPE            
RMC .OHMM     6.5                  : RMC          - RESISTIVITY OF MUD CAKE     
RMF .OHMM     5                    : RMF          - RESISTIVITY OF MUD FILTRATE 
SUFT.F        35                   : SUFT         - SURFACE TEMPERATURE         
~A  DEPTH       GR     PHIN     RESD
# ...
 1117.990   48.825    0.379   11.560
 1118.810   48.857    0.380   11.574
 1119.630   48.234    0.383   11.370
 1120.450   48.259    0.383   11.379
 1121.270   48.284    0.381   11.386
 1122.090   46.340    0.377   11.188
 1122.910   44.384    0.375   11.198
 1123.730   41.786    0.378   11.211
 1124.550   41.799    0.382   11.222
 1125.370   40.515    0.387   11.226
 1126.190   39.886    0.388   11.239
 1127.010   39.251    0.386   11.250
 1127.830   38.628    0.383   11.261
 1128.650   39.974    0.381   11.270
 1129.470   40.666    0.380   11.279
 1130.290   39.371    0.379   11.082
 1131.110   38.094    0.381   10.887
 1131.930   38.125    0.383   10.898
 1132.750   38.144    0.383   10.908
 1133.570   38.182    0.382   10.917
 1134.390   38.201    0.380   10.927
 1135.210   38.238    0.378   10.938
 1136.030   37.609    0.379   10.946
 1136.850   36.980    0.379   10.959
 1137.670   37.005    0.380   10.970
 1138.490   37.037    0.380   10.978
 1139.310   37.062    0.378   10.989
 1140.130   37.100    0.376   10.999
 1140.950   37.119    0.375   11.010
 1141.770   36.496    0.374   11.021
 1142.590   35.873    0.371   11.029
 1143.410   35.238    0.370   11.038
 1144.230   35.263    0.371   11.048
 1145.050   35.295    0.374   11.061
 1145.870   35.980    0.376   11.072
 1146.690   38.006    0.379   11.080
 1147.510   39.346    0.382   11.089
 1148.330   42.680    0.383   11.102
 1149.150   45.353    0.383   11.110
 1149.970   46.700    0.383   11.333
 1150.790   45.416    0.384   11.344
 1151.610   45.448    0.386   11.351
 1152.430   45.473    0.390   11.364
 1153.250   46.819    0.401   11.377
 1154.070   47.511    0.411   11.386
 1154.900   49.537    0.418   11.393
 1155.720   50.216    0.415   11.619
 1156.540   50.254    0.407   11.630
 1157.360   50.279    0.401   11.861
 1158.180   50.304    0.397   11.873
 1159.000   50.336    0.396   11.882
 1159.820   50.367    0.399   12.118
 1160.640   50.405    0.401   12.132
 1161.460   50.430    0.399   12.142
 1162.280   51.783    0.396   10.661
 1163.100   55.110    0.393    9.536
 1163.920   59.765    0.396    5.759
 1164.740   65.742    0.412    3.543
 1165.560   73.039    0.431    2.580
 1166.380   77.687    0.443    2.441
 1167.200   79.700    0.451    2.537
 1168.020   77.757    0.440    2.788
 1168.840   76.467    0.431    3.123
 1169.660   75.838    0.421    3.631
 1170.480   75.857    0.417    4.065
 1171.300   75.228    0.415    4.726
 1172.120   74.605    0.417    5.195
 1172.940   73.970    0.422    5.201
 1173.760   74.001    0.424    5.108
 1174.580   74.026    0.424    4.925
 1175.400   74.718    0.426    4.012
 1176.220   76.071    0.432    3.331
 1177.040   78.751    0.434    3.036
 1177.860   80.097    0.436    2.819
 1178.680   80.783    0.437    2.822
 1179.500   76.851    0.423    3.162
 1180.320   70.944    0.414    3.539
 1181.140   67.006    0.414    4.272
 1181.960   65.710    0.413    5.059
 1182.780   64.433    0.410    5.882
 1183.600   63.792    0.408    6.588
 1184.420   63.823    0.402    7.108
 1185.240   63.855    0.391    7.114
 1186.060   63.886    0.371    6.991
 1186.880   63.911    0.360    6.864
 1187.700   62.628    0.354    6.745
 1188.520   61.999    0.343    6.626
 1189.340   62.031    0.339    6.390
 1190.160   62.710    0.367    6.394
 1190.980   63.402    0.374    6.164
 1191.800   64.767    0.399    5.833
 1192.620   66.113    0.413    5.219
 1193.440   68.787    0.420    4.668
 1194.270   72.115    0.426    4.099
 1195.090   74.121    0.435    3.466
 1195.910   78.783    0.445    2.772
 1196.730   82.110    0.451    2.259
 1197.550   87.432    0.461    2.058
 1198.370   90.760    0.462    1.842
 1199.190   96.730    0.464    1.743
 1200.010  102.052    0.467    1.649
 1200.830  104.058    0.469    1.590
 1201.650  103.429    0.471    1.591
 1202.470  100.158    0.471    1.623
 1203.290   92.918    0.471    1.718
 1204.110   92.295    0.469    1.854
 1204.930   92.987    0.466    1.926
 1205.750   93.012    0.463    2.039
 1206.570   93.704    0.458    2.200
 1207.390   94.396    0.454    2.329
 1208.210   95.082    0.442    2.420
 1209.030   94.459    0.435    2.710
 1209.850   92.503    0.435    2.923
 1210.670   90.553    0.436    3.213
 1211.490   89.263    0.437    3.598
 1212.310   87.967    0.437    4.029
 1213.130   86.684    0.433    4.513
 1213.950   84.073    0.425    4.518
 1214.770   80.796    0.414    4.118
 1215.590   78.179    0.409    3.753
 1216.410   79.544    0.404    3.295
 1217.230   82.878    0.404    2.787
 1218.050   84.879    0.414    2.540
 1218.870   88.873    0.459    2.359
 1219.690   93.528    0.470    2.274
 1220.510   95.541    0.469    2.277
 1221.330   94.918    0.460    2.280
 1222.150   93.616    0.456    2.324
 1222.970   92.981    0.456    2.326
 1223.790   90.383    0.458    2.373
 1224.610   89.081    0.460    2.419
 1225.430   85.810    0.461    2.467
 1226.250   85.181    0.461    2.516
 1227.070   85.873    0.461    2.566
 1227.890   86.558    0.461    2.667
 1228.710   86.596    0.458    2.720
 1229.530   85.961    0.455    2.723
 1230.350   85.326    0.444    2.725
 1231.170   85.363    0.438    2.727
 1231.990   83.413    0.429    2.888
 1232.810   80.136    0.425    2.944
 1233.640   78.180    0.422    3.176
 1234.460   80.859    0.421    3.301
 1235.280   82.866    0.418    3.304
 1236.100   82.897    0.418    3.308
 1236.920   80.960    0.421    3.248
 1237.740   80.312    0.424    3.252
 1238.560   79.029    0.428    3.255
 1239.380   78.400    0.432    3.258
 1240.200   78.425    0.436    3.261
 1241.020   79.117    0.435    3.204
 1241.840   80.463    0.430    3.147
 1242.660   82.476    0.432    2.978
 1243.480   85.156    0.435    2.925
 1244.300   85.181    0.442    2.717
 1245.120   85.219    0.449    2.385
 1245.940   87.232    0.455    2.258
 1246.760   87.911    0.461    2.260
 1247.580   89.270    0.463    2.220
 1248.400   89.308    0.463    2.264
 1249.220   89.333    0.458    2.265
 1250.040   88.698    0.456    2.355
 1250.860   88.069    0.451    2.401
 1251.680   88.761    0.442    2.448
 1252.500   90.767    0.431    2.691
 1253.320   93.454    0.421    2.958
 1254.140   92.145    0.409    3.375
 1254.960   86.899    0.401    3.999
 1255.780   84.942    0.396    4.395
 1256.600   82.992    0.398    4.568
 1257.420   81.703    0.400    4.570
 1258.240   81.734    0.402    4.576
 1259.060   81.099    0.405    4.580
 1259.880   81.143    0.407    4.583
 1260.700   80.501    0.422    4.587
 1261.520   79.879    0.425    4.506
 1262.340   79.897    0.422    4.346
 1263.160   80.602    0.417    4.112
 1263.980   80.621    0.421    3.965
 1264.800   81.973    0.429    3.682
 1265.620   83.986    0.433    3.419
 1266.440   85.333    0.435    3.175
 1267.260   86.031    0.435    2.686
 1268.080   86.056    0.431    2.494
 1268.900   87.415    0.428    2.109
 1269.720   88.107    0.430    1.852
 1270.540   88.793    0.435    1.688
 1271.360   89.478    0.442    1.539
 1272.190   90.183    0.447    1.484
 1273.010   90.202    0.451    1.430
 1273.830   90.233    0.459    1.406
 1274.650   90.931    0.466    1.434
 1275.470   91.623    0.474    1.434
 1276.290   92.315    0.478    1.491
 1277.110   93.007    0.473    1.520
 1277.930   93.020    0.468    1.671
 1278.750   92.397    0.459    1.836
 1279.570   88.466    0.453    2.176
 1280.390   87.176    0.446    2.347
 1281.210   86.547    0.439    2.628
 1282.030   85.912    0.427    3.114
 1282.850   85.283    0.410    3.619
 1283.670   85.314    0.388    4.287
 1284.490   86.000    0.376    4.715
 1285.310   86.692    0.368    4.897
 1286.130   87.377    0.357    5.089
 1286.950   90.718    0.350    5.190
 1287.770   90.749    0.341    5.292
 1288.590   92.756    0.342    5.398
 1289.410   97.411    0.347    5.504
 1290.230   94.800    0.353    5.509
 1291.050   92.844    0.365    5.312
 1291.870   88.919    0.372    5.026
 1292.690   87.623    0.377    4.669
 1293.510   85.012    0.384    4.501
 1294.330   83.716    0.390    4.339
 1295.150   81.112    0.397    4.107
