~VERSION INFORMATION
 VERS.                 2.0:   CWLS LOG ASCII STANDARD -VERSION 2.0
 WRAP.                  NO:   ONE LINE PER DEPTH STEP
~WELL INFORMATION BLOCK
#MNEM.UNIT           DATA                    DESCRIPTION OF MNEMONIC
#---------    -------------------            -------------------------------
# Generated from Intellog Unique Number	CN_94_101/WELL/2856
WELL.         06-25-095-16W4                 : Well_name    - WELL
LOC .         AA/06-25-095-16W4/0            : Location     - LOCATION
UWI .         AA/06-25-095-16W400            : Uwi          - UNIQUE WELL ID
ENTR.         JOETTE                         : Entered      - ENTERED BY
SRVC.         SCHLUMBERGER                   : Scn          - SERVICE COMPANY
DATE.         07/27/92                       : Date         - LOG DATE
STRT.F        400                            : top_depth    - START DEPTH
STOP.F        1079.95                        : bot_depth    - STOP DEPTH
STEP.F        0.82                           : increment    - STEP LENGTH
 NULL. -999.2500:NULL Value
~CURVE INFORMATION BLOCK
#MNEM UNIT       ERCB CURVE CODE    CURVE DESCRIPTION
#-----------   ------------------   ----------------------------------
DEPT.F        00 001 00 00         : DEPTH        - DEPTH
GR  .API      00 310 00 00         : GR           - GAMMA RAY
ILD .OHMM     00 120 00 00         : RESD         - DEEP RESISTIVITY (DIL)
DPHI.V/V      00 890 00 00         : PHID         - DENSITY POROSITY (SANDSTONE)
NPHI.V/V      00 330 00 00         : PHIN         - NEUTRON POROSITY (SANDSTONE)
~PARAMETER INFORMATION
#MNEM.UNIT           DATA             DESCRIPTION OF MNEMONIC
#---------         -----------     ------------------------------
GL  .F        1876.64              : gl           - GROUND LEVEL ELEVATION
EREF.F        1887.47              : kb           - ELEVATION OF DEPTH REFERENCE
DATM.F        1887.47              : datum        - DATUM ELEVATION
TDD .F        1100                 : tdd          - TOTAL DEPTH DRILLER
RUN .         ONE                  : Run          - RUN NUMBER
ENG .         JO                   : Engineer     - RECORDING ENGINEER
WIT .         TIM                  : Witness      - WITNESSED BY
MUD .         GEL                  : Mud_type     - MUD TYPE
MATR.         SANDSTONE            : Logunit      - NEUTRON MATRIX
TMAX.F        62.6                 : BHT          - MAXIMUM RECORDED TEMPERATURE
BHTD.F        1100                 : BHTDEP       - MAXIMUM RECORDED TEMPERATURE
RMT .F        44.6                 : MDTP         - TEMPERATURE OF MUD
MUDD.LB/G     1.073                : MWT          - MUD DENSITY
NEUT.         1                    : NEUTRON      - NEUTRON TYPE
RESI.         0                    : RESIST       - RESISTIVITY TYPE
RM  .OHMM     0.35                 : RM           - RESISTIVITY OF MUD
RMC .OHMM     0.35                 : RMC          - RESISTIVITY OF MUD CAKE
RMF .OHMM     0.35                 : RMF          - RESISTIVITY OF MUD FILTRATE
SUFT.F        39.2                 : SUFT         - SURFACE TEMPERATURE
~A  DEPTH       GR     RESD     PHID     PHIN
  400.000  116.293    5.494    0.209    0.449
  400.820  115.084    8.695    0.195    0.452
  401.640  114.486   11.033    0.160    0.458
  402.461  115.043    9.873    0.134    0.466
  403.281  115.600    7.909    0.222    0.497
  404.101  113.813    6.695    0.243    0.512
  404.921  111.448    6.567    0.260    0.498
  405.741  108.500    5.663    0.261    0.487
  406.562  103.798    4.621    0.259    0.478
  407.382   97.343    3.771    0.264    0.476
  408.202  100.237    4.207    0.256    0.473
  409.022  101.379    5.146    0.242    0.471
  409.843  103.104    6.653    0.228    0.464
  410.663  103.077    5.844    0.156    0.446
  411.483  103.050    4.594    0.197    0.425
  412.303  104.184    4.344    0.243    0.430
  413.123  106.501    5.122    0.236    0.433
  413.944  104.714    6.501    0.234    0.413
  414.764  101.765    7.951    0.232    0.417
  415.584   98.810    8.395    0.223    0.426
  416.404  101.711    7.240    0.219    0.436
  417.224  104.021    6.130    0.225    0.448
  418.045  102.825    6.013    0.236    0.431
  418.865  103.382    6.006    0.252    0.413
  419.685  104.523    5.575    0.262    0.420
  420.505  104.489    4.896    0.248    0.432
  421.325  103.293    4.145    0.258    0.444
  422.146  104.442    4.297    0.263    0.456
  422.966  106.745    4.372    0.264    0.462
  423.786  104.971    3.841    0.259    0.434
  424.606  102.607    3.252    0.254    0.405
  425.427   98.476    3.074    0.248    0.406
  426.247   99.617    3.760    0.244    0.411
  427.067  102.518    5.044    0.243    0.413
  427.887  103.660    4.854    0.231    0.421
  428.707  103.632    4.852    0.220    0.431
  429.528  104.182    4.759    0.222    0.442
  430.348  102.409    4.755    0.230    0.444
  431.168   98.291    5.207    0.235    0.441
  431.988   92.421    5.600    0.233    0.442
  432.808   87.121    6.250    0.232    0.453
  433.629   87.108    7.645    0.228    0.474
  434.449   88.813    8.688    0.226    0.500
  435.269   89.968    8.522    0.226    0.493
  436.089   92.278    8.673    0.225    0.433
  436.909   94.004    8.988    0.225    0.449
  437.730   91.632    9.147    0.224    0.446
  438.550   86.937    8.492    0.223    0.447
  439.370   78.145    6.554    0.226    0.458
  440.190   75.196    6.084    0.228    0.445
  441.010   76.922    6.665    0.229    0.397
  441.831   79.809    8.303    0.234    0.413
  442.651   82.126    8.298    0.240    0.428
  443.471   85.021    8.290    0.243    0.415
  444.291   82.065    8.281    0.239    0.393
  445.112   80.285    8.427    0.230    0.388
  445.932   79.673    9.233    0.222    0.399
  446.752   83.145   16.023    0.224    0.392
  447.572   84.871   17.874    0.225    0.382
  448.392   85.421   19.222    0.225    0.368
  449.213   85.985   20.672    0.235    0.369
  450.033   85.957   22.649    0.244    0.378
  450.853   85.346   25.734    0.243    0.375
  451.673   82.981   23.028    0.240    0.374
  452.493   81.785   19.140    0.236    0.376
  453.314   81.174   16.201    0.231    0.378
  454.134   79.978   15.601    0.230    0.367
  454.954   78.775   15.587    0.230    0.347
  455.774   78.177   15.289    0.228    0.354
  456.594   77.552   17.698    0.239    0.365
  457.415   77.518   21.650    0.258    0.380
  458.235   77.498   27.477    0.283    0.404
  459.055   78.639   25.040    0.245    0.373
  459.875   80.365   19.694    0.203    0.279
  460.696   82.090   15.207    0.197    0.301
  461.516   82.647   13.855    0.243    0.330
  462.336   82.627   12.167    0.304    0.364
  463.156   82.015   10.887    0.310    0.392
  463.976   81.404    9.561    0.284    0.418
  464.797   80.208    9.039    0.272    0.433
  465.617   79.596    8.866    0.280    0.421
  466.437   79.562    9.361    0.290    0.389
  467.257   83.041   10.447    0.301    0.363
  468.077   85.942   11.873    0.307    0.364
  468.898   87.076   15.633    0.307    0.384
  469.718   86.465   17.125    0.298    0.407
  470.538   85.860   12.979    0.281    0.419
  471.358   85.242   10.788    0.241    0.391
  472.178   84.630    8.029    0.269    0.416
  472.999   83.427    8.477    0.286    0.426
  473.819   81.070   10.181    0.311    0.419
  474.639   78.698   13.406    0.322    0.407
  475.459   76.918   17.330    0.326    0.413
  476.280   75.715   17.964    0.327    0.425
  477.100   75.702   13.618    0.327    0.430
  477.920   76.252   11.527    0.327    0.400
  478.740   76.232   10.699    0.327    0.343
  479.560   76.198    9.750    0.326    0.375
  480.381   74.995    8.883    0.324    0.389
  481.201   73.799    8.400    0.325    0.411
  482.021   73.194    8.392    0.327    0.410
  482.841   72.569    9.023    0.329    0.408
  483.661   72.548    9.706    0.332    0.400
  484.482   72.514   10.830    0.333    0.387
  485.302   72.501   12.769    0.334    0.381
  486.122   72.473   14.781    0.331    0.386
  486.942   74.199   14.499    0.323    0.391
  487.762   78.262   10.209    0.279    0.381
  488.583   85.247    7.598    0.272    0.381
  489.403   85.804    5.064    0.295    0.398
  490.223   84.023    3.768    0.296    0.403
  491.043   79.906    3.906    0.289    0.392
  491.864   77.541    4.279    0.270    0.373
  492.684   78.683    5.044    0.253    0.380
  493.504   83.330    5.629    0.238    0.396
  494.324   88.562    5.833    0.221    0.395
  495.144   97.884    5.619    0.225    0.382
  495.965  103.115    5.120    0.251    0.409
  496.785  107.171    4.666    0.256    0.436
  497.605  108.320    4.835    0.259    0.409
  498.425  105.955    5.012    0.262    0.392
  499.245  101.837    5.390    0.261    0.376
  500.066   95.369    6.357    0.255    0.411
  500.886   93.011    8.526    0.260    0.439
  501.706   92.400   12.308    0.272    0.438
  502.526   97.047   10.044    0.287    0.407
  503.346  104.616    7.754    0.291    0.404
  504.167  108.095    5.987    0.282    0.414
  504.987  108.652    5.259    0.274    0.416
  505.807  106.287    4.452    0.266    0.422
  506.627  102.754    3.909    0.260    0.430
  507.448   99.221    3.904    0.252    0.443
  508.268   95.103    3.903    0.249    0.452
  509.088   93.907    3.972    0.234    0.452
  509.908  102.061    3.968    0.220    0.366
  510.728  106.701    3.683    0.202    0.356
  511.549  107.849    3.679    0.181    0.399
  512.369  108.991    3.884    0.177    0.426
  513.189  109.548    4.027    0.208    0.443
  514.009  110.669    4.331    0.255    0.465
  514.829  110.655    4.407    0.259    0.461
  515.650  109.445    4.243    0.253    0.417
  516.470  108.841    4.239    0.254    0.418
  517.290  108.236    4.314    0.256    0.435
  518.110  107.624    4.310    0.258    0.448
  518.930  106.428    4.150    0.259    0.443
  519.751  105.810    3.783    0.254    0.442
  520.571  105.198    3.710    0.251    0.455
  521.391  106.333    3.846    0.246    0.438
  522.211  107.481    4.059    0.244    0.429
  523.031  106.870    4.133    0.247    0.446
  523.852  106.265    4.205    0.250    0.460
  524.672  104.478    4.359    0.250    0.459
  525.492  105.035    4.602    0.249    0.446
  526.312  107.929    4.949    0.252    0.433
  527.133  112.570    5.130    0.256    0.424
  527.953  114.880    4.343    0.263    0.427
  528.773  114.275    3.354    0.269    0.440
  529.593  110.735    2.946    0.273    0.448
  530.413  107.779    3.053    0.272    0.442
  531.234  106.597    3.283    0.267    0.432
  532.054  105.394    3.597    0.260    0.441
  532.874  105.951    4.163    0.253    0.448
  533.694  107.093    4.731    0.245    0.454
  534.514  105.903    4.727    0.245    0.458
  535.335  102.941    5.676    0.264    0.445
  536.155  101.168    8.987    0.276    0.438
  536.975   99.380   13.460    0.288    0.447
  537.795   98.178   20.916    0.312    0.457
  538.615   98.157   21.671    0.318    0.468
  539.436   97.552   20.873    0.323    0.469
  540.256   97.519   18.004    0.323    0.449
  541.076   96.907   10.546    0.323    0.445
  541.896   93.958    7.562    0.322    0.449
