~VERSION INFORMATION
 VERS.                 2.0:   CWLS LOG ASCII STANDARD -VERSION 2.0
 WRAP.                  NO:   ONE LINE PER DEPTH STEP
~WELL INFORMATION BLOCK
#MNEM.UNIT           DATA                    DESCRIPTION OF MNEMONIC
#---------    -------------------            -------------------------------
# Generated from Intellog Unique Number	CN_94_101/WELL/4980
WELL.         06-04-097-14W4                 : Well_name    - WELL
LOC .         AA/06-04-097-14W4/0            : Location     - LOCATION
UWI .         AA/06-04-097-14W400            : Uwi          - UNIQUE WELL ID
ENTR.         JOETTE                         : Entered      - ENTERED BY
SRVC.         SCHLUMBERGER                   : Scn          - SERVICE COMPANY
DATE.         08/17/92                       : Date         - LOG DATE
STRT.M        106.68                         : top_depth    - START DEPTH
STOP.M        374.93                         : bot_depth    - STOP DEPTH
STEP.M        0.25                           : increment    - STEP LENGTH
 NULL. -999.2500:NULL Value
~CURVE INFORMATION BLOCK
#MNEM UNIT       ERCB CURVE CODE    CURVE DESCRIPTION
#-----------   ------------------   ----------------------------------
DEPT.M        00 001 00 00         : DEPTH        - DEPTH
ILD .OHMM     00 120 00 00         : RESD         - DEEP RESISTIVITY (DIL)
GR  .API      00 310 00 00         : GR           - GAMMA RAY
NPHI.V/V      00 330 00 00         : PHIN         - NEUTRON POROSITY (SANDSTONE)
~PARAMETER INFORMATION
#MNEM.UNIT           DATA             DESCRIPTION OF MNEMONIC
#---------         -----------     ------------------------------
GL  .M        639.166              : gl           - GROUND LEVEL ELEVATION
EREF.M        639.166              : kb           - ELEVATION OF DEPTH REFERENCE
DATM.M        639.166              : datum        - DATUM ELEVATION
TDD .M        377.647              : tdd          - TOTAL DEPTH DRILLER
RUN .         ONE                  : Run          - RUN NUMBER
ENG .         JO                   : Engineer     - RECORDING ENGINEER
WIT .         TIM                  : Witness      - WITNESSED BY
MUD .         GEL                  : Mud_type     - MUD TYPE
MATR.         SANDSTONE            : Logunit      - NEUTRON MATRIX
TMAX.C        12.2222              : BHT          - MAXIMUM RECORDED TEMPERATURE
BHTD.M        377.647              : BHTDEP       - MAXIMUM RECORDED TEMPERATURE
RMT .C        8.33333              : MDTP         - TEMPERATURE OF MUD
MUDD.KG/M     1200                 : MWT          - MUD DENSITY
NEUT.         1                    : NEUTRON      - NEUTRON TYPE
RESI.         0                    : RESIST       - RESISTIVITY TYPE
RM  .OHMM     6.5                  : RM           - RESISTIVITY OF MUD
RMC .OHMM     6.5                  : RMC          - RESISTIVITY OF MUD CAKE
RMF .OHMM     5.9                  : RMF          - RESISTIVITY OF MUD FILTRATE
SUFT.C        4                    : SUFT         - SURFACE TEMPERATURE
~A  DEPTH     RESD       GR     PHIN
# ...
  215.180    9.987   46.936    0.444
  215.430   11.205   43.241    0.440
  215.680    9.725   42.511    0.444
  215.930   10.740   44.761    0.447
  216.180   12.497   41.804    0.450
  216.430    8.455   41.823    0.451
  216.680   11.494   51.143    0.450
  216.930   12.913   54.137    0.445
  217.180   14.130   54.904    0.445
  217.430   11.774   56.033    0.446
  217.680   10.093   53.077    0.444
  217.930    9.961   48.261    0.445
  218.180   10.639   56.842    0.460
  218.430    7.945   59.459    0.471
  218.680    8.691   64.684    0.475
  218.930    9.504   63.215    0.474
  219.180    7.283   64.726    0.475
  219.430    9.983   62.880    0.481
  219.680   11.740   60.296    0.480
  219.930    9.721   70.731    0.472
  220.180    7.972   71.494    0.462
  220.430   12.830   56.637    0.455
  220.680   12.968   56.288    0.457
  220.930    8.725   53.699    0.451
  221.180    9.538   60.783    0.452
  221.430   10.755   61.174    0.463
  221.680    8.601   57.474    0.465
  221.930    7.190   52.286    0.462
  222.180   11.508   50.074    0.467
  222.430   10.365   50.473    0.467
  222.680    8.818   50.111    0.467
  222.930    7.406   52.732    0.471
  223.180    9.502   55.359    0.474
  223.430    6.404   57.985    0.482
  223.680    7.620   60.230    0.482
  223.930    7.960   64.716    0.481
  224.180    5.942   66.961    0.487
  224.430    5.137   75.537    0.497
  224.680    5.006   74.069    0.503
  224.930    5.481   73.348    0.500
  225.180    6.295   78.196    0.499
  225.430    4.680   78.587    0.505
  225.680    4.010   76.374    0.501
  225.930    3.810   80.864    0.494
  226.180    7.792   80.502    0.487
  226.430   12.920   85.359    0.474
  226.680   26.138   89.097    0.441
  226.930   29.918   72.004    0.338
  227.180   35.248   43.017    0.340
  227.430   40.240   40.060    0.363
  227.680   21.772   28.174    0.375
  227.930   22.651   24.107    0.376
  228.180   22.385   27.840    0.367
  228.430   25.357   26.747    0.375
  228.680   25.225   25.655    0.401
  228.930   26.105   28.648    0.405
  229.180   24.828   20.867    0.387
  229.430   25.033   20.128    0.387
  229.680   26.790   18.663    0.401
  229.930   26.187   19.426    0.407
  230.180   25.044   21.299    0.401
  230.430   23.970   25.780    0.393
  230.680   20.332   26.542    0.396
  230.930   22.292   26.566    0.407
  231.180   22.969   26.217    0.406
  231.430   22.501   24.748    0.409
  231.680   17.381   25.878    0.415
  231.930   16.171   28.504    0.419
  232.180   20.085   27.407    0.421
  232.430   23.258   29.652    0.425
  232.680   26.093   32.274    0.426
  232.930   26.569   30.433    0.405
  233.180   25.158   26.366    0.405
  233.430   24.958   28.244    0.412
  233.680    9.185   30.493    0.453
  233.930   22.606   34.231    0.464
  234.180   25.307   49.124    0.436
  234.430   25.985   54.354    0.433
  234.680   23.224   41.729    0.436
  234.930   14.800   33.561    0.455
  235.180    9.141   30.981    0.459
  235.430    9.954   34.714    0.472
  235.680    5.912   45.522    0.482
  235.930    9.017   55.581    0.473
  236.180    5.312   60.438    0.442
  236.430    8.148   57.482    0.418
  236.680   23.524   59.360    0.412
  236.930   30.337   55.660    0.432
  237.180   23.329   45.633    0.449
  237.430   22.861   37.470    0.443
  237.680   25.224   36.373    0.437
  237.930   21.048   34.161    0.465
  238.180    6.084   39.762    0.474
  238.430    5.684   60.606    0.499
  238.680    5.485   68.066    0.499
  238.930    6.096   82.965    0.500
  239.180    5.493   83.731    0.503
  239.430    5.429   84.494    0.507
  239.680    4.760   86.367    0.509
  239.930    5.032   90.104    0.512
  240.180    4.968   91.239    0.515
  240.430    4.770   92.749    0.517
  240.680    5.044   89.416    0.519
  240.930    5.183   87.204    0.521
  241.180    4.984   90.574    0.522
  241.430    4.785   91.341    0.513
  241.680    5.126   90.992    0.504
  241.930    5.399   91.745    0.500
  242.180    4.999   92.884    0.496
  242.430    4.800   91.410    0.492
  242.680    7.972   89.570    0.494
  242.930   14.988   94.427    0.497
  243.180   11.957   84.401    0.504
  243.430    3.468   77.725    0.522
  243.680    4.144   84.810    0.525
  243.930    4.082   90.044    0.521
  244.180    4.018   90.058    0.521
  244.430    3.954   93.051    0.524
  244.680    3.957   93.818    0.529
  244.930    4.231   89.742    0.534
  245.180    4.236   87.905    0.535
  245.430    4.170   87.924    0.535
  245.680    3.974   86.827    0.530
  245.930    4.111   78.664    0.529
  246.180    4.250   86.116    0.528
  246.430    4.255   87.626    0.527
  246.680    4.324   87.645    0.524
  246.930    4.328   87.663    0.519
  247.180    4.129   85.079    0.511
  247.430    4.133   82.494    0.514
  247.680    4.541   79.910    0.518
  247.930    4.680   73.978    0.521
  248.180    4.414   72.881    0.520
  248.430    4.216   81.458    0.510
  248.680    4.422   84.075    0.504
  248.930    4.763   84.093    0.507
  249.180    4.631   79.278    0.514
  249.430    4.097   79.673    0.519
  249.680    3.898   78.948    0.515
  249.930    4.373   81.941    0.511
  250.180    5.118   77.493    0.505
  250.430    4.447   85.325    0.502
  250.680   10.385   73.444    0.495
  250.930    6.680   64.533    0.501
  251.180    2.638   61.576    0.521
  251.430    2.509   72.384    0.529
  251.680    2.512   75.749    0.526
  251.930    2.719   84.321    0.533
  252.180    3.126   89.178    0.536
  252.430    3.265   78.780    0.534
  252.680    3.200   84.391    0.531
  252.930    3.475   85.887    0.522
  253.180    3.814   80.328    0.519
  253.430    3.953   70.678    0.515
  253.680    3.754   67.716    0.513
  253.930    3.556   82.991    0.521
  254.180    3.359   85.980    0.536
  254.430    3.295   85.255    0.533
  254.680    3.300   80.439    0.524
  254.930    3.370   82.689    0.512
  255.180    3.373   89.406    0.514
  255.430    3.377   83.103    0.514
  255.680    3.449   87.584    0.507
  255.930    3.451   87.231    0.502
  256.180    3.657   86.133    0.507
  256.430    4.538   83.182    0.505
  256.680    8.114   79.849    0.494
  256.930    5.826   76.149    0.494
  257.180    4.953   81.001    0.497
  257.430    6.440   70.979    0.480
  257.680    9.074   68.395    0.450
  257.930    7.663   68.785    0.456
  258.180    6.991   67.316    0.463
  258.430    6.860   62.129    0.468
  258.680    5.583   60.660    0.473
  258.930    5.385   64.025    0.470
  259.180    5.119   64.788    0.468
  259.430    4.718   70.389    0.474
  259.680    4.655   66.689    0.482
  259.930    4.860   73.401    0.492
  260.180    5.403   70.073    0.489
  260.430    5.946   65.257    0.448
  260.680    8.107   64.904    0.446
  260.930   15.055   68.274    0.439
  261.180   18.632   74.247    0.434
  261.430    6.838   67.934    0.439
  261.680    7.920   57.912    0.440
  261.930    9.813   53.468    0.439
  262.180   10.287   60.925    0.444
  262.430    8.335   56.852    0.441
  262.680    7.800   52.409    0.430
  262.930    8.006   49.829    0.420
  263.180   34.709   48.355    0.394
  263.430   10.238   42.795    0.383
  263.680   11.726   36.864    0.447
  263.930    8.897   48.792    0.464
  264.180    7.081   49.550    0.477
  264.430    6.141   52.543    0.490
  264.680    4.256   55.909    0.521
  264.930    3.653   60.390    0.498
  265.180    4.534   65.996    0.493
  265.430    5.077   69.728    0.488
  265.680    5.284   75.697    0.490
  265.930    4.816   69.394    0.494
  266.180    4.953   79.829    0.497
  266.430    5.228   78.361    0.503
  266.680    5.366   71.685    0.512
  266.930    5.234   70.216    0.506
  267.180    5.509   78.416    0.501
  267.430    5.715   81.782    0.499
  267.680    5.651   83.288    0.490
  267.930    5.317   79.216    0.491
  268.180    3.838   75.144    0.497
  268.430    3.302   76.278    0.486
  268.680    6.137   81.140    0.463
  268.930   35.671   85.617    0.448
  269.180    5.200   77.454    0.480
