~VERSION INFORMATION
 VERS.                 2.0:   CWLS LOG ASCII STANDARD -VERSION 2.0
 WRAP.                  NO:   ONE LINE PER DEPTH STEP
~WELL INFORMATION BLOCK
#MNEM.UNIT           DATA                    DESCRIPTION OF MNEMONIC
#---------    -------------------            -------------------------------
# Generated from Intellog Unique Number	CC_84_87/WELL/1166
NULL.         -999.25                        : NULL_VALUE
WELL.         TEXCAN HORSE RIVER             : Well_name    - WELL
LOC .         07-24-085-12W4                 : Location     - LOCATION          
UWI .         AA/07-24-085-12W400            : Uwi          - UNIQUE WELL ID    
ENTR.         DW                             : Entered      - ENTERED BY        
SRVC.         DRESSER ATLAS                  : Scn          - SERVICE COMPANY   
DATE.         13 MAR 76                      : Date         - LOG DATE
STRT.M        97.536                         : top_depth    - START DEPTH       
STOP.M        262.126                        : bot_depth    - STOP DEPTH        
STEP.M        0.3048                         : increment    - STEP LENGTH       
~CURVE INFORMATION BLOCK
#MNEM UNIT       ERCB CURVE CODE    CURVE DESCRIPTION
#-----------   ------------------   ----------------------------------
DEPT.M        00 001 00 00         : DEPTH        - DEPTH                       
NPHI.V/V      00 330 00 00         : PHIN         - NEUTRON POROSITY (LIMESTONE)
GR  .API      00 310 00 00         : GR           - GAMMA RAY                   
ILD .OHMM     00 120 00 00         : RESD         - DEEP RESISTIVITY (DIL)      
DPHI.V/V      00 890 00 00         : PHID         - DENSITY POROSITY (LIMESTONE)
~PARAMETER INFORMATION       
#MNEM.UNIT           DATA             DESCRIPTION OF MNEMONIC
#---------         -----------     ------------------------------
GL  .M        528.523              : gl           - GROUND LEVEL ELEVATION      
EREF.M        531.876              : kb           - ELEVATION OF DEPTH REFERENCE
DATM.M        531.876              : datum        - DATUM ELEVATION             
TDD .M        262.738              : tdd          - TOTAL DEPTH DRILLER         
RUN .         ONE                  : Run          - RUN NUMBER                  
ENG .         BILL                 : Engineer     - RECORDING ENGINEER          
WIT .         JIM                  : Witness      - WITNESSED BY                
MUD .         GEL                  : Mud_type     - MUD TYPE                    
MATR.         LIMESTONE            : Logunit      - NEUTRON MATRIX              
TMAX.C        16.6667              : BHT          - MAXIMUM RECORDED TEMPERATURE
BHTD.M        263.347              : BHTDEP       - MAXIMUM RECORDED TEMPERATURE
MATR.         1                    : LOGUNIT      - NEUTRON MATRIX              
RMT .C        25                   : MDTP         - TEMPERATURE OF MUD          
NEUT.         1                    : NEUTRON      - NEUTRON TYPE                
RESI.         0                    : RESIST       - RESISTIVITY TYPE            
RMC .OHMM     0.25                 : RMC          - RESISTIVITY OF MUD CAKE     
RMF .OHMM     0.25                 : RMF          - RESISTIVITY OF MUD FILTRATE 
SUFT.C        15                   : SUFT         - SURFACE TEMPERATURE         
~A  DEPTH     PHIN       GR     RESD     PHID
# ...
  150.571    0.339   70.349   10.761    0.214
  150.876    0.329   68.556   10.179    0.188
  151.181    0.381   73.365    9.276    0.150
  151.485    0.381   71.571    7.560    0.352
  151.790    0.481   76.380    6.395    0.327
  152.095    0.494   81.188    5.512    0.317
  152.400    0.498   84.798    5.616    0.367
  152.705    0.505   92.005    6.051    0.346
  153.009    0.483  100.413    7.156    0.278
  153.314    0.407   87.219    8.003    0.269
  153.619    0.390   78.227    8.155    0.287
  153.924    0.385   75.236    8.156    0.291
  154.229    0.390   75.841    7.715    0.283
  154.533    0.406   76.450    7.574    0.285
  154.838    0.438   75.258    7.435    0.323
  155.143    0.449   78.266    7.437    0.256
  155.448    0.455   81.874    7.166    0.410
  155.752    0.475   80.081    6.778    0.397
  156.057    0.519   85.490    6.063    0.320
  156.362    0.525   84.898    5.953    0.275
  156.667    0.508   87.906    6.414    0.270
  156.972    0.479   93.315    7.445    0.287
  157.276    0.397   94.523    7.728    0.325
  157.581    0.400   92.729    7.730    0.377
  157.886    0.417   90.336    7.588    0.449
  158.191    0.483   86.143    7.450    0.484
  158.496    0.479   84.953    7.179    0.487
  158.800    0.430   87.959    6.791    0.471
  159.105    0.394  102.969    6.423    0.488
  159.410    0.400   93.975    5.745    0.534
  159.715    0.457   90.383    4.596    0.436
  160.020    0.522   92.192    3.168    0.382
  160.324    0.558   95.799    2.731    0.374
  160.629    0.574  100.607    2.535    0.417
  160.934    0.575   98.815    2.489    0.484
  161.239    0.576  100.024    2.632    0.568
  161.544    0.576  101.831    2.889    0.595
  161.848    0.570  101.840    3.231    0.612
  162.153    0.573   97.045    3.614    0.621
  162.458    0.586   78.452    3.967    0.590
  162.763    0.573   75.459    4.274    0.554
  163.068    0.518   82.067    4.691    0.499
  163.372    0.499   89.276    6.320    0.410
  163.677    0.457   89.883    6.937    0.390
  163.982    0.407   94.692    7.337    0.488
  164.287    0.409   88.101    6.940    0.469
  164.592    0.425   91.108    5.871    0.518
  164.896    0.495   95.915    5.553    0.561
  165.201    0.534   99.523    5.554    0.599
  165.506    0.537   98.932    6.097    0.379
  165.811    0.530   92.938    7.345    0.437
  166.115    0.475   88.745    8.526    0.464
  166.420    0.381   78.552    8.370    0.481
  166.725    0.382   80.362    7.214    0.507
  167.030    0.388   79.169    5.879    0.512
  167.335    0.402   79.175    4.792    0.503
  167.639    0.513   85.183    4.792    0.511
  167.944    0.527   95.993    5.261    0.511
  168.249    0.522   99.001    8.536    0.429
  168.554    0.488   95.409   10.285    0.221
  168.859    0.357   88.816   10.286    0.231
  169.163    0.333   93.624    9.913    0.250
  169.468    0.342   87.031    9.914    0.275
  169.773    0.355   92.440    9.378    0.218
  170.078    0.336   96.648    9.036    0.176
  170.383    0.303   87.053    8.871    0.198
  170.687    0.278   93.062    8.709    0.295
  170.992    0.309   97.870    8.874    0.293
  171.297    0.381   96.677    8.876    0.292
  171.602    0.385   90.686    9.045    0.293
  171.907    0.384   88.292    9.046    0.297
  172.211    0.382   87.100    8.880    0.303
  172.516    0.380   82.307    8.557    0.308
  172.821    0.373   78.115    8.246    0.313
  173.126    0.369   73.923    8.097    0.315
  173.431    0.365   71.528    8.098    0.318
  173.735    0.366   82.339    8.099    0.312
  174.040    0.371   81.747    8.252    0.310
  174.345    0.375   80.553    8.567    0.304
  174.650    0.377   79.962    8.568    0.298
  174.955    0.377   80.570    8.570    0.296
  175.259    0.376   77.576    8.414    0.292
  175.564    0.372   78.784    8.260    0.289
  175.869    0.364   81.192    7.959    0.272
  176.174    0.349   80.601    7.961    0.268
  176.478    0.338   81.208    8.265    0.083
  176.783    0.331   77.615    8.113    0.150
  177.088    0.300   69.222    7.965    0.280
  177.393    0.209   75.230    7.819    0.328
  177.698    0.217   81.238    7.535    0.328
  178.002    0.264   83.647    7.397    0.329
  178.307    0.468   88.454    7.263    0.336
  178.612    0.471   93.865    7.400    0.520
  178.917    0.477   89.671    7.826    0.504
  179.222    0.476   87.879    8.125    0.422
  179.526    0.468   87.288    7.685    0.362
  179.831    0.440   86.695    7.135    0.424
  180.136    0.418   88.503    6.149    0.484
  180.441    0.516   91.509    5.500    0.458
  180.746    0.529   94.518    5.300    0.455
  181.050    0.530   92.726    5.301    0.441
  181.355    0.524   94.536    5.607    0.511
  181.660    0.532   95.742    6.041    0.399
  181.965    0.525   96.950    6.631    0.293
  182.270    0.513   93.957    7.145    0.304
  182.574    0.478   87.964    7.699    0.482
  182.879    0.447   79.570    7.992    0.383
  183.184    0.464   80.180    7.993    0.260
  183.489    0.450   83.186    7.848    0.250
  183.794    0.357   80.795    7.849    0.250
  184.098    0.357   81.403    8.777    0.251
  184.403    0.352   83.210    9.816    0.238
  184.708    0.339   84.417   10.191    0.151
  185.013    0.313   80.825   10.384    0.108
  185.318    0.238   76.631   10.006    0.228
  185.622    0.224   71.839    9.119    0.243
  185.927    0.336   79.649    8.787    0.252
  186.232    0.344   86.857    8.008    0.258
  186.537    0.345   88.664    7.717    0.258
  186.841    0.348   83.871    7.575    0.250
  187.146    0.358   80.878    7.301    0.247
  187.451    0.368   87.487    7.167    0.275
  187.756    0.383   92.295    6.907    0.285
  188.061    0.398   94.703    6.780    0.465
  188.365    0.420   99.513    6.414    0.548
  188.670    0.450   97.719    6.296    0.547
  188.975    0.522   90.526    6.181    0.485
  189.280    0.524   81.533    5.956    0.294
  189.585    0.478   92.942    5.530    0.206
  189.889    0.442   97.151    4.678    0.322
  190.194    0.421   85.158    4.032    0.320
  190.499    0.503   86.965    3.743    0.319
  190.804    0.513  101.374    3.885    0.346
  191.109    0.513  101.383    4.187    0.392
  191.413    0.510  102.591    4.860    0.479
  191.718    0.502  106.198    5.236    0.479
  192.023    0.496  105.608    5.642    0.384
  192.328    0.477   96.012    5.749    0.274
  192.633    0.465   93.020    5.644    0.274
  192.937    0.460  106.230    5.439    0.274
  193.242    0.462  106.838    5.542    0.288
  193.547    0.465  102.045    5.753    0.411
  193.852    0.470  103.252    6.315    0.366
  194.157    0.473  103.860    6.804    0.378
  194.461    0.474   98.467    7.752    0.374
  194.766    0.470   90.074    8.353    0.477
  195.071    0.458  100.883    9.341    0.194
  195.376    0.435  108.691    9.880    0.153
  195.681    0.380  102.698   10.067    0.142
  195.985    0.326  108.106   10.069    0.205
  196.290    0.309  112.917    9.885    0.188
  196.595    0.311  101.522    9.704    0.181
  196.900    0.325  100.929    9.527    0.242
  197.204    0.372  108.741    9.181    0.282
  197.509    0.385  112.346    9.182    0.274
  197.814    0.393  105.753    8.368    0.287
  198.119    0.413  101.560    7.626    0.316
  198.424    0.404  102.170    7.487    0.343
  198.728    0.428  102.777    7.628    0.524
  199.033    0.432  103.384    8.220    0.542
  199.338    0.430  103.992    8.693    0.235
  199.643    0.423  107.003    9.722    0.230
  199.948    0.344  104.010   10.282    0.230
  200.252    0.344  101.016   10.284    0.244
  200.557    0.352   96.222   10.286    0.251
  200.862    0.354  100.430   10.097    0.252
  201.167    0.334   99.237    9.731    0.256
  201.472    0.331   92.646    9.552    0.233
  201.776    0.336   89.652    8.870    0.232
  202.081    0.336   86.059    8.547    0.252
  202.386    0.336   83.066    8.390    0.260
  202.691    0.339   87.275    8.392    0.239
  202.996    0.345   85.482    8.393    0.211
  203.300    0.348   81.891    8.877    0.201
