~VERSION INFORMATION
 VERS.                 2.0:   CWLS LOG ASCII STANDARD -VERSION 2.0
 WRAP.                  NO:   ONE LINE PER DEPTH STEP
~WELL INFORMATION BLOCK
#MNEM.UNIT           DATA                    DESCRIPTION OF MNEMONIC
#---------    -------------------            -------------------------------
# Generated from Intellog Unique Number	CN_94_101/WELL/1065
WELL.         07-20-094-14W4                 : Well_name    - WELL
LOC .         AA/07-20-094-14W4/0            : Location     - LOCATION
UWI .         AA/07-20-094-14W400            : Uwi          - UNIQUE WELL ID
ENTR.         JOETTE                         : Entered      - ENTERED BY
SRVC.         SCHLUMBERGER                   : Scn          - SERVICE COMPANY
DATE.         05\03\92                       : Date         - LOG DATE
STRT.M        70                             : top_depth    - START DEPTH
STOP.M        190                            : bot_depth    - STOP DEPTH
STEP.M        0.25                           : increment    - STEP LENGTH
 NULL. -999.2500:NULL Value
~CURVE INFORMATION BLOCK
#MNEM UNIT       ERCB CURVE CODE    CURVE DESCRIPTION
#-----------   ------------------   ----------------------------------
DEPT.M        00 001 00 00         : DEPTH        - DEPTH
ILD .OHMM     00 120 00 00         : RESD         - DEEP RESISTIVITY (DIL)
DPHI.V/V      00 890 00 00         : PHID         - DENSITY POROSITY (SANDSTONE)
NPHI.V/V      00 330 00 00         : PHIN         - NEUTRON POROSITY (SANDSTONE)
GR  .API      00 310 00 00         : GR           - GAMMA RAY
CALI.MM       00 280 01 00         : CAL          - CALIPER
~PARAMETER INFORMATION
#MNEM.UNIT           DATA             DESCRIPTION OF MNEMONIC
#---------         -----------     ------------------------------
GL  .M        479.4                : gl           - GROUND LEVEL ELEVATION
EREF.M        429.4                : kb           - ELEVATION OF DEPTH REFERENCE
DATM.M        429.4                : datum        - DATUM ELEVATION
TDD .M        197                  : tdd          - TOTAL DEPTH DRILLER
RUN .         ONE                  : Run          - RUN NUMBER
ENG .         JO                   : Engineer     - RECORDING ENGINEER
WIT .         TIM                  : Witness      - WITNESSED BY
MUD .         GEL                  : Mud_type     - MUD TYPE
MATR.         SANDSTONE            : Logunit      - NEUTRON MATRIX
TMAX.C        19                   : BHT          - MAXIMUM RECORDED TEMPERATURE
BHTD.M        197                  : BHTDEP       - MAXIMUM RECORDED TEMPERATURE
RMT .C        13                   : MDTP         - TEMPERATURE OF MUD
MUDD.KG/M     1060                 : MWT          - MUD DENSITY
NEUT.         1                    : NEUTRON      - NEUTRON TYPE
RESI.         0                    : RESIST       - RESISTIVITY TYPE
RM  .OHMM     2.71                 : RM           - RESISTIVITY OF MUD
RMC .OHMM     2.71                 : RMC          - RESISTIVITY OF MUD CAKE
RMF .OHMM     2.71                 : RMF          - RESISTIVITY OF MUD FILTRATE
SUFT.C        4                    : SUFT         - SURFACE TEMPERATURE
~A  DEPTH     RESD     PHID     PHIN       GR      CAL
# ...
  143.000   12.343    0.250    0.392   61.862  169.544
  143.250   17.121    0.228    0.375   63.644  167.546
  143.500   17.756    0.226    0.378   66.018  166.545
  143.750   18.083    0.235    0.384   67.205  165.545
  144.000   18.084    0.226    0.391   68.983  162.548
  144.250   18.418    0.239    0.394   69.574  161.548
  144.500   18.419    0.239    0.399   70.758  159.555
  144.750   18.089    0.244    0.402   71.349  158.554
  145.000   17.444    0.250    0.409   72.532  159.536
  145.250   16.521    0.252    0.408   73.121  161.513
  145.500   16.825    0.237    0.401   72.518  167.455
  145.750   17.769    0.239    0.401   71.324  171.415
  146.000   19.110    0.234    0.411   69.531  170.411
  146.250   20.182    0.232    0.419   67.142  168.416
  146.500   20.184    0.251    0.420   62.967  171.385
  146.750   19.465    0.284    0.424   63.556  176.337
  147.000   18.772    0.258    0.432   66.527  181.289
  147.250   17.777    0.224    0.436   70.688  167.383
  147.500   16.836    0.245    0.433   71.873  176.305
  147.750   17.460    0.262    0.420   66.508  170.339
  148.000   19.830    0.264    0.408   62.929  164.371
  148.250   22.116    0.264    0.398   64.113  160.390
  148.500   20.945    0.253    0.398   67.678  159.387
  148.750   19.477    0.239    0.401   70.651  159.379
  149.000   18.113    0.202    0.405   72.430  159.365
  149.250   16.845    0.213    0.407   73.019  159.357
  149.500   16.543    0.225    0.408   73.013  159.357
  149.750   16.848    0.244    0.413   72.412  156.350
  150.000   18.119    0.263    0.410   70.024  156.350
  150.250   20.579    0.256    0.405   70.017  157.324
  150.500   23.801    0.255    0.393   71.797  156.321
  150.750   34.864    0.260    0.394   71.791  156.316
  151.000   37.495    0.251    0.398   72.976  155.310
  151.250   54.921    0.224    0.394   73.565  154.309
  151.500   65.871    0.212    0.387   65.818  154.293
  151.750   77.581    0.243    0.373   54.497  155.278
  152.000   96.497    0.267    0.376   46.151  156.262
  152.250   91.380    0.274    0.400   47.336  157.242
  152.500   88.126    0.281    0.399   46.139  159.219
  152.750   93.071    0.291    0.398   43.750  161.193
  153.000  103.802    0.294    0.393   41.362  163.170
  153.250  109.629    0.285    0.388   40.761  167.127
  153.500  111.649    0.288    0.388   39.562  170.097
  153.750  111.658    0.284    0.390   37.174  176.038
  154.000  109.656    0.274    0.384   34.191  176.025
  154.250  100.138    0.285    0.385   32.397  177.012
  154.500   69.629    0.287    0.384   36.561  177.989
  154.750   45.020    0.285    0.385   46.083  178.976
  155.000   22.164    0.278    0.387   53.222  178.965
  155.250   15.982    0.265    0.385   60.958  179.947
  155.500   14.074    0.257    0.398   65.716  181.916
  155.750   13.088    0.252    0.404   70.474  182.904
  156.000   13.329    0.237    0.393   76.422  184.878
  156.250   15.139    0.215    0.387   78.201  184.862
  156.500   18.490    0.242    0.397   76.408  184.854
  156.750   21.000    0.253    0.393   75.210  184.843
  157.000   23.421    0.264    0.384   73.418  184.833
  157.250   21.388    0.264    0.386   72.816  184.822
  157.500   18.835    0.261    0.392   73.406  183.816
  157.750   17.200    0.259    0.395   75.780  184.801
  158.000   16.893    0.254    0.389   78.752  186.778
  158.250   17.203    0.229    0.387   78.745  189.742
  158.500   17.520    0.215    0.389   75.167  190.724
  158.750   18.504    0.258    0.414   69.206  185.748
  159.000   19.190    0.266    0.415   65.029  184.750
  159.250   20.267    0.273    0.413   64.427  184.734
  159.500   21.404    0.276    0.408   65.612  184.726
  159.750   21.798    0.276    0.399   67.991  184.718
  160.000   22.607    0.266    0.390   71.556  184.702
  160.250   23.023    0.258    0.396   73.931  183.704
  160.500   23.025    0.260    0.404   74.520  181.708
  160.750   23.450    0.258    0.410   72.728  174.750
  161.000   23.029    0.255    0.414   70.935  176.721
  161.250   23.031    0.259    0.404   71.524  176.716
  161.500   21.419    0.246    0.411   74.496  177.698
  161.750   20.655    0.232    0.413   78.062  174.710
  162.000   19.560    0.233    0.401   78.651  170.729
  162.250   16.915    0.238    0.396   78.644  164.760
  162.500   15.730    0.238    0.392   79.829  161.772
  162.750   14.897    0.231    0.391   80.420  160.769
  163.000   14.897    0.221    0.407   82.200  160.758
  163.250   16.317    0.234    0.416   83.385  160.750
  163.500   16.922    0.242    0.419   82.187  159.742
  163.750   17.234    0.241    0.424   80.988  159.734
  164.000   18.201    0.231    0.428   80.983  158.730
  164.250   19.575    0.228    0.426   80.975  162.693
  164.500   20.301    0.257    0.425   80.969  173.600
  164.750   21.833    0.271    0.432   79.176  180.537
  165.000   23.481    0.291    0.444   74.407  179.534
  165.250   24.353    0.310    0.461   66.063  164.635
  165.500   24.801    0.326    0.475   61.888  165.614
  165.750   24.803    0.340    0.483   63.668  172.554
  166.000   23.920    0.299    0.476   61.278  177.503
  166.250   21.844    0.250    0.444   58.294  172.533
  166.500   18.890    0.213    0.386   58.883  166.564
  166.750   14.125    0.187    0.362   63.047  164.571
  167.000    9.822    0.186    0.309   68.400  174.486
  167.250    9.301    0.178    0.306   74.348  179.435
  167.500    8.043    0.161    0.299   77.916  180.419
  167.750    7.083    0.149    0.368   91.608  180.409
  168.000    6.238    0.180    0.443  103.512  179.403
  168.250    5.801    0.203    0.468  113.034  179.392
  168.500    5.697    0.192    0.481  115.410  179.379
  168.750    5.697    0.194    0.492  114.211  178.378
  169.000    5.802    0.202    0.504  113.611  178.365
  169.250    6.017    0.204    0.511  113.007  178.360
  169.500    6.471    0.169    0.495  111.214  178.349
  169.750    7.218    0.139    0.448  108.232  178.341
  170.000    8.050    0.135    0.418  100.483  178.330
  170.250   10.573    0.137    0.400   84.398  178.320
  170.500   15.208    0.146    0.395   78.436  177.316
  170.750   16.656    0.154    0.395   71.879  177.306
  171.000   19.617    0.170    0.383   65.322  171.340
  171.250   28.217    0.217    0.363   54.596  150.483
  171.500   29.801    0.236    0.364   47.443  149.477
  171.750   31.474    0.260    0.372   43.862  149.472
  172.000   34.470    0.275    0.381   42.069  151.446
  172.250   37.072    0.284    0.384   39.087  157.388
  172.500   42.877    0.297    0.385   35.507  165.321
  172.750   42.880    0.292    0.385   35.499  174.240
  173.000   41.351    0.279    0.379   36.088  168.277
  173.250   38.455    0.273    0.361   37.869  160.326
  173.500   39.164    0.268    0.366   39.053  162.298
  173.750   44.480    0.271    0.374   39.045  172.215
  174.000   50.518    0.268    0.378   38.447  183.122
  174.250   53.353    0.272    0.387   35.462  189.062
  174.500   54.336    0.279    0.399   33.072  188.064
  174.750   56.353    0.287    0.392   30.686  185.075
  175.000   62.848    0.300    0.390   28.295  182.084
  175.250   62.853    0.298    0.390   27.694  181.079
  175.500   30.386    0.308    0.379   30.666  181.070
  175.750   22.312    0.306    0.374   33.636  181.062
  176.000   14.167    0.310    0.377   36.609  179.061
  176.250   11.601    0.312    0.374   40.771  177.071
  176.500    9.851    0.292    0.371   44.338  172.098
  176.750    8.675    0.268    0.371   52.073  165.137
  177.000    7.640    0.230    0.405   56.833  162.151
  177.250    7.235    0.192    0.465   70.523  157.178
  177.500    6.977    0.177    0.476   91.360  166.100
  177.750    6.978    0.184    0.468   95.522  175.022
  178.000    6.978    0.210    0.460   65.740  180.966
  178.250    7.370    0.220    0.480   57.992  176.988
  178.500    7.926    0.245    0.503   51.434  164.075
  178.750    8.072    0.262    0.522   43.686  155.131
  179.000    8.073    0.280    0.515   36.533  150.158
  179.250    7.928    0.316    0.498   32.358  147.164
