~Version : LASO    vs 4.00
VERS.                2.00:   CWLS Log ASCII Standard -VERSION 2.0
WRAP.                  NO:
~Well Information Block
#MNEM.UNIT       Data                        Description of Mnemonic
#----.----      -------------------------- : -----------------------------
STRT.M            15.0000:
STOP.M           186.3750:
STEP.M             0.1250:
NULL.           -999.2500:
COMP.  MOBIL OIL OF CANADA                :COMPANY
WELL.  MOBIL CLARKE OV 2-19               :WELL
FLD.                                      :FIELD
LOC.   02-19-090-07W4                     :LOCATION
CTRY.  CANADA                             :COUNTRY
PROV.  ALBERTA                            :PROVINCE
SRVC.  DRESSER ATLAS                      :SERVICE COMPANY
DATE.  24-FEB-81                          :LOG DATE
UWI.   AA/02-19-090-07W400                :UNIQUE WELL ID
~Parameter Information Block
#MNEM.UNIT       Data                        Description of Mnemonic
#----.----      -------------------------- : -----------------------------
RUN .                   1                 : Run Number
GL  .M           444.6000                 : Ground Level Elevation
DREF.                  KB                 : Depth Reference
EREF.M           444.6000                 : Elevation of Depth Reference
TDL .M           186.3000                 : Total Depth Logger
TDD .M           185.0000                 : Total Depth Driller
CSGL.M            14.7000                 : Casing Bottom Logger
CSGD.M            14.7000                 : Casing Bottom Driller
CSGS.MM          219.0000                 : Casing Size
CSGW.KG/M          0.0000                 : Casing Weight
BHT .DEGC         20.0000                 : Bottom Hole Temperature
BS  .MM          159.0000                 : Bit Size
DFD .           9999.0000                 : Mud Weight (Density)
DFV .             90.0000                 : Mud Viscosity
RM  .OHMM          2.5000                 : Mud Resistivity
RMT .DEGC         20.0000                 : Mud Resistivity Temperature
~Curve Information Block
#MNEM.UNIT        API CODE    Curve Description
#---------    ------------    -------------------------------------------
DEPT.M                    :   DEPTH
CALI.MM       42 280  1  1:   3 DENSITY CALIPER
DPHI.V/V                  :   DPHI
DT  .US/M     60 520 32  1:   2 SONIC INTERVAL TRANSIT TIME (COMPENSATED)
GR  .GAPI     42 310  1  1:   4 GAMMA RAY
ILD .OHMM      5 120 45  1:   7 DEEP INDUCTION
NPHI.V/V      42 890  3  1:   5 NEUTRON POROSITY (SANDSTONE)
RHOB.K/M3     42 350  1  1:   6 BULK DENSITY
SN  .OHMM      5  40 16  1:   8 SHORT NORMAL
SP  .MV        5  10  1  1:   9 SPONTANEOUS POTENTIAL
~A  Depth           CALI        DPHI          DT          GR         ILD        NPHI        RHOB          SN          SP
# ...
82.0000         203.9500      0.3076    655.0000     49.6950     21.9400      0.3616   2112.8999     35.6250    -61.5300
82.1250         204.5500      0.3168    655.0000     47.9250     20.8400      0.3736   2126.3000     34.2200    -60.9450
82.2500         206.0750      0.3145    655.0000     46.1400     20.8400      0.3781   2137.2000     31.7800    -59.7750
82.3750         208.1750      0.2956    649.0000     45.7950     20.1300      0.3668   2158.6001     28.8550    -58.5900
82.5000         211.7750      0.2773    636.8000     46.6200     18.6450      0.3586   2197.0000     24.5850    -57.0000
82.6250         215.1000      0.2607    629.0400     47.7750     17.5500      0.3529   2237.2000     19.8300    -55.4100
82.7500         211.4750      0.2451    589.3200     48.9300     16.7750      0.3473   2288.5000     18.6100    -54.3900
82.8750         205.4750      0.2303    566.8000     51.0900     15.6100      0.3481   2299.3999     19.6450    -54.4200
83.0000         206.0750      0.2478    583.0000     53.7150     14.3850      0.3563   2241.5000     21.2950    -53.2350
83.1250         209.6750      0.2856    615.9200     56.3400     14.3200      0.3634   2182.3999     21.7800    -51.4650
83.2500         210.8750      0.2985    602.0000     61.8750     14.5150      0.3732   2173.8000     21.4750    -50.7000
83.3750         213.0000      0.3085    548.3600     64.0950     14.3200      0.3871   2153.7000     17.2100    -48.9300
83.5000         218.1000      0.3053    508.6400     65.1300     13.8700      0.3904   2134.2000     15.0150    -47.9550
83.6250         222.9250      0.2930    475.6400     66.1950     12.9000      0.3931   2133.0000     17.0250    -47.9850
83.7500         222.3250      0.2737    477.8000     67.7550     11.6750      0.3878   2154.8999     22.8200    -48.6150
83.8750         221.1250      0.2589    506.5200     68.6700     10.5100      0.3829   2186.0000     26.6600    -49.2900
84.0000         219.6250      0.2564    509.3600     69.7650      9.9950      0.3758   2227.5000     23.7300    -48.7200
84.1250         218.4000      0.2499    541.4400     71.6700      9.6700      0.3728   2247.6001     17.8200    -47.7450
84.2500         216.6000      0.2494    576.1200     74.1300      9.2850      0.3769   2254.3000     11.6600    -46.3650
84.3750         220.5250      0.2567    593.3600     74.7600      8.8950      0.3799   2232.3999     10.7450    -45.3900
84.5000         216.9000      0.2556    613.8800     75.2400      8.3150      0.3807   2236.6001     10.7450    -45.2250
84.6250         204.2500      0.2744    610.6000     75.7200      7.9300      0.3773   2253.7000     10.9250    -45.2550
84.7500         192.5250      0.2972    594.2000     76.5600      7.6050      0.3687   2259.2000     11.1700    -45.2850
84.8750         188.6000      0.3087    573.7200     78.2550      7.4150      0.3976   2230.5000     12.0250    -45.8700
85.0000         189.5000      0.3089    593.3600     79.9800      7.5400      0.4227   2161.0000     12.3900    -46.5600
85.1250         191.9250      0.3037    606.8400     82.1850      7.6050      0.4407   2128.1001     12.0850    -46.6200
85.2500         196.7250      0.3023    619.1600     84.5250      7.7350      0.4628   2147.6001     11.5350    -48.0150
85.3750         201.2500      0.3053    622.1600     85.2450      7.6700      0.4768   2162.8999     12.2700    -49.2150
85.5000         202.7500      0.3085    621.3200     85.6500      7.4750      0.4733   2150.1001     15.5000    -50.3100
85.6250         202.4500      0.3127    633.8800     86.2350      7.2200      0.4741   2134.2000     17.3900    -50.1000
85.7500         203.0500      0.3169    645.5200     86.0850      6.9600      0.4820   2127.5000     16.8400    -49.6350
85.8750         204.5500      0.3224    645.6000     85.8300      6.7650      0.4783   2128.1001     16.1700    -48.9150
86.0000         205.4750      0.3239    645.6400     84.3900      6.4450      0.4763   2122.0000     14.0350    -48.0300
86.1250         205.4750      0.3229    646.8000     82.5000      6.1800      0.4723   2107.3999     10.8650    -46.2900
86.2500         202.7500      0.3227    648.5600     81.3750      5.4050      0.4643   2106.2000      9.8300    -45.6750
86.3750         199.7500      0.3235    637.7600     82.4700      5.0800      0.4512   2116.5000      9.9500    -45.2400
86.5000         198.2500      0.3236    625.4800     83.7300      4.5650      0.4493   2116.5000      9.8300    -45.1350
86.6250         197.9250      0.3235    659.6800     84.9900      4.3050      0.4452   2114.7000      9.5850    -45.3750
86.7500         197.3250      0.3215    682.2400     86.2500      4.1100      0.4467   2116.5000      9.1000    -45.8100
86.8750         200.6500      0.3113    679.3200     87.8550      3.7250      0.4632   2128.1001      8.7300    -45.8400
87.0000         204.2500      0.3119    673.6400     92.0700      3.5300      0.4658   2142.1001      8.7300    -45.8700
87.1250         206.3750      0.3183    667.8000     91.8150      3.3350      0.4655   2151.3000      8.6100    -45.9000
87.2500         203.3500      0.3215    672.6800     90.7200      3.1450      0.4711   2141.5000      8.4250    -45.0600
87.3750         202.1500      0.3232    678.6400     90.1200      3.0150      0.4748   2128.7000      8.1250    -44.7600
87.5000         203.0500      0.3275    700.7600     91.2600      2.8850      0.4813   2114.7000      8.0000    -44.7900
87.6250         204.2500      0.3298    703.7600     91.5750      2.8200      0.4906   2119.6001      7.8800    -44.8350
87.7500         206.3750      0.3340    705.0400     90.5550      2.7550      0.4993   2131.2000      7.8200    -44.8650
87.8750         208.4750      0.3384    698.8800     89.7000      2.5600      0.5075   2128.1001      7.8200    -44.3850
88.0000         208.4750      0.3437    688.7600     94.3650      2.5000      0.5139   2117.7000      8.1250    -44.9250
88.1250         208.4750      0.3483    667.1600     95.7900      2.3700      0.5236   2114.7000      8.3650    -45.0450
88.2500         209.9750      0.3539    663.6400     96.8850      2.3700      0.5368   2106.2000      8.3050    -45.5850
88.3750         209.6750      0.3573    675.9200     96.5550      2.3050      0.5458   2091.5000      7.5750    -45.6300
88.5000         205.1500      0.3606    697.0000     97.1550      2.2400      0.5514   2085.3999      7.7550    -45.5100
88.6250         202.7500      0.3506    667.6000     97.9800      2.2400      0.5642   2059.2000      7.5750    -45.0900
88.7500         199.7500      0.3415    688.0400     98.2200      2.1750      0.5581   2061.0000      7.4500    -45.1200
88.8750         200.3500      0.3341    727.0000     98.3850      2.1750      0.5439   2092.7000      7.1450    -44.6700
89.0000         201.8500      0.3302    729.0800     96.8550      2.1750      0.5334   2121.3999      7.0250    -44.9850
89.1250         203.3500      0.3299    730.5200     95.4750      2.3700      0.5345   2113.5000      7.6350    -45.6750
89.2500         203.3500      0.3322    745.4000     94.5000      2.4350      0.5341   2106.2000      7.6350    -45.8550
89.3750         203.9500      0.3367    765.9600     96.6750      2.5600      0.5236   2106.2000      8.1250    -45.8850
89.5000         204.2500      0.3391    732.3200     97.7250      2.6900      0.5221   2103.7000      7.9400    -45.3150
89.6250         203.6500      0.3413    712.9600     98.2950      2.8200      0.5169   2092.7000      7.2700    -45.3450
89.7500         202.7500      0.3425    703.2800     98.6250      3.0800      0.5105   2078.1001      7.4500    -45.3750
89.8750         203.0500      0.3416    689.4000     95.5950      3.4650      0.5056   2078.7000      8.3050    -45.4050
90.0000         203.3500      0.3350    675.7200     95.1900      3.7250      0.5038   2086.6001      8.4900    -45.4350
90.1250         204.8500      0.3283    666.0400     95.0100      3.9800      0.5003   2087.8999      8.4900    -45.4650
90.2500         206.9750      0.3242    643.8000     94.8300      4.1750      0.4955   2090.8999      8.6100    -45.5100
