~VERSION INFORMATION
 VERS.                 2.0:   CWLS LOG ASCII STANDARD -VERSION 2.0
 WRAP.                  NO:   ONE LINE PER DEPTH STEP
~WELL INFORMATION BLOCK
#MNEM.UNIT           DATA                    DESCRIPTION OF MNEMONIC
#---------    -------------------            -------------------------------
# Generated from Intellog Unique Number	CN_91_93/WELL/2857
WELL.         03-32-092-09W4                 : Well_name    - WELL
LOC .         AA/03-32-092-09W4/0            : Location     - LOCATION
UWI .         AA/03-32-092-09W400            : Uwi          - UNIQUE WELL ID
ENTR.         JOETTE                         : Entered      - ENTERED BY
SRVC.         SCHLUMBERGER                   : Scn          - SERVICE COMPANY
DATE.         03/31/92                       : Date         - LOG DATE
STRT.F        30                             : top_depth    - START DEPTH
STOP.F        309.692                        : bot_depth    - STOP DEPTH
STEP.F        0.8202                         : increment    - STEP LENGTH
 NULL. -999.2500:NULL Value
~CURVE INFORMATION BLOCK
#MNEM UNIT       ERCB CURVE CODE    CURVE DESCRIPTION
#-----------   ------------------   ----------------------------------
DEPT.F        00 001 00 00         : DEPTH        - DEPTH
CALI.IN       00 280 01 00         : CAL          - CALIPER
GR  .API      00 310 00 00         : GR           - GAMMA RAY
NPHI.V/V      00 330 00 00         : PHIN         - NEUTRON POROSITY (SANDSTONE)
DPHI.V/V      00 890 00 00         : PHID         - DENSITY POROSITY (SANDSTONE)
ILD .OHMM     00 120 00 00         : RESD         - DEEP RESISTIVITY (DIL)
~PARAMETER INFORMATION
#MNEM.UNIT           DATA             DESCRIPTION OF MNEMONIC
#---------         -----------     ------------------------------
GL  .M        332.262              : gl           - GROUND LEVEL ELEVATION
EREF.M        332.262              : kb           - ELEVATION OF DEPTH REFERENCE
DATM.M        332.262              : datum        - DATUM ELEVATION
TDD .M        98.1456              : tdd          - TOTAL DEPTH DRILLER
RUN .         ONE                  : Run          - RUN NUMBER
ENG .         JO                   : Engineer     - RECORDING ENGINEER
WIT .         TIM                  : Witness      - WITNESSED BY
MUD .         GEL                  : Mud_type     - MUD TYPE
MATR.         SANDSTONE            : Logunit      - NEUTRON MATRIX
TMAX.F        59                   : BHT          - MAXIMUM RECORDED TEMPERATURE
BHTD.F        322                  : BHTDEP       - MAXIMUM RECORDED TEMPERATURE
RMT .F        62                   : MDTP         - TEMPERATURE OF MUD
MUDD.LB/G     8.7                  : MWT          - MUD DENSITY
NEUT.         1                    : NEUTRON      - NEUTRON TYPE
RESI.         0                    : RESIST       - RESISTIVITY TYPE
RM  .OHMM     7                    : RM           - RESISTIVITY OF MUD
RMC .OHMM     7                    : RMC          - RESISTIVITY OF MUD CAKE
RMF .OHMM     7                    : RMF          - RESISTIVITY OF MUD FILTRATE
SUFT.F        39.2                 : SUFT         - SURFACE TEMPERATURE
~A  DEPTH      CAL       GR     PHIN     PHID     RESD
   30.000    7.549   70.599    0.552    0.196    1.000
   30.820    7.550   74.694    0.589    0.168    1.055
   31.640    7.503   73.830    0.538    0.181    1.114
   32.461    7.469   70.924    0.498    0.152    1.165
   33.281    7.446   69.769    0.537    0.161    1.208
   34.101    7.563   75.906    0.568    0.176    1.219
   34.921    7.564   78.252    0.612    0.136    1.219
   35.742    7.401   78.262    0.559    0.105    1.197
   36.562    7.261   73.314    0.530    0.123    1.175
   37.382    7.192   74.201    0.581    0.114    1.164
   38.202    7.180   73.337    0.573    0.143    1.185
   39.022    7.228   89.393    0.536    0.206    1.274
   39.843    7.391   80.653    0.554    0.331    2.602
   40.663    7.345   89.999    0.601    0.344    5.033
   41.483    6.809  107.223    0.588    0.336    6.140
   42.303    6.833  100.818    0.547    0.329    6.842
   43.123    6.833  103.745    0.583    0.324    7.355
   43.944    6.728  101.714    0.593    0.343    7.222
   44.764    6.729   97.934    0.566    0.355    6.537
   45.584    6.776   98.237    0.548    0.365    6.419
   46.404    6.823  101.165    0.549    0.359    6.303
   47.224    6.847   98.549    0.602    0.355    5.260
   48.045    6.836  105.853    0.567    0.350    4.719
   48.865    6.719  102.657    0.584    0.372    4.761
   49.685    6.755  104.125    0.590    0.334    5.551
   50.505    6.837   97.427    0.607    0.341    5.550
   51.325    6.826  121.361    0.605    0.335    4.934
   52.146    6.756   94.825    0.580    0.335    4.889
   52.966    6.827   86.668    0.588    0.327    4.007
   53.786    6.885   93.097    0.509    0.303    3.970
   54.606    6.851   88.734    0.500    0.293    4.546
   55.426    6.770  101.579    0.526    0.300    5.496
   56.247    6.770  101.882    0.520    0.279    4.755
   57.067    6.829   92.850    0.515    0.287    4.040
   57.887    7.121   99.279    0.529    0.290    5.444
   58.707    7.238   96.665    0.528    0.290    5.593
   59.528    6.970  104.554    0.598    0.325    4.112
   60.348    6.831   96.688    0.557    0.321    4.501
   61.168    6.843   81.529    0.492    0.321    4.624
   61.988    6.902   88.542    0.447    0.284    5.107
   62.808    7.194   75.426    0.421    0.232    8.319
   63.629    6.833   70.186    0.392    0.221   10.057
   64.449    6.693   78.657    0.377    0.224   16.237
   65.269    6.658   79.838    0.397    0.255   19.103
   66.089    6.659   78.971    0.436    0.279   17.137
   66.909    6.636   82.192    0.442    0.285   16.084
   67.730    6.508   84.829    0.443    0.292   14.429
   68.550    6.555   78.131    0.476    0.292   11.718
   69.370    6.579   68.806    0.483    0.319   14.688
   70.190    6.544   73.776    0.470    0.338   11.505
   71.010    6.522   79.041    0.510    0.339    9.177
   71.831    6.604   76.425    0.443    0.312    8.307
   72.651    6.616   91.314    0.459    0.303    8.306
   73.471    6.535   93.659    0.494    0.315    8.306
   74.291    6.488   82.001    0.494    0.315    8.845
   75.112    6.512   72.094    0.446    0.300    9.170
   75.932    6.664   58.686    0.448    0.301    8.607
   76.752    6.630   56.947    0.415    0.296   17.577
   77.572    6.479   64.835    0.383    0.305   20.868
   78.392    6.549   59.886    0.423    0.305   20.491
   79.213    6.654   55.813    0.409    0.286   20.488
   80.033    6.643   60.492    0.421    0.286   20.301
   80.853    6.690   57.294    0.395    0.280   21.430
   81.673    6.726   56.430    0.403    0.270   20.113
   82.493    6.691   67.820    0.356    0.289   19.573
   83.314    6.575   66.081    0.369    0.285   18.370
   84.134    6.447   66.384    0.403    0.284   20.105
   84.954    6.576   56.184    0.433    0.300   19.388
   85.774    6.576   56.779    0.408    0.312   20.652
   86.594    6.542   42.496    0.404    0.316   44.126
   87.415    6.531   46.591    0.375    0.321  210.785
   88.235    6.508   48.353    0.389    0.322  237.034
   89.055    6.485   55.657    0.394    0.342  154.964
   89.875    6.439   75.506    0.409    0.331   51.895
   90.695    6.392   92.145    0.426    0.334   23.847
   91.516    6.533  106.159    0.445    0.377   15.874
   92.336    6.662  149.930    0.530    0.327    7.563
   93.156    6.721  148.482    0.553    0.274    7.984
   93.976    6.744  128.073    0.539    0.254    9.564
   94.797    6.756  116.415    0.539    0.228   10.005
   95.617    6.757  114.384    0.506    0.223    9.825
   96.437    6.757  120.231    0.487    0.231    8.125
   97.257    6.769  128.409    0.502    0.241    7.978
   98.077    6.770  138.924    0.500    0.249    7.157
   98.898    6.770  140.687    0.524    0.239    7.156
   99.718    6.771  143.030    0.514    0.223    7.485
  100.538    6.771  128.457    0.530    0.255    7.621
  101.358    6.783  127.008    0.472    0.249    7.552
  102.178    6.807  128.186    0.473    0.239    7.282
  102.999    6.819  136.949    0.501    0.225    6.960
  103.819    6.785  137.253    0.475    0.254    6.591
  104.639    6.738  137.263    0.523    0.246    6.299
  105.459    6.716  130.272    0.535    0.258    6.242
  106.280    6.751  130.868    0.533    0.257    6.529
  107.100    6.786  125.045    0.504    0.257    6.892
  107.920    6.764  108.135    0.455    0.239    7.475
  108.740    6.729  107.563    0.466    0.237    8.035
  109.560    6.741  121.579    0.431    0.207    8.637
  110.381    6.777  120.422    0.442    0.211    8.953
  111.201    6.789  131.519    0.473    0.233    8.178
  112.021    6.754  118.986    0.515    0.236    8.252
  112.841    6.766  113.746    0.491    0.243    8.401
  113.661    6.767  118.133    0.487    0.239    8.553
  114.482    6.779  107.059    0.460    0.224    9.110
  115.302    6.768   86.941    0.477    0.230   13.931
  116.122    6.745   88.119    0.451    0.238   14.574
  116.942    6.710   82.588    0.439    0.244   17.618
  117.762    6.722   77.348    0.416    0.260   22.083
  118.583    6.559   81.445    0.373    0.247   18.098
  119.403    6.490   75.328    0.364    0.142   29.218
  120.223    6.514   75.631    0.362    0.072   25.509
  121.043    6.572  100.440    0.373    0.184   17.606
  121.864    6.713   87.032    0.394    0.242   15.096
  122.684    6.690   80.625    0.400    0.255   21.866
  123.504    6.515   91.722    0.420    0.249   19.973
  124.324    6.598   93.775    0.406    0.255   13.785
  125.144    6.715   82.409    0.431    0.245   17.594
  125.965    6.633   87.671    0.415    0.262   17.277
  126.785    6.529   91.476    0.392    0.245   15.639
  127.605    6.646   91.779    0.379    0.236   19.602
  128.425    6.646   78.078    0.377    0.245   24.349
  129.245    6.484   65.253    0.381    0.273   30.796
  130.066    6.414   49.219    0.394    0.296   38.600
  130.886    6.414   43.689    0.409    0.314   70.088
  131.706    6.403   50.117    0.379    0.309   44.999
  132.526    6.392   53.920    0.365    0.292   29.153
  133.346    6.392   70.853    0.348    0.264   26.390
  134.167    6.381   83.116    0.356    0.251   24.546
  134.987    6.428   80.210    0.392    0.248   22.020
  135.807    6.651   83.430    0.400    0.247   20.481
  136.627    6.896   80.816    0.415    0.266   24.096
  137.448    6.721   77.035    0.471    0.279   24.093
  138.268    6.489   88.134    0.454    0.254   18.535
  139.088    6.501   88.727    0.416    0.270   18.036
  139.908    6.478   73.567    0.448    0.260   19.740
  140.728    6.583   44.408    0.422    0.279   22.400
  141.549    6.444   53.461    0.423    0.266   26.593
  142.369    6.467   69.518    0.421    0.253   24.735
  143.189    6.550   68.362    0.376    0.230   27.072
  144.009    6.492   57.288    0.398    0.256   26.344
  144.829    6.655   63.717    0.389    0.260   21.984
  145.650    6.528   78.023    0.385    0.255   20.820
  146.470    6.493   77.743    0.389    0.238   24.276
  147.290    6.493   79.797    0.425    0.259   21.581
  148.110    6.459   79.227    0.414    0.261   21.578
  148.930    6.634   72.818    0.486    0.278   40.623
