~VERSION INFORMATION
 VERS.                 2.0:   CWLS LOG ASCII STANDARD -VERSION 2.0
 WRAP.                  NO:   ONE LINE PER DEPTH STEP
~WELL INFORMATION BLOCK
#MNEM.UNIT           DATA                    DESCRIPTION OF MNEMONIC
#---------    -------------------            -------------------------------
# Generated from Intellog Unique Number	CN_94_101/WELL/3191
WELL.         03-23-097-12W4                 : Well_name    - WELL
LOC .         AA/03-23-097-12W4/0            : Location     - LOCATION
UWI .         AA/03-23-097-12W400            : Uwi          - UNIQUE WELL ID
ENTR.         JOETTE                         : Entered      - ENTERED BY
SRVC.         SCHLUMBERGER                   : Scn          - SERVICE COMPANY
DATE.         08/17/92                       : Date         - LOG DATE
STRT.M        0                              : top_depth    - START DEPTH
STOP.M        130                            : bot_depth    - STOP DEPTH
STEP.M        0.25                           : increment    - STEP LENGTH
 NULL. -999.2500:NULL Value
~CURVE INFORMATION BLOCK
#MNEM UNIT       ERCB CURVE CODE    CURVE DESCRIPTION
#-----------   ------------------   ----------------------------------
DEPT.M        00 001 00 00         : DEPTH        - DEPTH
DPHI.V/V      00 890 00 00         : PHID         - DENSITY POROSITY (SANDSTONE)
NPHI.V/V      00 330 00 00         : PHIN         - NEUTRON POROSITY (SANDSTONE)
GR  .API      00 310 00 00         : GR           - GAMMA RAY
ILD .OHMM     00 120 00 00         : RESD         - DEEP RESISTIVITY (DIL)
~PARAMETER INFORMATION
#MNEM.UNIT           DATA             DESCRIPTION OF MNEMONIC
#---------         -----------     ------------------------------
GL  .M        338.9                : gl           - GROUND LEVEL ELEVATION
EREF.M        338.9                : kb           - ELEVATION OF DEPTH REFERENCE
DATM.M        338.9                : datum        - DATUM ELEVATION
TDD .M        131                  : tdd          - TOTAL DEPTH DRILLER
RUN .         ONE                  : Run          - RUN NUMBER
ENG .         JO                   : Engineer     - RECORDING ENGINEER
WIT .         TIM                  : Witness      - WITNESSED BY
MUD .         GEL                  : Mud_type     - MUD TYPE
MATR.         SANDSTONE            : Logunit      - NEUTRON MATRIX
TMAX.C        18                   : BHT          - MAXIMUM RECORDED TEMPERATURE
BHTD.M        131                  : BHTDEP       - MAXIMUM RECORDED TEMPERATURE
RMT .C        18                   : MDTP         - TEMPERATURE OF MUD
MUDD.KG/M     800                  : MWT          - MUD DENSITY
NEUT.         1                    : NEUTRON      - NEUTRON TYPE
RESI.         0                    : RESIST       - RESISTIVITY TYPE
RM  .OHMM     12.5                 : RM           - RESISTIVITY OF MUD
RMC .OHMM     12.5                 : RMC          - RESISTIVITY OF MUD CAKE
RMF .OHMM     12.5                 : RMF          - RESISTIVITY OF MUD FILTRATE
SUFT.C        4                    : SUFT         - SURFACE TEMPERATURE
~A  DEPTH     PHID     PHIN       GR     RESD
# ...
   43.500    0.325    0.442  127.997    6.304
   43.750    0.355    0.456  110.233    6.223
   44.000    0.441    0.442  104.161    5.975
   44.250    0.503    0.475   80.242    5.660
   44.500    0.480    0.475   80.380    5.213
   44.750    0.437    0.466   79.847    4.938
   45.000    0.412    0.519   83.062    4.810
   45.250    0.382    0.624   80.095    4.753
   45.500    0.371    0.598   81.436    4.699
   45.750    0.391    0.546   80.931    4.710
   46.000    0.391    0.447   75.502    4.715
   46.250    0.342    0.364   71.865    4.725
   46.500    0.307    0.349   63.975    4.804
   46.750    0.259    0.361   55.441    5.018
   47.000    0.248    0.384   61.733    7.150
   47.250    0.190    0.427   74.795    7.266
   47.500    0.272    0.453   83.522    7.284
   47.750    0.278    0.497   86.121    6.705
   48.000    0.271    0.468   78.819    6.355
   48.250    0.270    0.445   74.648    6.924
   48.500    0.295    0.442   78.424    8.452
   48.750    0.338    0.438   87.178    7.679
   49.000    0.378    0.466   97.162    6.970
   49.250    0.427    0.520   93.580    6.333
   49.500    0.491    0.555   89.998    6.078
   49.750    0.395    0.578   89.465    5.757
   50.000    0.265    0.558   96.988    5.305
   50.250    0.253    0.544   97.741    5.239
   50.500    0.259    0.552  100.313    5.252
   50.750    0.284    0.537  103.473    5.260
   51.000    0.287    0.551   94.352    5.421
   51.250    0.263    0.562   92.028    5.746
   51.500    0.251    0.550   95.803    6.447
   51.750    0.252    0.524   95.298    5.940
   52.000    0.264    0.497   94.793    5.869
   52.250    0.262    0.468   99.211    6.306
   52.500    0.259    0.416   95.656    6.972
   52.750    0.257    0.378   95.124    7.186
   53.000    0.262    0.400  100.828    6.345
   53.250    0.277    0.443  103.988    5.846
   53.500    0.302    0.516  103.483    5.779
   53.750    0.306    0.582  102.362    5.785
   54.000    0.257    0.575  105.549    5.882
   54.250    0.247    0.582  103.813    5.974
   54.500    0.247    0.481  103.308    6.699
   54.750    0.259    0.417   97.880    9.544
   55.000    0.279    0.384   82.577   11.326
   55.250    0.271    0.357   62.323   13.818
   55.500    0.273    0.387   48.250   17.346
   55.750    0.317    0.414   48.976   17.381
   56.000    0.343    0.426   49.702   16.235
   56.250    0.333    0.438   47.993   16.041
   56.500    0.324    0.405   56.104   15.202
   56.750    0.319    0.401   63.012   14.393
   57.000    0.310    0.381   60.017   14.437
   57.250    0.309    0.374   47.819   15.504
   57.500    0.315    0.366   40.517   21.176
   57.750    0.319    0.361   37.550   34.721
   58.000    0.314    0.358   41.380   48.119
   58.250    0.308    0.363   42.694   48.900
   58.500    0.300    0.373   47.167   49.693
   58.750    0.303    0.369   44.843   48.438
   59.000    0.311    0.343   43.667   43.944
   59.250    0.320    0.349   45.624   38.278
   59.500    0.319    0.379   49.427   36.735
   59.750    0.314    0.372   50.152   35.290
   60.000    0.286    0.359   51.521   31.601
   60.250    0.281    0.344   47.296   27.526
   60.500    0.289    0.372   49.252   25.697
   60.750    0.281    0.396   53.698   22.999
   61.000    0.256    0.397   59.963   20.887
   61.250    0.257    0.378   58.842   18.451
   61.500    0.261    0.396   55.903   17.478
   61.750    0.256    0.373   58.447   17.037
   62.000    0.240    0.368   59.173   17.295
   62.250    0.240    0.379   56.822   18.592
   62.500    0.203    0.373   57.547   22.377
   62.750    0.191    0.365   66.301   26.542
   63.000    0.269    0.361   52.844   31.058
   63.250    0.266    0.381   54.801   31.122
   63.500    0.258    0.389   67.863   29.465
   63.750    0.257    0.379   71.693   31.707
   64.000    0.263    0.380   67.495   30.444
   64.250    0.265    0.370   69.452   28.450
   64.500    0.242    0.366   69.562   29.320
   64.750    0.240    0.389   70.903   28.167
   65.000    0.256    0.395   83.993   26.654
   65.250    0.267    0.396   81.614   24.895
   65.500    0.274    0.374   76.773   26.790
   65.750    0.249    0.382   70.756   27.986
   66.000    0.253    0.399   70.839   29.250
   66.250    0.252    0.410   74.642   31.021
   66.500    0.238    0.417   69.213   32.898
   66.750    0.244    0.414   61.938   33.871
   67.000    0.287    0.408   56.510   35.902
   67.250    0.278    0.405   55.977   38.634
   67.500    0.279    0.395   59.192   39.240
   67.750    0.292    0.367   58.687   40.441
   68.000    0.283    0.361   55.077   43.474
   68.250    0.284    0.396   54.599   38.405
   68.500    0.310    0.373   57.759   36.361
   68.750    0.311    0.349   47.407   40.202
   69.000    0.288    0.367   41.336   57.275
   69.250    0.284    0.372   46.397   59.057
   69.500    0.315    0.362   45.892   56.705
   69.750    0.322    0.351   44.156   62.695
   70.000    0.315    0.344   40.546   84.479
   70.250    0.305    0.341   34.502   89.501
   70.500    0.301    0.350   35.227   87.197
   70.750    0.293    0.366   37.800   80.308
   71.000    0.293    0.364   40.454   73.963
   71.250    0.302    0.340   41.125   76.265
   71.500    0.308    0.330   43.724   80.798
   71.750    0.316    0.332   43.862   85.645
   72.000    0.312    0.324   43.945   78.878
   72.250    0.303    0.316   45.286   57.205
   72.500    0.298    0.336   48.446   52.659
   72.750    0.311    0.358   47.968   51.329
   73.000    0.315    0.364   44.386   52.135
   73.250    0.281    0.350   42.007   52.980
   73.500    0.270    0.339   47.068   50.896
   73.750    0.273    0.334   57.025   31.166
   74.000    0.213    0.373   71.318   23.247
   74.250    0.175    0.369   65.889   20.516
   74.500    0.180    0.360   77.105   18.124
   74.750    0.187    0.384   77.858   16.684
   75.000    0.192    0.440   79.787   15.583
   75.250    0.192    0.419   86.107   15.615
   75.500    0.188    0.418   86.832   16.101
   75.750    0.187    0.424   92.454   15.459
   76.000    0.185    0.435   95.669   14.231
   76.250    0.179    0.445   92.702   12.930
   76.500    0.172    0.456   98.351   12.597
   76.750    0.171    0.434  103.413   12.982
   77.000    0.178    0.430  101.034   13.569
   77.250    0.181    0.419   99.913   13.414
   77.500    0.185    0.414  103.716   13.062
   77.750    0.179    0.425  103.854   12.036
   78.000    0.171    0.439  102.118   11.720
   78.250    0.172    0.451   96.073   11.574
   78.500    0.181    0.426  101.723   11.436
   78.750    0.189    0.435  100.574   11.465
   79.000    0.188    0.439   97.020   11.651
   79.250    0.178    0.437   97.130   11.834
   79.500    0.171    0.426   97.856   12.381
   79.750    0.170    0.402   94.889   12.753
   80.000    0.175    0.410   90.663   13.150
   80.250    0.183    0.415   88.927   13.170
   80.500    0.194    0.398   94.604   12.659
   80.750    0.212    0.394   97.176   11.991
   81.000    0.213    0.406   97.902   11.682
   81.250    0.220    0.412   95.550   12.216
   81.500    0.227    0.404   99.353   12.943
   81.750    0.253    0.409   99.463   13.906
   82.000    0.266    0.409   92.804   16.045
   82.250    0.275    0.405   83.040   17.991
   82.500    0.273    0.399   73.276   20.459
   82.750    0.244    0.380   74.001   22.005
   83.000    0.242    0.383   72.908   22.701
   83.250    0.245    0.389   74.837   23.046
   83.500    0.249    0.389   78.695   23.431
   83.750    0.250    0.380   75.756   23.811
   84.000    0.245    0.368   74.580   25.227
   84.250    0.230    0.354   75.306   28.287
   84.500    0.292    0.382   74.185   33.569
   84.750    0.289    0.368   70.603   37.660
   85.000    0.279    0.358   65.762   39.898
   85.250    0.276    0.352   60.334   40.020
   85.500    0.305    0.368   66.598   38.970
   85.750    0.298    0.368   65.478   44.315
   86.000    0.298    0.344   61.895   46.997
   86.250    0.309    0.340   60.775   46.412
   86.500    0.303    0.344   65.808   47.164
   86.750    0.299    0.357   62.842   64.419
