~VERSION INFORMATION
 VERS.                 2.0:   CWLS LOG ASCII STANDARD -VERSION 2.0
 WRAP.                  NO:   ONE LINE PER DEPTH STEP
~WELL INFORMATION BLOCK
#MNEM.UNIT           DATA                    DESCRIPTION OF MNEMONIC
#---------    -------------------            -------------------------------
# Generated from Intellog Unique Number	CN_94_101/WELL/3271
WELL.         CDC OIL & GAS LTD.             : Well_name    - WELL
LOC .         AA/01-01-095-07W4/0            : Location     - LOCATION
UWI .         AA/01-01-095-07W400            : Uwi          - UNIQUE WELL ID
ENTR.         TIM                            : Entered      - ENTERED BY
SRVC.         SCHLUMBERGER                   : Scn          - SERVICE COMPANY
DATE.         07/22/92                       : Date         - LOG DATE
STRT.M        90                             : top_depth    - START DEPTH
STOP.M        300                            : bot_depth    - STOP DEPTH
STEP.M        0.25                           : increment    - STEP LENGTH
 NULL. -999.2500:NULL Value
~CURVE INFORMATION BLOCK
#MNEM UNIT       ERCB CURVE CODE    CURVE DESCRIPTION
#-----------   ------------------   ----------------------------------
DEPT.M        00 001 00 00         : DEPTH        - DEPTH
GR  .API      00 310 00 00         : GR           - GAMMA RAY
ILD .OHMM     00 120 00 00         : RESD         - DEEP RESISTIVITY (DIL)
NPHI.V/V      00 330 00 00         : PHIN         - NEUTRON POROSITY (SANDSTONE)
DPHI.V/V      00 890 00 00         : PHID         - DENSITY POROSITY (SANDSTONE)
~PARAMETER INFORMATION
#MNEM.UNIT           DATA             DESCRIPTION OF MNEMONIC
#---------         -----------     ------------------------------
GL  .M        530.35               : gl           - GROUND LEVEL ELEVATION
EREF.M        531.35               : kb           - ELEVATION OF DEPTH REFERENCE
DATM.M        531.35               : datum        - DATUM ELEVATION
TDD .M        298                  : tdd          - TOTAL DEPTH DRILLER
RUN .         0.000000             : Run          - RUN NUMBER
MUD .         GEL                  : Mud_type     - MUD TYPE
MATR.         SANDSTONE            : Logunit      - NEUTRON MATRIX
TMAX.C        18                   : BHT          - MAXIMUM RECORDED TEMPERATURE
BHTD.M        298.5                : BHTDEP       - MAXIMUM RECORDED TEMPERATURE
RMT .C        18                   : MDTP         - TEMPERATURE OF MUD
MUDD.KG/M     1140                 : MWT          - MUD DENSITY
NEUT.         1                    : NEUTRON      - NEUTRON TYPE
RESI.         0                    : RESIST       - RESISTIVITY TYPE
RM  .OHMM     5.88                 : RM           - RESISTIVITY OF MUD
RMC .OHMM     5.88                 : RMC          - RESISTIVITY OF MUD CAKE
RMF .OHMM     6.6                  : RMF          - RESISTIVITY OF MUD FILTRATE
SUFT.C        4                    : SUFT         - SURFACE TEMPERATURE
BTZC.MM       0                    : BITZC        - BIT SIZE CONSTANT
MDW .KG/M     1120                 : MDW          - MUD WEIGHT
~A  DEPTH       GR     RESD     PHIN     PHID
# ...
  220.500   57.357   18.604    0.367    0.255
  220.750   59.801   23.663    0.349    0.260
  221.000   66.546   26.450    0.356    0.232
  221.250   74.521   24.139    0.365    0.217
  221.500   81.266   17.027    0.398    0.201
  221.750   87.395   16.722    0.406    0.193
  222.000   92.910   15.548    0.418    0.180
  222.250   94.734   14.720    0.428    0.196
  222.500   94.712   13.434    0.422    0.201
  222.750   94.690   11.819    0.413    0.200
  223.000   94.662   11.396    0.416    0.210
  223.250   94.025   11.198    0.424    0.213
  223.500   93.388   12.064    0.436    0.216
  223.750   92.142   12.997    0.438    0.226
  224.000   89.033   14.801    0.432    0.235
  224.250   86.562   15.942    0.432    0.241
  224.500   82.234   17.820    0.432    0.268
  224.750   77.291   20.289    0.420    0.281
  225.000   71.117   23.968    0.405    0.285
  225.250   69.860   26.791    0.395    0.267
  225.500   72.298   27.824    0.393    0.252
  225.750   74.122   28.357    0.390    0.258
  226.000   73.485   28.907    0.398    0.265
  226.250   71.618   30.579    0.409    0.264
  226.500   69.135   32.348    0.420    0.267
  226.750   64.187   34.213    0.424    0.272
  227.000   61.710   34.875    0.398    0.275
  227.250   59.837   34.895    0.384    0.281
  227.500   60.430   34.284    0.387    0.281
  227.750   66.565   34.310    0.394    0.254
  228.000   68.998   33.708    0.394    0.250
  228.250   68.971   33.124    0.397    0.264
  228.500   67.730   33.149    0.402    0.277
  228.750   64.012   33.791    0.407    0.289
  229.000   62.150   35.739    0.406    0.297
  229.250   58.437   38.503    0.399    0.307
  229.500   52.879   40.715    0.396    0.308
  229.750   53.467   44.679    0.400    0.294
  230.000   55.290   45.544    0.402    0.281
  230.250   56.499   45.596    0.405    0.274
  230.500   55.862   44.789    0.406    0.280
  230.750   52.764   44.839    0.403    0.289
  231.000   49.046   44.856    0.399    0.297
  231.250   47.184   44.890    0.394    0.293
  231.500   56.389   45.760    0.391    0.282
  231.750   61.283   45.803    0.397    0.273
  232.000   61.261   45.837    0.404    0.274
  232.250   58.773   46.734    0.400    0.279
  232.500   56.296   48.508    0.405    0.283
  232.750   51.963   53.230    0.402    0.285
  233.000   50.101   59.511    0.401    0.290
  233.250   50.085   72.928    0.407    0.298
  233.500   50.678   96.227    0.409    0.303
  233.750   49.420  113.740    0.383    0.308
  234.000   48.789  111.705    0.378    0.294
  234.250   46.916  105.776    0.384    0.293
  234.500   46.900   98.332    0.408    0.304
  234.750   47.493   89.742    0.408    0.299
  235.000   51.156   78.939    0.383    0.278
  235.250   53.600   70.715    0.377    0.272
  235.500   57.270   63.359    0.371    0.261
  235.750   61.554   53.725    0.361    0.248
  236.000   63.992   48.127    0.364    0.237
  236.250   60.889   41.568    0.387    0.261
  236.500   55.326   37.245    0.393    0.272
  236.750   52.233   38.672    0.403    0.286
  237.000   47.906   41.663    0.415    0.300
  237.250   51.575   44.884    0.422    0.297
  237.500   55.244   45.754    0.418    0.271
  237.750   56.447   44.977    0.411    0.269
  238.000   57.040   43.374    0.416    0.281
  238.250   56.397   42.606    0.425    0.290
  238.500   55.771   42.638    0.427    0.297
  238.750   54.519   45.096    0.428    0.304
  239.000   52.652   50.408    0.423    0.304
  239.250   50.779   58.461    0.413    0.306
  239.500   52.602   70.333    0.383    0.311
  239.750   56.277   83.086    0.373    0.312
  240.000   59.946   94.600    0.362    0.312
  240.250   61.770   98.226    0.368    0.306
  240.500   62.978   98.337    0.373    0.296
  240.750   61.720   96.614    0.384    0.299
  241.000   61.699   96.669    0.394    0.301
  241.250   63.528   96.760    0.406    0.305
  241.500   66.581   96.833    0.409    0.293
  241.750   68.405   98.690    0.408    0.292
  242.000   67.768  106.342    0.406    0.288
  242.250   64.670  116.674    0.395    0.284
  242.500   60.342  137.830    0.378    0.280
  242.750   53.548  159.879    0.367    0.286
  243.000   48.600  165.976    0.360    0.297
  243.250   51.039  172.339    0.366    0.296
  243.500   47.947  169.351    0.377    0.280
  243.750   43.003  166.353    0.396    0.302
  244.000   38.060  163.438    0.408    0.314
  244.250   38.038  176.076    0.415    0.318
  244.500   39.247  241.096    0.418    0.319
  244.750   39.225  306.605    0.418    0.319
  245.000   37.967  412.082    0.419    0.318
  245.250   36.100  564.147    0.419    0.316
  245.500   33.623  758.365    0.414    0.312
  245.750   33.596  631.068    0.409    0.316
  246.000   32.344  413.328    0.401    0.315
  246.250   31.706  286.106    0.390    0.305
  246.500   35.991  201.727    0.385    0.296
  246.750   40.280  147.602    0.389    0.301
  247.000   40.258  147.741    0.396    0.304
  247.250   37.770  153.376    0.407    0.305
  247.500   35.283  159.225    0.413    0.307
  247.750   34.036  168.405    0.412    0.316
  248.000   32.158  181.427    0.409    0.322
  248.250   30.301  199.129    0.401    0.328
  248.500   27.819  214.486    0.396    0.338
  248.750   30.252  239.749    0.391    0.341
  249.000   30.851  283.222    0.390    0.337
  249.250   30.208  387.808    0.400    0.336
  249.500   32.032  571.538    0.424    0.337
  249.750   35.086  740.354    0.427    0.341
  250.000   39.375  797.603    0.430    0.339
  250.250   43.660  676.194    0.432    0.335
  250.500   39.941  715.177    0.437    0.334
  250.750   36.234  844.859    0.434    0.337
  251.000   31.906  910.187    0.427    0.340
  251.250   28.808  815.665    0.410    0.336
  251.500   30.632  704.238    0.395    0.340
  251.750   28.765  505.875    0.405    0.344
  252.000   26.282  436.768    0.420    0.343
  252.250   28.089  377.244    0.417    0.336
  252.500   29.924  370.704    0.408    0.339
  252.750   30.517  364.071    0.409    0.340
  253.000   30.495  326.201    0.419    0.342
  253.250   30.473  266.539    0.420    0.350
  253.500   31.676  281.905    0.422    0.353
  253.750   32.885  378.884    0.419    0.348
  254.000   35.324  671.527    0.417    0.347
  254.250   37.757  793.295    0.419    0.345
  254.500   39.591  972.332    0.418    0.344
  254.750   46.951 1259.530    0.417    0.343
  255.000   59.853 1487.920    0.412    0.338
  255.250   76.440 1489.040    0.408    0.334
  255.500   78.879 1286.110    0.407    0.331
  255.750   60.391 1152.120    0.402    0.328
  256.000   48.072  700.963    0.390    0.327
  256.250   39.438  368.007    0.367    0.321
  256.500   38.186  176.161    0.359    0.316
  256.750   43.695  126.518    0.357    0.305
  257.000   46.139   81.352    0.382    0.297
  257.250   53.499   58.426    0.405    0.274
  257.500   55.323   55.335    0.409    0.247
  257.750   41.762   56.407    0.401    0.279
  258.000   37.440   61.899    0.392    0.302
  258.250   32.496   80.168    0.379    0.315
  258.500   30.003  150.166    0.363    0.299
  258.750   29.366  251.786    0.376    0.308
  259.000   29.959  385.008    0.387    0.319
  259.250   30.558  708.006    0.382    0.326
  259.500   30.536  900.382    0.372    0.313
  259.750   30.514 1083.430    0.357    0.302
  260.000   31.108 1233.570    0.346    0.296
  260.250   31.086 1257.460    0.359    0.307
  260.500   30.449 1147.620    0.380    0.311
  260.750   29.191  839.549    0.386    0.313
  261.000   29.164  539.833    0.392    0.317
  261.250   29.153  366.848    0.398    0.319
  261.500   31.581  288.903    0.403    0.317
  261.750   32.179  227.476    0.409    0.305
  262.000   32.778  172.660    0.402    0.291
  262.250   32.141  182.649    0.361    0.278
  262.500   30.889  269.181    0.348    0.269
  262.750   30.867  689.628    0.339    0.267
  263.000   32.070 1199.960    0.332    0.263
  263.250   32.048 1269.380    0.332    0.264
  263.500   30.796 1137.130    0.348    0.270
  263.750   30.164  691.713    0.357    0.278
