~VERSION INFORMATION
 VERS.                 2.0:   CWLS LOG ASCII STANDARD -VERSION 2.0
 WRAP.                  NO:   ONE LINE PER DEPTH STEP
~WELL INFORMATION BLOCK
#MNEM.UNIT           DATA                    DESCRIPTION OF MNEMONIC
#---------    -------------------            -------------------------------
# Generated from Intellog Unique Number	CN_94_101/WELL/3212
WELL.         SHELL CANADA LTD.              : Well_name    - WELL
LOC .         AA/01-23-095-17W4/0            : Location     - LOCATION
UWI .         AA/01-23-095-17W4/0            : Uwi          - UNIQUE WELL ID
ENTR.         JOETTE                         : Entered      - ENTERED BY
SRVC.         SCHLUMBERGER                   : Scn          - SERVICE COMPANY
DATE.         07/27/92                       : Date         - LOG DATE
STRT.F        350                            : top_depth    - START DEPTH
STOP.F        989.764                        : bot_depth    - STOP DEPTH
STEP.F        0.82                           : increment    - STEP LENGTH
 NULL. -999.2500:NULL Value
~CURVE INFORMATION BLOCK
#MNEM UNIT       ERCB CURVE CODE    CURVE DESCRIPTION
#-----------   ------------------   ----------------------------------
DEPT.F        00 001 00 00         : DEPTH        - DEPTH
ILD .OHMM     00 120 00 00         : RESD         - DEEP RESISTIVITY (DIL)
GR  .API      00 310 00 00         : GR           - GAMMA RAY
DPHI.V/V      00 890 00 00         : PHID         - DENSITY POROSITY (SANDSTONE)
~PARAMETER INFORMATION
#MNEM.UNIT           DATA             DESCRIPTION OF MNEMONIC
#---------         -----------     ------------------------------
GL  .M        582.778              : gl           - GROUND LEVEL ELEVATION
EREF.M        583.997              : kb           - ELEVATION OF DEPTH REFERENCE
DATM.M        583.997              : datum        - DATUM ELEVATION
TDD .M        275.844              : tdd          - TOTAL DEPTH DRILLER
RUN .         ONE                  : Run          - RUN NUMBER
ENG .         BILL                 : Engineer     - RECORDING ENGINEER
WIT .         JIM                  : Witness      - WITNESSED BY
MUD .         GEL                  : Mud_type     - MUD TYPE
MATR.         SANDSTONE            : Logunit      - NEUTRON MATRIX
TMAX.F        69                   : BHT          - MAXIMUM RECORDED TEMPERATURE
BHTD.F        1005                 : BHTDEP       - MAXIMUM RECORDED TEMPERATURE
RMT .F        69                   : MDTP         - TEMPERATURE OF MUD
MUDD.LB/G     9.8                  : MWT          - MUD DENSITY
NEUT.         1                    : NEUTRON      - NEUTRON TYPE
RESI.         0                    : RESIST       - RESISTIVITY TYPE
RM  .OHMM     0.95                 : RM           - RESISTIVITY OF MUD
RMC .OHMM     0.95                 : RMC          - RESISTIVITY OF MUD CAKE
RMF .OHMM     0.95                 : RMF          - RESISTIVITY OF MUD FILTRATE
SUFT.F        4                    : SUFT         - SURFACE TEMPERATURE
~A  DEPTH     RESD       GR     PHID
  350.000   37.679   30.988    0.387
  350.820   38.412   34.635    0.384
  351.640   38.476   33.489    0.390
  352.461   38.515   34.144    0.395
  353.281   37.868   37.805    0.402
  354.101   37.932   37.849    0.405
  354.921   37.983   40.886    0.402
  355.741   38.021   39.159    0.404
  356.562   38.072   38.042    0.405
  357.382   38.123   42.865    0.398
  358.202   38.200   51.855    0.397
  359.022   38.264   58.493    0.398
  359.843   39.021   54.370    0.390
  360.663   39.060   49.086    0.382
  361.483   39.860   44.978    0.388
  362.303   39.900   41.435    0.392
  363.123   39.954   35.541    0.397
  363.944   40.021   38.592    0.396
  364.764   39.349   39.247    0.394
  365.584   38.688   36.940    0.389
  366.404   38.014   36.999    0.387
  367.224   37.376   37.639    0.390
  368.045   36.711   38.294    0.398
  368.865   36.773   38.368    0.390
  369.685   38.243   39.038    0.384
  370.505   37.564   39.678    0.397
  371.325   36.265   40.928    0.409
  372.146   36.289   43.964    0.399
  372.966   35.668   48.801    0.395
  373.786   35.716   46.479    0.400
  374.606   35.764   42.371    0.398
  375.427   35.163   38.263    0.396
  376.247   34.596   34.750    0.394
  377.067   34.620   37.206    0.394
  377.887   35.317   40.242    0.391
  378.707   35.352   41.492    0.384
  379.528   35.400   36.804    0.377
  380.348   35.459   32.681    0.383
  381.168   35.506   32.160    0.388
  381.988   35.554   35.181    0.390
  382.808   34.946   37.622    0.389
  383.629   34.347   37.086    0.384
  384.449   33.149   36.550    0.382
  385.269   32.570   39.036    0.393
  386.089   31.423   40.256    0.403
  386.909   29.777   42.102    0.411
  387.730   28.208   43.962    0.405
  388.550   26.704   45.807    0.392
  389.370   25.280   47.653    0.395
  390.190   22.641   53.666    0.388
  391.010   19.904   65.052    0.371
  391.831   11.839   84.178    0.346
  392.651    7.307  111.639    0.338
  393.471    4.684  117.652    0.315
  394.291    5.050  111.162    0.284
  395.112    5.450  111.222    0.249
  395.932    4.974  127.966    0.303
  396.752    4.622  128.621    0.302
  397.572    4.628  123.322    0.308
  398.392    4.992  120.420    0.324
  399.213    5.385  119.884    0.325
  400.033    5.702  130.064    0.319
  400.853    5.606  133.696    0.312
  401.673    4.838  130.198    0.300
  402.493    4.414  126.075    0.283
  403.314    4.943  113.632    0.233
  404.134    5.534  109.524    0.210
  404.954    5.644  112.560    0.197
  405.774    5.149  125.732    0.231
  406.594    4.202  127.578    0.291
  407.415    4.212  124.065    0.284
  408.235    4.216  120.552    0.278
  409.055    4.216  121.802    0.286
  409.875    4.226  123.677    0.298
  410.696    4.233  128.485    0.301
  411.516    4.239  130.926    0.298
  412.336    4.246  134.572    0.314
  413.156    4.249  136.418    0.312
  413.976    4.258  142.431    0.292
  414.797    4.262  140.704    0.304
  415.617    4.270  138.397    0.315
  416.437    4.275  132.503    0.319
  417.257    4.359  125.403    0.329
  418.077    4.619  121.890    0.324
  418.898    4.799  124.331    0.311
  419.718    5.081  123.810    0.320
  420.538    5.280  120.297    0.319
  421.358    5.387  119.761    0.308
  422.178    5.396  122.202    0.292
  422.999    5.405  123.452    0.293
  423.819    5.118  115.772    0.305
  424.639    4.670  119.404    0.300
  425.459    4.676  121.859    0.298
  426.280    5.137  114.164    0.305
  427.100    5.751  107.675    0.302
  427.920    6.813  103.567    0.307
  428.740    7.349  103.626    0.304
  429.560    7.359  107.273    0.295
  430.381    6.712  113.286    0.293
  431.201    5.580  124.076    0.287
  432.021    5.909  122.945    0.287
  432.841    7.128  120.623    0.290
  433.661    6.753  126.636    0.297
  434.482    5.825  132.664    0.308
  435.302    4.754  125.579    0.310
  436.122    4.760  118.479    0.318
  436.942    5.329  119.149    0.318
  437.762    5.141  123.971    0.313
  438.583    4.355  127.008    0.314
  439.403    3.828  122.899    0.316
  440.223    3.905  115.815    0.315
  441.043    5.890  106.944    0.309
  441.864    8.558  101.049    0.302
  442.684    9.405   92.163    0.288
  443.504   11.343  100.573    0.201
  444.324   13.428  113.745    0.220
  445.144   13.198  109.637    0.349
  445.965    9.459   94.797    0.345
  446.785   11.411   83.560    0.341
  447.605   12.305   85.391    0.347
  448.425   13.029   84.870    0.357
  449.245   13.291   84.334    0.366
  450.066   12.586   90.942    0.365
  450.886   10.271  102.909    0.342
  451.706    4.455  114.295    0.313
  452.526    4.140  111.973    0.316
  453.346    4.069  115.009    0.322
  454.167    4.817  115.679    0.335
  454.987    6.870  116.333    0.312
  455.807    7.140  121.171    0.306
  456.627    6.279  118.253    0.303
  457.448    5.835  123.671    0.298
  458.268    5.735  121.349    0.307
  459.088    5.638  111.868    0.312
  459.908    5.646  103.592    0.309
  460.728    6.442  106.628    0.297
  461.549    7.912  112.061    0.317
  462.369    7.495  115.692    0.321
  463.189    7.098  119.919    0.318
  464.009    7.513  119.383    0.327
  464.829    8.262  121.839    0.307
  465.650    7.536  118.326    0.302
  466.470    6.150  110.051    0.306
  467.290    4.928  105.332    0.319
  468.110    5.216  101.820    0.324
  468.930    5.421  107.848    0.307
  469.751    4.946  107.907    0.326
  470.571    3.747  102.013    0.316
  471.391    4.195  102.668    0.323
  472.211    4.613  114.649    0.329
  473.031    4.052  117.090    0.327
  473.852    3.630  112.386    0.316
  474.672    3.916  116.018    0.306
  475.492    4.384  113.116    0.305
  476.312    5.002  114.961    0.301
  477.133    5.101  116.211    0.310
  477.953    5.507  116.271    0.313
  478.773    5.616  105.614    0.317
  479.593    5.124   98.514    0.305
  480.413    4.852   90.834    0.296
  481.234    6.074   92.694    0.304
  482.054    8.042   92.783    0.311
  482.874    9.520   92.828    0.309
  483.694    9.897   98.826    0.321
  484.514    9.373   93.527    0.329
  485.335    8.709  104.318    0.323
  486.155    7.107  111.521    0.324
  486.975    5.287  110.986    0.335
  487.795    4.155   97.947    0.349
  488.615    3.935   62.270    0.380
  489.436    8.295   54.575    0.419
  490.256  137.915   45.719    0.436
  491.076  241.369   48.145    0.433
  491.896  350.610   53.577    0.440
  492.717  351.080   57.209    0.448
  493.537  291.881   56.673    0.434
  494.357  161.172   57.328    0.390
  495.177   82.588   56.821    0.379
  495.997   48.221   55.095    0.381
  496.818   24.717   54.559    0.373
  497.638   20.550   55.214    0.372
  498.458   22.590   61.807    0.369
  499.278   22.204   72.003    0.359
  500.098   19.886   79.802    0.356
  500.919   17.481  108.468    0.350
  501.739   16.250  119.839    0.325
  502.559   17.205  116.922    0.311
  503.379   18.217  109.837    0.321
  504.199   19.288  101.562    0.335
  505.020   20.429   95.072    0.332
  505.840   20.848   80.247    0.331
  506.660   20.477   61.836    0.343
  507.480   20.889   48.797    0.361
  508.301   22.541   50.062    0.366
  509.121   24.314   53.679    0.366
  509.941   23.458   58.501    0.371
  510.761   21.805   63.934    0.366
  511.581   21.432   63.413    0.359
  512.402   21.468   59.305    0.359
  513.222   20.711   56.983    0.357
  514.042   21.136   60.019    0.328
  514.862   22.791   67.223    0.312
  515.682   23.686   91.707    0.321
  516.503   18.624   99.506    0.337
  517.323   10.870   87.658    0.352
  518.143   10.688   76.406    0.367
  518.963   12.890   66.924    0.367
  519.783   15.259   61.045    0.356
  520.604   15.566   69.439    0.356
  521.424   14.475   80.811    0.345
  522.244   13.712   94.578    0.326
  523.064   11.828  108.346    0.323
  523.885    8.633  118.526    0.331
  524.705    6.069  132.889    0.316
  525.525    4.268  131.758    0.317
  526.345    4.520  129.451    0.324
  527.165    4.969  127.114    0.321
