~VERSION INFORMATION
 VERS.                 2.0:   CWLS LOG ASCII STANDARD -VERSION 2.0
 WRAP.                  NO:   ONE LINE PER DEPTH STEP
~WELL INFORMATION BLOCK
#MNEM.UNIT           DATA                    DESCRIPTION OF MNEMONIC
#---------    -------------------            -------------------------------
# Generated from Intellog Unique Number	CN_91_93/WELL/2898
WELL.         03-15-092-10W4                 : Well_name    - WELL
LOC .         AA/03-15-092-10W4/0            : Location     - LOCATION
UWI .         AA/03-15-092-10W400            : Uwi          - UNIQUE WELL ID
ENTR.         JOETTE                         : Entered      - ENTERED BY
SRVC.         WESTERN ATLAS                  : Scn          - SERVICE COMPANY
DATE.         03/31/92                       : Date         - LOG DATE
STRT.F        0                              : top_depth    - START DEPTH
STOP.F        209.974                        : bot_depth    - STOP DEPTH
STEP.F        0.82021                        : increment    - STEP LENGTH
 NULL. -999.2500:NULL Value
~CURVE INFORMATION BLOCK
#MNEM UNIT       ERCB CURVE CODE    CURVE DESCRIPTION
#-----------   ------------------   ----------------------------------
DEPT.F        00 001 00 00         : DEPTH        - DEPTH
CALI.IN       00 280 01 00         : CAL          - CALIPER
GR  .API      00 310 00 00         : GR           - GAMMA RAY
DPHI.V/V      00 890 00 00         : PHID         - DENSITY POROSITY (SANDSTONE)
ILD .OHMM     00 120 00 00         : RESD         - DEEP RESISTIVITY (DIL)
~PARAMETER INFORMATION
#MNEM.UNIT           DATA             DESCRIPTION OF MNEMONIC
#---------         -----------     ------------------------------
GL  .M        330.86               : gl           - GROUND LEVEL ELEVATION
EREF.M        330.86               : kb           - ELEVATION OF DEPTH REFERENCE
DATM.M        330.86               : datum        - DATUM ELEVATION
TDD .M        68.8848              : tdd          - TOTAL DEPTH DRILLER
RUN .         ONE                  : Run          - RUN NUMBER
ENG .         JO                   : Engineer     - RECORDING ENGINEER
WIT .         TIM                  : Witness      - WITNESSED BY
MUD .         GEL                  : Mud_type     - MUD TYPE
MATR.         SANDSTONE            : Logunit      - NEUTRON MATRIX
TMAX.F        34                   : BHT          - MAXIMUM RECORDED TEMPERATURE
BHTD.F        226                  : BHTDEP       - MAXIMUM RECORDED TEMPERATURE
RMT .F        60                   : MDTP         - TEMPERATURE OF MUD
MUDD.LB/G     1                    : MWT          - MUD DENSITY
NEUT.         1                    : NEUTRON      - NEUTRON TYPE
RESI.         0                    : RESIST       - RESISTIVITY TYPE
RM  .OHMM     10                   : RM           - RESISTIVITY OF MUD
RMC .OHMM     10                   : RMC          - RESISTIVITY OF MUD CAKE
RMF .OHMM     10                   : RMF          - RESISTIVITY OF MUD FILTRATE
SUFT.F        39.2                 : SUFT         - SURFACE TEMPERATURE
~A  DEPTH      CAL       GR     PHID     RESD
    0.000    6.120   15.066    0.344    0.000
    0.820    6.142   15.555    0.340    0.000
    1.640    6.201   15.806    0.318    0.000
    2.461    6.261   16.055    0.316    0.000
    3.281    6.379   16.080    0.312    0.000
    4.101    6.457   16.094    0.298    0.000
    4.921    6.517   17.976    0.299    0.000
    5.741    6.654   20.307    0.298    0.000
    6.562    6.926   24.268    0.285    0.000
    7.382    7.236   27.300    0.265    0.000
    8.202    7.528   29.871    0.262    0.000
    9.022    7.704   30.357    0.234    0.000
    9.843    7.822   31.999    0.211    0.000
   10.663    7.861   34.104    0.197    0.000
   11.483    8.018   36.443    0.186    0.000
   12.303    8.367   37.621    0.175    0.000
   13.123    9.122   37.409    0.181    0.000
   13.944    9.471   37.435    0.186    0.000
   14.764    9.415   38.149    0.203    0.000
   15.584    9.513   41.413    0.224    0.000
   16.404    9.785   46.762    0.244    0.000
   17.224    9.883   50.491    0.236    0.000
   18.045    9.866   53.987    0.220    0.000
   18.865    9.771   57.719    0.200    0.000
   19.685    9.522   57.044    0.192    0.000
   20.505    9.427   57.069    0.184    0.000
   21.326    9.429   56.851    0.171    0.000
   22.146    9.276   56.176    0.178    0.000
   22.966    9.084   55.506    0.166    0.000
   23.786    8.835   56.684    0.158    0.000
   24.606    8.586   57.399    0.153    0.000
   25.427    8.472   57.650    0.156    0.000
   26.247    8.628   60.218    0.202    0.000
   27.067    8.726   61.170    0.215    0.000
   27.887    8.998   59.797    0.215    0.000
   28.707    8.962   56.804    0.224    0.000
   29.528    8.847   61.232    0.227    0.000
   30.348    8.714   61.486    0.232    0.000
   31.168    8.542   60.582    0.224    0.000
   31.988    8.408   61.294    0.220    0.000
   32.808    8.352   62.701    0.239    0.000
   33.629    8.354   61.565    0.235    0.000
   34.449    8.278   59.731    0.237    0.000
   35.269    8.241   61.372    0.258    0.000
   36.089    8.127   58.614    0.269    0.000
   36.910    7.955   54.000    0.271    0.000
   37.730    7.957   42.666    0.301    0.000
   38.550    8.074   34.808    0.300    0.000
   39.370    8.076   32.745    0.286    0.000
   40.190    7.923   30.908    0.265    0.000
   41.011    7.887   29.537    0.272    0.000
   41.831    7.889   31.648    0.270    0.000
   42.651    7.851   32.597    0.267    0.000
   43.471    7.814   33.775    0.274    0.000
   44.291    7.719   34.951    0.276    0.000
   45.111    7.644   36.366    0.268    0.000
   45.932    7.627   38.703    0.260    0.000
   46.752    7.628   41.969    0.265    0.000
   47.572    7.610   42.221    0.256    0.000
   48.392    7.574   42.701    0.260    0.000
   49.213    7.479   45.970    0.262    0.000
   50.033    7.365   47.609    0.251   43.888
   50.853    7.270   49.021    0.250   55.080
   51.673    7.272   52.053    0.233   71.035
   52.493    7.293   55.088    0.222  120.335
   53.314    7.294   57.427    0.230  211.400
   54.134    7.238   59.535    0.234  267.721
   54.954    7.182   62.100    0.228  312.419
   55.774    7.106   64.672    0.232  255.753
   56.594    7.089   63.069    0.234  357.960
   57.415    7.052   59.845    0.222  309.461
   58.235    6.996   56.157    0.237  265.107
   59.055    6.862   53.168    0.229  274.881
   59.875    6.825   53.419    0.228  287.622
   60.696    7.078   55.061    0.231  279.850
   61.516    7.138   57.169    0.223  241.930
   62.336    7.121   57.651    0.230  231.139
   63.156    7.083   58.137    0.230  222.861
   63.976    7.123   58.620    0.236  211.002
   64.797    7.222   58.872    0.236  177.503
   65.617    7.243   57.278    0.233  143.993
   66.437    7.245   57.063    0.238  126.768
   67.257    7.246   58.710    0.235  100.067
   68.077    7.248   59.419    0.224   75.482
   68.898    7.269   59.207    0.216   59.585
   69.718    7.271   59.232    0.212   35.163
   70.538    7.292   58.786    0.207  106.580
   71.358    7.255   57.882    0.214  139.976
   72.178    7.063   56.980    0.219  138.690
   72.999    7.027   56.302    0.224  133.718
   73.819    7.125   54.699    0.227  199.453
   74.639    7.185   56.109    0.229  134.894
   75.459    7.109   58.680    0.222  133.655
   76.279    7.131   56.383    0.216  132.431
   77.100    7.170   55.244    0.223  124.245
   77.920    7.192   52.718    0.237  114.468
   78.740    7.174   50.420    0.247  117.616
   79.560    7.137   49.053    0.256  123.070
   80.381    7.100   47.218    0.269  126.453
   81.201    7.083   45.616    0.269  119.722
   82.021    7.123   45.867    0.283  127.569
   82.841    7.163   40.095    0.290  129.894
   83.661    7.184   38.032    0.301  116.453
   84.482    7.148   36.195    0.305   86.258
   85.302    7.091   33.202    0.300  134.642
   86.122    7.093   33.920    0.301  185.058
   86.942    7.114   34.406    0.294  116.384
   87.763    7.135   34.889    0.284   92.711
   88.583    7.136   36.996    0.280   83.877
   89.403    7.100   38.635    0.273   91.013
   90.223    7.082   40.048    0.263   85.392
   91.043    7.045   42.616    0.258   97.851
   91.864    7.008   38.236    0.274   90.975
   92.684    6.991   35.244    0.272  109.097
   93.504    7.031   32.946    0.268   96.925
   94.324    7.013   30.188    0.266  105.171
   95.144    6.957   29.047    0.241  184.761
   95.965    6.824   29.764    0.225  520.735
   96.785    6.729   30.016    0.241  414.817
   97.605    6.653   28.184    0.258  270.546
   98.425    6.810   24.963    0.270  258.483
   99.245    6.927   24.748    0.292  189.732
  100.066    6.987   24.770    0.320  318.491
  100.886    6.989   23.869    0.309  318.458
  101.706    6.990   23.419    0.305  251.383
  102.526    7.011   23.442    0.311  194.861
  103.346    7.014   23.699    0.325  290.657
  104.167    7.015   24.176    0.321  242.304
  104.987    6.920   23.735    0.324  155.182
  105.807    6.844   23.758    0.327  267.706
  106.627    6.769   22.153    0.325 1177.920
  107.448    6.713   19.629    0.316  973.074
  108.268    6.734   19.185    0.305  470.162
  109.088    6.794   19.897    0.310  461.618
  109.908    6.834   21.084    0.317  670.009
  110.728    6.855   21.793    0.302  760.848
  111.549    6.818   22.511    0.304  707.368
  112.369    6.781   21.835    0.313  611.529
  113.189    6.764   21.623    0.324  563.409
  114.009    6.785   21.880    0.326  578.904
  114.829    6.883   21.897    0.315  645.525
  115.650    7.000   23.770    0.308  719.826
  116.470    7.079   24.256    0.314  795.415
  117.290    7.062   24.276    0.319  855.281
  118.110    7.025   25.228    0.316  878.818
  118.930    6.988   24.549    0.310  911.233
  119.751    6.970   25.270    0.313  780.630
  120.571    6.972   25.287    0.306  627.528
  121.391    6.954   24.379    0.294  687.150
  122.211    6.918   24.402    0.299  902.462
  123.031    6.900   23.266    0.303  610.376
  123.852    6.921   22.587    0.299  486.225
  124.672    6.942   22.375    0.307  668.274
  125.492    7.002   22.398    0.303  427.992
  126.312    7.061   22.881    0.299  232.735
  127.133    7.102   24.757    0.292  439.701
  127.953    7.142   27.096    0.301  845.959
  128.773    7.163   27.116    0.306  996.210
  129.593    7.184   26.904    0.297  996.052
  130.413    7.167   25.533    0.298  960.349
  131.234    7.168   25.327    0.311  822.721
  132.054    7.113   25.581    0.316  837.697
  132.874    7.095   25.832    0.321  822.475
  133.694    7.077   25.849    0.327  447.247
  134.514    7.079   25.405    0.329  305.256
  135.335    7.080   25.193    0.327  785.595
  136.155    7.082   25.219    0.325 1013.150
  136.975    7.084   25.470    0.331  908.298
  137.795    7.066   25.953    0.331  404.395
  138.615    7.049   26.671    0.327  743.462
  139.436    7.031   28.080    0.329  814.084
  140.256    7.033   30.188    0.325  777.787
  141.076    7.073   31.595    0.307  836.355
  141.896    7.133   34.398    0.288  915.818
