~VERSION INFORMATION
 VERS.                 2.0:   CWLS LOG ASCII STANDARD -VERSION 2.0
 WRAP.                  NO:   ONE LINE PER DEPTH STEP
~WELL INFORMATION BLOCK
#MNEM.UNIT           DATA                    DESCRIPTION OF MNEMONIC
#---------    -------------------            -------------------------------
# Generated from Intellog Unique Number	CX_WELLS/WELL/3853
WELL.         HORSE CREEK                    : Well_name    - WELL
LOC .         AA/04-24-087-10W4/0            : Location     - LOCATION
UWI .         AA/04-24-087-10W400            : Uwi          - UNIQUE WELL ID
ENTR.         T                              : Entered      - ENTERED BY
SRVC.         SCHLUMBERGER                   : Scn          - SERVICE COMPANY
DATE.         03/06/92                       : Date         - LOG DATE
STRT.F        80                             : top_depth    - START DEPTH
STOP.F        680.394                        : bot_depth    - STOP DEPTH
STEP.F        0.8202                         : increment    - STEP LENGTH
 NULL. -999.2500:NULL Value
~CURVE INFORMATION BLOCK
#MNEM UNIT       ERCB CURVE CODE    CURVE DESCRIPTION
#-----------   ------------------   ----------------------------------
DEPT.F        00 001 00 00         : DEPTH        - DEPTH
GR  .API      00 310 00 00         : GR           - GAMMA RAY
NPHI.V/V      00 330 00 00         : PHIN         - NEUTRON POROSITY (SANDSTONE)
ILD .OHMM     00 120 00 00         : RESD         - DEEP RESISTIVITY (DIL)
~PARAMETER INFORMATION
#MNEM.UNIT           DATA             DESCRIPTION OF MNEMONIC
#---------         -----------     ------------------------------
GL  .F        1349                 : gl           - GROUND LEVEL ELEVATION
EREF.F        1349                 : kb           - ELEVATION OF DEPTH REFERENCE
DATM.F        1349                 : datum        - DATUM ELEVATION
TDD .F        582                  : tdd          - TOTAL DEPTH DRILLER
RUN .         ONE                  : Run          - RUN NUMBER
ENG .         JO                   : Engineer     - RECORDING ENGINEER
WIT .         TIM                  : Witness      - WITNESSED BY
MUD .         GEL                  : Mud_type     - MUD TYPE
MATR.         SANDSTONE            : Logunit      - NEUTRON MATRIX
TMAX.F        66.2                 : BHT          - MAXIMUM RECORDED TEMPERATURE
BHTD.F        582                  : BHTDEP       - MAXIMUM RECORDED TEMPERATURE
RMT .F        68                   : MDTP         - TEMPERATURE OF MUD
MUDD.LB/G     1                    : MWT          - MUD DENSITY
NEUT.         1                    : NEUTRON      - NEUTRON TYPE
RESI.         0                    : RESIST       - RESISTIVITY TYPE
RM  .OHMM     3.12                 : RM           - RESISTIVITY OF MUD
RMC .OHMM     4.5                  : RMC          - RESISTIVITY OF MUD CAKE
RMF .OHMM     4.5                  : RMF          - RESISTIVITY OF MUD FILTRATE
SUFT.F        39.2                 : SUFT         - SURFACE TEMPERATURE
~A  DEPTH       GR     PHIN     RESD
   80.000   56.908    0.481    8.829
   80.820   54.383    0.467    8.838
   81.640   53.304    0.465    8.848
   82.461   51.137    0.464    8.486
   83.281   47.883    0.457    7.944
   84.101   46.446    0.452    8.689
   84.921   47.203    0.455    9.802
   85.742   50.141    0.455   10.543
   86.562   55.273    0.459   11.472
   87.382   58.576    0.466   12.583
   88.202   62.615    0.478   12.963
   89.022   63.007    0.516   11.864
   89.843   64.129    0.512    9.852
   90.663   65.244    0.504    8.572
   91.483   65.994    0.496    8.217
   92.303   64.192    0.483    8.224
   93.123   60.216    0.466    8.229
   93.944   58.407    0.438    8.977
   94.764   55.876    0.432   10.087
   95.584   53.351    0.431   10.830
   96.404   54.102    0.425   11.389
   97.224   57.776    0.421   11.770
   98.045   61.078    0.418   11.591
   98.865   66.211    0.415   11.787
   99.685   67.340    0.415   11.978
  100.505   65.895    0.410   12.353
  101.325   58.638    0.420   12.361
  102.146   57.551    0.429   12.368
  102.966   51.009    0.424   12.010
  103.786   47.755    0.423   11.652
  104.606   44.495    0.427   11.660
  105.427   43.429    0.426   11.670
  106.247   46.731    0.424   11.680
  107.067   49.669    0.424   11.503
  107.887   54.080    0.435   11.510
  108.707   55.194    0.462   11.155
  109.528   53.399    0.481   10.792
  110.348   52.319    0.492   10.248
  111.168   51.261    0.485    9.893
  111.988   50.910    0.482    9.898
  112.808   49.115    0.481    9.910
  113.629   47.677    0.483    9.917
  114.449   46.969    0.490    9.925
  115.269   47.362    0.505    9.932
  116.089   51.029    0.509    9.758
  116.909   55.432    0.507    9.763
  117.730   58.005    0.503    9.589
  118.550   62.773    0.496    9.596
  119.370   71.917    0.493    9.609
  120.190   76.685    0.484    9.614
  121.010   81.081    0.480    9.437
  121.831   85.849    0.482    9.447
  122.651   90.617    0.492    9.273
  123.471   93.190    0.507    9.467
  124.291   96.500    0.528    9.474
  125.112   97.614    0.531    9.300
  125.932   98.014    0.531    9.124
  126.752   97.299    0.529    8.761
  127.572   95.868    0.532    8.771
  128.392   94.073    0.539    8.783
  129.213   93.722    0.543    8.607
  130.033   94.851    0.550    8.428
  130.853   95.594    0.553    7.889
  131.673   97.081    0.554    7.710
  132.493   98.560    0.549    7.352
  133.314   99.682    0.538    7.178
  134.134   99.710    0.528    7.367
  134.954   99.380    0.520    7.749
  135.774   99.037    0.511    7.754
  136.594   98.686    0.504    7.945
  137.415   98.343    0.501    7.955
  138.235   97.648    0.498    7.781
  139.055   96.582    0.498    7.602
  139.875   95.867    0.501    7.428
  140.696   95.152    0.509    7.252
  141.516   92.999    0.515    7.264
  142.336   91.926    0.516    7.269
  143.156   90.868    0.524    7.461
  143.976   90.888    0.532    7.470
  144.797   90.909    0.543    7.294
  145.617   91.288    0.553    7.125
  146.437   91.681    0.553    7.130
  147.257   92.066    0.544    6.953
  148.077   92.452    0.527    6.966
  148.898   93.223    0.520    6.971
  149.718   93.602    0.515    6.981
  150.538   94.723    0.502    6.985
  151.358   94.744    0.492    6.811
  152.178   94.758    0.475    6.635
  152.999   93.706    0.470    6.650
  153.819   93.363    0.475    6.839
  154.639   92.654    0.476    6.844
  155.459   92.311    0.479    6.844
  156.280   91.967    0.484    7.045
  157.100   91.624    0.494    7.057
  157.920   91.280    0.507    6.881
  158.740   90.221    0.513    6.891
  159.560   89.513    0.520    6.895
  160.381   88.798    0.511    6.895
  161.201   87.367    0.495    6.913
  162.021   87.395    0.490    6.920
  162.841   89.611    0.487    6.751
  163.661   91.090    0.485    6.756
  164.482   91.476    0.486    6.763
  165.302   91.132    0.493    6.587
  166.122   89.709    0.496    6.599
  166.942   89.723    0.502    6.420
  167.762   90.480    0.502    6.430
  168.583   91.237    0.502    6.440
  169.403   91.623    0.502    6.445
  170.223   91.644    0.504    6.271
  171.043   91.314    0.511    6.279
  171.864   90.606    0.516    6.109
  172.684   90.620    0.527    6.117
  173.504   89.925    0.537    5.940
  174.324   89.925    0.544    5.948
  175.144   89.231    0.550    5.955
  175.965   87.436    0.551    5.963
  176.785   85.276    0.548    5.970
  177.605   83.109    0.539    5.801
  178.425   79.849    0.535    5.806
  179.245   77.682    0.529    5.813
  180.066   72.963    0.523    5.642
  180.886   67.150    0.516    5.463
  181.706   65.720    0.495    5.470
  182.526   68.658    0.492    5.667
  183.346   73.061    0.487    5.855
  184.167   76.728    0.483    6.049
  184.987   82.225    0.474    6.611
  185.807   81.524    0.473    6.799
  186.627   79.357    0.461    6.628
  187.448   78.656    0.452    6.449
  188.268   79.056    0.449    6.277
  189.088   79.070    0.451    6.282
  189.908   78.719    0.451    6.292
  190.728   78.025    0.451    6.300
  191.549   77.674    0.452    6.680
  192.369   76.608    0.452    6.874
  193.189   74.806    0.445    7.246
  194.009   68.629    0.439    7.438
  194.829   67.927    0.439    7.999
  195.650   67.219    0.436    8.009
  196.470   66.890    0.433    7.830
  197.290   68.369    0.427    7.291
  198.110   70.213    0.424    7.112
  198.930   72.057    0.428    6.754
  199.751   73.179    0.461    6.577
  200.571   72.113    0.488    6.771
  201.391   70.311    0.501    7.149
  202.211   64.863    0.520    7.338
  203.031   63.068    0.528    7.350
  203.852   61.988    0.534    7.171
  204.672   60.550    0.524    6.632
  205.492   58.762    0.509    6.453
  206.312   60.599    0.485    6.279
  207.133   64.638    0.477    7.208
  207.953   66.482    0.479    7.581
  208.773   69.791    0.487    7.961
  209.593   74.559    0.502    7.968
  210.413   77.133    0.517    7.978
  211.234   80.442    0.527    7.615
  212.054   83.015    0.511    6.154
  212.874   83.408    0.490    5.799
  213.694   82.707    0.487    5.620
  214.514   81.641    0.494    5.627
  215.335   80.926    0.499    5.635
  216.155   78.759    0.505    5.650
  216.975   76.235    0.502    5.657
  217.795   77.349    0.473    5.846
  218.615   79.565    0.468    6.410
  219.436   79.951    0.463    6.599
  220.256   79.979    0.493    6.974
  221.076   79.649    0.499    7.165
  221.896   80.034    0.507    7.359
  222.717   80.055    0.530    7.371
  223.537   80.070    0.534    7.195
  224.357   80.462    0.541    7.016
  225.177   79.761    0.541    6.658
  225.997   78.688    0.540    6.300
  226.818   77.615    0.537    6.312
  227.638   76.542    0.532    6.501
  228.458   75.476    0.531    6.327
  229.278   76.227    0.529    6.327
  230.098   79.543    0.529    6.156
  230.919   81.387    0.529    5.803
  231.739   83.231    0.529    5.810
  232.559   84.710    0.526    5.818
  233.379   86.204    0.523    5.639
  234.199   86.218    0.519    5.835
  235.020   86.618    0.516    5.842
  235.840   86.632    0.513    5.850
  236.660   87.017    0.509    6.046
  237.480   87.410    0.506    6.053
  238.301   87.066    0.503    6.058
  239.121   86.365    0.498    6.066
  239.941   85.663    0.494    6.262
  240.761   84.955    0.490    6.267
  241.581   84.626    0.478    6.277
  242.402   84.647    0.449    6.287
  243.222   84.668    0.445    6.291
  244.042   84.324    0.436    6.117
  244.862   83.987    0.429    5.941
  245.682   83.637    0.420    5.767
  246.503   82.935    0.422    6.329
  247.323   82.599    0.430    7.807
  248.143   82.248    0.437    7.081
  248.963   81.925    0.443    6.172
  249.783   81.582    0.446    5.809
  250.604   81.231    0.454    5.635
  251.424   79.436    0.461    5.829
  252.244   77.634    0.464    5.836
  253.064   71.085    0.467    5.662
  253.885   69.290    0.468    5.491
  254.705   62.390    0.469    5.314
  255.525   59.852    0.477    5.319
  256.345   56.227    0.488    5.324
  257.165   56.619    0.511    5.153
