~VERSION INFORMATION
 VERS.                 2.0:   CWLS LOG ASCII STANDARD -VERSION 2.0
 WRAP.                  NO:   ONE LINE PER DEPTH STEP
~WELL INFORMATION BLOCK
#MNEM.UNIT           DATA                    DESCRIPTION OF MNEMONIC
#---------    -------------------            -------------------------------
# Generated from Intellog Unique Number	CN_91_93/WELL/2721
WELL.         02-24-091-12W4                 : Well_name    - WELL
LOC .         AA/02-24-091-12W4/0            : Location     - LOCATION
UWI .         AA/02-24-091-12W400            : Uwi          - UNIQUE WELL ID
ENTR.         JOETTE                         : Entered      - ENTERED BY
SRVC.         SCHLUMBERGER                   : Scn          - SERVICE COMPANY
DATE.         02/09/92                       : Date         - LOG DATE
STRT.M        60                             : top_depth    - START DEPTH
STOP.M        166                            : bot_depth    - STOP DEPTH
STEP.M        0.25                           : increment    - STEP LENGTH
 NULL. -999.2500:NULL Value
~CURVE INFORMATION BLOCK
#MNEM UNIT       ERCB CURVE CODE    CURVE DESCRIPTION
#-----------   ------------------   ----------------------------------
DEPT.M        00 001 00 00         : DEPTH        - DEPTH
GR  .API      00 310 00 00         : GR           - GAMMA RAY
DPHI.V/V      00 890 00 00         : PHID         - DENSITY POROSITY (SANDSTONE)
ILD .OHMM     00 120 00 00         : RESD         - DEEP RESISTIVITY (DIL)
~PARAMETER INFORMATION
#MNEM.UNIT           DATA             DESCRIPTION OF MNEMONIC
#---------         -----------     ------------------------------
GL  .M        453.2                : gl           - GROUND LEVEL ELEVATION
EREF.M        453.2                : kb           - ELEVATION OF DEPTH REFERENCE
DATM.M        453.2                : datum        - DATUM ELEVATION
TDD .M        194.5                : tdd          - TOTAL DEPTH DRILLER
RUN .         ONE                  : Run          - RUN NUMBER
ENG .         JO                   : Engineer     - RECORDING ENGINEER
WIT .         TIM                  : Witness      - WITNESSED BY
MUD .         GEL                  : Mud_type     - MUD TYPE
MATR.         SANDSTONE            : Logunit      - NEUTRON MATRIX
TMAX.C        10                   : BHT          - MAXIMUM RECORDED TEMPERATURE
BHTD.M        190                  : BHTDEP       - MAXIMUM RECORDED TEMPERATURE
RMT .C        5                    : MDTP         - TEMPERATURE OF MUD
MUDD.KG/M     541.666              : MWT          - MUD DENSITY
NEUT.         1                    : NEUTRON      - NEUTRON TYPE
RESI.         0                    : RESIST       - RESISTIVITY TYPE
RM  .OHMM     8.5                  : RM           - RESISTIVITY OF MUD
RMC .OHMM     8.5                  : RMC          - RESISTIVITY OF MUD CAKE
RMF .OHMM     8.5                  : RMF          - RESISTIVITY OF MUD FILTRATE
SUFT.C        4                    : SUFT         - SURFACE TEMPERATURE
~A  DEPTH       GR     PHID     RESD
# ...
  114.250   83.177    0.457    5.709
  114.500   84.062    0.472    5.403
  114.750   95.439    0.453    5.220
  115.000   97.224    0.427    5.220
  115.250   84.023    0.408    5.668
  115.500   85.809    0.408    6.594
  115.750   80.400    0.428    7.015
  116.000   82.182    0.419    5.988
  116.250   78.275    0.414    5.745
  116.500   85.755    0.472    5.987
  116.750   78.849    0.488    6.683
  117.000   92.924    0.351    5.823
  117.250  126.780    0.487    5.903
  117.500  106.685    0.470    8.501
  117.750  111.467    0.451    5.360
  118.000  101.563    0.487    4.639
  118.250   94.356    0.467    4.330
  118.500   93.444    0.396    4.450
  118.750  101.520    0.368    4.702
  119.000  104.808    0.398    5.002
  119.250  103.895    0.446    5.212
  119.500  106.879    0.491    5.176
  119.750   94.875    0.493    5.621
  120.000  100.259    0.467    5.034
  120.250  106.839    0.396    5.857
  120.500  120.315    0.376    5.978
  120.750  108.312    0.403    5.542
  121.000  112.195    0.357    5.033
  121.250  104.390    0.453    5.102
  121.500   92.388    0.588    5.976
  121.750   79.786    0.570    6.059
  122.000   77.075    0.430    5.975
  122.250   73.165    0.156    7.446
  122.500   48.574    0.397    9.409
  122.750   45.265    0.437   18.980
  123.000   49.747    0.407   29.481
  123.250   44.039    0.369   42.450
  123.500   35.335    0.347   32.906
  123.750   44.613    0.427   35.983
  124.000   54.190    0.445   49.718
  124.250   47.583    0.420   43.922
  124.500   67.351    0.373   40.997
  124.750   76.032    0.362   39.879
  125.000  113.785    0.298   37.742
  125.250  120.365    0.254   24.463
  125.500  111.360    0.258    8.895
  125.750  107.150    0.282    8.834
  126.000  106.537    0.263    8.534
  126.250  107.424    0.269    7.803
  126.500  111.308    0.262    7.696
  126.750  106.198    0.300    7.642
  127.000  129.565    0.311    7.964
  127.250  123.556    0.287    7.383
  127.500  128.937    0.312    7.281
  127.750  121.432    0.353    6.566
  128.000  116.624    0.327    7.587
  128.250  122.305    0.315    7.960
  128.500  133.383    0.319    8.015
  128.750  130.072    0.363    7.533
  129.000  117.171    0.380    6.983
  129.250  103.370    0.420    8.013
  129.500   81.477    0.403    7.848
  129.750   56.886    0.368    6.653
  130.000   46.982    0.318   10.622
  130.250   30.782    0.346   79.213
  130.500   35.267    0.356  174.757
  130.750   37.951    0.340   40.074
  131.000   46.029    0.351  173.529
  131.250   47.816    0.365   15.934
  131.500   49.902    0.337   10.257
  131.750   48.989    0.303   17.422
  132.000   47.777    0.318   17.662
  132.250   47.462    0.334   17.419
  132.500   45.353    0.333   14.971
  132.750   44.439    0.342   21.706
  133.000   41.130    0.350   21.261
  133.250   36.622    0.351   20.825
  133.500   40.205    0.341   22.001
  133.750   42.889    0.332   23.405
  134.000   38.679    0.330   24.558
  134.250   40.166    0.335   30.395
  134.500   41.351    0.329   30.813
  134.750   43.735    0.326   29.160
  135.000   43.123    0.320   24.719
  135.250   35.016    0.326   23.555
  135.500   35.305    0.326   21.986
  135.750   31.095    0.330   21.095
  136.000   38.275    0.331  531.799
  136.250   52.050    0.333  897.094
  136.500   70.020    0.331  922.047
  136.750  103.876    0.283  469.724
  137.000   87.078    0.246  298.241
  137.250   60.389    0.282   21.524
  137.500   37.897    0.322   47.160
  137.750   39.983    0.323   72.246
  138.000   47.162    0.337  112.990
  138.250   84.915    0.318  304.329
  138.500   91.496    0.252   19.809
  138.750   83.391    0.216   33.648
  139.000  106.156    0.270   41.075
  139.250  113.636    0.276   22.262
  139.500  107.029    0.272   18.742
  139.750  107.014    0.282   17.494
  140.000  101.608    0.302   15.996
  140.250   91.105    0.300   14.727
  140.500   82.099    0.305   21.948
  140.750   81.486    0.291   22.872
  141.000   67.386    0.313   29.910
  141.250   57.783    0.305   30.113
  141.500   45.780    0.325   40.201
  141.750   34.078    0.306   33.382
  142.000   44.255    0.344   35.757
  142.250   46.938    0.342  145.538
  142.500   55.318    0.335   84.498
  142.750   84.978    0.347   65.050
  143.000  132.922    0.259  103.855
  143.250  111.028    0.277   50.768
  143.500  106.820    0.274   18.208
  143.750  104.409    0.281   15.649
  144.000  104.695    0.295   12.214
  144.250  104.383    0.290   11.091
  144.500  110.064    0.269   18.581
  144.750  103.457    0.273   15.860
  145.000   96.250    0.292   13.631
  145.250   95.337    0.294   14.204
  145.500   75.843    0.273   16.187
  145.750   77.328    0.302   26.747
  146.000   85.708    0.305   31.331
  146.250  102.479    0.274   18.191
  146.500  111.758    0.285   13.530
  146.750  101.554    0.310   22.358
  147.000  102.440    0.308   18.693
  147.250   96.731    0.301   20.023
  147.500   88.027    0.315   11.868
  147.750   97.605    0.302   31.966
  148.000  102.388    0.292   14.891
  148.250   89.487    0.307   18.945
  148.500  110.453    0.306   19.205
  148.750  114.036    0.274   16.168
  149.000  103.234    0.285   17.802
  149.250   78.344    0.330   18.679
  149.500   78.031    0.313   19.331
  149.750   98.100    0.279   18.044
  150.000   98.686    0.250   31.288
  150.250  103.469    0.279   21.875
  150.500  104.055    0.294   21.723
  150.750   95.949    0.287   38.985
  151.000  108.224    0.287   25.796
  151.250  110.009    0.284   19.858
  151.500  103.402    0.281   27.819
  151.750  115.379    0.277   19.317
  152.000  113.267    0.269   14.074
  152.250  125.844    0.270   13.597
  152.500  108.746    0.272   14.665
  152.750  102.735    0.280   13.594
  153.000   98.527    0.272   13.973
  153.250   96.716    0.263   18.023
  153.500   94.606    0.261   18.023
  153.750  105.682    0.279   17.895
  154.000  114.362    0.291   17.289
  154.250  107.155    0.270   15.700
  154.500  111.937    0.277   17.526
  154.750  100.835    0.270   19.699
  155.000   84.335    0.311   15.804
  155.250   96.312    0.316   27.976
  155.500   94.801    0.305   17.885
  155.750  116.967    0.281   17.398
  156.000   89.379    0.274   23.710
  156.250   76.178    0.297   17.636
  156.500   73.468    0.332   16.805
  156.750   64.163    0.335   27.202
  157.000   67.147    0.337   19.549
  157.250   67.133    0.335   28.149
  157.500   86.903    0.340   44.328
  157.750   79.396    0.329   19.144
  158.000  101.264    0.272   23.051
  158.250   91.959    0.326   15.895
  158.500   53.280    0.338   37.309
  158.750   64.657    0.348   47.139
  159.000   54.754    0.371   25.199
  159.250   28.365    0.362   17.140
  159.500   39.741    0.335  204.089
  159.750   61.908    0.339   86.342
  160.000   58.298    0.352   38.330
  160.250   72.073    0.311   24.170
  160.500   78.352    0.323   19.660
  160.750   61.855    0.365   22.250
  161.000   45.955    0.371   13.650
  161.250   52.838    0.355   11.179
  161.500   61.515    0.350   13.460
  161.750   39.323    0.361   16.891
  162.000   35.713    0.351   15.025
  162.250   31.804    0.367   13.092
  162.500   27.595    0.364   15.022
  162.750   21.287    0.373   14.413
  163.000   20.971    0.391   14.117
  163.250   23.358    0.400   14.915
  163.500   33.536    0.370   15.225
  163.750   54.503    0.270   13.175
  164.000   76.971    0.237   23.322
  164.250   76.658    0.160   38.804
  164.500   58.060    0.038   41.280
  164.750   55.051    0.020   39.880
  165.000   53.839    0.068   33.344
  165.250   36.441    0.081   38.791
  165.500   43.622    0.113   46.068
  165.750   51.103    0.085   38.518
  166.000   45.095    0.090   44.198
