~Version : LASO    vs 4.00
VERS.                2.00:   CWLS Log ASCII Standard -VERSION 2.0
WRAP.                  NO:
~Well Information Block
#MNEM.UNIT       Data                        Description of Mnemonic
#----.----      -------------------------- : -----------------------------
STRT.M            11.0000:
STOP.M           176.0000:
STEP.M             0.1000:
NULL.           -999.2500:
COMP.  MOBIL OIL CANADA LTD.  :COMPANY
WELL.  MOBIL CLARKE OV 5-32   :WELL
FLD.   CLARKE                 :FIELD
LOC.   05-32-089-08W4         :LOCATION
CTRY.  CANADA                 :COUNTRY
PROV.  ALBERTA                :PROVINCE
SRVC.  SCHLUMBERGER           :SERVICE COMPANY
DATE.  04-MAR-81              :LOG DATE
UWI.   AA/05-32-089-08W400    :UNIQUE WELL ID
~Parameter Information Block
#MNEM.UNIT       Data                        Description of Mnemonic
#----.----      -------------------------- : -----------------------------
RUN .                   1                 : Run Number
GL  .M           391.1000                 : Ground Level Elevation
DREF.                  KB                 : Depth Reference
EREF.M           394.5000                 : Elevation of Depth Reference
TDL .M           176.5000                 : Total Depth Logger
TDD .M           174.0000                 : Total Depth Driller
CSGL.M            16.0000                 : Casing Bottom Logger
CSGD.M            14.6000                 : Casing Bottom Driller
CSGS.MM          219.0000                 : Casing Size
CSGW.KG/M          0.0000                 : Casing Weight
BHT .DEGC         23.0000                 : Bottom Hole Temperature
BS  .MM          159.0000                 : Bit Size
DFD .           1110.0000                 : Mud Weight (Density)
DFV .             90.0000                 : Mud Viscosity
DFPH.             10.0000                 : Mud pH
RM  .OHMM          1.9600                 : Mud Resistivity
RMT .DEGC         20.0000                 : Mud Resistivity Temperature
~Curve Information Block
#MNEM.UNIT        API CODE    Curve Description
#---------    ------------    -------------------------------------------
DEPT.M                    :   DEPTH
CALI.MM       42 280  1  1:   3 DENSITY CALIPER
DPHI.V/V                  :   DPHI
DT  .US/M     60 520  0  1:   2 SONIC INTERVAL TRANSIT TIME (COMPENSATED)
GR  .GAPI     42 310  1  1:   4 GAMMA RAY
ILD .OHMM      5 120 46  1:   6 DEEP INDUCTION
ILM .OHMM      5 120 44  1:   7 MEDIUM INDUCTION
NPHI.V/V                  :   NPHI
RHOB.K/M3     42 350  1  1:   5 BULK DENSITY
SFLU.OHMM      5 220  1  1:   8 FOCUSSED RESISTIVITY
SP  .MV        5  10  1  1:   9 SPONTANEOUS POTENTIAL
~A  Depth           CALI        DPHI          DT          GR         ILD         ILM        NPHI        RHOB        SFLU          SP
# ...
35.4000         173.6500      0.1842    500.0000     72.5100     27.0290     26.2924      0.3171   2311.0000     20.8848    -93.0000
35.5000         173.6500      0.1809    499.6800     70.4700     27.0290     26.2924      0.3139   2311.0000     20.8848    -93.0000
35.6000         176.2000      0.1779    499.6800     68.4300     27.0290     26.2924      0.3114   2284.0000     23.5413    -93.0000
35.7000         176.2000      0.1742    464.6800     67.2450     27.0290     26.2924      0.3120   2284.0000     23.5413    -93.0000
35.8000         200.4250      0.1769    457.9200     66.0300     27.2791     27.0290      0.3134   2359.0000     27.0290    -93.0000
35.9000         200.4250      0.1896    453.2800     66.6150     27.2791     27.0290      0.3152   2359.0000     27.0290    -93.0000
36.0000         190.2500      0.1987    451.2400     67.2600     27.7863     28.3028      0.3178   2367.0000     28.8290    -92.7600
36.1000         190.2500      0.2098    454.3200     69.0300     27.7863     28.3028      0.3200   2367.0000     28.8290    -92.7600
36.2000         185.1250      0.2165    487.6800     71.1150     27.7863     28.5647      0.3235   2371.0000     30.7489    -93.0000
36.3000         185.1250      0.2235    500.4800     71.4600     27.7863     28.5647      0.3281   2371.0000     30.7489    -93.0000
36.4000         192.7750      0.2191    500.4400     71.9250     27.5315     27.0290      0.3335   2294.0000     29.0958    -93.0000
36.5000         192.7750      0.2133    500.1600     71.7150     27.5315     27.0290      0.3370   2294.0000     29.0958    -93.0000
36.6000         192.7750      0.2073    500.1600     71.3550     27.5315     27.0290      0.3382   2294.0000     27.7863    -93.2550
36.7000         192.7750      0.2032    492.0000     71.1000     27.5315     27.0290      0.3386   2294.0000     27.7863    -93.2550
36.8000         188.9500      0.1991    477.0800     74.0400     27.0290     26.5357      0.3404   2274.0000     26.5357    -93.2550
36.9000         188.9500      0.1940    470.2400     75.6300     27.0290     26.5357      0.3446   2274.0000     26.5357    -93.2550
37.0000         190.2500      0.1898    463.3200     75.2400     26.5357     25.5758      0.3446   2318.8999     26.0513    -93.2550
37.1000         190.2500      0.1850    456.4000     74.4150     26.5357     25.5758      0.3430   2318.8999     26.0513    -93.2550
37.2000         183.8750      0.1884    447.8000     73.3650     26.0513     25.5758      0.3422   2307.8999     25.5758    -93.2550
37.3000         183.8750      0.1935    461.8400     72.3150     26.0513     25.5758      0.3421   2307.8999     25.5758    -93.2550
37.4000         174.9250      0.1988    459.8800     71.6850     25.8125     25.3414      0.3443   2345.0000     25.3414    -93.0000
37.5000         174.9250      0.2005    457.0800     73.0500     25.8125     25.3414      0.3462   2345.0000     25.3414    -93.0000
37.6000         174.9250      0.1991    465.1200     73.8300     24.8788     24.6507      0.3473   2364.8999     26.5357    -93.0000
37.7000         174.9250      0.1926    478.3600     73.5750     24.8788     24.6507      0.3459   2364.8999     26.5357    -93.0000
37.8000         180.0250      0.1856    482.0400     73.3650     24.6507     24.2008      0.3439   2336.0000     25.5758    -93.0000
37.9000         180.0250      0.1768    469.4000     72.7950     24.6507     24.2008      0.3431   2336.0000     25.5758    -93.0000
38.0000         180.0250      0.1741    457.9200     72.2250     24.4247     24.2008      0.3412   2313.0000     24.6507    -93.0000
38.1000         180.0250      0.1811    453.9600     71.4450     24.4247     24.2008      0.3415   2313.0000     24.6507    -93.0000
38.2000         180.0250      0.1923    462.3200     71.4750     24.2008     24.4247      0.3463   2346.0000     23.9789    -93.0000
38.3000         180.0250      0.2180    469.3600     71.5200     24.2008     24.4247      0.3510   2346.0000     23.9789    -93.0000
38.4000         182.5750      0.2363    458.0000     71.5650     23.7591     24.2008      0.3570   2385.0000     25.1090    -92.7600
38.5000         182.5750      0.2510    445.3600     73.3950     23.7591     24.2008      0.3720   2385.0000     25.1090    -92.7600
38.6000         187.6750      0.2651    433.6000     75.4200     22.6898     23.7591      0.3917   2370.0000     25.3414    -92.7600
38.7000         187.6750      0.2722    431.6000     79.3500     22.6898     23.7591      0.4080   2370.0000     25.3414    -92.7600
38.8000         194.0500      0.2762    500.4000     83.2800     20.8848     22.2756      0.4235   2306.0000     24.6507    -92.5050
38.9000         194.0500      0.2718    513.4400     87.7500     20.8848     22.2756      0.4373   2306.0000     24.6507    -92.5050
39.0000         191.5000      0.2685    528.7200     92.2650     16.1373     17.3712      0.4511   2232.0000     24.6507    -92.0100
39.1000         191.5000      0.2659    538.9600     95.9100     16.1373     17.3712      0.4601   2232.0000     24.6507    -92.0100
39.2000         176.2000      0.2705    546.9600     98.6700     14.3163     13.7984      0.4734   2187.8999     19.5808    -91.7550
39.3000         176.2000      0.2714    554.9600    100.6050     14.3163     13.7984      0.4785   2187.8999     19.5808    -91.7550
39.4000         181.3000      0.2740    558.9600    101.5650     13.1774     11.5832      0.4792   2191.0000     12.2414    -91.2600
39.5000         181.3000      0.2796    562.4800    100.6350     13.1774     11.5832      0.4762   2191.0000     12.2414    -91.2600
39.6000         176.2000      0.2834    564.9600     98.5800     12.0179     10.1819      0.4723   2206.0000      7.1751    -90.2550
39.7000         176.2000      0.2859    566.3600     95.2350     12.0179     10.1819      0.4695   2206.0000      7.1751    -90.2550
39.8000         177.5000      0.2906    567.7600     92.2500     11.9078     10.1819      0.4656   2183.0000      7.3085    -90.5100
39.9000         177.5000      0.2930    569.1600     90.7050     11.9078     10.1819      0.4607   2183.0000      7.3085    -90.5100
40.0000         174.9250      0.2951    570.0400     88.3950     11.9078     10.8600      0.4563   2187.8999      8.0136    -91.5000
40.1000         174.9250      0.2946    570.5600     88.8000     11.9078     10.8600      0.4513   2187.8999      8.0136    -91.5000
40.2000         172.3750      0.2943    567.6000     89.6250     11.7986     13.1774      0.4507   2174.0000     12.5843    -93.5100
40.3000         172.3750      0.2933    564.2800     91.0200     11.7986     13.1774      0.4562   2174.0000     12.5843    -93.5100
40.4000         172.3750      0.2977    560.9600     93.2700     11.3718     13.1774      0.4716   2158.0000     22.2756    -94.0050
40.5000         172.3750      0.2978    560.6000     95.5200     11.3718     13.1774      0.4840   2158.0000     22.2756    -94.0050
40.6000         172.3750      0.2962    560.5600     96.9300     10.6618     11.6904      0.4902   2151.0000     36.9683    -94.5000
40.7000         172.3750      0.2954    563.5600     97.7550     10.6618     11.6904      0.4915   2151.0000     36.9683    -94.5000
40.8000         173.6500      0.3002    565.8800     98.2350      9.5462      8.0136      0.4887   2169.0000      8.6264    -92.5050
40.9000         173.6500      0.3011    567.7600     97.9800      9.5462      8.0136      0.4871   2169.0000      8.6264    -92.5050
41.0000         177.5000      0.2994    565.6000     97.8000      9.0330      7.3762      0.4836   2166.0000      4.8734    -91.0050
41.1000         177.5000      0.2959    563.5200     97.6200      9.0330      7.3762      0.4810   2166.0000      4.8734    -91.0050
41.2000         180.0250      0.2932    560.2800     97.1550      8.4690      7.1751      0.4780   2152.0000      4.4446    -90.0000
41.3000         180.0250      0.2893    557.0400     95.6700      8.4690      7.1751      0.4766   2152.0000      4.4446    -90.0000
41.4000         178.7500      0.2854    553.8000     94.1850      8.0136      7.1094      0.4769   2140.0000      5.2946    -90.0000
