~VERSION INFORMATION
 VERS.                 2.0:   CWLS LOG ASCII STANDARD -VERSION 2.0
 WRAP.                  NO:   ONE LINE PER DEPTH STEP
~WELL INFORMATION BLOCK
#MNEM.UNIT           DATA                    DESCRIPTION OF MNEMONIC
#---------    -------------------            -------------------------------
# Generated from Intellog Unique Number	CC_84_87/WELL/1166
NULL.         -999.25                        : NULL_VALUE
WELL.         TEXCAN HORSE RIVER             : Well_name    - WELL
LOC .         07-24-085-12W4                 : Location     - LOCATION          
UWI .         AA/07-24-085-12W400            : Uwi          - UNIQUE WELL ID    
ENTR.         DW                             : Entered      - ENTERED BY        
SRVC.         DRESSER ATLAS                  : Scn          - SERVICE COMPANY   
DATE.         13 MAR 76                      : Date         - LOG DATE
STRT.M        97.536                         : top_depth    - START DEPTH       
STOP.M        262.126                        : bot_depth    - STOP DEPTH        
STEP.M        0.3048                         : increment    - STEP LENGTH       
~CURVE INFORMATION BLOCK
#MNEM UNIT       ERCB CURVE CODE    CURVE DESCRIPTION
#-----------   ------------------   ----------------------------------
DEPT.M        00 001 00 00         : DEPTH        - DEPTH                       
NPHI.V/V      00 330 00 00         : PHIN         - NEUTRON POROSITY (LIMESTONE)
GR  .API      00 310 00 00         : GR           - GAMMA RAY                   
ILD .OHMM     00 120 00 00         : RESD         - DEEP RESISTIVITY (DIL)      
DPHI.V/V      00 890 00 00         : PHID         - DENSITY POROSITY (LIMESTONE)
~PARAMETER INFORMATION       
#MNEM.UNIT           DATA             DESCRIPTION OF MNEMONIC
#---------         -----------     ------------------------------
GL  .M        528.523              : gl           - GROUND LEVEL ELEVATION      
EREF.M        531.876              : kb           - ELEVATION OF DEPTH REFERENCE
DATM.M        531.876              : datum        - DATUM ELEVATION             
TDD .M        262.738              : tdd          - TOTAL DEPTH DRILLER         
RUN .         ONE                  : Run          - RUN NUMBER                  
ENG .         BILL                 : Engineer     - RECORDING ENGINEER          
WIT .         JIM                  : Witness      - WITNESSED BY                
MUD .         GEL                  : Mud_type     - MUD TYPE                    
MATR.         LIMESTONE            : Logunit      - NEUTRON MATRIX              
TMAX.C        16.6667              : BHT          - MAXIMUM RECORDED TEMPERATURE
BHTD.M        263.347              : BHTDEP       - MAXIMUM RECORDED TEMPERATURE
MATR.         1                    : LOGUNIT      - NEUTRON MATRIX              
RMT .C        25                   : MDTP         - TEMPERATURE OF MUD          
NEUT.         1                    : NEUTRON      - NEUTRON TYPE                
RESI.         0                    : RESIST       - RESISTIVITY TYPE            
RMC .OHMM     0.25                 : RMC          - RESISTIVITY OF MUD CAKE     
RMF .OHMM     0.25                 : RMF          - RESISTIVITY OF MUD FILTRATE 
SUFT.C        15                   : SUFT         - SURFACE TEMPERATURE         
~A  DEPTH     PHIN       GR     RESD     PHID
# ...
  203.605    0.342   78.898    8.879    0.237
  203.910    0.342   79.504    8.880    0.411
  204.215    0.360   88.516    8.718    0.392
  204.520    0.416   92.722    8.246    0.423
  204.824    0.435  105.931    8.095    0.327
  205.129    0.431  108.339    7.948    0.328
  205.434    0.383   95.745    8.098    0.263
  205.739    0.351   99.355    8.252    0.239
  206.044    0.334   94.562    8.408    0.228
  206.348    0.332   92.169    8.568    0.225
  206.653    0.344   98.177    8.569    0.221
  206.958    0.355   97.587    8.413    0.215
  207.263    0.359   96.992    8.259    0.216
  207.568    0.365   95.799    8.109    0.213
  207.872    0.376   92.808    7.813    0.208
  208.177    0.380   93.416    7.254    0.355
  208.482    0.382   90.423    6.252    0.360
  208.787    0.404   88.032    5.289    0.364
  209.091    0.497   87.440    4.153    0.358
  209.396    0.500   88.045    3.513    0.336
  209.701    0.500   95.254    3.262    0.300
  210.006    0.504  102.463    3.143    0.288
  210.311    0.510   98.871    3.717    0.297
  210.615    0.500  100.080    4.914    0.316
  210.920    0.480  102.487    5.812    0.336
  211.225    0.455  105.494    7.133    0.347
  211.530    0.441  111.503    8.594    0.309
  211.835    0.427  108.509    9.089    0.089
  212.139    0.414   96.516    9.435    0.078
  212.444    0.396   97.723    9.092    0.096
  212.749    0.344   91.731    9.094    0.139
  213.054    0.389   84.537    9.618    0.164
  213.359    0.394   89.946    9.984    0.163
  213.663    0.374   97.155   10.173    0.219
  213.968    0.322  100.163    9.803    0.259
  214.273    0.325  100.772    9.624    0.346
  214.578    0.339  100.780    8.771    0.469
  214.883    0.412   98.386    7.559    0.313
  215.187    0.456   90.593    6.637    0.267
  215.492    0.461   95.402    5.409    0.258
  215.797    0.456   96.009    2.873    0.421
  216.102    0.459   91.817    2.769    0.454
  216.407    0.495   92.424    2.770    0.369
  216.711    0.545   92.431    3.463    0.352
  217.016    0.551   89.440    5.414    0.333
  217.321    0.526   85.846    7.026    0.323
  217.626    0.468   79.854    6.771    0.319
  217.931    0.447   76.861    6.170    0.333
  218.235    0.447   74.469    5.418    0.354
  218.540    0.451   75.676    5.319    0.332
  218.845    0.458   78.685    5.320    0.320
  219.150    0.470   75.692    5.840    0.335
  219.454    0.486   80.499    6.410    0.348
  219.759    0.481   77.508    6.654    0.360
  220.064    0.476   75.716    6.064    0.367
  220.369    0.481   75.722    5.035    0.351
  220.674    0.499   80.531    3.881    0.346
  220.978    0.504   77.538    3.163    0.365
  221.283    0.507   77.546    2.937    0.381
  221.588    0.522   86.555    2.883    0.389
  221.893    0.522  105.765    3.049    0.387
  222.198    0.516  107.573    3.225    0.275
  222.502    0.516   99.781    3.540    0.356
  222.807    0.504   96.787    3.744    0.387
  223.112    0.487   93.195    3.815    0.288
  223.417    0.477   91.402    3.816    0.275
  223.722    0.480   96.811    3.746    0.304
  224.026    0.488  105.219    3.543    0.329
  224.331    0.489  108.828    3.478    0.348
  224.636    0.492  111.836    3.415    0.372
  224.941    0.491   97.442    3.353    0.419
  225.246    0.483   92.648    3.353    0.366
  225.550    0.482   98.058    3.613    0.302
  225.855    0.482  110.066    4.353    0.267
  226.160    0.478  111.874    5.342    0.241
  226.465    0.420  104.681    6.806    0.126
  226.770    0.365  111.289    7.754    0.076
  227.074    0.330  107.096    8.355    0.433
  227.379    0.317   93.303    8.357    0.449
  227.684    0.320   84.909    8.838    0.374
  227.989    0.353   80.719   10.259    0.330
  228.294    0.443   83.125   12.360    0.325
  228.598    0.428   77.132   14.346    0.322
  228.903    0.367   65.138   18.276    0.320
  229.208    0.325   48.943   19.328    0.285
  229.513    0.339   53.752   18.625    0.269
  229.817    0.361   60.961   17.294    0.259
  230.122    0.355   61.568   16.056    0.244
  230.427    0.332   54.975   14.632    0.242
  230.732    0.325   53.184   13.087    0.381
  231.037    0.328   59.794   10.277    0.399
  231.341    0.370   62.800    9.903    0.401
  231.646    0.400   68.811   11.075    0.318
  231.951    0.387   72.416   11.933    0.283
  232.256    0.371   58.623   12.388    0.266
  232.561    0.349   55.030   11.501    0.256
  232.865    0.344   60.438    9.912    0.255
  233.170    0.351   70.048    8.079    0.265
  233.475    0.365   74.255    7.641    0.270
  233.780    0.405   84.465    7.228    0.270
  234.085    0.401   98.273    7.095    0.246
  234.389    0.379   98.883    7.230    0.216
  234.694    0.373   94.689    7.506    0.216
  234.999    0.376  107.898    7.648    0.226
  235.304    0.385  107.906    7.649    0.230
  235.609    0.389  109.715    7.510    0.231
  235.913    0.384  112.122    7.511    0.226
  236.218    0.373  103.728    7.374    0.224
  236.523    0.369  108.538    7.514    0.219
  236.828    0.369  111.545    7.515    0.208
  237.133    0.374  110.953    7.378    0.204
  237.437    0.377   98.959    7.518    0.207
  237.742    0.372   98.968    7.660    0.212
  238.047    0.372   98.976    7.953    0.197
  238.352    0.379  103.783    8.255    0.174
  238.657    0.371  107.991    8.732    0.166
  238.961    0.358  104.398    8.897    0.255
  239.266    0.355   96.007    8.898    0.244
  239.571    0.355   93.012    9.067    0.234
  239.876    0.396   96.622    8.901    0.234
  240.180    0.397   99.630    9.070    0.246
  240.485    0.394  103.239    9.773    0.255
  240.790    0.369  105.045   10.530    0.261
  241.095    0.347   96.652   11.776    0.268
  241.400    0.327   91.860   13.169    0.272
  241.704    0.311   95.469   14.190    0.277
  242.009    0.297   95.475   15.009    0.277
  242.314    0.295   90.082   15.011    0.271
  242.619    0.294   81.690   15.013    0.244
  242.924    0.292   84.097   14.201    0.238
  243.228    0.291   84.704   13.684    0.238
  243.533    0.295   81.112   13.186    0.229
  243.838    0.296   83.521   12.706    0.206
  244.143    0.295   86.528   12.948    0.183
  244.448    0.297   88.936   13.441    0.176
  244.752    0.306   91.344   13.953    0.172
  245.057    0.304   89.552   14.485    0.175
  245.362    0.297   87.762   14.488    0.250
  245.667    0.295   86.568   14.223    0.259
  245.972    0.275   84.775   13.963    0.265
  246.276    0.262   74.581   13.455    0.270
  246.581    0.304   80.591   13.210    0.266
  246.886    0.302   87.198   13.212    0.239
  247.191    0.297   94.407   13.716    0.224
  247.496    0.298   89.616   13.975    0.229
  247.800    0.293   86.022   14.240    0.243
  248.105    0.282   82.429   14.511    0.251
  248.410    0.276   83.037   14.246    0.264
  248.715    0.277   87.845   14.248    0.280
  249.020    0.285   90.255   13.988    0.288
  249.324    0.296   89.660   13.990    0.252
  249.629    0.298   82.469   14.256    0.238
  249.934    0.296   80.077   14.526    0.239
  250.239    0.291   81.282   14.803    0.240
  250.544    0.287   79.490   14.804    0.240
  250.848    0.285   81.298   15.085    0.241
  251.153    0.287   84.305   15.371    0.254
  251.458    0.292   80.714   15.957    0.268
  251.763    0.289   83.121   16.565    0.272
  252.067    0.285   85.529   16.879    0.253
  252.372    0.278   79.537   16.882    0.231
  252.677    0.275   74.144   16.268    0.222
  252.982    0.275   77.752   15.677    0.229
  253.287    0.278   69.959   15.975    0.242
  253.591    0.284   65.766   16.583    0.251
  253.896    0.294   78.375   16.897    0.244
  254.201    0.302   90.984   16.588    0.227
  254.506    0.302   78.990   14.839    0.211
  254.811    0.298   69.400   13.028    0.188
  255.115    0.311   68.804   10.818    0.168
  255.420    0.325   73.613    9.498    0.143
  255.725    0.328   94.023    9.678    0.113
  256.030    0.325  102.432   10.428    0.071
  256.335    0.283   98.239   12.799    0.033
