~VERSION INFORMATION
 VERS.                 2.0:   CWLS LOG ASCII STANDARD -VERSION 2.0
 WRAP.                  NO:   ONE LINE PER DEPTH STEP
~WELL INFORMATION BLOCK
#MNEM.UNIT           DATA                    DESCRIPTION OF MNEMONIC
#---------    -------------------            -------------------------------
# Generated from Intellog Unique Number	CC_84_87/WELL/2615
WELL.         HUDSON BAY OIL                 : Well_name    - WELL
LOC .         AA/07-18-087-10W4/0            : Location     - LOCATION
UWI .         AA/07-18-087-10W400            : Uwi          - UNIQUE WELL ID
ENTR.         TIM                            : Entered      - ENTERED BY
SRVC.         SCHLUMBERGER                   : Scn          - SERVICE COMPANY
DATE.         01\13\92                       : Date         - LOG DATE
STRT.M        30.48                          : top_depth    - START DEPTH
STOP.M        170.73                         : bot_depth    - STOP DEPTH
STEP.M        0.25                           : increment    - STEP LENGTH
 NULL. -999.2500:NULL Value
~CURVE INFORMATION BLOCK
#MNEM UNIT       ERCB CURVE CODE    CURVE DESCRIPTION
#-----------   ------------------   ----------------------------------
DEPT.M        00 001 00 00         : DEPTH        - DEPTH
NPHI.V/V      00 330 00 00         : PHIN         - NEUTRON POROSITY (SANDSTONE)
GR  .API      00 310 00 00         : GR           - GAMMA RAY
ILD .OHMM     00 120 00 00         : RESD         - DEEP RESISTIVITY (DIL)
~PARAMETER INFORMATION
#MNEM.UNIT           DATA             DESCRIPTION OF MNEMONIC
#---------         -----------     ------------------------------
GL  .M        426.933              : gl           - GROUND LEVEL ELEVATION
EREF.M        426.933              : kb           - ELEVATION OF DEPTH REFERENCE
DATM.M        426.933              : datum        - DATUM ELEVATION
TDD .M        172.212              : tdd          - TOTAL DEPTH DRILLER
RUN .         ONE                  : Run          - RUN NUMBER
ENG .         JO                   : Engineer     - RECORDING ENGINEER
WIT .         TIM                  : Witness      - WITNESSED BY
MUD .         GEL                  : Mud_type     - MUD TYPE
MATR.         SANDSTONE            : Logunit      - NEUTRON MATRIX
TMAX.C        21.1111              : BHT          - MAXIMUM RECORDED TEMPERATURE
BHTD.M        172.212              : BHTDEP       - MAXIMUM RECORDED TEMPERATURE
RMT .C        18                   : MDTP         - TEMPERATURE OF MUD
MUDD.KG/M     9083.33              : MWT          - MUD DENSITY
NEUT.         1                    : NEUTRON      - NEUTRON TYPE
RESI.         0                    : RESIST       - RESISTIVITY TYPE
RM  .OHMM     7.3                  : RM           - RESISTIVITY OF MUD
RMC .OHMM     7.3                  : RMC          - RESISTIVITY OF MUD CAKE
RMF .OHMM     7.3                  : RMF          - RESISTIVITY OF MUD FILTRATE
SUFT.C        4                    : SUFT         - SURFACE TEMPERATURE
~A  DEPTH     PHIN       GR     RESD
# ...
  138.980    0.362  157.587   28.888
  139.230    0.366  153.787   23.477
  139.480    0.343  148.356   27.482
  139.730    0.332  141.297   27.141
  139.980    0.310  132.607   23.538
  140.230    0.307  136.411   22.840
  140.480    0.322  138.585   24.308
  140.730    0.315  138.043   28.686
  140.980    0.310  136.414   31.972
  141.230    0.311  133.700   32.000
  141.480    0.323  131.528   29.116
  141.730    0.329  132.072   25.512
  141.980    0.337  134.789   22.996
  142.230    0.336  140.765   24.112
  142.480    0.335  145.654   25.590
  142.730    0.331  154.889   27.420
  142.980    0.328  149.458   29.980
  143.230    0.328  139.140   32.541
  143.480    0.329  135.339   28.937
  143.730    0.329  126.107   26.064
  143.980    0.332  122.849   28.262
  144.230    0.335  127.196   31.910
  144.480    0.339  124.482   37.734
  144.730    0.341  122.310   33.411
  144.980    0.335  117.422   30.164
  145.230    0.328  113.079   38.894
  145.480    0.329  111.450   49.069
  145.730    0.334  108.193   61.787
  145.980    0.338  103.849   44.043
  146.230    0.348  120.144   34.995
  146.480    0.347  141.870   17.613
  146.730    0.350  150.562   14.009
  146.980    0.354  149.476   32.529
  147.230    0.354  131.554   41.616
  147.480    0.341  115.261   30.398
  147.730    0.330  102.228   28.613
  147.980    0.326  106.031   23.191
  148.230    0.332  110.377   20.312
  148.480    0.337  113.636   27.949
  148.730    0.343  114.181   31.965
  148.980    0.345  115.811   32.350
  149.230    0.347  114.727   28.021
  149.480    0.346  112.012   30.219
  149.730    0.338  110.383   37.861
  149.980    0.335  107.669   38.609
  150.230    0.327  106.584   28.110
  150.480    0.315  109.300   23.781
  150.730    0.313  119.078   19.815
  150.980    0.313  131.571   18.024
  151.230    0.324  139.719   26.029
  151.480    0.342  131.030   28.595
  151.730    0.338  126.143   26.074
  151.980    0.331  120.170   37.705
  152.230    0.325  116.369   42.803
  152.480    0.325  116.370   33.761
  152.730    0.325  114.742   24.724
  152.980    0.326  100.079   22.927
  153.230    0.331   84.872   30.927
  153.480    0.339   81.071   48.721
  153.730    0.342   77.270   80.300
  153.980    0.340   82.703   71.615
  154.230    0.334   87.049   17.962
  154.480    0.329   94.654   16.172
  154.730    0.323   99.000   22.364
  154.980    0.319   95.743   27.825
  155.230    0.322   94.115   18.057
  155.480    0.324   94.659   15.904
  155.730    0.326  103.350   23.541
  155.980    0.327  106.067   27.925
  156.230    0.327  105.525   19.965
  156.480    0.338  109.871   15.642
  156.730    0.343  120.735   16.752
  156.980    0.340  114.218   16.411
  157.230    0.338  108.245   17.159
  157.480    0.335  102.815   20.439
  157.730    0.329  104.445   26.993
  157.980    0.324  107.705   33.905
  158.230    0.320  124.544   17.248
  158.480    0.324  119.656   16.913
  158.730    0.326  112.597   22.006
  158.980    0.330  104.451   23.847
  159.230    0.335  100.107   24.957
  159.480    0.330   95.763   21.353
  159.730    0.324   92.506   16.662
  159.980    0.319   89.791   13.415
  160.230    0.317   88.706   12.361
  160.480    0.328   90.880   14.553
  160.730    0.336   91.424   15.306
  160.980    0.337   87.080   13.510
  161.230    0.336   84.909   10.999
  161.480    0.340   85.996    9.928
  161.730    0.343   88.170   11.039
  161.980    0.345   89.800   15.417
  162.230    0.346   85.999   17.978
  162.480    0.346   78.397   18.725
  162.730    0.348   76.225   12.946
  162.980    0.341   91.977    9.705
  163.230    0.332   93.608    9.002
  163.480    0.340   84.375   10.475
  163.730    0.350   71.341   15.579
  163.980    0.347   61.566   19.590
  164.230    0.344   59.938   17.436
  164.480    0.339   63.741   16.014
  164.730    0.333   77.864   18.217
  164.980    0.328   85.469   15.696
  165.230    0.330   83.840   17.168
  165.480    0.332   81.669   24.805
  165.730    0.336   80.584   22.652
  165.980    0.336   81.128   62.570
  166.230    0.333   84.931   54.978
  166.480    0.332   87.105   47.023
  166.730    0.331   79.502   44.145
  166.980    0.329   74.072   37.641
  167.230    0.327   74.073   30.048
  167.480    0.322   76.247   24.626
  167.730    0.315   77.334   16.309
  167.980    0.320   75.706    8.354
  168.230    0.320   76.793    9.827
  168.480    0.319   80.053   16.019
  168.730    0.328   80.598   33.083
  168.980    0.352   76.796   50.878
  169.230    0.344   67.565   67.585
  169.480    0.304   62.678   45.846
  169.730    0.164   58.334   34.628
  169.980    0.109   57.248   35.013
  170.230    0.073   57.249  109.751
  170.480    0.055   51.276  126.815
  170.730    0.052   44.216  129.024
