~VERSION INFORMATION
 VERS.                 2.0:   CWLS LOG ASCII STANDARD -VERSION 2.0
 WRAP.                  NO:   ONE LINE PER DEPTH STEP
~WELL INFORMATION BLOCK
#MNEM.UNIT           DATA                    DESCRIPTION OF MNEMONIC
#---------    -------------------            -------------------------------
# Generated from Intellog Unique Number	CS_77_79/WELL/925
WELL.         PEX PCEJ ALGAR OV              : Well_name    - WELL
LOC .         AA/09-11-079-15W4/0            : Location     - LOCATION
UWI .         AA/09-11-079-15W4/0            : Uwi          - UNIQUE WELL ID
ENTR.         JHS                            : Entered      - ENTERED BY
SRVC.         SCHLUMBERGER                   : Scn          - SERVICE COMPANY
STRT.M        225                            : top_depth    - START DEPTH
STOP.M        455                            : bot_depth    - STOP DEPTH
STEP.M        0.25                           : increment    - STEP LENGTH
 NULL. -999.2500:NULL Value
~CURVE INFORMATION BLOCK
#MNEM UNIT       ERCB CURVE CODE    CURVE DESCRIPTION
#-----------   ------------------   ----------------------------------
DEPT.M        00 001 00 00         : DEPTH        - DEPTH
DPHI.V/V      00 890 00 00         : PHID         - DENSITY POROSITY (LIMESTONE)
NPHI.V/V      00 330 00 00         : PHIN         - NEUTRON POROSITY (LIMESTONE)
GR  .API      00 310 00 00         : GR           - GAMMA RAY
ILD .OHMM     00 120 00 00         : RESD         - DEEP RESISTIVITY (DIL)
RHOB.KG/M3    00 350 00 00         : DENS         - BULK DENSITY
~PARAMETER INFORMATION
#MNEM.UNIT           DATA             DESCRIPTION OF MNEMONIC
#---------         -----------     ------------------------------
GL  .M        633.71               : gl           - GROUND LEVEL ELEVATION
EREF.M        637.08               : kb           - ELEVATION OF DEPTH REFERENCE
DATM.M        637.08               : datum        - DATUM ELEVATION
TDD .M        454                  : tdd          - TOTAL DEPTH DRILLER
RUN .         ONE                  : Run          - RUN NUMBER
ENG .         BILL                 : Engineer     - RECORDING ENGINEER
WIT .         JIM                  : Witness      - WITNESSED BY
MUD .         GEL                  : Mud_type     - MUD TYPE
MATR.         LIMESTONE            : Logunit      - NEUTRON MATRIX
TMAX.C        20                   : BHT          - MAXIMUM RECORDED TEMPERATURE
BHTD.M        454                  : BHTDEP       - MAXIMUM RECORDED TEMPERATURE
MATR.         1                    : LOGUNIT      - NEUTRON MATRIX
RMT .C        25                   : MDTP         - TEMPERATURE OF MUD
NEUT.         1                    : NEUTRON      - NEUTRON TYPE
RESI.         0                    : RESIST       - RESISTIVITY TYPE
RMC .OHMM     0.25                 : RMC          - RESISTIVITY OF MUD CAKE
RMF .OHMM     0.25                 : RMF          - RESISTIVITY OF MUD FILTRATE
SUFT.C        15                   : SUFT         - SURFACE TEMPERATURE
~A  DEPTH     PHID     PHIN       GR     RESD     DENS
# ...
  407.500    0.187    0.409  117.933    5.678 2390.830
  407.750    0.178    0.419  113.587    5.268 2405.580
  408.000    0.176    0.404  101.183    5.685 2409.790
  408.250    0.173    0.384   88.780    6.019 2413.990
  408.500    0.139    0.362   78.856    6.136 2473.080
  408.750    0.210    0.378   77.608    5.587 2350.620
  409.000    0.257    0.430   85.657    5.183 2270.370
  409.250    0.224    0.392   88.131    5.385 2327.350
  409.500    0.192    0.350   81.924    6.148 2382.220
  409.750    0.188    0.323   80.678    8.164 2388.540
  410.000    0.204    0.321   72.612   11.047 2361.070
  410.250    0.256    0.337   68.265   14.126 2272.390
  410.500    0.252    0.356   62.681   17.394 2278.700
  410.750    0.256    0.341   48.417   19.860 2272.350
  411.000    0.292    0.339   40.970   23.108 2211.110
  411.250    0.299    0.350   39.724   26.387 2198.420
  411.500    0.272    0.368   46.536   28.467 2244.840
  411.750    0.244    0.367   62.023   30.714 2293.380
  412.000    0.196    0.360   75.033   29.592 2375.690
  412.250    0.194    0.366   88.661   24.515 2377.770
  412.500    0.197    0.386   96.712   20.308 2373.540
  412.750    0.210    0.381  101.664   16.509 2350.300
  413.000    0.239    0.375  107.855   15.905 2301.720
  413.250    0.256    0.360  110.947   19.221 2272.150
  413.500    0.207    0.344   86.146   21.945 2356.570
  413.750    0.159    0.330   82.419   25.055 2438.880
  414.000    0.151    0.335   74.974   28.078 2451.530
  414.250    0.219    0.360   80.544   28.091 2335.400
  414.500    0.224    0.365   88.595   26.556 2326.930
  414.750    0.230    0.359   92.308   24.636 2316.360
  415.000    0.193    0.347   87.962   21.600 2379.670
  415.250    0.177    0.344   91.051   20.810 2407.100
  415.500    0.165    0.346   94.144   20.046 2428.190
  415.750    0.177    0.344   87.320   19.683 2407.050
  416.000    0.164    0.334   78.635   20.840 2430.260
  416.250    0.150    0.324   59.412   22.912 2453.450
  416.500    0.183    0.324   64.982   25.672 2396.440
  416.750    0.225    0.339   64.976   28.763 2324.640
  417.000    0.256    0.356   68.687   31.629 2271.840
  417.250    0.235    0.336   72.399   32.246 2307.710
  417.500    0.214    0.335   79.211   31.659 2343.580
  417.750    0.202    0.350   87.881   29.933 2364.670
  418.000    0.207    0.350   87.253   27.252 2356.200
  418.250    0.174    0.353   73.609   26.251 2413.190
  418.500    0.143    0.360   79.179   25.776 2465.950
  418.750    0.161    0.355   82.893   24.368 2434.260
  419.000    0.204    0.346   90.323   22.186 2360.350
  419.250    0.195    0.329   90.314   20.972 2377.220
  419.500    0.188    0.325   85.968   19.098 2387.750
  419.750    0.180    0.325   90.918   18.395 2402.510
  420.000    0.164    0.332   94.011   16.436 2429.940
  420.250    0.158    0.355   90.287   15.833 2440.470
  420.500    0.184    0.386   90.279   15.546 2396.120
  420.750    0.259    0.370   60.520   17.419 2267.320
  421.000    0.302    0.375   54.933   19.150 2193.420
  421.250    0.345    0.384   50.587   24.032 2119.510
  421.500    0.322    0.387   51.200   31.312 2159.600
  421.750    0.292    0.397   62.349   43.178 2210.240
  422.000    0.274    0.385   74.740   59.541 2241.890
  422.250    0.256    0.374   82.790   66.725 2271.420
  422.500    0.197    0.366   88.981   61.902 2372.740
  422.750    0.185    0.359   75.957   55.300 2393.830
  423.000    0.245    0.361   83.388   48.473 2290.370
  423.250    0.221    0.360   80.281   39.406 2332.570
  423.500    0.208    0.352   87.092   35.207 2353.660
  423.750    0.223    0.363   83.365   32.664 2328.300
  424.000    0.196    0.359   93.274   29.737 2374.730
  424.250    0.171    0.354  100.705   26.566 2416.930
  424.500    0.155    0.344  105.037   22.854 2444.350
  424.750    0.166    0.341  107.509   17.890 2425.330
  425.000    0.181    0.350  111.221   15.392 2399.980
  425.250    0.194    0.341  105.015   14.550 2378.850
  425.500    0.206    0.344   96.330   14.018 2357.720
  425.750    0.208    0.362   91.363   14.026 2353.480
  426.000    0.196    0.370   88.257   14.573 2374.560
  426.250    0.195    0.384   90.109   15.429 2376.660
  426.500    0.220    0.373   82.663   16.965 2334.410
  426.750    0.236    0.376   74.599   19.008 2306.950
  427.000    0.290    0.385   73.968   22.971 2214.040
  427.250    0.281    0.381   74.582   25.735 2228.800
  427.500    0.272    0.381   72.097   29.381 2245.670
  427.750    0.257    0.365   77.667   34.186 2270.980
  428.000    0.232    0.352   78.282   36.890 2313.190
  428.250    0.221    0.353   75.174   36.214 2332.170
  428.500    0.218    0.348   77.646   32.358 2336.370
  428.750    0.216    0.349   75.160   30.591 2340.570
  429.000    0.144    0.347   71.433   29.469 2462.990
  429.250    0.096    0.341   73.285   28.931 2545.310
  429.500    0.147    0.342   85.056   31.218 2458.730
  429.750    0.248    0.365   98.064   33.051 2285.600
  430.000    0.217    0.372   99.915   34.341 2338.360
  430.250    0.203    0.368   96.189   33.086 2363.670
  430.500    0.198    0.369   93.703   30.698 2372.100
  430.750    0.205    0.359  111.671   29.016 2359.410
  431.000    0.199    0.351  127.778   26.416 2369.940
  431.250    0.182    0.357  130.871   23.603 2399.480
  431.500    0.177    0.352  125.285   21.085 2407.900
  431.750    0.167    0.345  116.601   18.487 2424.770
  432.000    0.148    0.340  109.776   16.832 2456.420
  432.250    0.156    0.351  117.206   16.521 2443.730
  432.500    0.185    0.367  115.339   16.531 2393.050
  432.750    0.289    0.366   99.215   18.176 2215.700
  433.000    0.271    0.362   96.109   19.983 2247.340
  433.250    0.257    0.362   91.143   22.819 2270.540
  433.500    0.246    0.352   86.176   25.089 2289.520
  433.750    0.271    0.356   79.351   27.071 2247.280
  434.000    0.247    0.345   84.922   28.666 2287.370
  434.250    0.066    0.320   89.254   28.674 2597.680
  434.500    0.071    0.320  100.403   27.624 2589.220
  434.750    0.147    0.351  112.173   25.148 2458.310
  435.000    0.168    0.348  123.321   22.047 2422.400
  435.250    0.158    0.360  125.795   18.614 2439.270
  435.500    0.158    0.368  126.406   16.946 2439.250
  435.750    0.168    0.353  117.721   15.140 2422.340
  436.000    0.194    0.347  105.938   15.436 2377.990
  436.250    0.258    0.342   98.493   16.035 2268.190
  436.500    0.246    0.337   89.188   18.312 2289.280
  436.750    0.237    0.331   89.180   19.385 2304.040
  437.000    0.221    0.329   96.612   21.317 2331.460
  437.250    0.198    0.332  122.637   21.735 2371.560
  437.500    0.176    0.351  135.026   21.743 2409.540
  437.750    0.166    0.355  144.315   18.356 2426.410
  438.000    0.165    0.357  142.449   16.091 2428.490
  438.250    0.175    0.362  123.227   14.108 2411.580
  438.500    0.184    0.356  112.682   13.338 2394.680
  438.750    0.178    0.347  104.617   14.122 2405.210
  439.000    0.162    0.344   89.115   15.526 2432.640
  439.250    0.138    0.339   46.959   17.727 2474.840
  439.500    0.162    0.355   32.694   22.669 2432.600
  439.750    0.252    0.373   37.646   28.985 2278.470
  440.000    0.303    0.383   34.538   38.489 2191.890
  440.250    0.312    0.391   33.293   45.640 2177.100
  440.500    0.297    0.375   37.624   51.133 2202.410
  440.750    0.319    0.357   42.575   55.169 2164.390
  441.000    0.303    0.343   56.205   56.249 2191.810
  441.250    0.264    0.335   85.948   56.276 2259.350
  441.500    0.150    0.356   94.619   48.414 2453.550
  441.750    0.135    0.364   98.329   20.719 2478.860
  442.000    0.129    0.350  100.802   15.328 2489.400
  442.250    0.173    0.341  105.135   15.333 2413.370
  442.500    0.164    0.335  109.465   15.931 2430.250
  442.750    0.144    0.324   75.988   17.517 2464.000
  443.000    0.133    0.332   62.963   19.260 2482.980
  443.250    0.220    0.365   74.733   21.175 2333.070
  443.500    0.206    0.353   84.023   24.640 2358.390
  443.750    0.195    0.349   80.917   27.091 2377.370
