~VERSION INFORMATION
 VERS.                 2.0:   CWLS LOG ASCII STANDARD -VERSION 2.0
 WRAP.                  NO:   ONE LINE PER DEPTH STEP
~WELL INFORMATION BLOCK
#MNEM.UNIT           DATA                    DESCRIPTION OF MNEMONIC
#---------    -------------------            -------------------------------
# Generated from Intellog Unique Number	CN_94_101/WELL/1064
WELL.         CHEVRON CANADA RESOURCES       : Well_name    - WELL
LOC .         AA/04-23-094-07W4/0            : Location     - LOCATION
UWI .         AA/04-23-094-07W400            : Uwi          - UNIQUE WELL ID
ENTR.         JOETTE                         : Entered      - ENTERED BY
SRVC.         SCHLUMBERGER                   : Scn          - SERVICE COMPANY
DATE.         04/12/92                       : Date         - LOG DATE
STRT.M        100                            : top_depth    - START DEPTH
STOP.M        270                            : bot_depth    - STOP DEPTH
STEP.M        0.25                           : increment    - STEP LENGTH
 NULL. -999.2500:NULL Value
~CURVE INFORMATION BLOCK
#MNEM UNIT       ERCB CURVE CODE    CURVE DESCRIPTION
#-----------   ------------------   ----------------------------------
DEPT.M        00 001 00 00         : DEPTH        - DEPTH
GR  .API      00 310 00 00         : GR           - GAMMA RAY
ILD .OHMM     00 120 00 00         : RESD         - DEEP RESISTIVITY (DIL)
NPHI.V/V      00 330 00 00         : PHIN         - NEUTRON POROSITY (SANDSTONE)
DPHI.V/V      00 890 00 00         : PHID         - DENSITY POROSITY (SANDSTONE)
~PARAMETER INFORMATION
#MNEM.UNIT           DATA             DESCRIPTION OF MNEMONIC
#---------         -----------     ------------------------------
GL  .M        529.3                : gl           - GROUND LEVEL ELEVATION
EREF.M        529.3                : kb           - ELEVATION OF DEPTH REFERENCE
DATM.M        529.3                : datum        - DATUM ELEVATION
TDD .M        261.6                : tdd          - TOTAL DEPTH DRILLER
RUN .         ONE                  : Run          - RUN NUMBER
ENG .         JO                   : Engineer     - RECORDING ENGINEER
WIT .         TIM                  : Witness      - WITNESSED BY
MUD .         GEL                  : Mud_type     - MUD TYPE
MATR.         SANDSTONE            : Logunit      - NEUTRON MATRIX
TMAX.C        112                  : BHT          - MAXIMUM RECORDED TEMPERATURE
BHTD.M        261.6                : BHTDEP       - MAXIMUM RECORDED TEMPERATURE
RMT .C        10                   : MDTP         - TEMPERATURE OF MUD
MUDD.KG/M     1010                 : MWT          - MUD DENSITY
NEUT.         1                    : NEUTRON      - NEUTRON TYPE
RESI.         0                    : RESIST       - RESISTIVITY TYPE
RM  .OHMM     4.5                  : RM           - RESISTIVITY OF MUD
RMC .OHMM     4                    : RMC          - RESISTIVITY OF MUD CAKE
RMF .OHMM     3.59                 : RMF          - RESISTIVITY OF MUD FILTRATE
SUFT.C        4                    : SUFT         - SURFACE TEMPERATURE
~A  DEPTH       GR     RESD     PHIN     PHID
  100.000   50.836   28.540    0.467    0.374
  100.250   49.651   30.175    0.475    0.377
  100.500   47.875   32.502    0.468    0.376
  100.750   44.916   33.731    0.444    0.368
  101.000   43.731   33.104    0.442    0.365
  101.250   46.092   31.889    0.432    0.361
  101.500   47.272   31.883    0.440    0.365
  101.750   47.860   32.477    0.451    0.380
  102.000   49.040   31.873    0.461    0.380
  102.250   47.263   29.579    0.462    0.359
  102.500   45.488   28.495    0.444    0.342
  102.750   44.302   29.571    0.445    0.326
  103.000   43.708   34.315    0.457    0.335
  103.250   43.706   39.818    0.464    0.368
  103.500   42.521   43.698    0.464    0.381
  103.750   41.927   53.621    0.462    0.403
  104.000   41.333   53.612    0.459    0.440
  104.250   40.739   44.495    0.467    0.471
  104.500   41.919   42.864    0.465    0.522
  104.750   43.689   47.920    0.458    0.504
  105.000   43.686   49.730    0.456    0.525
  105.250   42.501   49.722    0.461    0.555
  105.500   40.133   49.714    0.480    0.553
  105.750   35.402   48.789    0.499    0.501
  106.000   34.217   46.133    0.517    0.477
  106.250   37.170   43.617    0.519    0.542
  106.500   38.349   42.804    0.506    0.585
  106.750   38.347   36.876    0.507    0.446
  107.000   38.343   38.269    0.498    0.370
  107.250   38.340   34.861    0.479    0.352
  107.500   41.294   28.401    0.469    0.362
  107.750   44.837   21.081    0.485    0.364
  108.000   46.017   24.462    0.464    0.373
  108.250   45.423   26.349    0.458    0.391
  108.500   44.830   23.560    0.474    0.409
  108.750   48.965   23.998    0.480    0.394
  109.000   56.055   22.273    0.482    0.378
  109.250   57.825   20.672    0.487    0.357
  109.500   54.276   22.684    0.490    0.344
  109.750   53.090   23.984    0.496    0.331
  110.000   60.773   21.445    0.520    0.314
  110.250   75.548   17.799    0.534    0.303
  110.500   93.279   13.460    0.525    0.304
  110.750  103.325   10.370    0.511    0.301
  111.000   97.412   11.380    0.502    0.278
  111.250  100.364   11.378    0.505    0.252
  111.500  106.272   10.173    0.484    0.229
  111.750  100.949   11.374    0.483    0.241
  112.000   99.172   11.586    0.478    0.243
  112.250   95.624   11.802    0.482    0.251
  112.500   90.301   10.750    0.507    0.272
  112.750   86.751   11.157    0.508    0.287
  113.000   84.383   16.802    0.489    0.277
  113.250   86.745   16.799    0.513    0.262
  113.500   91.472   12.239    0.544    0.278
  113.750  101.518    9.971    0.511    0.280
  114.000  110.973    9.605    0.497    0.267
  114.250  117.473    9.252    0.553    0.263
  114.500  121.017    9.080    0.586    0.290
  114.750  119.832    8.911    0.568    0.328
  115.000  116.282    9.077    0.547    0.299
  115.250  113.324    9.246    0.545    0.313
  115.500  112.730    9.074    0.548    0.315
  115.750  113.909    8.905    0.556    0.296
  116.000  116.271    8.740    0.574    0.260
  116.250  120.997    8.738    0.575    0.257
  116.500  126.314    9.068    0.565    0.251
  116.750  130.449    9.067    0.553    0.226
  117.000  130.446    9.065    0.543    0.221
  117.250  131.034    9.408    0.555    0.235
  117.500  133.988    9.406    0.562    0.251
  117.750  131.029    9.581    0.535    0.260
  118.000  124.524    9.580    0.520    0.276
  118.250  117.428    9.578    0.545    0.288
  118.500  120.380    9.400    0.554    0.276
  118.750  122.742    8.887    0.554    0.282
  119.000  121.557    8.886    0.544    0.300
  119.250  126.284    8.885    0.555    0.308
  119.500  133.965    8.720    0.573    0.317
  119.750  137.509    8.718    0.613    0.321
  120.000  135.142    8.556    0.597    0.276
  120.250  129.228    8.554    0.589    0.282
  120.500  126.860    8.395    0.604    0.291
  120.750  126.857    8.239    0.618    0.299
  121.000  125.672    7.790    0.624    0.288
  121.250  122.713    7.645    0.618    0.252
  121.500  124.483    7.788    0.598    0.221
  121.750  123.889    8.082    0.574    0.172
  122.000  122.705    8.387    0.573    0.174
  122.250  116.791    8.704    0.578    0.184
  122.500  104.375    9.375    0.587    0.204
  122.750  107.919    9.373    0.579    0.257
  123.000  123.285    8.863    0.585    0.285
  123.250  134.514    8.380    0.603    0.302
  123.500  133.328    7.493    0.600    0.296
  123.750  134.507    7.354    0.584    0.277
  124.000  130.959    7.775    0.573    0.255
  124.250  123.862    8.532    0.576    0.249
  124.500  114.401    8.530    0.605    0.257
  124.750  120.309    8.529    0.615    0.287
  125.000  120.898    8.371    0.602    0.293
  125.250  124.441    8.369    0.596    0.268
  125.500  122.075    8.368    0.582    0.279
  125.750  117.933    8.061    0.580    0.304
  126.000  120.296    7.207    0.600    0.291
  126.250  122.658    6.566    0.549    0.275
  126.500  123.837    6.444    0.564    0.287
  126.750  122.652    6.324    0.576    0.288
  127.000  119.102    6.322    0.588    0.279
  127.250  115.553    6.440    0.607    0.280
  127.500  110.821    6.560    0.588    0.293
  127.750  110.818    6.438    0.568    0.307
  128.000  113.179    6.319    0.556    0.307
  128.250  112.586    6.318    0.545    0.295
  128.500  107.854    6.805    0.537    0.281
  128.750  102.531    7.330    0.517    0.274
  129.000  104.893    8.195    0.487    0.279
  129.250  109.619    8.504    0.496    0.295
  129.500  110.207    8.346    0.516    0.315
  129.750  109.613    7.603    0.523    0.333
  130.000  104.881    7.601    0.525    0.322
  130.250   91.282    8.659    0.515    0.310
  130.500   73.546   10.236    0.498    0.312
  130.750   80.636   14.578    0.496    0.323
  131.000   81.224   13.280    0.502    0.319
  131.250   80.630   11.874    0.533    0.316
  131.500   81.219   10.617    0.533    0.320
  131.750   82.399   10.815    0.499    0.253
  132.000   78.258   12.092    0.462    0.146
  132.250   72.344   14.564    0.382    0.178
  132.500   74.115   18.898    0.428    0.236
  132.750   84.752   14.833    0.578    0.336
  133.000   94.798    8.971    0.552    0.337
  133.250   94.796    7.173    0.564    0.319
  133.500   90.655    8.019    0.564    0.323
  133.750   84.741    8.966    0.546    0.337
  134.000   86.511   10.600    0.528    0.348
  134.250   86.508   10.797    0.514    0.349
  134.500   88.279   10.209    0.518    0.344
  134.750   91.823    9.653    0.552    0.334
  135.000   96.549    9.651    0.580    0.322
  135.250   97.138    9.650    0.612    0.322
  135.500   94.769    9.470    0.582    0.329
  135.750  100.088    8.954    0.540    0.337
  136.000  109.543    8.310    0.499    0.323
  136.250  103.629    8.951    0.482    0.307
  136.500   95.941   10.196    0.490    0.314
  136.750   92.392    9.463    0.496    0.320
  137.000  100.074    8.782    0.499    0.319
  137.250  103.617    8.304    0.518    0.317
  137.500   97.703    7.851    0.548    0.317
  137.750   95.336    8.301    0.527    0.299
  138.000   87.058   10.572    0.505    0.283
  138.250   78.778   11.178    0.493    0.300
  138.500   82.913    9.452    0.503    0.323
  138.750   85.867    7.419    0.500    0.333
  139.000   89.409    5.932    0.492    0.326
  139.250   85.269    7.416    0.489    0.321
  139.500   86.448    7.144    0.523    0.324
  139.750   88.219    7.011    0.566    0.325
  140.000   87.625    6.880    0.593    0.319
  140.250   84.076    7.009    0.553    0.301
  140.500   80.526    7.836    0.511    0.236
  140.750   77.567    9.264    0.475    0.260
  141.000   71.654   12.246    0.474    0.297
  141.250   67.513   13.191    0.473    0.324
  141.500   71.057   13.189    0.457    0.336
  141.750   76.374   12.240    0.465    0.354
  142.000   85.830   10.350    0.548    0.384
  142.250   97.649    7.827    0.585    0.382
  142.500   95.873    5.919    0.611    0.351
  142.750   90.550    5.005    0.611    0.314
  143.000  105.325    5.098    0.611    0.279
  143.250  101.776    5.595    0.597    0.271
