~VERSION INFORMATION
 VERS.                 2.0:   CWLS LOG ASCII STANDARD -VERSION 2.0
 WRAP.                  NO:   ONE LINE PER DEPTH STEP
~WELL INFORMATION BLOCK
#MNEM.UNIT           DATA                    DESCRIPTION OF MNEMONIC
#---------    -------------------            -------------------------------
# Generated from Intellog Unique Number	CW_76_78/WELL/2565
WELL.         05-14-078-24W4                 : Well_name    - WELL
LOC .         AA/05-14-078-24W4/0            : Location     - LOCATION
UWI .         AA/05-14-078-24W4/0            : Uwi          - UNIQUE WELL ID
ENTR.         MAX                            : Entered      - ENTERED BY
SRVC.         SCHLUMBERGER                   : Scn          - SERVICE COMPANY
STRT.M        290                            : top_depth    - START DEPTH
STOP.M        545                            : bot_depth    - STOP DEPTH
STEP.M        0.25                           : increment    - STEP LENGTH
 NULL. -999.2500:NULL Value
~CURVE INFORMATION BLOCK
#MNEM UNIT       ERCB CURVE CODE    CURVE DESCRIPTION
#-----------   ------------------   ----------------------------------
DEPT.M        00 001 00 00         : DEPTH        - DEPTH
ILD .OHMM     00 120 00 00         : RESD         - DEEP RESISTIVITY (DIL)
NPHI.V/V      00 330 00 00         : PHIN         - NEUTRON POROSITY (SANDSTONE)
DPHI.V/V      00 890 00 00         : PHID         - DENSITY POROSITY (SANDSTONE)
CALI.MM       00 280 01 00         : CAL          - CALIPER
GR  .API      00 310 00 00         : GR           - GAMMA RAY
~PARAMETER INFORMATION
#MNEM.UNIT           DATA             DESCRIPTION OF MNEMONIC
#---------         -----------     ------------------------------
GL  .M        597.38               : gl           - GROUND LEVEL ELEVATION
EREF.M        602.13               : kb           - ELEVATION OF DEPTH REFERENCE
DATM.M        597.38               : datum        - DATUM ELEVATION
TDD .M        547                  : tdd          - TOTAL DEPTH DRILLER
RUN .         ONE                  : Run          - RUN NUMBER
ENG .         BILL                 : Engineer     - RECORDING ENGINEER
WIT .         JIM                  : Witness      - WITNESSED BY
MUD .         GEL                  : Mud_type     - MUD TYPE
MATR.         SANDSTONE            : Logunit      - NEUTRON MATRIX
TMAX.C        41.1                 : BHT          - MAXIMUM RECORDED TEMPERATURE
BHTD.M        547                  : BHTDEP       - MAXIMUM RECORDED TEMPERATURE
RMT .C        17.7                 : MDTP         - TEMPERATURE OF MUD
MUDD.KG/M     1115                 : MWT          - MUD DENSITY
NEUT.         1                    : NEUTRON      - NEUTRON TYPE
RESI.         0                    : RESIST       - RESISTIVITY TYPE
RM  .OHMM     6.28                 : RM           - RESISTIVITY OF MUD
RMC .OHMM     0.25                 : RMC          - RESISTIVITY OF MUD CAKE
RMF .OHMM     5.71                 : RMF          - RESISTIVITY OF MUD FILTRATE
SUFT.C        -20                  : SUFT         - SURFACE TEMPERATURE
~A  DEPTH     RESD     PHIN     PHID      CAL       GR
  290.000    3.401    0.566    0.275  247.052   81.364
  290.250    3.217    0.583    0.298  252.974   80.406
  290.500    2.934    0.598    0.333  253.396   77.332
  290.750    2.603    0.570    0.345  250.293   75.477
  291.000    2.440    0.535    0.336  252.187   74.820
  291.250    2.287    0.541    0.344  249.106   76.264
  291.500    2.437    0.582    0.366  232.436   76.819
  291.750    2.870    0.553    0.362  214.260   71.328
  292.000    3.380    0.433    0.303  205.110   71.274
  292.250    3.981    0.413    0.279  201.002   68.213
  292.500    5.280    0.420    0.296  198.903   61.525
  292.750    6.334    0.434    0.318  198.321   57.554
  293.000    7.192    0.436    0.311  198.230   59.006
  293.250    7.731    0.442    0.295  199.645   62.566
  293.500    8.161    0.455    0.318  201.539   61.299
  293.750    8.613    0.469    0.330  202.452   59.437
  294.000    9.260    0.491    0.333  202.349   57.260
  294.250    9.864    0.487    0.324  202.269   56.617
  294.500   10.223    0.469    0.299  201.664   55.953
  294.750   10.214    0.479    0.302  200.581   56.192
  295.000   10.300    0.487    0.315  200.489   57.055
  295.250   10.293    0.473    0.316  201.414   58.198
  295.500   11.065    0.479    0.319  201.300   56.042
  295.750   11.895    0.486    0.327  200.729   52.359
  296.000   12.902    0.454    0.333  199.622   49.894
  296.250   13.869    0.432    0.339  199.018   48.943
  296.500   15.046    0.443    0.341  198.938   50.394
  296.750   16.176    0.464    0.338  198.847   53.653
  297.000   17.873    0.477    0.331  198.755   53.290
  297.250   20.669    0.469    0.324  198.664   50.825
  297.500   23.905    0.437    0.306  199.577   48.655
  297.750   30.015    0.446    0.293  199.474   47.088
  298.000   35.352    0.449    0.278  199.395   46.444
  298.250   39.779    0.412    0.251  198.790   47.895
  298.500   45.166    0.331    0.230  199.703   45.123
  298.750   46.816    0.328    0.238  200.102   41.453
  299.000   42.696    0.352    0.270  200.022   43.192
  299.250   37.200    0.411    0.300  199.920   45.246
  299.500   28.259    0.457    0.322  200.331   47.923
  299.750   21.666    0.478    0.327  200.730   49.963
  300.000   19.222    0.488    0.337  200.650   49.306
  300.250   18.863    0.497    0.342  200.570   47.745
  300.500   18.676    0.505    0.335  199.966   46.780
  300.750   19.892    0.460    0.329  199.384   47.341
  301.000   21.383    0.445    0.331  198.289   49.991
  301.250   23.198    0.440    0.337  196.668   53.256
  301.500   23.182    0.460    0.351  195.562   56.214
  301.750   23.162    0.463    0.350  194.991   55.851
  302.000   22.728    0.455    0.334  194.398   54.598
  302.250   21.299    0.462    0.322  194.295   52.736
  302.500   20.337    0.469    0.321  194.216   52.373
  302.750   19.238    0.447    0.324  194.124   49.909
  303.000   19.046    0.444    0.320  194.524   51.059
  303.250   19.919    0.458    0.312  194.444   53.400
  303.500   20.834    0.426    0.316  194.341   53.044
  303.750   21.398    0.420    0.326  193.748   52.695
  304.000   21.976    0.429    0.334  192.641   51.141
  304.250   22.159    0.450    0.341  192.059   49.875
  304.500   22.142    0.455    0.340  191.455   50.724
  304.750   21.137    0.458    0.344  190.862   50.669
  305.000   20.365    0.460    0.352  190.759   50.019
  305.250   18.743    0.463    0.352  191.181   50.566
  305.500   16.937    0.472    0.340  191.090   52.620
  305.750   14.490    0.483    0.326  191.512   54.065
  306.000   12.510    0.496    0.331  191.398   54.010
  306.250   11.514    0.476    0.335  191.296   53.346
  306.500   11.715    0.457    0.342  191.227   52.080
  306.750   12.142    0.451    0.344  191.124   50.827
  307.000   12.133    0.456    0.339  191.033   48.369
  307.250   11.372    0.463    0.335  190.953   48.314
  307.500   10.372    0.458    0.329  191.364   53.983
  307.750    9.723    0.461    0.316  191.262   61.760
  308.000    9.366    0.477    0.322  191.684   59.597
  308.250    9.707    0.483    0.330  191.593   54.120
  308.500   10.923    0.434    0.336  191.992   51.039
  308.750   13.968    0.433    0.338  192.380   47.678
  309.000   16.909    0.448    0.308  192.802   45.501
  309.250   19.201    0.404    0.255  192.643   45.761
  309.500   19.186    0.308    0.187  192.620   46.603
  309.750   17.820    0.277    0.189  193.042   50.170
  310.000   15.955    0.346    0.293  193.955   55.236
  310.250   14.820    0.407    0.313  194.343   57.290
  310.500   13.514    0.455    0.323  194.263   55.127
  310.750   13.383    0.462    0.333  193.670   50.841
  311.000   13.620    0.449    0.335  193.590   50.793
  311.250   14.775    0.456    0.333  193.487   47.726
  311.500   15.452    0.465    0.330  194.902   45.563
  311.750   15.727    0.451    0.331  196.317   48.520
  312.000   15.715    0.427    0.334  198.234   49.972
  312.250   15.701    0.428    0.336  197.629   49.910
  312.500   15.546    0.448    0.337  197.538   49.862
  312.750   14.307    0.465    0.337  198.451   51.006
  313.000   12.581    0.479    0.329  199.375   52.765
  313.250   10.377    0.501    0.315  200.790   57.530
  313.500    8.637    0.451    0.298  202.696   65.601
  313.750    7.949    0.426    0.284  204.111   70.380
  314.000    7.729    0.408    0.273  204.521   66.704
  314.250    7.721    0.387    0.282  203.928   53.991
  314.500    8.003    0.357    0.290  198.326   54.237
  314.750    8.763    0.362    0.288  195.702   57.195
  315.000   10.227    0.381    0.293  195.108   50.506
  315.250   11.095    0.404    0.320  195.029   48.048
  315.500   11.188    0.440    0.345  194.915   44.667
  315.750   10.977    0.420    0.351  194.846   42.510
  316.000   11.585    0.389    0.347  194.755   44.852
  316.250   12.007    0.392    0.322  194.664   47.220
  316.500   11.998    0.398    0.300  194.550   49.274
  316.750   11.142    0.380    0.303  194.447   46.809
  317.000   10.350    0.364    0.321  194.379   47.658
  317.250    9.612    0.367    0.323  194.778   65.684
  317.500    8.930    0.380    0.286  195.177   81.300
  317.750    7.780    0.424    0.255  196.113   86.064
  318.000    6.967    0.415    0.263  197.528   84.805
  318.250    6.471    0.418    0.258  200.449   89.878
  318.500    6.120    0.431    0.246  206.873   93.424
  318.750    5.685    0.436    0.248  209.292   95.183
  319.000    5.377    0.433    0.248  210.718   95.437
  319.250    5.228    0.444    0.247  211.129   94.472
  319.500    5.418    0.463    0.244  210.524   91.097
  319.750    5.771    0.478    0.247  208.436   85.325
  320.000    6.376    0.470    0.259  204.808   76.823
  320.250    6.314    0.454    0.283  202.731   77.377
  320.500    5.972    0.422    0.272  200.609   82.443
  320.750    5.496    0.435    0.229  200.005   90.528
  321.000    5.200    0.470    0.194  200.940   95.594
  321.250    4.328    0.468    0.137  202.344  105.186
  321.500    3.505    0.480    0.234  202.766  107.842
  321.750    3.168    0.488    0.205  202.663  100.544
  322.000    3.108    0.488    0.162  202.081  102.297
  322.250    2.993    0.487    0.216  201.477  107.062
  322.500    2.964    0.494    0.243  200.884  107.014
  322.750    2.962    0.508    0.266  201.294   94.301
  323.000    3.070    0.527    0.283  202.698   90.029
  323.250    3.361    0.482    0.282  205.117   86.353
  323.500    4.540    0.438    0.265  207.022   90.214
  323.750    5.597    0.464    0.265  207.958   89.255
  324.000    6.474    0.479    0.278  208.357   86.490
  324.250    6.709    0.494    0.298  207.262   81.013
  324.500    6.582    0.544    0.371  205.653   77.029
  324.750    6.169    0.542    0.359  205.574   79.979
  325.000    6.054    0.500    0.321  204.980   77.830
  325.250    6.627    0.460    0.317  204.900   72.654
  325.500    8.398    0.435    0.325  202.288   64.761
  325.750   10.739    0.430    0.334  201.694   62.899
  326.000   12.763    0.434    0.340  201.603   63.433
  326.250   14.232    0.443    0.347  203.007   63.693
