~VERSION INFORMATION
 VERS.                 2.0:   CWLS LOG ASCII STANDARD -VERSION 2.0
 WRAP.                  NO:   ONE LINE PER DEPTH STEP
~WELL INFORMATION BLOCK
#MNEM.UNIT           DATA                    DESCRIPTION OF MNEMONIC
#---------    -------------------            -------------------------------
# Generated from Intellog Unique Number	CN_91_93/WELL/2850
WELL.         04-04-092-10W4                 : Well_name    - WELL
LOC .         AA/04-04-092-10W4/0            : Location     - LOCATION
UWI .         AA/04-04-092-10W400            : Uwi          - UNIQUE WELL ID
ENTR.         JOETTE                         : Entered      - ENTERED BY
SRVC.         COMPUTALOG                     : Scn          - SERVICE COMPANY
DATE.         03\27\92                       : Date         - LOG DATE
STRT.M        0                              : top_depth    - START DEPTH
STOP.M        77                             : bot_depth    - STOP DEPTH
STEP.M        0.25                           : increment    - STEP LENGTH
 NULL. -999.2500:NULL Value
~CURVE INFORMATION BLOCK
#MNEM UNIT       ERCB CURVE CODE    CURVE DESCRIPTION
#-----------   ------------------   ----------------------------------
DEPT.M        00 001 00 00         : DEPTH        - DEPTH
CALI.MM       00 280 01 00         : CAL          - CALIPER
GR  .API      00 310 00 00         : GR           - GAMMA RAY
NPHI.V/V      00 330 00 00         : PHIN         - NEUTRON POROSITY (SANDSTONE)
ILD .OHMM     00 120 00 00         : RESD         - DEEP RESISTIVITY (DIL)
DPHI.V/V      00 890 00 00         : PHID         - DENSITY POROSITY (SANDSTONE)
~PARAMETER INFORMATION
#MNEM.UNIT           DATA             DESCRIPTION OF MNEMONIC
#---------         -----------     ------------------------------
GL  .M        320                  : gl           - GROUND LEVEL ELEVATION
EREF.M        320                  : kb           - ELEVATION OF DEPTH REFERENCE
DATM.M        320                  : datum        - DATUM ELEVATION
TDD .M        77.8                 : tdd          - TOTAL DEPTH DRILLER
RUN .         ONE                  : Run          - RUN NUMBER
ENG .         JO                   : Engineer     - RECORDING ENGINEER
WIT .         TIM                  : Witness      - WITNESSED BY
MUD .         GEL                  : Mud_type     - MUD TYPE
MATR.         SANDSTONE            : Logunit      - NEUTRON MATRIX
TMAX.C        15                   : BHT          - MAXIMUM RECORDED TEMPERATURE
BHTD.M        77.8                 : BHTDEP       - MAXIMUM RECORDED TEMPERATURE
RMT .C        14                   : MDTP         - TEMPERATURE OF MUD
MUDD.KG/M     9000                 : MWT          - MUD DENSITY
NEUT.         1                    : NEUTRON      - NEUTRON TYPE
RESI.         0                    : RESIST       - RESISTIVITY TYPE
RM  .OHMM     7.1                  : RM           - RESISTIVITY OF MUD
RMC .OHMM     7.1                  : RMC          - RESISTIVITY OF MUD CAKE
RMF .OHMM     7.1                  : RMF          - RESISTIVITY OF MUD FILTRATE
SUFT.C        4                    : SUFT         - SURFACE TEMPERATURE
~A  DEPTH      CAL       GR     PHIN     RESD     PHID
# ...
   36.500  131.937  126.019    0.442   20.364    0.229
   36.750  132.564  109.263    0.452   14.060    0.249
   37.000  132.891  106.295    0.420   20.203    0.222
   37.250  132.020  119.204    0.396   38.345    0.226
   37.500  131.752  110.544    0.421   15.746    0.228
   37.750  131.776  124.955    0.432   16.202    0.231
   38.000  132.100  123.788    0.454   15.192    0.230
   38.250  132.127  125.610    0.442   15.924    0.230
   38.500  133.660  120.844    0.402   17.646    0.233
   38.750  135.189  112.787    0.390   15.223    0.236
   39.000  134.910  120.607    0.403   14.142    0.239
   39.250  133.739  118.830    0.419   17.037    0.248
   39.500  132.872  121.853    0.401   17.368    0.258
   39.750  132.300  113.197    0.395   16.286    0.254
   40.000  132.631  104.829    0.382   16.602    0.222
   40.250  133.854  102.460    0.426   16.767    0.227
   40.500  137.473  132.153    0.477   11.052    0.246
   40.750  136.602  117.798    0.505   12.477    0.256
   41.000  133.038  115.429    0.459   13.698    0.272
   41.250  131.571  110.064    0.414   11.493    0.298
   41.500  132.194   96.308    0.417   19.881    0.313
   41.750  133.117   92.444    0.406   27.525    0.283
   42.000  131.647   92.169    0.408   18.313    0.281
   42.250  131.974  108.680    0.415   14.667    0.277
   42.500  133.500  100.915    0.404   20.494    0.257
   42.750  133.827  114.124    0.420   14.822    0.223
   43.000  129.361  100.072    0.473   18.022    0.206
   43.250  130.291  105.795    0.485   20.727    0.211
   43.500  131.221   83.947    0.437   15.270    0.230
   43.750  130.642   92.066    0.407   19.812    0.258
   44.000  128.876   85.503    0.387   16.776    0.273
   44.250  131.304   89.425    0.409   15.879    0.264
   44.500  133.125   95.145    0.418   15.453    0.267
   44.750  134.351   86.788    0.387   12.844    0.253
   45.000  135.281   95.200    0.379   10.287    0.187
   45.250  136.807  124.590    0.414   11.614    0.191
   45.500  136.831   97.952    0.438   12.061    0.199
   45.750  135.664   97.081    0.446   11.629    0.196
   46.000  132.692  118.382    0.424    9.666    0.170
   46.250  133.020  120.207    0.401   12.775    0.175
   46.500  136.349  111.847    0.415   10.232    0.231
   46.750  136.074   98.693    0.466   11.659    0.250
   47.000  134.900  100.218    0.478   18.726    0.266
   47.250  133.430  104.141    0.448   11.674    0.241
   47.500  135.558  131.433    0.435   12.465    0.248
   47.750  133.492   95.808    0.429   16.786    0.257
   48.000  132.924   76.959    0.426   24.799    0.267
   48.250  133.248   99.458    0.444   23.255    0.245
   48.500  133.878  101.283    0.452   13.214    0.231
   48.750  133.899  102.210    0.442   13.346    0.244
   49.000  133.926  109.730    0.465   12.631    0.260
   49.250  133.362  118.745    0.473   13.741    0.266
   49.500  130.989  106.490    0.438   12.300    0.251
   49.750  131.017  110.416    0.437   13.505    0.241
   50.000  132.839  109.242    0.445   12.090    0.241
   50.250  132.873  121.552    0.471   11.766    0.229
   50.500  132.594  124.579    0.487   12.448    0.220
   50.750  133.528  119.510    0.464   10.157    0.231
   51.000  134.155  130.626    0.506    9.884    0.246
   51.250  133.876  115.971    0.505   10.457    0.262
   51.500  133.015  109.408    0.485   12.953    0.276
   51.750  132.437  110.334    0.475   12.842    0.279
   52.000  131.269  102.573    0.489   14.631    0.282
   52.250  130.695  111.291    0.473   18.810    0.272
   52.500  130.719  114.614    0.452   17.639    0.258
   52.750  131.046  111.946    0.448   12.522    0.235
   53.000  132.275  119.463    0.428   14.268    0.247
   53.250  132.603  115.896    0.425   13.134    0.262
   53.500  132.331   99.443    0.443   13.021    0.248
   53.750  131.463  114.453    0.454   13.150    0.218
   54.000  131.191   92.309    0.423   20.351    0.205
   54.250  131.219  120.803    0.416   10.062    0.206
   54.500  131.243  117.532    0.430   11.254    0.209
   54.750  131.577  123.252    0.409   10.169    0.215
   55.000  131.898  133.169    0.402   10.758    0.233
   55.250  131.925   91.548    0.421   13.203    0.236
   55.500  131.058  104.162    0.468   13.212    0.245
   55.750  130.782  103.590    0.484   17.462    0.255
   56.000  132.907  101.820    0.478   13.728    0.264
   56.250  132.938   96.755    0.454   15.499    0.258
   56.500  129.667  104.572    0.426   13.619    0.237
   56.750  129.402  108.494    0.405   14.014    0.230
   57.000  130.022  116.913    0.401   11.017    0.233
   57.250  130.649  124.131    0.431   10.235    0.236
   57.500  130.986  132.247    0.440   11.771    0.242
   57.750  131.007  118.794    0.413   10.835    0.247
   58.000  130.735  114.028    0.393   12.578    0.252
   58.250  130.467  104.469    0.412   11.364    0.248
   58.500  130.515   96.105    0.446   13.192    0.241
   58.750  130.518  110.217    0.474   23.682    0.237
   59.000  130.546  117.434    0.437   15.467    0.244
   59.250  130.278  134.541    0.424   12.159    0.248
   59.500  130.002  110.899    0.432   16.372    0.246
   59.750  130.033  108.530    0.400   12.873    0.237
   60.000  130.058  109.756    0.394   12.184    0.240
   60.250  130.085  103.492    0.447   12.651    0.232
   60.500  130.113  113.110    0.456   12.198    0.246
   60.750  130.113  113.437    0.446   12.322    0.258
   61.000  130.182  103.575    0.426   13.156    0.236
   61.250  130.499  104.801    0.452   13.412    0.243
   61.500  131.122   96.441    0.473   11.677    0.255
   61.750  131.453   92.274    0.478   14.198    0.253
   62.000  131.484  116.871    0.470   12.710    0.239
   62.250  131.508   91.131    0.429   12.029    0.232
   62.500  130.937  111.837    0.449   16.655    0.232
   62.750  129.770  112.460    0.445   13.339    0.238
   63.000  129.198  100.801    0.431   12.394    0.251
   63.250  129.222  110.721    0.465   13.610    0.264
   63.500  130.755   98.463    0.480   18.666    0.272
   63.750  131.075   69.724    0.414   14.010    0.284
   64.000  132.604   84.435    0.361   22.922    0.266
   64.250  132.928   61.395    0.381   15.110    0.270
   64.500  131.458   74.304    0.400   46.028    0.278
   64.750  131.189   77.328    0.428   28.696    0.286
   65.000  131.816   59.976    0.444   14.452    0.304
   65.250  131.847   48.620    0.399   34.591    0.314
   65.500  131.868   59.732    0.367   40.526    0.305
   65.750  133.397   66.953    0.353   61.000    0.303
   66.000  134.323   57.690    0.364   34.021    0.304
   66.250  134.354   52.928    0.392   91.020    0.304
   66.500  134.379   60.146    0.391   58.892    0.302
   66.750  134.406   55.680    0.357   67.728    0.288
   67.000  135.333   48.215    0.331  173.002    0.286
   67.250  135.960   49.441    0.377  101.068    0.296
   67.500  133.597   54.565    0.384  128.721    0.317
   67.750  133.322   57.591    0.388   42.307    0.335
   68.000  134.248   48.329    0.388   81.051    0.351
   68.250  134.572   49.255    0.382  164.165    0.336
   68.500  133.701   50.784    0.361  240.298    0.319
   68.750  132.534   47.213    0.357   25.942    0.325
   69.000  132.262   61.022    0.395   60.389    0.325
   69.250  132.286   54.758    0.430   32.758    0.311
   69.500  133.213   45.798    0.398   86.031    0.307
   69.750  133.846   57.510    0.380   25.533    0.317
   70.000  133.271   62.034    0.377   74.260    0.328
   70.250  132.700   50.978    0.368  129.650    0.314
   70.500  132.428   57.899    0.367  147.751    0.311
   70.750  132.459   58.223    0.395  102.946    0.317
   71.000  132.483   54.952    0.430  103.021    0.323
   71.250  132.511   49.287    0.413  105.997    0.323
   71.500  132.838   53.213    0.381   83.327    0.309
   71.750  133.172   52.042    0.382  125.423    0.299
   72.000  131.998   56.268    0.391   27.663    0.287
   72.250  131.723   47.601    0.354   58.685    0.285
   72.500  133.252   60.813    0.327   34.287    0.293
   72.750  133.579   55.751    0.352   53.555    0.274
