~VERSION INFORMATION
 VERS.                 2.0:   CWLS LOG ASCII STANDARD -VERSION 2.0
 WRAP.                  NO:   ONE LINE PER DEPTH STEP
~WELL INFORMATION BLOCK
#MNEM.UNIT           DATA                    DESCRIPTION OF MNEMONIC
#---------    -------------------            -------------------------------
# Generated from Intellog Unique Number	CX_WELLS/WELL/1071
WELL.         07-20-088-07W4                 : Well_name    - WELL
LOC .         AA/07-20-088-07W4/0            : Location     - LOCATION
UWI .         AA/07-20-088-07W400            : Uwi          - UNIQUE WELL ID
ENTR.         DW                             : Entered      - ENTERED BY
SRVC.         SCHLUMBERGER                   : Scn          - SERVICE COMPANY
STRT.M        20                             : top_depth    - START DEPTH
STOP.M        134                            : bot_depth    - STOP DEPTH
STEP.M        0.25                           : increment    - STEP LENGTH
 NULL. -999.2500:NULL Value
~CURVE INFORMATION BLOCK
#MNEM UNIT       ERCB CURVE CODE    CURVE DESCRIPTION
#-----------   ------------------   ----------------------------------
DEPT.M        00 001 00 00         : DEPTH        - DEPTH
GR  .API      00 310 00 00         : GR           - GAMMA RAY
NPHI.V/V      00 330 00 00         : PHIN         - NEUTRON POROSITY (SANDSTONE)
DPHI.V/V      00 890 00 00         : PHID         - DENSITY POROSITY (SANDSTONE)
ILD .OHMM     00 120 00 00         : RESD         - DEEP RESISTIVITY (DIL)
~PARAMETER INFORMATION
#MNEM.UNIT           DATA             DESCRIPTION OF MNEMONIC
#---------         -----------     ------------------------------
GL  .M        377.24               : gl           - GROUND LEVEL ELEVATION
EREF.M        378.77               : kb           - ELEVATION OF DEPTH REFERENCE
DATM.M        378.77               : datum        - DATUM ELEVATION
TDD .M        132                  : tdd          - TOTAL DEPTH DRILLER
RUN .         ONE                  : Run          - RUN NUMBER
ENG .         BILL                 : Engineer     - RECORDING ENGINEER
WIT .         JIM                  : Witness      - WITNESSED BY
MUD .         GEL                  : Mud_type     - MUD TYPE
MATR.         SANDSTONE            : Logunit      - NEUTRON MATRIX
TMAX.C        25                   : BHT          - MAXIMUM RECORDED TEMPERATURE
BHTD.M        134                  : BHTDEP       - MAXIMUM RECORDED TEMPERATURE
MATR.         1                    : LOGUNIT      - NEUTRON MATRIX
RMT .C        25                   : MDTP         - TEMPERATURE OF MUD
NEUT.         1                    : NEUTRON      - NEUTRON TYPE
RESI.         0                    : RESIST       - RESISTIVITY TYPE
RMC .OHMM     0.25                 : RMC          - RESISTIVITY OF MUD CAKE
RMF .OHMM     0.25                 : RMF          - RESISTIVITY OF MUD FILTRATE
SUFT.C        15                   : SUFT         - SURFACE TEMPERATURE
~A  DEPTH       GR     PHIN     PHID     RESD
# ...
  107.000   73.876    0.485    0.238   13.360
  107.250   70.941    0.486    0.231   14.167
  107.500   67.312    0.488    0.231   16.251
  107.750   61.230    0.489    0.243   18.641
  108.000   56.357    0.490    0.258   21.774
  108.250   50.239    0.486    0.300   27.990
  108.500   42.912    0.477    0.319   36.640
  108.750   38.732    0.466    0.328   37.503
  109.000   43.195    0.456    0.295   34.849
  109.250   51.463    0.447    0.279   28.946
  109.500   54.094    0.438    0.258   24.462
  109.750   56.725    0.410    0.240   21.473
  110.000   61.882    0.392    0.225   18.510
  110.250   65.758    0.391    0.210   15.970
  110.500   67.837    0.391    0.202   15.428
  110.750   66.734    0.390    0.197   15.190
  111.000   65.560    0.386    0.191   15.255
  111.250   61.380    0.385    0.192   15.281
  111.500   56.507    0.383    0.221   15.628
  111.750   51.047    0.382    0.240   17.243
  112.000   45.587    0.381    0.244   20.939
  112.250   41.372    0.388    0.266   24.458
  112.500   40.268    0.414    0.272   33.922
  112.750   40.410    0.449    0.294   47.949
  113.000   41.761    0.459    0.318   52.906
  113.250   45.015    0.457    0.326   51.110
  113.500   48.926    0.452    0.337   46.681
  113.750   52.180    0.444    0.336   43.378
  114.000   56.678    0.437    0.326   41.117
  114.250   63.079    0.428    0.314   35.474
  114.500   66.955    0.416    0.280   30.554
  114.750   72.734    0.403    0.243   26.315
  115.000   76.610    0.407    0.226   22.258
  115.250   83.011    0.412    0.226   17.783
  115.500   85.020    0.411    0.233   15.624
  115.750   75.825    0.412    0.240   14.518
  116.000   68.462    0.408    0.250   14.037
  116.250   54.253    0.393    0.243   14.086
  116.500   39.386    0.382    0.227   14.418
  116.750   25.177    0.389    0.223   14.719
  117.000   27.186    0.401    0.216   14.770
  117.250   29.888    0.398    0.207   14.268
  117.500   30.687    0.399    0.191   13.784
  117.750   31.380    0.398    0.178   13.088
  118.000   32.144    0.397    0.199   13.111
  118.250   29.796    0.398    0.205   13.178
  118.500   26.239    0.399    0.220   13.235
  118.750   24.513    0.394    0.220   13.258
  119.000   23.374    0.380    0.220   13.076
  119.250   22.964    0.369    0.221   12.863
  119.500   22.448    0.374    0.217   12.664
  119.750   23.177    0.377    0.220   12.479
  120.000   23.318    0.384    0.224   12.266
  120.250   24.082    0.389    0.227   11.870
  120.500   24.917    0.385    0.230   11.890
  120.750   25.059    0.376    0.230   11.707
  121.000   25.165    0.377    0.226   11.526
  121.250   24.097    0.370    0.223   11.358
  121.500   24.168    0.363    0.219   11.397
  121.750   23.687    0.369    0.214   11.446
  122.000   23.828    0.373    0.217   11.466
  122.250   24.006    0.367    0.225   11.299
  122.500   24.112    0.366    0.239   11.115
  122.750   22.386    0.370    0.244   10.746
  123.000   21.283    0.372    0.246   10.572
  123.250   20.802    0.372    0.242   10.213
  123.500   21.014    0.370    0.238    9.874
  123.750   21.743    0.370    0.236    9.908
  124.000   22.542    0.370    0.234    9.943
  124.250   24.551    0.370    0.232    9.985
  124.500   26.560    0.371    0.227    9.840
  124.750   27.946    0.372    0.220    9.865
  125.000   28.710    0.373    0.218    9.704
  125.250   28.852    0.374    0.216    9.563
  125.500   28.371    0.375    0.226    9.423
  125.750   26.610    0.375    0.219    9.262
  126.000   22.395    0.372    0.196    9.294
  126.250   18.837    0.363    0.190    8.489
  126.500   17.147    0.346    0.195    7.895
  126.750   16.008    0.334    0.197    7.211
  127.000   16.150    0.329    0.201    6.960
  127.250   18.159    0.328    0.209    6.724
  127.500   21.999    0.333    0.225    6.747
  127.750   27.778    0.334    0.217    6.770
  128.000   32.899    0.338    0.223    6.923
  128.250   34.356    0.341    0.228    7.216
  128.500   35.120    0.348    0.221    7.235
  128.750   34.639    0.350    0.216    7.266
  129.000   33.536    0.351    0.221    7.285
  129.250   33.678    0.350    0.220    7.172
  129.500   32.539    0.348    0.215    7.068
  129.750   30.191    0.348    0.218    6.965
  130.000   27.256    0.349    0.223    6.989
  130.250   26.739    0.350    0.231    7.284
  130.500   27.503    0.348    0.239    7.449
  130.750   28.890    0.348    0.243    7.618
  131.000   31.521    0.348    0.239    7.507
  131.250   32.907    0.347    0.236    7.379
  131.500   33.672    0.351    0.231    7.128
  131.750   33.191    0.350    0.229    6.756
  132.000   32.710    0.353    0.229    6.410
  132.250   32.887    0.356    0.230    6.311
  132.500   34.344    0.357    0.237    6.449
  132.750   35.695    0.357    0.241    6.733
  133.000   37.081    0.356    0.237    6.874
  133.250   39.090    0.357    0.235    7.314
  133.500   39.232    0.357    0.227    7.480
  133.750   39.960    0.356    0.215    7.796
  134.000   38.857    0.355    0.196    7.966
