~VERSION INFORMATION
 VERS.                 2.0:   CWLS LOG ASCII STANDARD -VERSION 2.0
 WRAP.                  NO:   ONE LINE PER DEPTH STEP
~WELL INFORMATION BLOCK
#MNEM.UNIT           DATA                    DESCRIPTION OF MNEMONIC
#---------    -------------------            -------------------------------
# Generated from Intellog Unique Number	CN_91_93/WELL/1067
WELL.         03-33-091-13W4                 : Well_name    - WELL
LOC .         AA/03-33-091-13W4/0            : Location     - LOCATION
UWI .         AA/03-33-091-13W400            : Uwi          - UNIQUE WELL ID
ENTR.         JOETTE                         : Entered      - ENTERED BY
SRVC.         WESTERN ATLAS                  : Scn          - SERVICE COMPANY
DATE.         01/30/92                       : Date         - LOG DATE
STRT.F        278.871                        : top_depth    - START DEPTH
STOP.F        524.934                        : bot_depth    - STOP DEPTH
STEP.F        0.821                          : increment    - STEP LENGTH
 NULL. -999.2500:NULL Value
~CURVE INFORMATION BLOCK
#MNEM UNIT       ERCB CURVE CODE    CURVE DESCRIPTION
#-----------   ------------------   ----------------------------------
DEPT.F        00 001 00 00         : DEPTH        - DEPTH
GR  .API      00 310 00 00         : GR           - GAMMA RAY
ILD .OHMM     00 120 00 00         : RESD         - DEEP RESISTIVITY (DIL)
PHID.V/V      00 890 00 00         : PHID         - DENSITY POROSITY (SANDSTONE)
PHIN.V/V      00 330 00 00         : PHIN         - NEUTRON POROSITY (SANDSTONE)
CALI.IN       00 280 01 00         : CAL          - CALIPER
~PARAMETER INFORMATION
#MNEM.UNIT           DATA             DESCRIPTION OF MNEMONIC
#---------         -----------     ------------------------------
GL  .M        443.18               : gl           - GROUND LEVEL ELEVATION
EREF.M        446.55               : kb           - ELEVATION OF DEPTH REFERENCE
DATM.M        446.55               : datum        - DATUM ELEVATION
TDD .M        172                  : tdd          - TOTAL DEPTH DRILLER
RUN .         ONE                  : Run          - RUN NUMBER
ENG .         JO                   : Engineer     - RECORDING ENGINEER
WIT .         TIM                  : Witness      - WITNESSED BY
MUD .         GEL                  : Mud_type     - MUD TYPE
MATR.         SANDSTONE            : Logunit      - NEUTRON MATRIX
TMAX.F        71.6                 : BHT          - MAXIMUM RECORDED TEMPERATURE
BHTD.F        564.304              : BHTDEP       - MAXIMUM RECORDED TEMPERATURE
RMT .F        64.4                 : MDTP         - TEMPERATURE OF MUD
MUDD.LB/G     9.08333              : MWT          - MUD DENSITY
NEUT.         1                    : NEUTRON      - NEUTRON TYPE
RESI.         0                    : RESIST       - RESISTIVITY TYPE
RM  .OHMM     3.5                  : RM           - RESISTIVITY OF MUD
RMC .OHMM     3.2                  : RMC          - RESISTIVITY OF MUD CAKE
RMF .OHMM     4.8                  : RMF          - RESISTIVITY OF MUD FILTRATE
SUFT.F        39.2                 : SUFT         - SURFACE TEMPERATURE
~A   DEPT       GR      ILD     PHID     PHIN     CALI
# ...
  398.622   54.666    2.701    0.264    0.458    8.009
  399.442   59.595    2.753    0.252    0.449    7.992
  400.262   63.014    3.080    0.243    0.448    7.956
  401.083   60.928    3.509    0.236    0.431    7.900
  401.903   55.810    3.679    0.179    0.419    7.923
  402.723   51.897    3.581    0.158    0.388    7.786
  403.543   48.897    3.583    0.088    0.399    7.750
  404.364   56.886    3.620    0.130    0.462    7.753
  405.184   64.252    3.623    0.273    0.481    7.757
  406.004   63.087    3.429    0.284    0.467    7.761
  406.824   60.095    3.216    0.263    0.443    7.745
  407.644   60.162    3.402    0.225    0.438    7.689
  408.465   56.249    3.986    0.166    0.398    7.593
  409.285   53.859    5.125    0.195    0.397    7.576
  410.105   51.780    6.289    0.229    0.389    7.559
  410.925   55.497    7.100    0.215    0.401    7.442
  411.745   57.074    7.239    0.232    0.402    7.366
  412.566   55.903    7.382    0.259    0.387    7.510
  413.386   59.322    7.117    0.272    0.388    7.493
  414.206   58.157    6.992    0.267    0.382    7.397
  415.026   58.813    6.805    0.262    0.376    7.461
  415.846   61.007    6.324    0.252    0.375    7.345
  416.667   58.312    6.270    0.263    0.392    7.228
  417.487   54.710    7.145    0.278    0.399    7.132
  418.307   53.850    8.218    0.286    0.373    7.095
  419.127   37.446    9.191    0.264    0.361    6.979
  419.948   24.698   10.768    0.273    0.347    6.962
  420.768   24.461   13.094    0.292    0.363    6.966
  421.588   21.454   15.921    0.312    0.355    6.989
  422.408   21.515   20.091    0.321    0.361    7.053
  423.228   20.053   25.352    0.317    0.374    7.297
  424.049   20.100   30.825    0.317    0.388    7.680
  424.869   23.505   35.789    0.321    0.391    8.044
  425.689   23.864   38.577    0.325    0.390    8.367
  426.509   21.792   39.322    0.319    0.401    8.611
  427.329   22.151   39.718    0.316    0.394    8.874
  428.150   24.046   40.122    0.317    0.392    9.158
  428.970   22.259   40.526    0.307    0.408    9.422
  429.790   19.875   41.324    0.312    0.413    9.965
  430.610   23.288   42.121    0.319    0.414   10.349
  431.430   21.818   42.946    0.322    0.435   10.733
  432.251   21.256   43.779    0.316    0.449   10.996
  433.071   22.536   44.637    0.310    0.441   11.320
  433.891   18.927   45.507    0.304    0.433   11.604
  434.711   15.941   45.965    0.315    0.437   11.827
  435.531   15.995   46.865    0.320    0.427   11.991
  436.352   17.274   46.901    0.324    0.442   12.074
  437.172   19.157   46.937    0.320    0.463   12.198
  437.992   21.336   46.105    0.323    0.450   12.283
  438.812   21.397   45.718    0.326    0.452   12.366
  439.633   21.451   47.048    0.318    0.461   12.409
  440.453   20.300   47.522    0.319    0.445   12.432
  441.273   20.347   48.453    0.319    0.438   12.376
  442.093   19.487   48.936    0.316    0.463   12.340
  442.913   18.627   49.425    0.317    0.455   12.244
  443.734   18.065   49.462    0.318    0.453   12.187
  444.554   17.212   49.043    0.317    0.454   12.071
  445.374   17.875   48.183    0.323    0.455   11.954
  446.194   17.313   46.472    0.330    0.443   11.779
  447.014   16.758   43.577    0.321    0.448   11.582
  447.835   17.130   39.748    0.318    0.428   11.305
  448.655   16.264   35.596    0.313    0.409   11.028
  449.475   17.841   33.692    0.311    0.397   10.712
  450.295   24.611   32.487    0.290    0.404   10.496
  451.115   27.095   31.039    0.286    0.401   10.239
  451.936   23.189   29.384    0.298    0.404    9.843
  452.756   22.640   28.074    0.293    0.398    9.386
  453.576   25.429   27.070    0.289    0.418    9.110
  454.396   29.153   26.104    0.279    0.423    8.734
  455.217   31.942   25.175    0.275    0.412    8.437
  456.037   30.784   24.503    0.279    0.405    8.181
  456.857   31.441   23.631    0.285    0.406    7.944
  457.677   28.150   23.212    0.276    0.383    7.708
  458.497   28.204   22.595    0.273    0.381    7.492
  459.318   34.656   21.788    0.269    0.384    7.336
  460.138   30.749   21.207    0.269    0.377    7.179
  460.958   30.803   20.639    0.272    0.382    7.082
  461.778   32.685   20.090    0.278    0.377    6.967
  462.598   30.607   19.917    0.293    0.377    6.970
  463.419   31.886   17.834    0.305    0.365    6.973
  464.239   30.105   15.675    0.294    0.364    6.998
  465.059   37.478   14.165    0.288    0.374    7.021
  465.879   44.546   12.567    0.279    0.378    7.064
  466.699   50.388   10.945    0.193    0.398    7.128
  467.520   56.238    9.800    0.210    0.401    7.231
  468.340   54.166    8.855    0.209    0.393    7.376
  469.160   56.048    8.153    0.205    0.397    7.459
  469.980   57.320    8.010    0.202    0.396    7.563
  470.801   60.116    8.016    0.202    0.389    7.706
  471.621   62.608    8.096    0.198    0.390    7.810
  472.441   55.052    8.178    0.190    0.393    7.874
  473.261   54.185    8.184    0.197    0.416    7.877
  474.081   53.941    8.266    0.196    0.422    7.780
  474.902   55.823    8.275    0.200    0.418    7.664
  475.722   61.977    8.275    0.191    0.418    7.587
  476.542   64.468    8.286    0.186    0.411    7.551
  477.362   59.038    8.369    0.199    0.416    7.575
  478.182   54.827    8.375    0.204    0.406    7.638
  479.003   54.875    8.382    0.186    0.412    7.682
  479.823   50.968    8.388    0.182    0.390    7.706
  480.643   52.545    8.167    0.190    0.384    7.689
  481.463   53.520    7.802    0.192    0.393    7.553
  482.283   57.528    7.454    0.215    0.411    7.376
  483.104   56.377    8.337    0.246    0.420    7.360
  483.924   54.291    9.859    0.297    0.378    7.424
  484.744   52.213   11.445    0.266    0.342    7.307
  485.564   46.167   14.308    0.089    0.317    7.411
  486.385   39.525   17.723    0.113    0.285    7.435
  487.205   36.526   21.352    0.172    0.286    7.019
  488.025   31.096   22.590    0.282    0.358    6.982
  488.845   32.985   22.401    0.300    0.355    7.006
  489.665   29.072   25.761    0.310    0.365    7.049
  490.486   21.807   32.509    0.314    0.363    7.132
  491.306   17.298   39.895    0.319    0.381    7.236
  492.126   19.180   45.887    0.315    0.391    7.400
  492.946   23.506   45.926    0.309    0.378    7.624
  493.766   21.116   45.537    0.305    0.372    7.807
  494.587   17.209   45.571    0.313    0.370    7.930
  495.407   20.005   46.459    0.318    0.375    7.974
  496.227   23.715   47.365    0.318    0.383    7.958
  497.047   25.299   47.396    0.312    0.387    7.942
  497.867   22.307   46.565    0.313    0.384    7.905
  498.688   21.453   46.170    0.317    0.379    7.808
  499.508   20.587   45.356    0.314    0.378    7.692
  500.328   23.389   39.497    0.322    0.381    7.595
  501.148   21.311   35.697    0.319    0.375    7.660
  501.969   24.709   35.065    0.329    0.378    7.723
  502.789   28.121   35.091    0.334    0.371    7.547
  503.609   24.215   35.448    0.331    0.351    7.430
  504.429   21.527   37.162    0.328    0.318    7.434
  505.249   17.925   37.886    0.321    0.295    7.517
  506.070   18.595   34.879    0.321    0.271    7.442
  506.890   19.861   29.538    0.324    0.228    7.344
  507.710   20.524   26.450    0.328    0.182    7.009
  508.530   15.406   24.804    0.329    0.135    6.712
  509.350   16.062   24.369    0.316    0.092    6.455
  510.171   17.944   26.754    0.293    0.082    6.119
  510.991   18.621   35.361    0.212    0.062    5.883
  511.811   14.701   46.310    0.186    0.058    5.946
  512.631    9.881   53.266    0.127    0.060    5.970
  513.451    9.630   54.810    0.022    0.065    5.874
  514.272   11.214   52.361    0.022    0.071    5.857
  515.092   17.063   46.022    0.009    0.082    5.921
  515.912   14.375   38.617    0.006    0.086    5.944
  516.732   16.555   33.318    0.013    0.084    5.868
  517.552   22.404   29.557    0.038    0.113    5.812
