~VERSION INFORMATION
 VERS.                 2.0:   CWLS LOG ASCII STANDARD -VERSION 2.0
 WRAP.                  NO:   ONE LINE PER DEPTH STEP
~WELL INFORMATION BLOCK
#MNEM.UNIT           DATA                    DESCRIPTION OF MNEMONIC
#---------    -------------------            -------------------------------
# Generated from Intellog Unique Number	CN_94_101/WELL/2736
WELL.         09-30-094-11W4                 : Well_name    - WELL
LOC .         AA/09-30-094-11W4/0            : Location     - LOCATION
UWI .         AA/09-30-094-11W400            : Uwi          - UNIQUE WELL ID
ENTR.         JOETTE                         : Entered      - ENTERED BY
SRVC.         SCHLUMBERGER                   : Scn          - SERVICE COMPANY
DATE.         06/19/92                       : Date         - LOG DATE
STRT.F        30                             : top_depth    - START DEPTH
STOP.F        280.164                        : bot_depth    - STOP DEPTH
STEP.F        0.8202                         : increment    - STEP LENGTH
 NULL. -999.2500:NULL Value
~CURVE INFORMATION BLOCK
#MNEM UNIT       ERCB CURVE CODE    CURVE DESCRIPTION
#-----------   ------------------   ----------------------------------
DEPT.F        00 001 00 00         : DEPTH        - DEPTH
GR  .API      00 310 00 00         : GR           - GAMMA RAY
NPHI.V/V      00 330 00 00         : PHIN         - NEUTRON POROSITY (SANDSTONE)
DPHI.V/V      00 890 00 00         : PHID         - DENSITY POROSITY (SANDSTONE)
ILD .OHMM     00 120 00 00         : RESD         - DEEP RESISTIVITY (DIL)
~PARAMETER INFORMATION
#MNEM.UNIT           DATA             DESCRIPTION OF MNEMONIC
#---------         -----------     ------------------------------
GL  .M        313.578              : gl           - GROUND LEVEL ELEVATION
EREF.M        313.578              : kb           - ELEVATION OF DEPTH REFERENCE
DATM.M        313.578              : datum        - DATUM ELEVATION
TDD .M        80.1624              : tdd          - TOTAL DEPTH DRILLER
RUN .         ONE                  : Run          - RUN NUMBER
ENG .         BILL                 : Engineer     - RECORDING ENGINEER
WIT .         JIM                  : Witness      - WITNESSED BY
MUD .         GEL                  : Mud_type     - MUD TYPE
MATR.         SANDSTONE            : Logunit      - NEUTRON MATRIX
TMAX.F        50                   : BHT          - MAXIMUM RECORDED TEMPERATURE
BHTD.F        263                  : BHTDEP       - MAXIMUM RECORDED TEMPERATURE
RMT .F        50                   : MDTP         - TEMPERATURE OF MUD
MUDD.LB/G     1.1                  : MWT          - MUD DENSITY
NEUT.         1                    : NEUTRON      - NEUTRON TYPE
RESI.         0                    : RESIST       - RESISTIVITY TYPE
RM  .OHMM     6.5                  : RM           - RESISTIVITY OF MUD
RMC .OHMM     6.5                  : RMC          - RESISTIVITY OF MUD CAKE
RMF .OHMM     6.5                  : RMF          - RESISTIVITY OF MUD FILTRATE
SUFT.F        5                    : SUFT         - SURFACE TEMPERATURE
~A  DEPTH       GR     PHIN     PHID     RESD
# ...
  172.717   29.298    0.362    0.322 1275.480
  173.537   27.748    0.366    0.310 1254.160
  174.357   26.996    0.361    0.317 1211.440
  175.177   28.235    0.349    0.319  922.939
  175.997   31.078    0.343    0.316 1051.050
  176.818   35.902    0.336    0.317 1112.480
  177.638   43.924    0.333    0.311  773.093
  178.458   52.344    0.337    0.286  386.327
  179.278   57.168    0.346    0.272  193.054
  180.098   65.588    0.369    0.287  186.567
  180.919   70.412    0.385    0.293  183.538
  181.739   74.849    0.383    0.283   93.410
  182.559   64.934    0.375    0.282   80.848
  183.379   62.587    0.366    0.280   62.702
  184.199   66.615    0.361    0.267   35.631
  185.020   77.823    0.352    0.255   28.677
  185.840   87.438    0.336    0.253   33.858
  186.660   93.867    0.340    0.250   23.102
  187.480  101.900    0.332    0.236   20.005
  188.301   92.361    0.373    0.204   20.044
  189.121   68.493    0.409    0.196   19.001
  189.941   55.391    0.435    0.238   19.398
  190.761   41.482    0.412    0.293   78.130
  191.581   43.119    0.382    0.321  110.870
  192.402   49.149    0.373    0.326  188.912
  193.222   53.176    0.390    0.318  207.405
  194.042   59.605    0.395    0.308  169.927
  194.862   67.627    0.367    0.297  289.539
  195.682   71.256    0.357    0.273  374.954
  196.503   78.879    0.361    0.262  336.624
  197.323   82.519    0.394    0.238  174.485
  198.143   45.085    0.423    0.226   62.730
  198.963   35.170    0.393    0.221   48.650
  199.783   30.832    0.364    0.257   23.438
  200.604   28.486    0.314    0.272  107.350
  201.424   27.335    0.308    0.284   91.273
  202.244   27.400    0.314    0.285   86.565
  203.064   28.230    0.319    0.282   73.530
  203.885   29.469    0.315    0.279  100.642
  204.705   30.342    0.313    0.272   93.676
  205.525   29.578    0.306    0.274   93.902
  206.345   28.040    0.303    0.276  101.225
  207.165   27.287    0.300    0.265   94.309
  207.986   28.935    0.296    0.265   92.778
  208.806   29.776    0.295    0.264   98.248
  209.626   29.798    0.296    0.260  103.990
  210.446   29.045    0.295    0.261   96.792
  211.266   27.915    0.294    0.266  100.593
  212.087   27.163    0.298    0.271   97.259
  212.907   27.206    0.302    0.274   97.446
  213.727   27.660    0.294    0.273  106.986
  214.547   28.091    0.287    0.263  131.085
  215.367   28.544    0.280    0.253  126.619
  216.188   28.986    0.283    0.245  167.000
  217.008   30.236    0.293    0.252  170.411
  217.828   31.076    0.290    0.263  110.067
  218.648   31.917    0.291    0.262  114.389
  219.469   31.972    0.291    0.259  121.133
  220.289   31.230    0.286    0.260  106.881
  221.109   30.853    0.286    0.266  106.984
  221.929   30.897    0.290    0.270  107.242
  222.749   30.963    0.289    0.264  101.759
  223.570   31.007    0.285    0.258   89.658
  224.390   31.051    0.288    0.254   91.489
  225.210   29.103    0.308    0.248   93.357
  226.030   27.553    0.319    0.246   79.376
  226.850   29.987    0.319    0.249   78.087
  227.671   33.229    0.298    0.253   67.586
  228.491   36.061    0.296    0.255   59.577
  229.311   39.690    0.283    0.251   46.205
  230.131   36.956    0.292    0.248   40.730
  230.951   32.618    0.302    0.251   51.764
  231.772   29.475    0.292    0.251   63.455
  232.592   29.121    0.281    0.253   63.577
  233.412   31.964    0.286    0.264   60.298
  234.232   33.214    0.295    0.265   58.272
  235.052   32.881    0.306    0.264   59.462
  235.873   32.505    0.308    0.261   61.826
  236.693   32.538    0.302    0.265   57.547
  237.513   32.991    0.290    0.267   55.666
  238.333   34.230    0.282    0.267   56.748
  239.154   37.881    0.288    0.258   62.304
  239.974   41.100    0.300    0.258   68.436
  240.794   50.715    0.293    0.271   71.157
  241.614   62.333    0.282    0.259   63.883
  242.434   67.157    0.267    0.231   68.898
  243.255   79.959    0.263    0.182   67.779
  244.075   74.028    0.279    0.167   16.278
  244.895   44.970    0.325    0.172   11.950
  245.715   19.498    0.400    0.208   13.616
  246.535   29.910    0.440    0.237   12.450
  247.356    7.635    0.445    0.243   11.819
  248.176   -7.071    0.437    0.241   12.049
  248.996  -14.596    0.437    0.247   13.981
  249.816  -15.747    0.425    0.262   15.922
  250.636  -15.747    0.413    0.283   15.671
  251.457    3.893    0.402    0.279   13.814
  252.277  122.743    0.402    0.238   11.521
  253.097  121.592    0.396    0.209   11.339
  253.917  120.828    0.393    0.212   12.224
  254.738  118.493    0.410    0.218   12.473
  255.558  116.534    0.429    0.216   11.416
  256.378  113.413    0.436    0.244   11.225
  257.198  111.853    0.441    0.254   11.043
  258.018  107.514    0.431    0.242   11.688
  258.839  101.174    0.428    0.230   12.383
  259.659   88.869    0.423    0.220   11.962
  260.479   74.561    0.415    0.230   11.139
  261.299   59.866    0.418    0.242   10.373
  262.119   47.152    0.420    0.221   10.205
  262.940   24.877    0.412    0.218   11.000
  263.760   14.154    0.412    0.210   13.013
  264.580    6.630    0.406    0.189   13.511
  265.400    3.487    0.371    0.039   15.115
  266.220    1.937    0.318    0.010   18.519
  267.041    1.582    0.282   -0.025   26.280
  267.861    3.629    0.245    0.014   28.329
  268.681    7.656    0.214    0.047   51.935
  269.501   10.898    0.172    0.060   48.363
  270.322   12.148    0.160    0.053   38.906
  271.142   11.782    0.121    0.048   31.313
  271.962   10.255    0.079    0.042   38.366
  272.782    9.092    0.082    0.037   47.923
  273.602    7.155    0.086    0.029   43.818
  274.423    5.606    0.097    0.030   44.713
  275.243    4.444    0.105    0.032   43.169
  276.063    2.894    0.105    0.038   36.021
  276.883    3.746    0.097    0.040   38.145
  277.703    2.605    0.090    0.039   32.417
  278.524    2.251    0.089    0.040   31.312
  279.344    2.284    0.094    0.046   32.542
  280.164    1.940    0.101    0.054   30.333
