~VERSION INFORMATION
 VERS.                 2.0:   CWLS LOG ASCII STANDARD -VERSION 2.0
 WRAP.                  NO:   ONE LINE PER DEPTH STEP
~WELL INFORMATION BLOCK
#MNEM.UNIT           DATA                    DESCRIPTION OF MNEMONIC
#---------    -------------------            -------------------------------
# Generated from Intellog Unique Number	CN_94_101/WELL/4988
WELL.         TEXACO                         : Well_name    - WELL
LOC .         AA/07-08-101-12W4/0            : Location     - LOCATION
UWI .         AA/07-08-101-12W400            : Uwi          - UNIQUE WELL ID
ENTR.         TIM                            : Entered      - ENTERED BY
SRVC.         SCHLUMBERGER                   : Scn          - SERVICE COMPANY
DATE.         08/11/92                       : Date         - LOG DATE
STRT.M        380                            : top_depth    - START DEPTH
STOP.M        665                            : bot_depth    - STOP DEPTH
STEP.M        0.25                           : increment    - STEP LENGTH
NULL. -999.2500:NULL Value
~CURVE INFORMATION BLOCK
#MNEM UNIT       ERCB CURVE CODE    CURVE DESCRIPTION
#-----------   ------------------   ----------------------------------
DEPT.M        00 001 00 00         : DEPTH        - DEPTH
GR  .API      00 310 00 00         : GR           - GAMMA RAY
ILD .OHMM     00 120 00 00         : RESD         - DEEP RESISTIVITY (DIL)
NPHI.V/V      00 330 00 00         : PHIN         - NEUTRON POROSITY (SANDSTONE)
DPHI.V/V      00 890 00 00         : PHID         - DENSITY POROSITY (SANDSTONE)
~PARAMETER INFORMATION
#MNEM.UNIT           DATA             DESCRIPTION OF MNEMONIC
#---------         -----------     ------------------------------
GL  .M        814.2                : gl           - GROUND LEVEL ELEVATION
EREF.M        817.6                : kb           - ELEVATION OF DEPTH REFERENCE
DATM.M        817.6                : datum        - DATUM ELEVATION
TDD .M        667                  : tdd          - TOTAL DEPTH DRILLER
RUN .         ONE                  : Run          - RUN NUMBER
ENG .         JO                   : Engineer     - RECORDING ENGINEER
WIT .         TIM                  : Witness      - WITNESSED BY
MUD .         GEL                  : Mud_type     - MUD TYPE
MATR.         SANDSTONE            : Logunit      - NEUTRON MATRIX
TMAX.C        25                   : BHT          - MAXIMUM RECORDED TEMPERATURE
BHTD.M        667                  : BHTDEP       - MAXIMUM RECORDED TEMPERATURE
RMT .C        10                   : MDTP         - TEMPERATURE OF MUD
MUDD.KG/M     1050                 : MWT          - MUD DENSITY
NEUT.         1                    : NEUTRON      - NEUTRON TYPE
RESI.         0                    : RESIST       - RESISTIVITY TYPE
RM  .OHMM     0.84                 : RM           - RESISTIVITY OF MUD
RMC .OHMM     0.84                 : RMC          - RESISTIVITY OF MUD CAKE
RMF .OHMM     0.84                 : RMF          - RESISTIVITY OF MUD FILTRATE
SUFT.C        4                    : SUFT         - SURFACE TEMPERATURE
~A  DEPTH       GR     RESD     PHIN     PHID
# ...
  641.000   92.518    4.094    0.442    0.224
  641.250   96.304    3.946    0.429    0.201
  641.500   98.185    3.664    0.417    0.190
  641.750  101.327    3.403    0.416    0.223
  642.000  105.100    3.159    0.446    0.292
  642.250  106.981    3.045    0.491    0.318
  642.500  111.373    2.827    0.520    0.339
  642.750  115.133    2.625    0.543    0.362
  643.000  118.907    2.579    0.568    0.372
  643.250  122.049    2.684    0.587    0.317
  643.500  125.192    2.739    0.586    0.313
  643.750  127.085    2.794    0.567    0.306
  644.000  126.530    2.854    0.554    0.298
  644.250  122.870    2.856    0.541    0.301
  644.500  119.816    2.916    0.536    0.307
  644.750  114.314    2.975    0.538    0.311
  645.000  111.891    2.979    0.539    0.314
  645.250  115.034    3.100    0.534    0.311
  645.500  116.927    3.102    0.521    0.298
  645.750  118.845    3.166    0.501    0.274
  646.000  117.659    2.999    0.498    0.257
  646.250  116.473    2.891    0.499    0.262
  646.500  116.536    2.734    0.498    0.259
  646.750  116.587    2.586    0.488    0.252
  647.000  115.388    2.402    0.463    0.224
  647.250  104.308    2.272    0.453    0.188
  647.500  100.636    2.070    0.442    0.159
  647.750   95.739    1.923    0.431    0.182
  648.000   83.435    1.888    0.408    0.210
  648.250   79.145    1.855    0.397    0.218
  648.500   68.683    1.860    0.366    0.225
  648.750   62.550    1.862    0.345    0.235
  649.000   60.746    1.864    0.334    0.230
  649.250   63.875    1.867    0.339    0.225
  649.500   70.122    1.835    0.378    0.218
  649.750   75.132    1.769    0.383    0.219
  650.000   77.038    1.582    0.405    0.225
  650.250   77.076    1.468    0.423    0.248
  650.500   75.272    1.338    0.426    0.253
  650.750   72.230    1.290    0.401    0.261
  651.000   58.071    1.220    0.382    0.272
  651.250   53.162    1.220    0.367    0.286
  651.500   39.596    1.013    0.359    0.287
  651.750   34.094    1.136    0.351    0.280
  652.000   34.145    1.204    0.357    0.274
  652.250   34.208    1.253    0.355    0.268
  652.500   34.233    1.278    0.338    0.263
  652.750   34.284    1.355    0.318    0.258
  653.000   34.335    1.409    0.318    0.257
  653.250   35.004    1.411    0.319    0.257
  653.500   35.685    1.335    0.323    0.263
  653.750   35.736    1.264    0.326    0.270
  654.000   36.417    1.241    0.328    0.282
  654.250   36.468    1.197    0.333    0.299
  654.500   36.519    1.154    0.336    0.306
  654.750   36.557    1.134    0.336    0.310
  655.000   36.001    1.115    0.324    0.310
  655.250   36.052    1.096    0.324    0.305
  655.500   36.115    1.097    0.327    0.302
  655.750   36.141    1.078    0.330    0.298
  656.000   36.204    1.059    0.330    0.296
  656.250   36.242    1.062    0.331    0.297
  656.500   36.292    1.062    0.331    0.298
  656.750   36.974    1.064    0.332    0.299
  657.000   37.012    1.045    0.332    0.300
  657.250   37.694    1.047    0.328    0.300
  657.500   37.744    1.029    0.322    0.300
  657.750   38.413    1.031    0.322    0.300
  658.000   39.069    1.032    0.328    0.299
  658.250   39.738    1.014    0.332    0.299
  658.500   41.669    1.015    0.334    0.300
  658.750   44.181    1.037    0.340    0.303
  659.000   50.415    1.058    0.350    0.307
  659.250   58.504    1.079    0.352    0.296
  659.500   70.317    1.258    0.351    0.264
  659.750   77.169    1.581    0.357    0.128
  660.000   97.020    2.025    0.371    0.092
  660.250  129.857    2.360    0.383    0.036
  660.500  131.775    2.803    0.377    0.034
  660.750  130.589    3.266    0.369    0.035
  661.000  127.548    3.805    0.362    0.036
  661.250  126.349    4.434    0.294    0.042
  661.500  123.926    5.265    0.273    0.045
  661.750  120.910    5.584    0.252    0.050
  662.000  120.317    5.385    0.246    0.055
  662.250  119.131    5.097    0.246    0.059
  662.500  118.563    4.911    0.246    0.063
  662.750  119.232    4.739    0.242    0.067
  663.000  120.532    4.744    0.231    0.069
  663.250  121.819    4.660    0.180    0.075
  663.500  123.107    4.666    0.119    0.082
  663.750  123.776    4.675    0.113    0.084
  664.000  124.432    4.682    0.112    0.088
  664.250  125.745    4.687    0.109    0.088
  664.500  127.032    4.693    0.107    0.085
  664.750  127.701    4.790    0.105    0.078
  665.000  128.370    4.797    0.104    0.075
