~VERSION INFORMATION
 VERS.                 2.0:   CWLS LOG ASCII STANDARD -VERSION 2.0
 WRAP.                  NO:   ONE LINE PER DEPTH STEP
~WELL INFORMATION BLOCK
#MNEM.UNIT           DATA                    DESCRIPTION OF MNEMONIC
#---------    -------------------            -------------------------------
# Generated from Intellog Unique Number	CC_88_90/WELL/2373
WELL.         TRIAD OIL CO.                  : Well_name    - WELL
LOC .         AA/02-02-089-12W4/0            : Location     - LOCATION
UWI .         AA/02-02-089-12W400            : Uwi          - UNIQUE WELL ID
ENTR.         JOETTE                         : Entered      - ENTERED BY
SRVC.         SCHLUMBERGER                   : Scn          - SERVICE COMPANY
DATE.         03/11/92                       : Date         - LOG DATE
STRT.M        60.960                         : top_depth    - START DEPTH
STOP.M        161.960                        : bot_depth    - STOP DEPTH
STEP.M        0.25                           : increment    - STEP LENGTH
 NULL. -999.2500:NULL Value
~CURVE INFORMATION BLOCK
#MNEM UNIT       ERCB CURVE CODE    CURVE DESCRIPTION
#-----------   ------------------   ----------------------------------
DEPT.M        00 001 00 00         : DEPTH        - DEPTH
GR  .API      00 310 00 00         : GR           - GAMMA RAY
NPHI.V/V      00 330 00 00         : PHIN         - NEUTRON POROSITY (SANDSTONE)
ILD .OHMM     00 120 00 00         : RESD         - DEEP RESISTIVITY (DIL)
~PARAMETER INFORMATION
#MNEM.UNIT           DATA             DESCRIPTION OF MNEMONIC
#---------         -----------     ------------------------------
GL  .M        463.357              : gl           - GROUND LEVEL ELEVATION
EREF.M        465.094              : kb           - ELEVATION OF DEPTH REFERENCE
DATM.M        465.094              : datum        - DATUM ELEVATION
TDD .M        189.281              : tdd          - TOTAL DEPTH DRILLER
RUN .         ONE                  : Run          - RUN NUMBER
ENG .         JO                   : Engineer     - RECORDING ENGINEER
WIT .         TIM                  : Witness      - WITNESSED BY
MUD .         GEL                  : Mud_type     - MUD TYPE
MATR.         SANDSTONE            : Logunit      - NEUTRON MATRIX
TMAX.C        17.7778              : BHT          - MAXIMUM RECORDED TEMPERATURE
BHTD.M        189.281              : BHTDEP       - MAXIMUM RECORDED TEMPERATURE
RMT .C        17.7778              : MDTP         - TEMPERATURE OF MUD
MUDD.KG/M     1090                 : MWT          - MUD DENSITY
NEUT.         1                    : NEUTRON      - NEUTRON TYPE
RESI.         0                    : RESIST       - RESISTIVITY TYPE
RM  .OHMM     8.56                 : RM           - RESISTIVITY OF MUD
RMC .OHMM     8.56                 : RMC          - RESISTIVITY OF MUD CAKE
RMF .OHMM     8.56                 : RMF          - RESISTIVITY OF MUD FILTRATE
SUFT.C        4                    : SUFT         - SURFACE TEMPERATURE
~A  DEPTH       GR     PHIN     RESD
# ...
  115.210   84.881    0.418    7.028
  115.460   82.425    0.439    6.861
  115.710   80.585    0.442    6.776
  115.960   91.650    0.410    6.847
  116.210  115.622    0.419    7.075
  116.460  122.385    0.429    6.990
  116.710  116.857    0.421    7.374
  116.960  121.162    0.427    7.211
  117.210  121.780    0.407    6.968
  117.460  121.783    0.398    6.880
  117.710  108.880    0.403    6.795
  117.960   92.905    0.398    7.654
  118.210   83.075    0.400    9.768
  118.460  100.286    0.409   11.963
  118.710  124.257    0.393    8.968
  118.960  124.875    0.368    6.285
  119.210  116.889    0.381    6.278
  119.460  111.361    0.405    6.271
  119.710   97.229    0.406    6.421
  119.960   84.940    0.416    6.490
  120.210   64.663    0.438    6.642
  120.460   41.313    0.449    7.104
  120.710   43.774    0.432    7.490
  120.960   40.705    0.421    7.247
  121.210   33.333    0.407    7.083
  121.460   35.179    0.404    7.545
  121.710   59.151    0.440    7.066
  121.960   99.101    0.448    6.668
  122.210  105.250    0.461    6.111
  122.460  108.326    0.452    5.946
  122.710   84.361    0.443    5.780
  122.960   68.385    0.457    5.535
  123.210   48.722    0.474    5.214
  123.460   46.267    0.488    4.971
  123.710   60.406    0.484    5.515
  123.960   65.940    0.474    6.530
  124.210   57.953    0.442    6.994
  124.460   45.050    0.416    6.673
  124.710   45.668    0.395    6.269
  124.960   51.203    0.402    5.947
  125.210   58.581    0.427    5.706
  125.460   58.584    0.443    5.542
  125.710   54.900    0.451    5.770
  125.960   57.975    0.453    6.154
  126.210   63.510    0.462    6.463
  126.460   61.669    0.457    7.163
  126.710   61.673    0.429    6.918
  126.960   55.530    0.402    6.439
  127.210   62.908    0.416    6.275
  127.460   75.817    0.410    6.268
  127.710   83.809    0.417    6.418
  127.960   83.198    0.429    6.880
  128.210   78.284    0.437    7.109
  128.460   67.840    0.432    7.418
  128.710   57.396    0.410    7.961
  128.960   47.566    0.378    7.560
  129.210   35.892    0.410    6.842
  129.460   32.823    0.433    6.758
  129.710   35.284    0.447    6.908
  129.960   38.360    0.448    7.451
  130.210   37.134    0.436    6.815
  130.460   40.210    0.435    5.861
  130.710   46.359    0.423    6.170
  130.960   38.987    0.415    6.635
  131.210   43.907    0.401    7.570
  131.460   48.826    0.415    8.112
  131.710   48.830    0.436    7.869
  131.960   46.989    0.424    7.549
  132.210   46.377    0.400    7.068
  132.460   46.381    0.396    7.611
  132.710   42.697    0.412    7.684
  132.960   48.231    0.428    7.518
  133.210   48.849    0.428    7.354
  133.460   36.560    0.432    7.187
  133.710   29.189    0.436    7.182
  133.960   25.505    0.414    7.096
  134.210   21.820    0.397    7.246
  134.460   31.042    0.407    7.237
  134.710   48.867    0.405    7.151
  134.960   44.568    0.407    6.987
  135.210   42.728    0.414    6.822
  135.460   45.190    0.419    6.815
  135.710   47.651    0.425    6.651
  135.960   71.622    0.433    6.565
  136.210   87.604    0.437    7.027
  136.460   92.523    0.414    7.336
  136.710   94.370    0.410    7.408
  136.960   77.780    0.404    6.770
  137.210   71.638    0.418    5.977
  137.460   86.391    0.421    5.182
  137.710   96.841    0.426    4.701
  137.960   96.230    0.434    4.458
  138.210   95.618    0.446    4.294
  138.460   82.716    0.462    4.365
  138.710   72.272    0.477    4.674
  138.960   64.285    0.483    5.373
  139.210   64.903    0.491    6.074
  139.460   82.728    0.469    7.167
  139.710   82.117    0.452    7.946
  139.960   75.360    0.419    7.467
  140.210   75.363    0.402    7.067
  140.460   77.210    0.410    6.742
  140.710   71.068    0.403    6.735
  140.960   69.227    0.392    6.965
  141.210   66.772    0.404    7.508
  141.460   63.702    0.411    8.287
  141.710   46.498    0.391   10.637
  141.960   45.886    0.367    7.251
  142.210   55.722    0.396    2.917
  142.460   73.548    0.463    3.303
  142.710   83.999    0.499    4.003
  142.960   79.700    0.511    5.017
  143.210   66.797    0.499    5.877
  143.460   48.978    0.479    6.027
  143.710   71.105    0.466    6.491
  143.960   95.691    0.473    7.741
  144.210  123.964    0.463    8.913
  144.460  115.978    0.443    7.253
  144.710  115.981    0.388    6.615
  144.960  124.588    0.380    6.610
  145.210  120.904    0.402    6.131
  145.460   92.637    0.396    5.101
  145.710   76.047    0.401    4.463
  145.960   47.780    0.428    4.377
  146.210   63.762    0.454    4.606
  146.460  106.785    0.460    4.677
  146.710  104.330    0.476    5.061
  146.960  106.176    0.478    5.213
  147.210   93.888    0.473    5.205
  147.460   61.934    0.470    5.198
  147.710   44.115    0.464    5.662
  147.960   65.014    0.460    5.734
  148.210   74.235    0.468    5.412
  148.460   83.457    0.473    6.034
  148.710  113.573    0.465    6.891
  148.960   96.984    0.455    7.355
  149.210   55.196    0.443    6.405
  149.460   39.221    0.428    5.215
  149.710   52.744    0.419    5.365
  149.960   66.882    0.427    5.674
  150.210   77.948    0.450    6.453
  150.460   87.169    0.468    9.670
  150.710   83.485    0.462   11.313
  150.960   75.499    0.435    9.734
  151.210   73.044    0.407    8.546
  151.460   77.349    0.411    8.930
  151.710   74.894    0.399    9.632
  151.960   76.126    0.319   11.355
  152.210   67.525    0.226   16.537
  152.460   63.841    0.165   18.889
  152.710   65.688    0.168   23.599
  152.960   59.545    0.141   34.836
  153.210   54.632    0.126   35.850
  153.460   60.781    0.104   34.898
  153.710   63.242    0.079   35.679
  153.960   58.944    0.085   32.605
  154.210   62.020    0.099   30.316
  154.460   70.627    0.141   30.466
  154.710   73.703    0.164   30.773
  154.960   74.935    0.156   29.507
  155.210   74.324    0.140   28.871
  155.460   71.869    0.141   27.055
  155.710   63.883    0.124   27.440
  155.960   63.885    0.122   28.614
  156.210   66.347    0.112   29.707
  156.460   67.579    0.142   30.091
  156.710   76.187    0.171   29.846
  156.960   71.887    0.147   26.459
  157.210   69.432    0.120   22.049
  157.460   66.362    0.119   18.818
  157.710   66.980    0.172   16.530
  157.960   68.213    0.207   17.623
  158.210   65.757    0.271   16.751
  158.460   67.605    0.308   10.453
  158.710   76.212    0.374    8.475
  158.960   74.371    0.384    8.472
  159.210   70.072    0.387    8.307
  159.460   72.534    0.388    8.300
  159.710   71.308    0.380    8.450
  159.960   67.623    0.375    8.679
  160.210   65.168    0.382    9.063
  160.460   74.390    0.390    9.370
  160.710   71.935    0.397    9.832
  160.960   59.032    0.406    9.746
  161.210   39.369    0.411    9.425
  161.460   20.320    0.405    9.419
  161.710   21.553    0.411   10.041
  161.960   25.243    0.410   10.737
