~VERSION INFORMATION
 VERS.                 2.0:   CWLS LOG ASCII STANDARD -VERSION 2.0
 WRAP.                  NO:   ONE LINE PER DEPTH STEP
~WELL INFORMATION BLOCK
#MNEM.UNIT           DATA                    DESCRIPTION OF MNEMONIC
#---------    -------------------            -------------------------------
# Generated from Intellog Unique Number	CN_94_101/WELL/2377
WELL.         02-06-099-12W4                 : Well_name    - WELL
LOC .         AA/02-06-099-12W4/0            : Location     - LOCATION
UWI .         AA/02-06-099-12W400            : Uwi          - UNIQUE WELL ID
ENTR.         TOP                            : Entered      - ENTERED BY
SRVC.         SCHLUMBERGER                   : Scn          - SERVICE COMPANY
DATE.         08/11/92                       : Date         - LOG DATE
STRT.M        360                            : top_depth    - START DEPTH
STOP.M        585                            : bot_depth    - STOP DEPTH
STEP.M        0.25                           : increment    - STEP LENGTH
 NULL. -999.2500:NULL Value
~CURVE INFORMATION BLOCK
#MNEM UNIT       ERCB CURVE CODE    CURVE DESCRIPTION
#-----------   ------------------   ----------------------------------
DEPT.M        00 001 00 00         : DEPTH        - DEPTH
DPHI.V/V      00 890 00 00         : PHID         - DENSITY POROSITY (SANDSTONE)
NPHI.V/V      00 330 00 00         : PHIN         - NEUTRON POROSITY (SANDSTONE)
ILD .OHMM     00 120 00 00         : RESD         - DEEP RESISTIVITY (DIL)
GR  .API      00 310 00 00         : GR           - GAMMA RAY
~PARAMETER INFORMATION
#MNEM.UNIT           DATA             DESCRIPTION OF MNEMONIC
#---------         -----------     ------------------------------
GL  .M        823.03               : gl           - GROUND LEVEL ELEVATION
EREF.M        826.26               : kb           - ELEVATION OF DEPTH REFERENCE
DATM.M        826.26               : datum        - DATUM ELEVATION
TDD .M        590                  : tdd          - TOTAL DEPTH DRILLER
RUN .         ONE                  : Run          - RUN NUMBER
ENG .         JO                   : Engineer     - RECORDING ENGINEER
WIT .         TIM                  : Witness      - WITNESSED BY
MUD .         GEL                  : Mud_type     - MUD TYPE
MATR.         SANDSTONE            : Logunit      - NEUTRON MATRIX
TMAX.C        25                   : BHT          - MAXIMUM RECORDED TEMPERATURE
BHTD.M        590                  : BHTDEP       - MAXIMUM RECORDED TEMPERATURE
RMT .C        25                   : MDTP         - TEMPERATURE OF MUD
MUDD.KG/M     1050                 : MWT          - MUD DENSITY
NEUT.         1                    : NEUTRON      - NEUTRON TYPE
RESI.         0                    : RESIST       - RESISTIVITY TYPE
RM  .OHMM     9                    : RM           - RESISTIVITY OF MUD
RMC .OHMM     9                    : RMC          - RESISTIVITY OF MUD CAKE
RMF .OHMM     9                    : RMF          - RESISTIVITY OF MUD FILTRATE
SUFT.C        4                    : SUFT         - SURFACE TEMPERATURE
~A  DEPTH     PHID     PHIN     RESD       GR
# ...
  534.000    0.380    0.392   74.442   40.000
  534.250    0.379    0.385   51.964   41.239
  534.500    0.385    0.379   31.750   45.559
  534.750    0.400    0.375   20.543   47.417
  535.000    0.395    0.372   16.382   46.843
  535.250    0.385    0.371   16.711   45.047
  535.500    0.375    0.365   17.716   42.031
  535.750    0.368    0.362   19.498   36.581
  536.000    0.363    0.360   24.984   33.555
  536.250    0.360    0.376   37.990   32.981
  536.500    0.378    0.401   69.821   34.849
  536.750    0.399    0.418   78.359   37.938
  537.000    0.410    0.427   72.695   41.027
  537.250    0.416    0.432   66.191   43.532
  537.500    0.415    0.430   56.949   44.161
  537.750    0.403    0.428   49.908   44.215
  538.000    0.396    0.431   42.927   44.242
  538.250    0.389    0.440   36.923   43.668
  538.500    0.378    0.443   31.759   43.093
  538.750    0.368    0.443   27.317   42.510
  539.000    0.359    0.438   23.946   41.954
  539.250    0.352    0.435   20.991   41.972
  539.500    0.337    0.430   18.754   41.397
  539.750    0.344    0.425   16.445   40.823
  540.000    0.346    0.425   15.842   39.638
  540.250    0.341    0.425   14.982   38.453
  540.500    0.337    0.417   14.718   37.277
  540.750    0.329    0.407   16.212   36.092
  541.000    0.328    0.398   18.888   35.527
  541.250    0.349    0.387   23.301   35.545
  541.500    0.365    0.395   28.205   34.989
  541.750    0.370    0.410   36.142   35.007
  542.000    0.372    0.438   39.787   35.052
  542.250    0.374    0.443   39.846   37.530
  542.500    0.375    0.454   40.682   40.009
  542.750    0.377    0.454   41.498   42.487
  543.000    0.377    0.453   43.982   44.355
  543.250    0.374    0.444   44.878   46.825
  543.500    0.371    0.436   40.851   51.144
  543.750    0.368    0.427   31.355   54.834
  544.000    0.365    0.419   25.469   61.605
  544.250    0.358    0.411   18.820   66.516
  544.500    0.343    0.398   14.445   73.879
  544.750    0.326    0.387   11.087   80.632
  545.000    0.300    0.393    8.839   84.942
  545.250    0.288    0.398    7.749   89.270
  545.500    0.284    0.405    7.053   89.899
  545.750    0.284    0.411    6.424   89.935
  546.000    0.278    0.415    6.313   89.370
  546.250    0.276    0.420    6.316   87.574
  546.500    0.281    0.423    6.447   86.389
  546.750    0.287    0.424    6.578   83.974
  547.000    0.298    0.423    6.972   79.736
  547.250    0.305    0.422    7.389   76.118
  547.500    0.320    0.416    8.295   74.933
  547.750    0.308    0.406    8.787   76.801
  548.000    0.278    0.395    9.494   78.660
  548.250    0.250    0.359   10.062   76.873
  548.500    0.229    0.354   10.664   75.078
  548.750    0.276    0.380   10.878   73.902
  549.000    0.291    0.391   11.530   73.309
  549.250    0.299    0.404   11.547   73.355
  549.500    0.290    0.413   11.126   73.391
  549.750    0.289    0.416   10.725   72.816
  550.000    0.292    0.425   10.539   72.242
  550.250    0.297    0.423   10.551   70.456
  550.500    0.302    0.426   10.563   69.863
  550.750    0.308    0.431   10.576   69.908
  551.000    0.313    0.423   10.589   71.166
  551.250    0.313    0.417   10.601   71.821
  551.500    0.304    0.417   10.817   71.858
  551.750    0.292    0.428   10.833   72.495
  552.000    0.293    0.433   10.843   72.549
  552.250    0.306    0.433   10.457   72.577
  552.500    0.297    0.426   10.267   72.604
  552.750    0.273    0.420    9.710   72.658
  553.000    0.263    0.418    9.362   72.676
  553.250    0.256    0.410    9.197   73.933
  553.500    0.250    0.394    9.211   76.412
  553.750    0.281    0.373    9.393   80.121
  554.000    0.279    0.377    9.404   83.811
  554.250    0.269    0.384    8.404   89.351
  554.500    0.260    0.384    7.652   92.431
  554.750    0.250    0.384    6.836   96.131
  555.000    0.250    0.385    6.225  102.291
  555.250    0.248    0.393    5.998  103.548
  555.500    0.221    0.404    5.673  104.797
  555.750    0.217    0.411    5.368  103.010
  556.000    0.221    0.421    5.271   98.153
  556.250    0.240    0.429    5.378   92.684
  556.500    0.262    0.431    5.809   82.952
  556.750    0.277    0.424    6.899   76.281
  557.000    0.285    0.413    7.889   72.644
  557.250    0.288    0.408    8.851   67.796
  557.500    0.296    0.411    9.744   63.558
  557.750    0.301    0.416   11.359   56.267
  558.000    0.305    0.421   12.744   44.703
  558.250    0.310    0.417   14.852   45.960
  558.500    0.312    0.388   16.663   49.058
  558.750    0.309    0.384   17.661   50.926
  559.000    0.307    0.383   18.718   54.024
  559.250    0.304    0.393   19.105   55.263
  559.500    0.304    0.402   19.127   55.919
  559.750    0.310    0.410   19.897   54.725
  560.000    0.318    0.410   20.296   51.107
  560.250    0.326    0.411   21.511   48.701
  560.500    0.337    0.412   23.235   45.684
  560.750    0.348    0.411   25.090   43.888
  561.000    0.353    0.406   29.809   43.916
  561.250    0.352    0.397   34.738   44.571
  561.500    0.351    0.397   38.986   44.608
  561.750    0.354    0.402   42.112   45.865
  562.000    0.353    0.408   45.488   46.511
  562.250    0.348    0.406   50.076   46.539
  562.500    0.343    0.398   53.057   44.743
  562.750    0.340    0.394   59.528   44.178
  563.000    0.342    0.394   66.808   45.435
  563.250    0.348    0.398   72.163   45.462
  563.500    0.352    0.406   73.633   46.728
  563.750    0.352    0.412   68.350   47.384
  564.000    0.352    0.419   65.863   47.411
  564.250    0.352    0.421   62.291   45.005
  564.500    0.353    0.418   57.804   42.608
  564.750    0.347    0.411   53.642   42.626
  565.000    0.343    0.404   51.720   43.282
  565.250    0.337    0.396   52.789   43.929
  565.500    0.339    0.401   54.880   43.974
  565.750    0.342    0.405   57.054   42.771
  566.000    0.342    0.404   61.665   39.153
  566.250    0.335    0.395   64.089   37.357
  566.500    0.333    0.388   69.226   36.783
  566.750    0.333    0.388   73.391   36.828
  567.000    0.339    0.389   70.720   37.466
  567.250    0.341    0.389   65.646   38.103
  567.500    0.345    0.389   58.649   39.980
  567.750    0.351    0.386   53.386   41.229
  568.000    0.357    0.385   49.541   43.106
  568.250    0.362    0.389   43.429   44.974
  568.500    0.364    0.401   38.081   45.611
  568.750    0.365    0.407   35.328   47.497
  569.000    0.366    0.414   32.784   48.755
  569.250    0.365    0.422   28.756   49.401
  569.500    0.364    0.426   28.232   50.048
  569.750    0.363    0.430   25.230   50.695
  570.000    0.364    0.432   22.980   51.952
  570.250    0.364    0.436   21.721   52.599
  570.500    0.366    0.432   20.537   53.245
  570.750    0.366    0.428   19.063   54.494
  571.000    0.365    0.423   18.035   55.760
  571.250    0.363    0.418   17.373   57.008
  571.500    0.358    0.415   16.122   58.894
  571.750    0.355    0.407   14.961   60.152
  572.000    0.343    0.401   13.883   61.391
  572.250    0.319    0.397   13.130   62.657
  572.500    0.320    0.403   12.656   60.853
  572.750    0.331    0.412   12.203   57.234
  573.000    0.351    0.412   11.988   53.598
  573.250    0.354    0.404   12.705   48.750
  573.500    0.343    0.398   13.723   46.353
  573.750    0.332    0.399   14.824   46.389
  574.000    0.323    0.396   15.130   45.815
  574.250    0.321    0.394   15.148   45.851
  574.500    0.351    0.397   14.326   46.497
  574.750    0.365    0.400   13.809   47.755
  575.000    0.365    0.404   13.821   45.959
  575.250    0.363    0.409   14.107   43.544
  575.500    0.364    0.415   14.951   42.970
  575.750    0.366    0.422   15.846   43.625
  576.000    0.369    0.424   16.479   44.883
  576.250    0.373    0.416   16.815   46.760
  576.500    0.372    0.408   15.898   47.999
  576.750    0.364    0.401   14.476   50.495
  577.000    0.355    0.401   13.181   51.124
  577.250    0.343    0.406   12.473   51.160
