~VERSION INFORMATION
 VERS.                 2.0:   CWLS LOG ASCII STANDARD -VERSION 2.0
 WRAP.                  NO:   ONE LINE PER DEPTH STEP
~WELL INFORMATION BLOCK
#MNEM.UNIT           DATA                    DESCRIPTION OF MNEMONIC
#---------    -------------------            -------------------------------
# Generated from Intellog Unique Number	CN_94_101/WELL/3325
WELL.         08-17-095-09W4                 : Well_name    - WELL
LOC .         AA/08-17-095-09W4/0            : Location     - LOCATION
UWI .         AA/08-17-095-09W400            : Uwi          - UNIQUE WELL ID
ENTR.         T                              : Entered      - ENTERED BY
SRVC.         COMPUTALOG                     : Scn          - SERVICE COMPANY
DATE.         06/18/92                       : Date         - LOG DATE
STRT.M        5                              : top_depth    - START DEPTH
STOP.M        125                            : bot_depth    - STOP DEPTH
STEP.M        0.25                           : increment    - STEP LENGTH
 NULL. -999.2500:NULL Value
~CURVE INFORMATION BLOCK
#MNEM UNIT       ERCB CURVE CODE    CURVE DESCRIPTION
#-----------   ------------------   ----------------------------------
DEPT.M        00 001 00 00         : DEPTH        - DEPTH
GR  .API      00 310 00 00         : GR           - GAMMA RAY
NPHI.V/V      00 330 00 00         : PHIN         - NEUTRON POROSITY (SANDSTONE)
RHOB.KG/M3    00 350 00 00         : DENS         - BULK DENSITY
ILD .OHMM     00 120 00 00         : RESD         - DEEP RESISTIVITY (DIL)
~PARAMETER INFORMATION
#MNEM.UNIT           DATA             DESCRIPTION OF MNEMONIC
#---------         -----------     ------------------------------
GL  .M        302.6                : gl           - GROUND LEVEL ELEVATION
EREF.M        302.6                : kb           - ELEVATION OF DEPTH REFERENCE
DATM.M        302.6                : datum        - DATUM ELEVATION
TDD .M        129                  : tdd          - TOTAL DEPTH DRILLER
RUN .         ONE                  : Run          - RUN NUMBER
ENG .         JO                   : Engineer     - RECORDING ENGINEER
WIT .         TIM                  : Witness      - WITNESSED BY
MUD .         GEL                  : Mud_type     - MUD TYPE
MATR.         SANDSTONE            : Logunit      - NEUTRON MATRIX
TMAX.C        8                    : BHT          - MAXIMUM RECORDED TEMPERATURE
BHTD.M        129                  : BHTDEP       - MAXIMUM RECORDED TEMPERATURE
RMT .C        8                    : MDTP         - TEMPERATURE OF MUD
MUDD.KG/M     1240                 : MWT          - MUD DENSITY
NEUT.         1                    : NEUTRON      - NEUTRON TYPE
RESI.         0                    : RESIST       - RESISTIVITY TYPE
RM  .OHMM     10.7                 : RM           - RESISTIVITY OF MUD
RMC .OHMM     6.8                  : RMC          - RESISTIVITY OF MUD CAKE
RMF .OHMM     15.9                 : RMF          - RESISTIVITY OF MUD FILTRATE
SUFT.C        4                    : SUFT         - SURFACE TEMPERATURE
~A  DEPTH       GR     PHIN     DENS     RESD
# ...
   48.500   82.426    0.420 2210.610   40.775
   48.750   84.317    0.382 2202.660   39.361
   49.000   72.707    0.409 2180.360   44.858
   49.250   69.074    0.426 2156.060   54.032
   49.500   75.260    0.457 2139.870   53.151
   49.750   77.776    0.448 2150.260   50.350
   50.000   77.825    0.432 2174.880   44.339
   50.250   77.261    0.412 2201.540   43.598
   50.500   74.242    0.427 2207.810   50.592
   50.750   70.609    0.412 2175.360   54.554
   51.000   68.192    0.369 2149.070   53.664
   51.250   72.549    0.397 2151.260   53.750
   51.500   75.053    0.406 2153.420   97.190
   51.750   73.286    0.415 2165.850   80.914
   52.000   72.095    0.414 2178.280   61.429
   52.250   70.304    0.413 2186.590   50.227
   52.500   70.353    0.405 2194.910   65.185
   52.750   69.187    0.397 2197.060   61.749
   53.000   67.985    0.420 2193.230   58.542
   53.250   66.193    0.442 2191.270   58.636
   53.500   64.414    0.424 2189.390   64.379
   53.750   65.064    0.416 2191.590   76.128
   54.000   66.341    0.424 2210.130   88.411
   54.250   69.483    0.411 2222.520   79.243
   54.500   69.532    0.420 2212.490   67.228
   54.750   65.887    0.412 2196.390   66.158
   55.000   60.414    0.427 2188.350   67.444
   55.250   54.327    0.429 2172.210   71.395
   55.500   50.068    0.402 2151.990   79.912
   55.750   55.652    0.403 2131.730   96.255
   56.000   62.452    0.404 2133.930  233.803
   56.250   68.637    0.423 2178.960  217.520
   56.500   61.323    0.426 2213.810  134.809
   56.750   49.713    0.402 2203.740   89.982
   57.000   42.411    0.388 2189.640   72.229
   57.250   40.006    0.398 2175.570  119.096
   57.500   40.055    0.413 2159.420  100.998
   57.750   40.104    0.408 2147.320   78.135
   58.000   40.755    0.410 2137.320  189.791
   58.250   41.418    0.418 2153.750  212.344
   58.500   42.707    0.410 2154.030   94.417
   58.750   43.983    0.395 2150.030  120.246
   59.000   43.419    0.387 2142.040  139.592
   59.250   40.400    0.401 2140.200   98.477
   59.500   37.982    0.400 2144.440   83.546
   59.750   34.362    0.371 2142.560  132.712
   60.000   39.934    0.377 2152.870  162.895
   60.250   44.905    0.378 2159.150   97.298
   60.500   44.954    0.371 2147.120   99.269
   60.750   46.230    0.364 2157.430  149.258
   61.000   49.949    0.362 2182.090  131.334
   61.250   34.044    0.365 2163.860   94.376
   61.500   31.639    0.378 2141.600  103.661
   61.750   54.404    0.375 2125.500  225.411
   62.000   74.704    0.351 2141.920  446.966
   62.250   88.265    0.372 2225.690  710.289
   62.500   96.291    0.432 2295.180  636.885
   62.750  116.603    0.501 2313.770  540.104
   63.000  116.652    0.538 2307.730  311.046
   63.250  108.724    0.520 2291.590   21.844
   63.500  103.864    0.494 2269.330   13.549
   63.750  113.118    0.483 2261.380   14.075
   64.000   98.440    0.470 2261.500   14.899
   64.250   97.274    0.475 2261.700   15.201
   64.500  100.993    0.493 2261.820   15.225
   64.750  104.724    0.509 2257.980   14.971
   65.000   99.864    0.475 2249.990   14.727
   65.250  100.527    0.492 2239.960   14.751
   65.500  107.339    0.504 2240.080   15.049
   65.750  112.910    0.530 2246.350   15.067
   66.000  117.869    0.514 2238.400   15.091
   66.250  120.385    0.493 2232.450   14.839
   66.500  121.674    0.491 2234.600   14.591
   66.750  119.268    0.491 2226.650   14.085
   67.000  121.760    0.491 2218.620   13.856
   67.250  126.718    0.430 2228.970   14.136
   67.500  124.313    0.437 2251.550   14.423
   67.750  114.544    0.451 2274.210   14.715
   68.000  114.004    0.482 2284.560   15.292
   68.250  113.428    0.492 2294.870   16.195
   68.500  117.760    0.503 2321.530   16.523
   68.750  122.105    0.516 2313.530   15.372
   69.000  117.245    0.532 2264.780   14.562
   69.250  110.544    0.543 2185.410   14.319
   69.500  104.457    0.542 2157.040   14.347
   69.750   78.108    0.434 2189.810   14.370
   70.000   52.373    0.402 2183.890   14.934
   70.250   38.321    0.368 2169.790   16.404
   70.500   41.426    0.355 2163.830   18.687
   70.750   51.919    0.328 2219.020   24.694
   71.000   59.332    0.320 2276.330   23.411
   71.250   68.585    0.332 2292.750   23.020
   71.500   82.760    0.346 2311.260   22.635
   71.750   89.560    0.374 2335.880   22.248
   72.000   98.212    0.407 2364.610   20.707
   72.250  105.011    0.440 2319.970   19.624
   72.500  109.969    0.460 2309.860   18.597
   72.750  102.667    0.474 2273.330   17.624
   73.000  108.227    0.508 2259.230   17.330
   73.250  110.130    0.474 2218.620   16.116
   73.500  105.871    0.465 2212.710   14.720
   73.750  102.864    0.503 2198.560   13.950
   74.000  105.381    0.539 2178.340   13.220
   74.250  106.031    0.550 2152.010   12.528
   74.500  105.467    0.563 2139.940   12.329
   74.750   98.766    0.524 2146.210   12.343
   75.000   91.439    0.472 2172.870   12.132
   75.250   84.125    0.461 2211.750   11.934
   75.500   71.902    0.462 2246.600   11.954
   75.750   61.520    0.476 2236.570   12.191
   76.000   57.887    0.446 2218.390   12.905
   76.250   64.073    0.433 2200.210   13.916
   76.500   74.553    0.463 2194.250   18.731
   76.750   86.286    0.473 2196.490   17.427
   77.000   90.005    0.485 2198.690   15.626
   77.250   94.350    0.518 2202.880   14.537
   77.500   98.719    0.551 2207.120   13.777
   77.750  102.450    0.571 2211.400   12.817
   78.000  106.782    0.597 2213.550   12.152
   78.250  106.844    0.623 2191.300   11.516
   78.500  103.211    0.647 2120.120   11.319
   78.750   99.566    0.674 2073.360   11.139
   79.000   92.252    0.691 1943.040   11.148
   79.250   82.483    0.663 1928.940   11.378
   79.500   82.533    0.653 1874.030   12.269
   79.750   91.786    0.633 1778.400   13.982
   80.000   99.199    0.611 1829.510   15.352
   80.250  104.170    0.584 2121.240   13.765
   80.500  106.060    0.568 2192.820   11.688
   80.750   95.677    0.556 2184.780   11.483
   81.000   92.658    0.570 2182.910   11.089
   81.250   99.458    0.536 2207.520   10.904
   81.500  104.428    0.494 2224.030   11.332
   81.750  102.011    0.457 2224.190   12.219
   82.000  100.845    0.413 2238.620   13.422
   82.250  105.177    0.353 2275.460   14.742
   82.500  118.125    0.386 2332.730   16.192
   82.750  123.697    0.397 2355.350   18.461
   83.000  130.508    0.387 2341.200   19.186
   83.250  137.307    0.372 2325.060   20.302
   83.500  137.970    0.400 2329.290   20.713
   83.750  123.293    0.415 2337.650   19.645
   84.000  121.501    0.427 2347.960   18.949
   84.250  123.391    0.437 2364.460   17.307
   84.500  128.349    0.453 2346.280   15.813
   84.750  137.603    0.454 2324.020   14.712
   85.000  139.493    0.454 2305.840   14.202
   85.250  127.883    0.518 2287.610   13.965
   85.500  109.524    0.527 2253.130   13.475
   85.750  100.970    0.455 2198.260   11.866
   86.000   90.588    0.350 2263.640   11.450
   86.250  107.217    0.345 2314.870   13.298
   86.500  101.756    0.353 2300.680   15.725
   86.750   86.440    0.348 2282.500   18.255
   87.000   57.023    0.354 2254.130   20.424
   87.250   42.345    0.330 2225.710   23.719
   87.500   44.861    0.333 2193.260   28.059
   87.750   44.297    0.339 2183.230   28.104
   88.000   41.891    0.325 2183.390   27.623
   88.250   40.701    0.331 2191.710   27.173
   88.500   38.922    0.378 2230.670   25.291
   88.750   37.142    0.345 2214.480   24.404
   89.000   36.566    0.328 2192.230   23.118
   89.250   36.014    0.324 2165.850   21.516
   89.500   36.063    0.333 2269.990   20.399
   89.750   36.100    0.344 2304.880   20.050
   90.000   35.548    0.355 2282.580   19.707
   90.250   36.824    0.367 2243.980   19.024
   90.500   41.770    0.373 2187.070   18.364
   90.750   45.501    0.375 2168.890   18.057
   91.000   51.711    0.377 2185.350   18.430
   91.250   49.294    0.384 2197.780   18.467
   91.500   43.821    0.391 2189.750   18.482
   91.750   38.335    0.397 2159.340   18.173
