~VERSION INFORMATION
 VERS.                 2.0:   CWLS LOG ASCII STANDARD -VERSION 2.0
 WRAP.                  NO:   ONE LINE PER DEPTH STEP
~WELL INFORMATION BLOCK
#MNEM.UNIT           DATA                    DESCRIPTION OF MNEMONIC
#---------    -------------------            -------------------------------
# Generated from Intellog Unique Number	CN_94_101/WELL/4986
WELL.         06-31-101-12W4                 : Well_name    - WELL
LOC .         AA/06-31-101-12W4/0            : Location     - LOCATION
UWI .         AA/06-31-101-12W400            : Uwi          - UNIQUE WELL ID
ENTR.         TIM                            : Entered      - ENTERED BY
SRVC.         SCHLUMBERGER                   : Scn          - SERVICE COMPANY
DATE.         08/13/92                       : Date         - LOG DATE
STRT.M        350                            : top_depth    - START DEPTH
STOP.M        580                            : bot_depth    - STOP DEPTH
STEP.M        0.25                           : increment    - STEP LENGTH
NULL. -999.2500:NULL Value
~CURVE INFORMATION BLOCK
#MNEM UNIT       ERCB CURVE CODE    CURVE DESCRIPTION
#-----------   ------------------   ----------------------------------
DEPT.M        00 001 00 00         : DEPTH        - DEPTH
GR  .API      00 310 00 00         : GR           - GAMMA RAY
ILD .OHMM     00 120 00 00         : RESD         - DEEP RESISTIVITY (DIL)
NPHI.V/V      00 330 00 00         : PHIN         - NEUTRON POROSITY (SANDSTONE)
DPHI.V/V      00 890 00 00         : PHID         - DENSITY POROSITY (SANDSTONE)
~PARAMETER INFORMATION
#MNEM.UNIT           DATA             DESCRIPTION OF MNEMONIC
#---------         -----------     ------------------------------
GL  .M        788.8                : gl           - GROUND LEVEL ELEVATION
EREF.M        792.2                : kb           - ELEVATION OF DEPTH REFERENCE
DATM.M        792.2                : datum        - DATUM ELEVATION
TDD .M        586                  : tdd          - TOTAL DEPTH DRILLER
RUN .         ONE                  : Run          - RUN NUMBER
ENG .         JO                   : Engineer     - RECORDING ENGINEER
WIT .         TIM                  : Witness      - WITNESSED BY
MUD .         GEL                  : Mud_type     - MUD TYPE
MATR.         SANDSTONE            : Logunit      - NEUTRON MATRIX
TMAX.C        17                   : BHT          - MAXIMUM RECORDED TEMPERATURE
BHTD.M        586                  : BHTDEP       - MAXIMUM RECORDED TEMPERATURE
RMT .C        15                   : MDTP         - TEMPERATURE OF MUD
MUDD.KG/M     1040                 : MWT          - MUD DENSITY
NEUT.         1                    : NEUTRON      - NEUTRON TYPE
RESI.         0                    : RESIST       - RESISTIVITY TYPE
RM  .OHMM     0.75                 : RM           - RESISTIVITY OF MUD
RMC .OHMM     0.75                 : RMC          - RESISTIVITY OF MUD CAKE
RMF .OHMM     0.75                 : RMF          - RESISTIVITY OF MUD FILTRATE
SUFT.C        4                    : SUFT         - SURFACE TEMPERATURE
~A  DEPTH       GR     RESD     PHIN     PHID
# ...
  524.000   69.401    6.226    0.419    0.328
  524.250   69.436    6.234    0.413    0.323
  524.500   69.495    6.249    0.413    0.321
  524.750   69.519    6.254    0.413    0.323
  525.000   69.578    6.264    0.412    0.322
  525.250   69.625    6.398    0.406    0.320
  525.500   70.284    6.292    0.401    0.313
  525.750   70.956    6.299    0.393    0.311
  526.000   72.264    6.195    0.395    0.305
  526.250   74.809    6.085    0.400    0.295
  526.500   74.856    5.982    0.413    0.291
  526.750   74.903    5.881    0.405    0.289
  527.000   74.950    5.571    0.395    0.287
  527.250   75.621    5.475    0.389    0.287
  527.500   75.668    5.282    0.381    0.288
  527.750   74.467    5.195    0.381    0.285
  528.000   73.901    5.107    0.380    0.281
  528.250   73.948    5.020    0.382    0.279
  528.500   74.643    4.844    0.386    0.286
  528.750   75.303    4.762    0.388    0.289
  529.000   75.326    4.679    0.389    0.291
  529.250   75.373    4.600    0.387    0.286
  529.500   74.171    4.526    0.383    0.283
  529.750   73.606    4.531    0.379    0.283
  530.000   73.653    4.537    0.376    0.287
  530.250   74.313    4.548    0.375    0.289
  530.500   75.609    4.553    0.376    0.280
  530.750   76.905    4.647    0.405    0.287
  531.000   76.952    4.656    0.412    0.295
  531.250   77.623    4.751    0.418    0.304
  531.500   77.670    4.761    0.422    0.302
  531.750   77.729    4.767    0.424    0.304
  532.000   78.401    4.774    0.419    0.300
  532.250   78.459    4.780    0.413    0.290
  532.500   78.506    4.701    0.408    0.277
  532.750   77.929    4.709    0.408    0.290
  533.000   77.352    4.629    0.411    0.303
  533.250   78.023    4.635    0.411    0.312
  533.500   78.683    4.556    0.409    0.286
  533.750   80.603    4.563    0.402    0.277
  534.000   78.777    4.486    0.396    0.270
  534.250   77.575    4.412    0.391    0.277
  534.500   78.270    4.258    0.385    0.298
  534.750   78.930    4.183    0.386    0.307
  535.000   82.111    4.112    0.398    0.300
  535.250   83.395    4.044    0.398    0.276
  535.500   84.691    3.976    0.394    0.276
  535.750   85.363    3.908    0.390    0.288
  536.000   84.785    3.844    0.386    0.296
  536.250   84.208    3.775    0.386    0.271
  536.500   84.891    3.713    0.390    0.274
  536.750   86.199    3.717    0.401    0.282
  537.000   86.859    3.656    0.407    0.284
  537.250   87.530    3.663    0.398    0.258
  537.500   86.941    3.668    0.426    0.248
  537.750   83.878    3.675    0.434    0.232
  538.000   81.427    3.752    0.429    0.241
  538.250   78.976    3.755    0.402    0.245
  538.500   77.774    3.832    0.394    0.216
  538.750   75.948    4.065    0.387    0.220
  539.000   74.746    4.146    0.377    0.234
  539.250   74.168    4.309    0.370    0.224
  539.500   74.203    4.483    0.365    0.216
  539.750   74.251    4.573    0.386    0.266
  540.000   74.297    4.665    0.407    0.290
  540.250   74.345    4.852    0.420    0.299
  540.500   75.016    4.952    0.427    0.303
  540.750   76.347    5.053    0.431    0.301
  541.000   77.007    5.061    0.437    0.298
  541.250   78.280    4.982    0.439    0.295
  541.500   79.576    4.891    0.434    0.292
  541.750   79.623    4.809    0.429    0.290
  542.000   80.318    4.640    0.404    0.285
  542.250   80.353    4.395    0.396    0.277
  542.500   81.013    4.243    0.388    0.267
  542.750   82.957    4.090    0.384    0.255
  543.000   83.617    3.948    0.389    0.254
  543.250   84.300    3.811    0.394    0.256
  543.500   85.596    3.743    0.398    0.251
  543.750   86.256    3.681    0.403    0.244
  544.000   86.315    3.552    0.408    0.250
  544.250   85.737    3.492    0.411    0.258
  544.500   84.523    3.433    0.408    0.254
  544.750   84.594    3.373    0.407    0.254
  545.000   85.242    3.316    0.404    0.256
  545.250   86.538    3.199    0.401    0.260
  545.500   85.972    3.088    0.400    0.270
  545.750   85.407    3.092    0.398    0.263
  546.000   84.806    3.041    0.390    0.257
  546.250   83.604    3.044    0.386    0.262
  546.500   81.777    2.994    0.381    0.283
  546.750   80.576    2.998    0.382    0.282
  547.000   78.749    3.002    0.388    0.277
  547.250   79.421    2.953    0.392    0.265
  547.500   81.353    2.904    0.393    0.255
  547.750   83.285    2.856    0.393    0.256
  548.000   83.332    2.858    0.388    0.261
  548.250   81.518    2.811    0.383    0.262
  548.500   80.917    2.817    0.375    0.266
  548.750   80.339    2.767    0.367    0.267
  549.000   79.773    2.772    0.368    0.266
  549.250   79.820    2.776    0.373    0.263
  549.500   81.117    2.729    0.387    0.253
  549.750   81.776    2.733    0.397    0.260
  550.000   82.460    2.737    0.398    0.269
  550.250   81.870    2.693    0.398    0.274
  550.500   81.918    2.646    0.397    0.275
  550.750   81.976    2.650    0.394    0.273
  551.000   82.648    2.654    0.391    0.270
  551.250   82.683    2.659    0.389    0.264
  551.500   83.355    2.664    0.385    0.260
  551.750   84.026    2.668    0.383    0.255
  552.000   84.710    2.671    0.381    0.248
  552.250   86.005    2.678    0.381    0.247
  552.500   87.313    2.683    0.383    0.247
  552.750   87.985    2.685    0.381    0.249
  553.000   88.645    2.690    0.379    0.253
  553.250   89.316    2.646    0.376    0.247
  553.500   89.363    2.649    0.372    0.242
  553.750   88.161    2.604    0.372    0.235
  554.000   86.971    2.513    0.371    0.231
  554.250   84.520    2.471    0.368    0.233
  554.500   82.706    2.427    0.367    0.241
  554.750   81.480    2.343    0.368    0.251
  555.000   80.914    2.346    0.370    0.265
  555.250   79.713    2.306    0.372    0.278
  555.500   79.123    2.268    0.370    0.284
  555.750   77.297    2.229    0.366    0.279
  556.000   76.107    2.191    0.364    0.280
  556.250   76.142    2.155    0.360    0.282
  556.500   75.576    2.158    0.359    0.288
  556.750   74.999    2.162    0.360    0.298
  557.000   72.548    2.166    0.362    0.301
  557.250   70.722    2.168    0.363    0.299
  557.500   73.903    2.171    0.363    0.295
  557.750   75.175    2.482    0.363    0.285
  558.000   79.594    2.678    0.369    0.260
  558.250   84.012    2.889    0.388    0.219
  558.500   89.691    3.179    0.409    0.206
  558.750   90.363    3.242    0.417    0.230
  559.000   87.288    3.371    0.420    0.225
  559.250   82.963    3.254    0.413    0.229
  559.500   76.129    3.139    0.408    0.257
  559.750   68.058    2.917    0.398    0.280
  560.000   62.485    2.711    0.385    0.292
  560.250   60.034    2.520    0.373    0.294
  560.500   56.958    2.300    0.362    0.297
  560.750   55.156    2.219    0.357    0.300
  561.000   55.179    2.141    0.357    0.311
  561.250   60.846    2.144    0.380    0.319
  561.500   70.897    2.147    0.388    0.312
  561.750   80.936    2.192    0.412    0.284
  562.000   85.354    2.279    0.502    0.269
  562.250   90.409    2.414    0.532    0.244
  562.500   89.195    2.510    0.503    0.350
  562.750   82.373    2.562    0.478    0.324
  563.000   77.424    2.664    0.446    0.317
  563.250   83.091    2.878    0.428    0.273
  563.500  100.011    2.991    0.459    0.230
  563.750  115.058    3.052    0.464    0.216
  564.000  113.856    3.114    0.494    0.243
  564.250  113.278    3.063    0.525    0.256
  564.500  109.567    3.067    0.536    0.229
  564.750  102.745    2.959    0.480    0.143
  565.000   96.547    2.963    0.456    0.102
  565.250   92.222    3.143    0.389    0.093
  565.500   89.783    3.266    0.376    0.103
  565.750   88.581    3.527    0.425    0.139
  566.000   86.130    3.733    0.432    0.151
  566.250   83.055    4.107    0.426    0.152
  566.500   81.229    4.116    0.401    0.105
  566.750   80.651    4.119    0.397    0.095
  567.000   82.572    3.976    0.387    0.090
  567.250   84.481    3.909    0.389    0.158
