~VERSION INFORMATION
 VERS.                 2.0:   CWLS LOG ASCII STANDARD -VERSION 2.0
 WRAP.                  NO:   ONE LINE PER DEPTH STEP
~WELL INFORMATION BLOCK
#MNEM.UNIT           DATA                    DESCRIPTION OF MNEMONIC
#---------    -------------------            -------------------------------
# Generated from Intellog Unique Number	CC_84_87/WELL/1068
NULL.         -999.25                        : NULL_VALUE
WELL.         COSEKA TOTAL #4                : Well_name    - WELL              
LOC .         06-13-087-07W4                 : Location     - LOCATION          
UWI .         AA/06-13-087-07W400            : Uwi          - UNIQUE WELL ID    
ENTR.         RJA                            : Entered      - ENTERED BY        
SRVC.         SCHLUMBERGER                   : Scn          - SERVICE COMPANY   
DATE.         03 FEB 81                      : Date         - LOG DATE
STRT.M        40                             : top_depth    - START DEPTH       
STOP.M        178.001                        : bot_depth    - STOP DEPTH        
STEP.M        0.3                            : increment    - STEP LENGTH       
~CURVE INFORMATION BLOCK
#MNEM UNIT       ERCB CURVE CODE    CURVE DESCRIPTION
#-----------   ------------------   ----------------------------------
DEPT.M        00 001 00 00         : DEPTH        - DEPTH                       
DPHI.V/V      00 890 00 00         : PHID         - DENSITY POROSITY (LIMESTONE)
NPHI.V/V      00 330 00 00         : PHIN         - NEUTRON POROSITY (LIMESTONE)
GR  .API      00 310 00 00         : GR           - GAMMA RAY                   
ILD .OHMM     00 120 00 00         : RESD         - DEEP RESISTIVITY (DIL)      
~PARAMETER INFORMATION       
#MNEM.UNIT           DATA             DESCRIPTION OF MNEMONIC
#---------         -----------     ------------------------------
GL  .M        436.85               : gl           - GROUND LEVEL ELEVATION      
EREF.M        438.38               : kb           - ELEVATION OF DEPTH REFERENCE
DATM.M        438.38               : datum        - DATUM ELEVATION             
TDD .M        185                  : tdd          - TOTAL DEPTH DRILLER         
RUN .         ONE                  : Run          - RUN NUMBER                  
ENG .         BILL                 : Engineer     - RECORDING ENGINEER          
WIT .         JIM                  : Witness      - WITNESSED BY                
MUD .         GEL                  : Mud_type     - MUD TYPE                    
MATR.         LIMESTONE            : Logunit      - NEUTRON MATRIX              
TMAX.C        15                   : BHT          - MAXIMUM RECORDED TEMPERATURE
BHTD.M        185                  : BHTDEP       - MAXIMUM RECORDED TEMPERATURE
MATR.         1                    : LOGUNIT      - NEUTRON MATRIX              
RMT .C        25                   : MDTP         - TEMPERATURE OF MUD          
NEUT.         1                    : NEUTRON      - NEUTRON TYPE                
RESI.         0                    : RESIST       - RESISTIVITY TYPE            
RMC .OHMM     0.25                 : RMC          - RESISTIVITY OF MUD CAKE     
RMF .OHMM     0.25                 : RMF          - RESISTIVITY OF MUD FILTRATE 
SUFT.C        4                    : SUFT         - SURFACE TEMPERATURE         
~A  DEPTH     PHID     PHIN       GR     RESD
# ...
  144.401    0.325    0.445   39.615   62.842
  144.701    0.321    0.439   40.281   66.490
  145.001    0.306    0.419   42.808   66.434
  145.301    0.319    0.425   41.604   48.900
  145.601    0.337    0.431   55.967   25.032
  145.901    0.321    0.399   64.095   15.812
  146.201    0.309    0.395   67.875   13.053
  146.501    0.281    0.422   62.310   11.854
  146.801    0.268    0.435   43.057   12.785
  147.101    0.298    0.405   43.108   16.061
  147.401    0.293    0.405   43.137   19.059
  147.701    0.281    0.416   40.067   21.359
  148.001    0.306    0.415   38.859   20.152
  148.301    0.310    0.407   43.887   19.385
  148.601    0.301    0.394   46.407   23.435
  148.901    0.314    0.387   42.093   25.285
  149.201    0.325    0.408   39.021   28.881
  149.501    0.337    0.419   40.939   30.559
  149.801    0.323    0.421   42.848   28.286
  150.101    0.317    0.411   42.879   24.257
  150.401    0.331    0.409   42.294   19.270
  150.701    0.328    0.421   43.588   16.209
  151.001    0.310    0.405   46.120   13.639
  151.301    0.279    0.396   47.402   12.153
  151.601    0.289    0.392   46.828   11.686
  151.901    0.279    0.387   45.611   11.905
  152.201    0.291    0.391   43.781   13.597
  152.501    0.295    0.402   39.489   16.132
  152.801    0.296    0.411   38.262   16.431
  153.101    0.321    0.402   37.677   15.504
  153.401    0.316    0.404   40.210   14.909
  153.701    0.313    0.420   40.872   16.702
  154.001    0.323    0.415   38.437   17.675
  154.301    0.330    0.398   39.090   18.351
  154.601    0.341    0.395   44.742   14.857
  154.901    0.328    0.400   48.516   12.503
  155.201    0.312    0.409   50.432   10.518
  155.501    0.315    0.419   50.458    9.925
  155.801    0.315    0.417   49.246   10.699
  156.101    0.302    0.397   47.422   10.900
  156.401    0.287    0.402   51.222   11.316
  156.701    0.289    0.397   51.858   11.742
  157.001    0.289    0.399   48.786   12.196
  157.301    0.299    0.429   35.144   14.750
  157.601    0.326    0.419   28.336   20.391
  157.901    0.342    0.425   25.255   27.139
  158.201    0.346    0.431   27.172   49.031
  158.501    0.320    0.446   29.701   66.495
  158.801    0.310    0.434   33.480   50.861
  159.101    0.318    0.425   35.999   36.721
  159.401    0.318    0.430   33.551   33.996
  159.701    0.338    0.445   34.847   35.968
  160.001    0.348    0.447   38.000   33.292
  160.301    0.325    0.386   41.771   21.034
  160.601    0.322    0.364   50.520   12.076
  160.901    0.295    0.367   64.883    9.412
  161.201    0.252    0.388   76.118    8.880
  161.501    0.214    0.470   79.897    9.219
  161.801    0.199    0.450   69.355   11.581
  162.101    0.290    0.460   56.948   13.487
  162.401    0.314    0.460   50.760   19.748
  162.701    0.340    0.446   41.466   34.998
  163.001    0.292    0.426   43.997   28.886
  163.301    0.232    0.381   54.623   27.784
  163.601    0.175    0.344   51.555   29.963
  163.901    0.131    0.371   39.760   32.317
  164.201    0.273    0.390   34.198   36.214
  164.501    0.293    0.369   44.822   28.227
  164.801    0.286    0.375   61.671   14.450
  165.101    0.263    0.380   77.272    9.853
  165.401    0.242    0.385   82.288    7.679
  165.701    0.214    0.391   84.194    7.246
  166.001    0.229    0.406   83.612    7.522
  166.301    0.204    0.415   86.765    7.808
  166.601    0.203    0.403   84.948    7.799
  166.901    0.193    0.399   83.109    7.648
  167.201    0.209    0.413   86.897    7.788
  167.501    0.212    0.405   87.558    7.634
  167.801    0.205    0.399   85.730    7.630
  168.101    0.207    0.405   86.394    7.620
  168.401    0.208    0.416   83.321    7.761
  168.701    0.211    0.423   75.271    8.057
  169.001    0.193    0.420   65.350    8.367
  169.301    0.279    0.436   55.427   10.921
  169.601    0.318    0.449   49.883   13.210
  169.901    0.309    0.429   51.158   14.524
  170.201    0.284    0.408   56.798   12.692
  170.501    0.284    0.382   64.926   10.679
  170.801    0.256    0.394   74.930   10.078
  171.101    0.228    0.405   76.840   13.667
  171.401    0.244    0.436   65.667   17.509
  171.701    0.294    0.390   50.154   23.297
  172.001    0.259    0.403   43.965   19.978
  172.301    0.279    0.369   41.516   16.489
  172.601    0.226    0.327   52.758   14.417
  172.901    0.180    0.353   54.667   12.363
  173.201    0.094    0.370   51.609   12.351
  173.501    0.067    0.325   51.641   13.842
  173.801    0.045    0.300   52.935   14.643
  174.101    0.049    0.307   54.207   14.631
  174.401    0.047    0.304   58.002   14.074
  174.701    0.055    0.306   59.271   13.797
  175.001    0.052    0.308   60.564   14.319
  175.301    0.044    0.295   60.591   15.446
  175.601    0.028    0.273   55.036   16.659
  175.901    0.041    0.246   53.206   15.716
  176.201    0.027    0.250   57.625   14.825
  176.501    0.015    0.263   59.521   14.261
  176.801    0.042    0.294   60.171   13.981
  177.101    0.038    0.303   61.463   13.446
  177.401    0.026    0.300   62.753   12.931
  177.701    0.024    0.311   63.408   12.675
  178.001    0.025    0.319   60.958   12.191
