~VERSION INFORMATION
 VERS.                 2.0:   CWLS LOG ASCII STANDARD -VERSION 2.0
 WRAP.                  NO:   ONE LINE PER DEPTH STEP
~WELL INFORMATION BLOCK
#MNEM.UNIT           DATA                    DESCRIPTION OF MNEMONIC
#---------    -------------------            -------------------------------
# Generated from Intellog Unique Number	CW_82_90/WELL/3428
WELL.         CDN SUP SIMON OV               : Well_name    - WELL
LOC .         AA/07-16-088-20W4/0            : Location     - LOCATION
UWI .         AA/07-16-088-20W4/0            : Uwi          - UNIQUE WELL ID
ENTR.         MAX                            : Entered      - ENTERED BY
SRVC.         SCHLUMBERGER                   : Scn          - SERVICE COMPANY
STRT.M        200                            : top_depth    - START DEPTH
STOP.M        275                            : bot_depth    - STOP DEPTH
STEP.M        0.25                           : increment    - STEP LENGTH
 NULL. -999.2500:NULL Value
~CURVE INFORMATION BLOCK
#MNEM UNIT       ERCB CURVE CODE    CURVE DESCRIPTION
#-----------   ------------------   ----------------------------------
DEPT.M        00 001 00 00         : DEPTH        - DEPTH
ILD .OHMM     00 120 00 00         : RESD         - DEEP RESISTIVITY (DIL)
NPHI.V/V      00 330 00 00         : PHIN         - NEUTRON POROSITY (SANDSTONE)
DPHI.V/V      00 890 00 00         : PHID         - DENSITY POROSITY (SANDSTONE)
CALI.MM       00 280 01 00         : CAL          - CALIPER
GR  .API      00 310 00 00         : GR           - GAMMA RAY
~PARAMETER INFORMATION
#MNEM.UNIT           DATA             DESCRIPTION OF MNEMONIC
#---------         -----------     ------------------------------
GL  .M        525.1                : gl           - GROUND LEVEL ELEVATION
EREF.M        529.58               : kb           - ELEVATION OF DEPTH REFERENCE
DATM.M        525.1                : datum        - DATUM ELEVATION
TDD .M        280.5                : tdd          - TOTAL DEPTH DRILLER
RUN .         ONE                  : Run          - RUN NUMBER
ENG .         BILL                 : Engineer     - RECORDING ENGINEER
WIT .         JIM                  : Witness      - WITNESSED BY
MUD .         GEL                  : Mud_type     - MUD TYPE
MATR.         SANDSTONE            : Logunit      - NEUTRON MATRIX
TMAX.C        17.8                 : BHT          - MAXIMUM RECORDED TEMPERATURE
BHTD.M        280.5                : BHTDEP       - MAXIMUM RECORDED TEMPERATURE
MATR.         1                    : LOGUNIT      - NEUTRON MATRIX
RMT .C        16.6                 : MDTP         - TEMPERATURE OF MUD
NEUT.         1                    : NEUTRON      - NEUTRON TYPE
RESI.         0                    : RESIST       - RESISTIVITY TYPE
RMC .OHMM     1.9                  : RMC          - RESISTIVITY OF MUD CAKE
RMF .OHMM     1.59                 : RMF          - RESISTIVITY OF MUD FILTRATE
SUFT.C        -15                  : SUFT         - SURFACE TEMPERATURE
~A  DEPTH     RESD     PHIN     PHID      CAL       GR
# ...
  236.500   13.876    0.429    0.230  278.692   90.163
  236.750   14.267    0.448    0.232  278.255   89.894
  237.000   14.402    0.465    0.232  274.387   88.164
  237.250   13.762    0.462    0.233  271.491   86.430
  237.500   12.336    0.441    0.216  267.634   85.577
  237.750   10.001    0.418    0.194  266.207   87.660
  238.000    9.130    0.433    0.196  265.770  100.020
  238.250    8.036    0.459    0.223  266.783  100.345
  238.500    7.403    0.478    0.228  269.771  102.131
  238.750    7.075    0.494    0.232  273.249  105.098
  239.000    6.885    0.511    0.236  274.764  107.178
  239.250    7.144    0.529    0.229  273.831  103.389
  239.500    9.230    0.516    0.210  272.410   96.957
  239.750   12.145    0.481    0.182  272.456   90.525
  240.000   14.720    0.455    0.130  271.530   84.387
  240.250   16.735    0.406    0.119  268.628   84.125
  240.500   16.892    0.397    0.148  260.845   86.502
  240.750   16.144    0.436    0.206  256.977   89.756
  241.000   15.010    0.430    0.233  255.071   90.965
  241.250   14.475    0.426    0.218  254.145   90.402
  241.500   13.707    0.429    0.195  254.185   90.430
  241.750   12.744    0.436    0.180  254.226   93.101
  242.000   11.849    0.444    0.168  254.272   96.945
  242.250   12.295    0.451    0.211  254.325  100.790
  242.500   12.410    0.459    0.213  253.882   99.644
  242.750   11.752    0.455    0.219  253.928   94.093
  243.000   10.534    0.460    0.223  252.996   93.831
  243.250    9.884    0.464    0.216  252.553   95.914
  243.500   10.350    0.471    0.210  252.116   98.588
  243.750   10.543    0.481    0.207  252.156  100.374
  244.000   10.262    0.472    0.213  251.230   98.937
  244.250    9.628    0.461    0.212  248.340   99.842
  244.500    9.034    0.464    0.207  247.408  102.519
  244.750    8.324    0.478    0.225  251.363  104.309
  245.000    7.882    0.487    0.235  259.740  104.337
  245.250    7.812    0.483    0.231  264.185  101.725
  245.500    7.815    0.476    0.240  267.173  100.572
  245.750    8.035    0.476    0.240  269.171   99.132
  246.000    8.490    0.485    0.234  275.096   97.692
  246.250    9.476    0.500    0.267  283.461   95.664
  246.500   11.485    0.508    0.281  299.656   94.811
  246.750   13.177    0.512    0.310  309.496   96.894
  247.000   14.052    0.461    0.318  281.154   97.803
  247.250   13.552    0.433    0.270  236.180   96.363
  247.500   11.819    0.377    0.080  234.752   93.751
  247.750   10.691    0.349    0.048  237.251   94.069
  248.000   10.892    0.398    0.106  240.717  101.441
  248.250   11.509    0.435    0.189  241.748  102.937
  248.500   12.615    0.441    0.174  242.779   99.442
  248.750   14.082    0.424    0.148  251.139   87.428
  249.000   13.704    0.391    0.125  248.255   83.936
  249.250   12.062    0.313    0.097  253.195   95.414
  249.500   11.215    0.361    0.213  264.496  104.544
  249.750   13.104    0.416    0.231  258.670  107.805
  250.000   15.593    0.429    0.209  256.759  104.020
  250.250   18.220    0.406    0.174  257.307  101.402
  250.500   18.904    0.376    0.153  259.794   98.203
  250.750   18.065    0.361    0.125  261.792   98.818
  251.000   16.644    0.339    0.053  254.498  101.485
  251.250   15.194    0.327    0.122  222.241  112.090
  251.500   14.258    0.378    0.173  223.756  114.170
  251.750   14.132    0.401    0.130  227.723  117.427
  252.000   13.881    0.402    0.113  228.265  122.153
  252.250   14.011    0.390    0.143  226.837  122.771
  252.500   14.538    0.394    0.159  223.458  120.447
  252.750   14.148    0.394    0.165  222.537  121.062
  253.000   13.035    0.391    0.172  222.083  122.561
  253.250   11.473    0.421    0.175  221.640  124.938
  253.500    9.386    0.461    0.194  220.230  127.905
  253.750    8.727    0.484    0.210  219.286  130.282
  254.000    8.189    0.496    0.220  217.870  131.778
  254.250    7.544    0.503    0.226  214.491  127.986
  254.500    7.209    0.474    0.227  210.628  122.438
  254.750    7.212    0.459    0.227  208.228  121.875
  255.000    7.690    0.465    0.224  207.773  123.375
  255.250    8.743    0.474    0.215  207.826  117.233
  255.500    9.582    0.471    0.196  207.878  104.929
  255.750    9.241    0.434    0.130  209.392   98.791
  256.000    8.514    0.367    0.130  210.901  112.035
  256.250    6.654    0.398    0.175  218.777  114.999
  256.500    6.020    0.431    0.196  218.334  117.967
  256.750    5.495    0.510    0.208  214.471  117.998
  257.000    5.109    0.528    0.230  212.555  118.316
  257.250    4.794    0.524    0.233  210.655  115.111
  257.500    4.666    0.507    0.226  210.696  109.853
  257.750    5.208    0.512    0.217  210.748   97.256
  258.000    6.729    0.483    0.193  210.305   89.646
  258.250   10.343    0.456    0.173  210.352   84.389
  258.500   12.308    0.386    0.143  209.903  102.331
  258.750   11.762    0.413    0.170  209.460  108.818
  259.000    9.448    0.435    0.209  208.528  111.492
  259.250    9.893    0.459    0.220  208.085   91.551
  259.500   12.665    0.471    0.224  209.110   83.651
  259.750   16.215    0.482    0.236  211.609   79.275
  260.000   21.534    0.476    0.248  211.166   76.957
  260.250   24.930    0.468    0.266  205.334   75.811
  260.500   36.609    0.452    0.298  200.988   76.422
  260.750   43.562    0.446    0.302  201.524   76.743
  261.000   52.795    0.449    0.297  203.032   71.486
  261.250   62.254    0.466    0.286  205.531   63.297
  261.500   64.003    0.474    0.277  205.578   64.789
  261.750   53.816    0.478    0.270  206.119   68.931
  262.000   36.672    0.478    0.272  206.643   71.891
  262.250   22.600    0.478    0.273  208.647   75.149
  262.500   17.663    0.481    0.271  212.614   76.065
  262.750   18.159    0.493    0.264  216.576   72.269
  263.000   22.620    0.493    0.254  217.606   60.258
  263.250   27.919    0.468    0.253  211.285   49.716
  263.500   31.452    0.453    0.274  204.976   45.637
  263.750   39.178    0.445    0.258  202.570   43.903
  264.000   47.917    0.425    0.269  202.133   42.463
  264.250   53.002    0.419    0.287  203.152   43.074
  264.500   49.730    0.416    0.303  204.672   45.458
  264.750   44.172    0.415    0.287  205.692   46.947
  265.000   37.827    0.415    0.284  208.191   49.617
  265.250   28.246    0.414    0.281  209.705   53.172
  265.500   25.784    0.414    0.272  211.715   55.842
  265.750   25.325    0.419    0.262  213.719   59.103
  266.000   27.758    0.429    0.248  217.190   61.484
  266.250   28.800    0.438    0.263  225.061   62.682
  266.500   26.534    0.459    0.273  228.055   61.829
  266.750   22.311    0.455    0.288  213.409   63.325
  267.000   18.933    0.436    0.298  207.094   68.932
  267.250   16.816    0.430    0.271  204.693   76.300
  267.500   14.666    0.446    0.245  205.719   81.910
  267.750   12.791    0.470    0.229  204.792   83.112
  268.000   12.564    0.512    0.256  220.498   72.570
  268.250   15.507    0.539    0.281  227.395   64.670
  268.500   22.153    0.518    0.302  227.931   61.759
  268.750   61.116    0.498    0.335  227.977   61.790
  269.000   90.564    0.482    0.333  212.854   63.289
  269.250  118.084    0.471    0.332  208.502   70.067
  269.500  131.810    0.452    0.332  208.542   72.444
  269.750  110.836    0.447    0.333  210.057   78.050
  270.000   83.515    0.434    0.327  214.030   82.783
  270.250   62.927    0.451    0.297  215.544   86.918
  270.500   41.721    0.459    0.309  211.676   91.940
  270.750   32.313    0.452    0.294  209.771   93.436
  271.000   34.458    0.439    0.276  208.838   86.414
  271.250   34.468    0.432    0.240  208.384   78.808
  271.500   31.180    0.426    0.243  208.925   79.133
  271.750   24.593    0.429    0.258  208.978   84.739
  272.000   22.247    0.433    0.268  208.039   99.741
  272.250   18.879    0.428    0.243  208.086  102.999
  272.500   18.041    0.418    0.234  207.649  101.856
  272.750   17.558    0.407    0.228  208.190   94.833
