~VERSION INFORMATION
 VERS.                 2.0:   CWLS LOG ASCII STANDARD -VERSION 2.0
 WRAP.                  NO:   ONE LINE PER DEPTH STEP
~WELL INFORMATION BLOCK
#MNEM.UNIT           DATA                    DESCRIPTION OF MNEMONIC
#---------    -------------------            -------------------------------
# Generated from Intellog Unique Number	CW_82_90/WELL/637
WELL.         GULF LIVOCK OV 07-31           : Well_name    - WELL
LOC .         AA/07-31-084-23W4/0            : Location     - LOCATION
UWI .         AA/07-31-084-23W4/0            : Uwi          - UNIQUE WELL ID
ENTR.         JAYE                           : Entered      - ENTERED BY
SRVC.         SCHLUMBERGER                   : Scn          - SERVICE COMPANY
DATE.         9 FEB 82                       : Date         - LOG DATE
STRT.M        150                            : top_depth    - START DEPTH
STOP.M        405                            : bot_depth    - STOP DEPTH
STEP.M        0.25                           : increment    - STEP LENGTH
 NULL. -999.2500:NULL Value
~CURVE INFORMATION BLOCK
#MNEM UNIT       ERCB CURVE CODE    CURVE DESCRIPTION
#-----------   ------------------   ----------------------------------
DEPT.M        00 001 00 00         : DEPTH        - DEPTH
CALI.MM       00 280 01 00         : CAL          - CALIPER
GR  .API      00 310 00 00         : GR           - GAMMA RAY
NPHI.V/V      00 330 00 00         : PHIN         - NEUTRON POROSITY (SANDSTONE)
DPHI.V/V      00 890 00 00         : PHID         - DENSITY POROSITY (SANDSTONE)
ILD .OHMM     00 120 00 00         : RESD         - DEEP RESISTIVITY (DIL)
~PARAMETER INFORMATION
#MNEM.UNIT           DATA             DESCRIPTION OF MNEMONIC
#---------         -----------     ------------------------------
GL  .M        574.7                : gl           - GROUND LEVEL ELEVATION
EREF.M        579.1                : kb           - ELEVATION OF DEPTH REFERENCE
DATM.M        574.7                : datum        - DATUM ELEVATION
TDD .M        410                  : tdd          - TOTAL DEPTH DRILLER
RUN .         ONE                  : Run          - RUN NUMBER
ENG .         GARTH                : Engineer     - RECORDING ENGINEER
WIT .         WALKER               : Witness      - WITNESSED BY
BASE.         EDMONTON             : Branch       - HOME BASE OF LOGGING UNIT
MUD .         GEL                  : Mud_type     - MUD TYPE
MATR.         SANDSTONE            : Logunit      - NEUTRON MATRIX
TMAX.C        26.1                 : BHT          - MAXIMUM RECORDED TEMPERATURE
BHTD.M        410                  : BHTDEP       - MAXIMUM RECORDED TEMPERATURE
RMT .C        15.5                 : MDTP         - TEMPERATURE OF MUD
MUDD.KG/M     1090                 : MWT          - MUD DENSITY
NEUT.         1                    : NEUTRON      - NEUTRON TYPE
RESI.         0                    : RESIST       - RESISTIVITY TYPE
RM  .OHMM     5.77                 : RM           - RESISTIVITY OF MUD
RMC .OHMM     0                    : RMC          - RESISTIVITY OF MUD CAKE
RMF .OHMM     6.87                 : RMF          - RESISTIVITY OF MUD FILTRATE
SUFT.C        0                    : SUFT         - SURFACE TEMPERATURE
~A  DEPTH      CAL       GR     PHIN     PHID     RESD
# ...
  186.500  269.747   68.432    0.429    0.268    9.250
  186.750  271.209   71.670    0.430    0.268    8.160
  187.000  272.045   76.153    0.445    0.274    7.390
  187.250  272.778   76.528    0.469    0.281    6.731
  187.500  273.406   78.894    0.475    0.284    6.259
  187.750  274.035   81.510    0.468    0.277    5.788
  188.000  274.454   84.250    0.460    0.268    5.422
  188.250  274.145   88.422    0.441    0.267    4.774
  188.500  273.940   92.469    0.453    0.277    4.125
  188.750  273.214   95.769    0.509    0.284    3.433
  189.000  272.280   98.322    0.550    0.300    2.928
  189.250  271.554   98.199    0.571    0.303    2.769
  189.500  270.724   92.661    0.605    0.299    2.653
  189.750  269.893   87.435    0.631    0.292    2.630
  190.000  269.168   87.561    0.638    0.292    2.647
  190.250  269.900   89.865    0.626    0.296    2.734
  190.500  268.445   91.734    0.586    0.294    2.894
  190.750  267.615   92.171    0.567    0.289    3.030
  191.000  267.202   93.479    0.563    0.282    3.026
  191.250  266.893   91.178    0.545    0.288    2.977
  191.500  266.687   90.121    0.533    0.289    2.864
  191.750  266.066   92.426    0.563    0.288    2.633
  192.000  265.756   92.676    0.589    0.287    2.533
  192.250  265.239   93.798    0.605    0.280    2.592
  192.500  264.513   97.472    0.585    0.267    2.802
  192.750  264.204   98.096    0.577    0.269    2.949
  193.000  263.478   97.786    0.576    0.278    3.082
  193.250  263.065   95.858    0.561    0.280    3.172
  193.500  262.547   92.436    0.536    0.273    3.402
  193.750  262.133   86.649    0.526    0.264    3.495
  194.000  262.137   86.215    0.563    0.258    3.439
  194.250  262.140   88.208    0.569    0.268    3.351
  194.500  262.351   87.587    0.557    0.273    3.291
  194.750  262.563   88.211    0.554    0.268    3.250
  195.000  263.295   91.013    0.549    0.264    3.150
  195.250  263.299   94.065    0.562    0.260    3.070
  195.500  263.302   92.261    0.573    0.268    3.183
  195.750  263.618   84.545    0.546    0.281    3.613
  196.000  263.308   75.895    0.508    0.273    4.496
  196.250  263.624   67.307    0.484    0.261    5.670
  196.500  265.398   64.010    0.459    0.256    6.447
  196.750  265.922   60.775    0.459    0.263    6.890
  197.000  265.926   48.826    0.486    0.258    7.447
  197.250  265.929   40.238    0.487    0.205    9.444
  197.500  265.515   37.003    0.395    0.123   16.426
  197.750  263.956   38.996    0.430    0.124   23.584
  198.000  263.126   43.790    0.429    0.211   28.805
  198.250  262.504   44.352    0.419    0.292   27.916
  198.500  262.299   43.793    0.437    0.325   26.649
  198.750  262.302   44.915    0.443    0.364   26.123
  199.000  262.410   45.228    0.428    0.352   26.638
  199.250  262.621   45.105    0.418    0.344   27.308
  199.500  263.250   43.861    0.419    0.354   30.361
  199.750  263.357   44.485    0.425    0.358   30.665
  200.000  263.881   44.922    0.448    0.359   30.225
  200.250  264.301   45.422    0.459    0.362   29.849
  200.500  264.513   46.295    0.448    0.364   29.588
  200.750  264.620   47.292    0.451    0.362   27.877
  201.000  264.103   46.671    0.493    0.360   25.486
  201.250  264.105   45.303    0.501    0.360   25.310
  201.500  264.109   44.184    0.507    0.366   26.846
  201.750  264.112   43.128    0.519    0.368   28.476
  202.000  264.220   42.444    0.517    0.368   29.752
  202.250  263.702   42.322    0.488    0.364   30.222
  202.500  263.184   42.448    0.480    0.370   30.698
  202.750  262.876   42.324    0.478    0.380   31.243
  203.000  262.670   40.272    0.471    0.372   31.263
  203.250  262.673   38.469    0.479    0.365   30.875
  203.500  262.573   39.839    0.436    0.357   30.662
  203.750  262.680   40.339    0.433    0.359   30.109
  204.000  262.579   39.344    0.449    0.362   29.510
  204.250  262.686   39.346    0.452    0.360   28.761
  204.500  262.481   41.152    0.482    0.353   26.591
  204.750  262.381   42.398    0.491    0.332   22.466
  205.000  261.967   44.952    0.455    0.290   21.007
  205.250  262.075   45.638    0.420    0.315   20.512
  205.500  261.973   43.399    0.422    0.359   21.272
  205.750  261.768   41.471    0.481    0.367   23.516
  206.000  261.251   40.290    0.496    0.373   25.037
  206.250  262.296   39.669    0.488    0.380   25.819
  206.500  262.403   37.990    0.479    0.379   25.832
  206.750  262.719   38.739    0.472    0.372   25.463
  207.000  262.827   39.424    0.462    0.365   24.355
  207.250  263.350   39.364    0.448    0.360   23.077
  207.500  263.459   39.614    0.446    0.352   21.823
  207.750  263.462   41.358    0.453    0.345   19.654
  208.000  262.839   42.480    0.467    0.342   17.535
  208.250  262.739   43.975    0.466    0.348   15.911
  208.500  262.742   43.168    0.463    0.350   17.328
  208.750  262.745   38.750    0.483    0.346   19.408
  209.000  262.540   36.262    0.496    0.308   23.440
  209.250  262.231   35.267    0.463    0.235   29.723
  209.500  262.234   36.078    0.224    0.041   44.394
  209.750  261.717   37.635    0.309    0.070   43.597
  210.000  261.200   37.201    0.382    0.215   40.307
  210.250  261.306   35.709    0.426    0.324   37.411
  210.500  260.893   35.710    0.443    0.355   35.181
  210.750  260.479   36.521    0.463    0.353   31.866
  211.000  260.483   37.083    0.474    0.355   30.765
  211.250  260.173   38.142    0.471    0.352   29.988
  211.500  259.864   39.389    0.457    0.357   29.721
  211.750  259.555   38.954    0.460    0.351   29.907
  212.000  259.142   37.773    0.472    0.344   31.072
  212.250  258.416   36.903    0.464    0.346   32.223
  212.500  257.898   37.029    0.430    0.354   32.916
  212.750  257.797   38.773    0.426    0.354   32.936
  213.000  257.800   39.273    0.455    0.358   32.958
  213.250  257.804   40.084    0.469    0.360   31.642
  213.500  257.911   40.770    0.449    0.360   28.766
  213.750  258.331   42.514    0.454    0.359   21.465
  214.000  258.438   48.304    0.468    0.356   17.268
  214.250  259.067   56.957    0.474    0.342   10.636
  214.500  260.112   64.365    0.494    0.316    6.020
  214.750  260.636   61.690    0.507    0.271    5.889
  215.000  260.952   56.526    0.508    0.221    8.144
  215.250  260.955   52.170    0.486    0.209   14.902
  215.500  260.646   49.495    0.461    0.236   21.076
  215.750  260.962   47.630    0.438    0.327   25.548
  216.000  261.068   43.772    0.425    0.340   27.981
  216.250  261.592   42.404    0.413    0.337   28.421
  216.500  261.700   47.758    0.419    0.331   21.650
  216.750  261.600   53.611    0.433    0.314   13.336
  217.000  261.603   61.890    0.424    0.298    7.634
  217.250  261.294   70.232    0.481    0.294    6.824
  217.500  260.776   66.125    0.505    0.308   10.231
  217.750  260.260   61.895    0.514    0.316   10.256
  218.000  260.261   63.452    0.546    0.315    9.590
  218.250  260.578   67.499    0.517    0.305    8.850
  218.500  260.580   70.550    0.478    0.293    8.790
  218.750  260.580   69.930    0.474    0.286    8.862
  219.000  261.108   67.690    0.488    0.294    9.311
  219.250  261.215   61.904    0.494    0.300   10.313
  219.500  261.323   58.108    0.521    0.301   13.177
  219.750  261.326   51.263    0.516    0.310   15.793
  220.000  261.433   46.908    0.491    0.322   15.804
  220.250  261.333   50.768    0.472    0.321   14.286
  220.500  261.231   60.355    0.455    0.266    9.399
  220.750  261.339   82.389    0.467    0.229    6.102
  221.000  261.029   92.785    0.509    0.238    3.097
  221.250  260.616   90.359    0.516    0.263    3.122
  221.500  260.411   74.863    0.494    0.266    3.618
  221.750  260.206   66.960    0.478    0.267    7.151
  222.000  259.792   58.994    0.472    0.293   11.821
  222.250  259.275   60.116    0.467    0.325   16.655
  222.500  258.551   58.562    0.452    0.325   22.988
  222.750  257.928   58.439    0.444    0.333   25.748
