~VERSION INFORMATION
 VERS.                 2.0:   CWLS LOG ASCII STANDARD -VERSION 2.0
 WRAP.                  NO:   ONE LINE PER DEPTH STEP
~WELL INFORMATION BLOCK
#MNEM.UNIT           DATA                    DESCRIPTION OF MNEMONIC
#---------    -------------------            -------------------------------
# Generated from Intellog Unique Number	CX_WELLS/WELL/3828
WELL.         ALGOR RIVER                    : Well_name    - WELL
LOC .         AA/04-18-086-15W4/0            : Location     - LOCATION
UWI .         AA/04-18-086-15W400            : Uwi          - UNIQUE WELL ID
ENTR.         T                              : Entered      - ENTERED BY
SRVC.         SCHLUMBERGER                   : Scn          - SERVICE COMPANY
DATE.         03/06/92                       : Date         - LOG DATE
STRT.F        200                            : top_depth    - START DEPTH
STOP.F        779.888                        : bot_depth    - STOP DEPTH
STEP.F        0.82                           : increment    - STEP LENGTH
 NULL. -999.2500:NULL Value
~CURVE INFORMATION BLOCK
#MNEM UNIT       ERCB CURVE CODE    CURVE DESCRIPTION
#-----------   ------------------   ----------------------------------
DEPT.F        00 001 00 00         : DEPTH        - DEPTH
GR  .API      00 310 00 00         : GR           - GAMMA RAY
NPHI.V/V      00 330 00 00         : PHIN         - NEUTRON POROSITY (SANDSTONE)
ILD .OHMM     00 120 00 00         : RESD         - DEEP RESISTIVITY (DIL)
~PARAMETER INFORMATION
#MNEM.UNIT           DATA             DESCRIPTION OF MNEMONIC
#---------         -----------     ------------------------------
GL  .F        1671.9               : gl           - GROUND LEVEL ELEVATION
EREF.F        1671.9               : kb           - ELEVATION OF DEPTH REFERENCE
DATM.F        1671.9               : datum        - DATUM ELEVATION
TDD .F        793                  : tdd          - TOTAL DEPTH DRILLER
RUN .         ONE                  : Run          - RUN NUMBER
ENG .         JO                   : Engineer     - RECORDING ENGINEER
WIT .         TIM                  : Witness      - WITNESSED BY
MUD .         GEL                  : Mud_type     - MUD TYPE
MATR.         SANDSTONE            : Logunit      - NEUTRON MATRIX
TMAX.F        50                   : BHT          - MAXIMUM RECORDED TEMPERATURE
BHTD.F        793                  : BHTDEP       - MAXIMUM RECORDED TEMPERATURE
RMT .F        62                   : MDTP         - TEMPERATURE OF MUD
MUDD.LB/G     9                    : MWT          - MUD DENSITY
NEUT.         1                    : NEUTRON      - NEUTRON TYPE
RESI.         0                    : RESIST       - RESISTIVITY TYPE
RM  .OHMM     7.78                 : RM           - RESISTIVITY OF MUD
RMC .OHMM     7.78                 : RMC          - RESISTIVITY OF MUD CAKE
RMF .OHMM     7.78                 : RMF          - RESISTIVITY OF MUD FILTRATE
SUFT.F        39.2                 : SUFT         - SURFACE TEMPERATURE
~A  DEPTH       GR     PHIN     RESD
# ...
  377.986   43.174    0.365   19.561
  378.806   42.751    0.374   19.088
  379.626   42.798    0.381   18.778
  380.446   42.914    0.384   18.638
  381.266   42.983    0.383   18.831
  382.087   42.514    0.383   19.380
  382.907   42.068    0.383   19.759
  383.727   41.576    0.381   19.619
  384.547   42.793    0.379   19.308
  385.367   43.472    0.374   19.339
  386.188   43.611    0.373   19.199
  387.008   43.658    0.373   18.889
  387.828   43.235    0.377   18.408
  388.648   43.281    0.379   18.105
  389.469   42.812    0.379   17.950
  390.289   44.053    0.379   17.980
  391.109   46.418    0.385   18.026
  391.929   48.221    0.389   17.871
  392.749   48.313    0.395   17.560
  393.570   48.945    0.394   17.258
  394.390   50.139    0.385   17.280
  395.210   52.504    0.380   17.489
  396.030   54.823    0.379   17.527
  396.850   62.810    0.378   17.542
  397.671   60.138    0.378   17.587
  398.491   56.835    0.378   17.440
  399.311   52.992    0.377   16.781
  400.131   50.813    0.380   15.278
  400.951   54.303    0.384   15.990
  401.772   56.082    0.384   17.399
  402.592   54.466    0.382   16.399
  403.412   48.374    0.381   15.229
  404.232   44.579    0.379   15.778
  405.052   45.749    0.376   17.002
  405.873   48.677    0.377   16.862
  406.693   53.290    0.381   16.892
  407.513   55.047    0.382   18.464
  408.333   55.725    0.382   18.502
  409.154   56.357    0.386   15.287
  409.974   58.160    0.392   14.117
  410.794   60.502    0.401   11.073
  411.614   63.429    0.414    9.407
  412.434   66.895    0.423    9.429
  413.255   70.900    0.436    9.289
  414.075   78.887    0.452    8.816
  414.895   86.897    0.465    8.498
  415.715   90.925    0.470    8.018
  416.535   94.930    0.477    8.226
  417.356   96.171    0.481    8.427
  418.176   91.766    0.484    8.465
  418.996   88.486    0.481    8.488
  419.816   86.869    0.476    8.518
  420.636   95.980    0.474    8.726
  421.457  107.926    0.472    8.749
  422.277  110.244    0.471    8.787
  423.097  110.899    0.476    8.825
  423.917  108.744    0.479    8.856
  424.738  108.275    0.485    8.878
  425.558  108.367    0.485    8.901
  426.378  102.839    0.483    9.110
  427.198   95.623    0.485    9.488
  428.018   92.905    0.490    9.519
  428.839   94.685    0.495    9.542
  429.659   99.298    0.495    9.231
  430.479  103.327    0.492    8.921
  431.299  107.378    0.489    8.781
  432.119  107.471    0.482    8.989
  432.940  103.629    0.479    9.523
  433.760   98.639    0.473   10.576
  434.580   89.151    0.467   11.985
  435.400   87.019    0.460   12.860
  436.220   84.840    0.453   14.276
  437.041   79.334    0.442   14.291
  437.861   77.740    0.419   14.507
  438.681   77.787    0.401   14.693
  439.501   78.512    0.391   15.575
  440.322   77.434    0.393   16.636
  441.142   75.864    0.394   17.007
  441.962   74.809    0.395   16.704
  442.782   74.363    0.395   15.890
  443.602   73.894    0.395   15.565
  444.423   72.839    0.397   14.921
  445.243   71.808    0.403   14.603
  446.063   69.675    0.407   13.952
  446.883   68.644    0.409   13.479
  447.703   70.986    0.410   13.168
  448.524   74.991    0.411   13.369
  449.344   81.853    0.405   14.073
  450.164   83.633    0.398   14.282
  450.984   80.961    0.394   14.142
  451.804   79.321    0.387   14.854
  452.625   77.727    0.383   17.270
  453.445   77.844    0.378   17.471
  454.265   77.374    0.378   16.997
  455.085   75.219    0.380   27.778
  455.906   73.040    0.385   26.112
  456.726   70.345    0.384   25.453
  457.546   69.290    0.381   22.068
  458.366   68.821    0.382   15.964
  459.186   68.352    0.388   15.639
  460.007   67.883    0.392   14.817
  460.827   67.413    0.395   14.174
  461.647   66.382    0.395   13.856
  462.467   66.475    0.394   13.716
  463.287   67.130    0.399   14.257
  464.108   68.347    0.401   36.655
  464.928   73.547    0.401   29.692
  465.748   78.676    0.398   25.625
  466.568   87.787    0.390   18.484
  467.388   73.802    0.384   14.928
  468.209   62.628    0.391   15.136
  469.029   55.413    0.400   17.041
  469.849   55.506    0.400   18.272
  470.669   64.617    0.390   17.443
  471.490   70.894    0.381   16.799
  472.310   70.425    0.375   15.629
  473.130   66.020    0.371   14.134
  473.950   62.763    0.373   13.979
  474.770   65.105    0.378   13.683
  475.591   66.861    0.378   13.358
  476.411   70.374    0.378   14.077
  477.231   72.130    0.378   15.982
  478.051   71.122    0.379   17.399
  478.871   68.404    0.382   16.562
  479.692   65.101    0.383   15.562
  480.512   61.282    0.383   14.570
  481.332   60.812    0.384   13.408
  482.152   63.131    0.387   13.105
  482.972   67.159    0.391   12.802
  483.793   67.275    0.395   12.818
  484.613   66.806    0.398   13.196
  485.433   68.586    0.402   13.389
  486.253   66.453    0.400   13.428
  487.073   66.546    0.397   12.792
  487.894   69.989    0.395   12.303
  488.714   72.331    0.395   11.978
  489.534   71.885    0.395   11.667
  490.354   70.291    0.402   11.535
  491.175   82.190    0.411   11.573
  491.995   92.449    0.410   11.952
  492.815   92.542    0.416   12.137
  493.635   92.635    0.423   12.679
  494.455   89.917    0.423   13.220
  495.276   86.614    0.414   14.970
  496.096   82.794    0.401   16.356
  496.916   81.201    0.392   22.706
  497.736   80.146    0.388   22.737
  498.556   77.451    0.374   22.938
  499.377   74.710    0.364   28.777
  500.197   69.743    0.354   32.734
  501.017   65.878    0.334   36.009
  501.837   55.312    0.313   29.557
  502.657   52.548    0.306   21.215
  503.478   47.019    0.317   17.156
  504.298   49.361    0.325   20.935
  505.118   59.034    0.334   20.454
  505.938   65.335    0.341   14.684
  506.759   66.552    0.344   14.203
  507.579   63.834    0.354   15.426
  508.399   60.554    0.362   19.221
  509.219   59.522    0.363   22.148
  510.039   61.864    0.356   22.519
  510.860   63.644    0.347   21.868
  511.680   59.239    0.333   18.831
  512.500   55.959    0.324   18.528
  513.320   57.200    0.322   19.403
  514.140   57.292    0.306   20.626
  514.961   54.551    0.257   48.663
  515.781   49.584    0.212   53.472
  516.601   45.157    0.183   53.672
  517.421   45.812    0.172   44.827
  518.241   53.822    0.199   34.448
  519.062   56.703    0.227   17.741
  519.882   61.316    0.274   17.772
  520.702   63.096    0.302   17.291
  521.522   64.337    0.311   15.114
  522.343   65.531    0.342   16.508
  523.163   66.771    0.355   20.116
  523.983   67.403    0.371   21.006
  524.803   68.667    0.383   20.185
  525.623   69.322    0.366   19.526
  526.444   69.954    0.369   18.364
  527.264   72.881    0.372   15.490
  528.084   72.951    0.377   13.646
  528.904   63.487    0.383   12.328
  529.724   59.082    0.389   12.173
  530.545   59.152    0.390   12.381
  531.365   64.890    0.381   12.241
  532.185   75.711    0.375   12.272
  533.005   77.491    0.380   12.310
  533.825   78.685    0.389   12.325
  534.646   81.635    0.395   12.533
  535.466   80.041    0.405   12.564
  536.286   79.572    0.406   12.594
  537.106   79.103    0.397   12.632
  537.927   76.924    0.400   12.833
  538.747   74.183    0.404   13.041
  539.567   70.364    0.410   12.886
  540.387   68.770    0.416   12.917
  541.207   77.858    0.415   13.117
  542.028   84.744    0.399   14.178
  542.848   86.523    0.386   15.579
  543.668   85.492    0.389   16.121
  544.488   82.212    0.390   16.329
  545.308   79.447    0.390   16.522
  546.129   77.854    0.390   16.893
  546.949   85.841    0.388   16.761
  547.769   88.206    0.389   16.280
  548.589   86.027    0.390   16.644
  549.409   86.705    0.393   18.378
  550.230   86.236    0.394   18.935
  551.050   83.518    0.391   19.306
  551.870   80.214    0.382   20.026
  552.690   76.934    0.373   20.552
  553.510   72.553    0.359   31.340
  554.331   70.397    0.345   58.688
  555.151   67.679    0.280   50.524
