~VERSION INFORMATION
 VERS.                 2.0:   CWLS LOG ASCII STANDARD -VERSION 2.0
 WRAP.                  NO:   ONE LINE PER DEPTH STEP
~WELL INFORMATION BLOCK
#MNEM.UNIT           DATA                    DESCRIPTION OF MNEMONIC
#---------    -------------------            -------------------------------
# Generated from Intellog Unique Number	CX_WELLS/WELL/3736
WELL.         AMOCO GREGOIRE                 : Well_name    - WELL
LOC .         AA/08-08-086-08W4/0            : Location     - LOCATION
UWI .         AA/08-08-086-08W400            : Uwi          - UNIQUE WELL ID
ENTR.         T                              : Entered      - ENTERED BY
SRVC.         SCHLUMBERGER                   : Scn          - SERVICE COMPANY
STRT.F        150                            : top_depth    - START DEPTH
STOP.F        860.302                        : bot_depth    - STOP DEPTH
STEP.F        0.82                           : increment    - STEP LENGTH
 NULL. -999.2500:NULL Value
~CURVE INFORMATION BLOCK
#MNEM UNIT       ERCB CURVE CODE    CURVE DESCRIPTION
#-----------   ------------------   ----------------------------------
DEPT.F        00 001 00 00         : DEPTH        - DEPTH
GR  .API      00 310 00 00         : GR           - GAMMA RAY
DPHI.V/V      00 890 00 00         : PHID         - DENSITY POROSITY (SANDSTONE)
ILD .OHMM     00 120 00 00         : RESD         - DEEP RESISTIVITY (DIL)
~PARAMETER INFORMATION
#MNEM.UNIT           DATA             DESCRIPTION OF MNEMONIC
#---------         -----------     ------------------------------
GL  .F        1621                 : gl           - GROUND LEVEL ELEVATION
EREF.F        1625                 : kb           - ELEVATION OF DEPTH REFERENCE
DATM.F        1625                 : datum        - DATUM ELEVATION
TDD .F        884                  : tdd          - TOTAL DEPTH DRILLER
RUN .         ONE                  : Run          - RUN NUMBER
ENG .         BILL                 : Engineer     - RECORDING ENGINEER
WIT .         JIM                  : Witness      - WITNESSED BY
MUD .         GEL                  : Mud_type     - MUD TYPE
MATR.         SANDSTONE            : Logunit      - NEUTRON MATRIX
TMAX.F        64.4                 : BHT          - MAXIMUM RECORDED TEMPERATURE
BHTD.F        882                  : BHTDEP       - MAXIMUM RECORDED TEMPERATURE
MATR.         1                    : LOGUNIT      - NEUTRON MATRIX
RMT .F        54.5                 : MDTP         - TEMPERATURE OF MUD
NEUT.         1                    : NEUTRON      - NEUTRON TYPE
RESI.         4.2                  : RESIST       - RESISTIVITY TYPE
RMC .OHMM     2                    : RMC          - RESISTIVITY OF MUD CAKE
RMF .OHMM     3.9                  : RMF          - RESISTIVITY OF MUD FILTRATE
SUFT.F        39.2                 : SUFT         - SURFACE TEMPERATURE
~A  DEPTH       GR     PHID     RESD
# ...
  683.957   63.131    0.291   61.601
  684.777   65.106    0.286   59.791
  685.597   67.733    0.285   58.184
  686.417   72.316    0.281   56.172
  687.238   75.595    0.275   54.363
  688.058   79.526    0.274   52.352
  688.878   82.153    0.272   50.341
  689.698   84.128    0.267   42.886
  690.518   85.455    0.263   31.803
  691.339   85.483    0.260   28.986
  692.159   84.840    0.255   27.581
  692.979   83.553    0.254   28.996
  693.799   81.615    0.264   33.639
  694.619   80.334    0.275   39.289
  695.440   79.700    0.279   42.922
  696.260   77.110    0.276   43.734
  697.080   73.863    0.272   43.739
  697.900   73.886    0.274   47.374
  698.720   75.861    0.275   53.427
  699.541   79.796    0.274   39.320
  700.361   81.114    0.271   27.026
  701.181   68.094    0.270   35.297
  702.001   64.195    0.270   40.344
  702.822   58.996    0.272   44.380
  703.642   55.758    0.272   52.651
  704.462   63.598    0.273   38.745
  705.282   72.094    0.270   29.073
  706.102   84.508    0.262   24.239
  706.923   90.395    0.253   21.623
  707.743   96.935    0.239   20.823
  708.563  103.475    0.234   20.024
  709.383  111.323    0.238   19.825
  710.203  111.342    0.244   19.227
  711.024  110.708    0.249   19.231
  711.844  108.118    0.259   20.243
  712.664   99.658    0.263   24.482
  713.484   87.286    0.272   32.350
  714.304   82.739    0.279   43.847
  715.125   87.979    0.289   55.143
  715.945   91.254    0.292   51.720
  716.765   95.185    0.288   51.524
  717.585   97.159    0.286   52.134
  718.406   97.834    0.282   51.937
  719.226   98.510    0.283   51.740
  720.046   93.967    0.287   51.142
  720.866   92.672    0.287   50.542
  721.686   89.430    0.286   49.740
  722.507   87.492    0.288   47.729
  723.327   83.606    0.292   47.938
  724.147   82.963    0.299   48.142
  724.967   81.030    0.303   49.158
  725.787   79.744    0.305   49.564
  726.608   79.105    0.308   50.577
  727.428   78.481    0.309   51.794
  728.248   79.803    0.308   51.395
  729.068   81.121    0.306   51.399
  729.888   85.052    0.305   51.606
  730.709   89.636    0.303   52.215
  731.529   96.176    0.299   53.028
  732.349  100.759    0.294   53.235
  733.169  102.086    0.293   52.835
  733.990  102.104    0.291   52.844
  734.810  102.775    0.293   53.049
  735.630  101.489    0.294   53.457
  736.450   97.594    0.299   52.857
  737.270   90.439    0.305   52.259
  738.091   85.897    0.313   52.062
  738.911   87.215    0.318   52.065
  739.731   90.494    0.319   51.868
  740.551   94.430    0.320   52.681
  741.371   99.018    0.317   55.105
  742.192  102.292    0.310   60.352
  743.012  106.875    0.304   72.656
  743.832  105.594    0.302   78.910
  744.652   91.274    0.305   86.576
  745.472   81.501    0.308   92.833
  746.293   78.911    0.310   92.838
  747.113   67.843    0.308   92.843
  747.933   57.422    0.306   92.848
  748.753   53.528    0.303   92.853
  749.573   47.677    0.303   92.857
  750.394   39.869    0.301   92.055
  751.214   39.892    0.299   87.827
  752.034   46.437    0.300   76.945
  752.854   48.407    0.294   63.644
  753.675   47.773    0.287   85.222
  754.495   49.748    0.288   91.880
  755.315   51.727    0.292   93.498
  756.135   49.137    0.294   90.478
  756.955   48.498    0.292   81.411
  757.776   52.429    0.283   72.749
  758.596   69.408    0.269   67.107
  759.416   85.078    0.243   55.016
  760.236   94.878    0.212   44.536
  761.056   96.210    0.203   22.768
  761.877   94.915    0.209   27.613
  762.697   92.981    0.215   27.820
  763.517   90.396    0.221   28.228
  764.337   89.114    0.229   28.636
  765.157   87.819    0.236   29.044
  765.978   85.881    0.242   29.857
  766.798   81.987    0.248   30.265
  767.618   80.048    0.256   30.068
  768.438   78.763    0.265   31.081
  769.259   78.781    0.268   32.699
  770.079   81.408    0.269   34.720
  770.899   86.000    0.268   33.314
  771.719   88.622    0.266   31.302
  772.539   87.989    0.262   29.896
  773.360   88.659    0.258   27.885
  774.180   91.938    0.252   23.858
  775.000   95.874    0.245   21.645
  775.820   98.501    0.238   19.837
  776.640  104.388    0.221   18.633
  777.461  110.928    0.200   18.031
  778.281  118.772    0.183   16.424
  779.101  125.312    0.169   15.019
  779.921  128.591    0.172   14.823
  780.741  123.397    0.188   14.827
  781.562  119.497    0.197   15.238
  782.382  114.299    0.201   15.443
  783.202  109.752    0.202   15.648
  784.022  107.175    0.200   16.056
  784.843  108.489    0.195   16.466
  785.663  111.768    0.192   16.473
  786.483  113.747    0.188   16.476
  787.303  115.070    0.178   15.677
  788.123  118.349    0.167   15.277
  788.944  124.884    0.153   15.079
  789.764  129.476    0.150   14.884
  790.584  131.451    0.152   14.889
  791.404  133.426    0.152   15.098
  792.224  133.440    0.151   15.102
  793.045  134.762    0.153   15.108
  793.865  137.389    0.153   14.910
  794.685  139.364    0.154   14.915
  795.505  138.078    0.154   14.718
  796.325  134.840    0.155   14.722
  797.146  132.254    0.157   14.525
  797.966  130.964    0.159   14.331
  798.786  128.378    0.167   14.336
  799.606  122.523    0.175   14.541
  800.427  106.889    0.191   15.555
  801.247   74.953    0.209   18.382
  802.067   63.233    0.223   26.855
  802.887   58.690    0.239   23.030
  803.707   57.404    0.253   21.019
  804.528   60.679    0.260   17.193
  805.348   75.044    0.252   15.989
  806.168   80.932    0.243   14.785
  806.988   98.563    0.233   14.790
  807.808  110.972    0.209   14.796
  808.629  117.516    0.186   14.800
  809.449  112.965    0.192   14.403
  810.269  105.157    0.197   14.204
  811.089   98.654    0.202   13.605
  811.909  102.585    0.197   13.813
  812.730  107.825    0.192   14.422
  813.550  107.848    0.191   15.031
  814.370  105.263    0.189   15.441
  815.190  103.315    0.188   15.646
  816.010   99.421    0.187   15.853
  816.831   94.874    0.185   15.859
  817.651   89.675    0.183   16.068
  818.471   83.834    0.188   16.273
  819.291   81.234    0.197   16.479
  820.112   77.992    0.206   16.887
  820.932   74.102    0.221   17.497
  821.752   72.159    0.233   23.148
  822.572   69.569    0.240   25.773
  823.392   65.688    0.247   27.796
  824.213   64.397    0.251   28.606
  825.033   63.759    0.249   29.015
  825.853   63.782    0.246   27.809
  826.673   65.105    0.239   26.605
  827.493   69.036    0.236   24.393
  828.314   72.310    0.236   21.979
  829.134   78.198    0.239   18.960
  829.954   89.959    0.237   16.345
  830.774   99.760    0.225   15.745
  831.594  109.560    0.210   15.146
  832.415  110.883    0.205   14.949
  833.235  109.597    0.193   14.953
  834.055  108.963    0.188   15.967
  834.875  108.334    0.186   16.777
  835.696  107.700    0.187   17.188
  836.516  103.810    0.189   17.193
  837.336  101.220    0.189   17.198
  838.156   99.281    0.188   17.201
  838.976   99.295    0.186   17.207
  839.797   99.314    0.182   17.414
  840.617  100.636    0.180   17.621
  841.437   98.046    0.185   18.230
  842.257   90.238    0.197   23.679
  843.077   75.257    0.215   54.732
  843.898   53.103    0.236   64.212
  844.718   47.904    0.249   66.034
  845.538   38.140    0.260   66.039
  846.358   29.029    0.268   66.044
  847.178   24.486    0.281   66.249
  847.999   25.157    0.291   66.457
  848.819   27.788    0.290   65.251
  849.639   33.024    0.288   63.845
  850.459   38.907    0.290   63.043
  851.280   50.664    0.290   24.541
  852.100   65.681    0.288   13.055
  852.920   73.530    0.285   11.245
  853.740   69.640    0.275   12.258
  854.560   66.393    0.238   14.280
  855.381   62.503    0.197   16.704
  856.201   59.908    0.156   20.943
  857.021   54.714    0.072   22.359
  857.841   51.467    0.026   23.777
  858.661   46.273    0.008   24.385
  859.482   44.982    0.006   26.407
  860.302   42.396    0.004   29.436
