~Version : LASO    vs 4.00 - DATA COPYRIGHT - RILEYS DATASHARE INTERNATIONAL
 VERS.                2.0 :   CWLS Log ASCII Standard -VERSION 2.0
 WRAP.                 NO :   One line per depth step
~Well Information Block
#MNEM.UNIT       Data                        Description of Mnemonic
#----.----      -------------------------- : -----------------------------
 STRT.M             0.0000                 : Start Depth
 STOP.M           204.7500                 : End Depth
 STEP.M             0.1250                 : Depth Increment
 NULL.           -999.25                   : NULL Value
 COMP.                                     : COMPANY
 WELL.    MOBIL CLARKE OV 7-25             : WELL NAME
 FLD .    WILDCAT                          : FIELD NAME
 LOC .    07-25-090-08W4                   : WELL LOCATION
 PROV.    ALBERTA                          : PROVINCE
 SRVC.    DRESSER ATLAS                    : LOGGING SERVICE COMPANY
 DATE.    19-FEB-81                        : DATE LOGGED
 UWI .    AA/07-25-090-08W400              : UNIQUE WELL ID
~Curve Information Block
#MNEM.UNIT        API CODE                   Curve Description
#----.----      LG--CV-CL--M               : -----------------
 DEPT.M          0   1  0  0               : 1 DEPTH
 DT  .US/M      60 520 42  1               : 2 SONIC INTERVAL TRANSIT TIME (COMPENSATED)
 CALI.MM        42 280  1  1               : 3 DENSITY CALIPER
 GR  .GAPI      42 310  1  1               : 4 GAMMA RAY
 NPHI.V/V       42 890  3  1               : 5 NEUTRON POROSITY (SANDSTONE)
 RHOB.K/M3      42 350  1  1               : 6 BULK DENSITY
 IL  .OHMM       5 120 45  1               : 7 INDUCTION
 SFL .OHMM       5 220  6  1               : 8 FOCUSSED RESISTIVITY
 SP  .MV         5  10  1  1               : 9 SPONTANEOUS POTENTIAL
~Parameter Information Block
#MNEM.UNIT       Data                        Description of Mnemonic
#----.----      -------------------------- : -----------------------------
 RUN .                   1                 : Run Number
 GL  .M           449.0000                 : Ground Level Elevation
 DREF.                  KB                 : Depth Reference
 EREF.M           449.0000                 : Elevation of Depth Reference
 TDL .M           202.0000                 : Total Depth Logger
 TDD .M           205.0000                 : Total Depth Driller
 BHT .DEGC         20.0000                 : Bottom Hole Temperature
 BS  .MM          159.0000                 : Bit Size
 DFD .           9999.0000                 : Mud Weight (Density)
 DFV .            150.0000                 : Mud Viscosity
 RM  .OHMM          4.1000                 : Mud Resistivity
 RMT .DEGC         20.0000                 : Mud Resistivity Temperature
 RMF .OHMM          3.9000                 : Mud Filtrate Resistivity
 RMFT.DEGC          8.0000                 : RMF Temperature
 RMC .OHMM          7.8000                 : Mud Cake Resistivity
 RMCT.DEGC          8.0000                 : RMC Temperature
~Asc DEPTH      DT         CALI       GR         NPHI       RHOB       IL         SFL        SP   
# ...
   30.3750   465.6400   196.2500    67.9500     0.2794  2037.6000    24.7350    25.6100  -131.5800
   30.5000   474.9600   203.9000    76.2450     0.2820  2147.2000    24.0600    30.8200  -130.2900
   30.6250   495.8400   189.8250    80.4900     0.2824  2163.8000    23.4450    36.1500  -129.0000
   30.7500   499.2800   179.7000    86.5650     0.2824  2168.7000    23.0750    31.4950  -125.8500
   30.8750   499.7600   172.6500    96.1500     0.2725  2198.1001    22.7700    24.9350  -122.8800
   31.0000   493.8800   171.1250   102.7800     0.2702  2258.8000    22.4650    22.4850  -121.3950
   31.1250   501.9600   168.3750   107.5800     0.2794  2296.8000    22.0950    22.7900  -120.1050
   31.2500   523.1200   166.8500   103.3350     0.2930  2268.6001    21.9700    22.9750  -120.8400
   31.3750   512.5600   166.5250    90.4350     0.3047  2233.6001    22.0350    23.5900  -122.3250
   31.5000   477.4000   174.5000    71.2650     0.3059  2215.8999    22.1550    23.8350  -123.8100
   31.6250   460.4800   182.7750    64.0800     0.3070  2216.5000    22.4000    23.6500  -125.2950
   31.7500   475.4400   186.4500    63.5250     0.3062  2213.3999    22.7700    23.5900  -122.5050
   31.8750   508.1200   188.2750    64.2750     0.3059  2210.3999    23.0750    23.7100  -120.1050
   32.0000   553.0800   188.6000    63.1650     0.3062  2213.3999    23.2600    24.8750  -118.6200
   32.1250   477.4000   186.7500    62.4300     0.3059  2211.6001    23.2600    26.8950  -118.4400
   32.2500   452.3600   182.1500    63.5250     0.3044  2206.7000    23.2000    28.7950  -118.9950
   32.3750   457.2800   180.3250    62.6100     0.2952  2206.7000    23.0750    29.6550  -120.1050
   32.5000   462.6800   179.7000    61.5000     0.2956  2226.3000    22.7100    28.1850  -122.7000
   32.6250   473.2400   179.4000    60.7650     0.3011  2252.6001    22.0350    25.6100  -128.4300
   32.7500   478.8800   179.4000    60.7650     0.3059  2283.3000    21.3600    24.0800  -134.9250
   32.8750   489.4400   179.7000    61.6950     0.3151  2286.3000    20.8050    23.4050  -135.8400
   33.0000   512.5600   179.7000    62.2350     0.3198  2274.1001    20.1950    22.9750  -135.8400
   33.1250   572.7600   179.7000    63.7200     0.3205  2253.3000    19.3950    22.5450  -135.6600
   33.2500   580.3600   179.7000    65.7450     0.3250  2236.1001    18.9050    21.8750  -135.4800
   33.3750   584.5200   178.4750    66.4800     0.3316  2217.7000    18.5350    21.4450  -135.4800
   33.5000   577.9200   175.4250    66.6600     0.3345  2200.0000    18.0450    20.6450  -135.6600
   33.6250   551.3600   173.5750    66.3000     0.3392  2185.2000    17.6150    19.7300  -135.6600
   33.7500   530.4800   175.4250    66.1050     0.3444  2180.3000    17.4300    19.6650  -135.6600
   33.8750   524.0800   177.2500    67.2150     0.3411  2196.8999    17.4950    20.0950  -135.4800
   34.0000   521.4000   179.4000    66.6600     0.3404  2218.3000    17.9250    20.0350  -135.4800
   34.1250   511.0800   179.1000    67.9500     0.3404  2226.3000    18.4750    18.5650  -135.2850
   34.2500   504.6800   179.1000    69.4350     0.3356  2207.3000    19.0900    16.9700  -135.4800
   34.3750   503.9200   179.7000    69.6150     0.3158  2203.0000    19.6400    16.7250  -135.6600
   34.5000   502.9200   182.1500    70.9050     0.3113  2204.8000    20.1950    18.1950  -135.8400
   34.6250   502.4400   183.7000    70.1700     0.3022  2210.3999    20.6850    20.8300  -136.0350
   34.7500   493.1600   184.0000    68.1450     0.2933  2222.6001    21.2350    24.3850  -136.2150
   34.8750   470.8000   183.0750    67.0350     0.2776  2244.1001    21.9100    28.2450  -136.5900
   35.0000   461.2000   183.0750    63.7200     0.2666  2277.2000    22.5250    30.6950  -136.7700
   35.1250   489.4400   183.7000    60.0300     0.2578  2322.5000    23.0750    30.0200  -136.5900
   35.2500   478.6400   183.3750    55.6050     0.2512  2366.6001    23.5650    29.2850  -136.3950
   35.3750   470.5200   183.3750    53.7600     0.2471  2385.0000    23.8150    27.7550  -136.2150
   35.5000   502.4400   183.3750    51.9150     0.2512  2391.1001    23.8750    26.2250  -136.2150
   35.6250   585.2800   183.3750    49.8900     0.2563  2386.8000    23.6300    24.6300  -136.2150
   35.7500   551.6000   183.0750    50.0850     0.2596  2380.7000    23.5650    24.1400  -136.2150
   35.8750   515.7600   183.0750    51.3750     0.2636  2366.0000    23.1400    24.3250  -136.0350
   36.0000   494.8400   183.0750    52.2900     0.2625  2356.2000    22.6450    25.5500  -136.2150
   36.1250   484.8000   183.7000    53.9550     0.2625  2355.6001    22.2800    26.9600  -136.2150
   36.2500   513.0400   184.0000    55.2450     0.2636  2360.5000    22.0350    28.1250  -136.2150
   36.3750   512.0400   184.9250    54.8700     0.2629  2366.0000    22.0950    27.4500  -136.2150
   36.5000   490.9200   186.1500    54.4950     0.2592  2369.7000    22.4000    26.0400  -136.0350
   36.6250   470.5200   186.4500    52.8450     0.2596  2375.2000    22.6450    24.5050  -135.8400
   36.7500   472.7600   186.7500    52.6650     0.2578  2377.0000    23.0750    23.4650  -135.6600
   36.8750   485.5200   187.0500    51.7350     0.2541  2374.0000    23.3200    23.4650  -135.8400
   37.0000   506.6400   188.2750    50.4450     0.2533  2373.3999    23.6900    24.6900  -136.2150
   37.1250   458.4800   191.0500    51.1800     0.2519  2373.3999    23.9950    26.7750  -136.5900
   37.2500   435.1600   187.9750    52.1100     0.2489  2370.8999    24.3650    29.3500  -136.9650
   37.3750   428.2800   184.0000    51.7350     0.2390  2367.8000    24.8550    31.6750  -137.5200
   37.5000   420.1600   183.7000    51.0000     0.2354  2367.2000    25.2850    33.2700  -137.8800
   37.6250   421.8800   183.3750    48.6000     0.2335  2362.8999    25.9000    33.5150  -138.0750
   37.7500   426.5600   183.0750    45.2850     0.2313  2358.6001    26.2650    33.3300  -138.4350
   37.8750   436.6400   183.3750    43.2600     0.2339  2355.0000    26.6950    33.1450  -138.8100
   38.0000   451.8800   186.1500    41.7900     0.2328  2349.5000    26.9400    32.3500  -139.1850
   38.1250   498.2800   187.9750    40.6800     0.2346  2337.2000    26.7550    31.5550  -139.5450
   38.2500   513.5200   188.2750    40.6800     0.2398  2314.5000    27.3100    30.8800  -139.9200
   38.3750   529.5200   188.9000    41.9700     0.2460  2290.0000    27.6800    30.5100  -140.1000
   38.5000   523.3600   189.2000    43.4400     0.2493  2255.1001    27.6150    29.2850  -140.1000
   38.6250   490.4400   189.2000    44.3700     0.2545  2219.6001    27.6150    29.1050  -139.7400
   38.7500   451.1200   188.2750    45.4800     0.2526  2163.2000    27.8600    30.0850  -139.5450
   38.8750   427.2800   188.2750    46.2150     0.2467  2123.3999    28.6600    31.6150  -139.3650
   39.0000   408.3600   188.2750    46.3950     0.2434  2106.2000    27.9250    32.9000  -139.1850
   39.1250   395.1200   187.3750    45.2850     0.2372  2123.3999    26.8800    32.7800  -138.8100
   39.2500   395.3600   185.2250    44.7300     0.2284  2218.3000    27.0650    32.3500  -138.6300
   39.3750   397.0800   184.3000    44.5500     0.2236  2343.8999    26.8200    31.8000  -138.4350
   39.5000   400.5200   183.3750    45.4800     0.2221  2391.1001    26.2650    30.3900  -138.2550
   39.6250   418.9200   182.7750    45.4800     0.2210  2394.2000    25.5300    29.4700  -138.0750
   39.7500   439.3200   185.2250    46.2150     0.2214  2396.6001    25.6550    29.4700  -138.0750
   39.8750   473.0000   186.1500    48.0600     0.2295  2398.5000    26.3900    30.2050  -138.0750
   40.0000   488.4800   185.8250    48.4200     0.2302  2398.5000    25.1600    30.4500  -138.0750
   40.1250   414.2800   185.5250    47.8650     0.2317  2402.2000    24.1800    30.6950  -137.8800
   40.2500   409.3600   185.2250    46.2150     0.2320  2400.8999    23.4450    31.0650  -137.7000
   40.3750   407.8800   185.5250    46.5750     0.2372  2397.2000    22.0350    31.2500  -137.5200
