~VERSION INFORMATION
 VERS.                 2.0:   CWLS LOG ASCII STANDARD -VERSION 2.0
 WRAP.                  NO:   ONE LINE PER DEPTH STEP
~WELL INFORMATION BLOCK
#MNEM.UNIT           DATA                    DESCRIPTION OF MNEMONIC
#---------    -------------------            -------------------------------
# Generated from Intellog Unique Number	CN_94_101/WELL/2710
WELL.         01-29-094-12W4                 : Well_name    - WELL
LOC .         AA/01-29-094-12W4/0            : Location     - LOCATION
UWI .         AA/01-29-094-12W400            : Uwi          - UNIQUE WELL ID
ENTR.         JOETTE                         : Entered      - ENTERED BY
SRVC.         SCHLUMBERGER                   : Scn          - SERVICE COMPANY
DATE.         06/19/92                       : Date         - LOG DATE
STRT.F        30                             : top_depth    - START DEPTH
STOP.F        323.635                        : bot_depth    - STOP DEPTH
STEP.F        0.8202                         : increment    - STEP LENGTH
 NULL. -999.2500:NULL Value
~CURVE INFORMATION BLOCK
#MNEM UNIT       ERCB CURVE CODE    CURVE DESCRIPTION
#-----------   ------------------   ----------------------------------
DEPT.F        00 001 00 00         : DEPTH        - DEPTH
GR  .API      00 310 00 00         : GR           - GAMMA RAY
NPHI.V/V      00 330 00 00         : PHIN         - NEUTRON POROSITY (SANDSTONE)
DPHI.V/V      00 890 00 00         : PHID         - DENSITY POROSITY (SANDSTONE)
ILD .OHMM     00 120 00 00         : RESD         - DEEP RESISTIVITY (DIL)
~PARAMETER INFORMATION
#MNEM.UNIT           DATA             DESCRIPTION OF MNEMONIC
#---------         -----------     ------------------------------
GL  .M        339.852              : gl           - GROUND LEVEL ELEVATION
EREF.M        339.852              : kb           - ELEVATION OF DEPTH REFERENCE
DATM.M        339.852              : datum        - DATUM ELEVATION
TDD .M        101.498              : tdd          - TOTAL DEPTH DRILLER
RUN .         ONE                  : Run          - RUN NUMBER
ENG .         BILL                 : Engineer     - RECORDING ENGINEER
WIT .         JIM                  : Witness      - WITNESSED BY
MUD .         GEL                  : Mud_type     - MUD TYPE
MATR.         SANDSTONE            : Logunit      - NEUTRON MATRIX
TMAX.F        50                   : BHT          - MAXIMUM RECORDED TEMPERATURE
BHTD.F        333                  : BHTDEP       - MAXIMUM RECORDED TEMPERATURE
RMT .F        50                   : MDTP         - TEMPERATURE OF MUD
MUDD.LB/G     1.1                  : MWT          - MUD DENSITY
NEUT.         1                    : NEUTRON      - NEUTRON TYPE
RESI.         0                    : RESIST       - RESISTIVITY TYPE
RM  .OHMM     6.5                  : RM           - RESISTIVITY OF MUD
RMC .OHMM     6.5                  : RMC          - RESISTIVITY OF MUD CAKE
RMF .OHMM     6.5                  : RMF          - RESISTIVITY OF MUD FILTRATE
SUFT.F        4                    : SUFT         - SURFACE TEMPERATURE
~A  DEPTH       GR     PHIN     PHID     RESD
# ...
  172.717   59.363    0.384    0.305   29.886
  173.537   55.632    0.396    0.294   36.025
  174.357   56.576    0.386    0.281   30.587
  175.177   59.173    0.373    0.276   17.004
  175.997   63.078    0.373    0.267   18.031
  176.818   63.599    0.391    0.268   18.416
  177.638   63.657    0.398    0.291   17.811
  178.458   62.042    0.403    0.297   18.529
  179.278   58.312    0.396    0.302   20.372
  180.098   56.697    0.390    0.304   20.807
  180.919   58.467    0.389    0.313   22.048
  181.739   58.545    0.388    0.311   21.705
  182.559   56.084    0.391    0.297   20.977
  183.379   54.892    0.399    0.291   20.288
  184.199   56.239    0.395    0.293   20.343
  185.020   56.317    0.386    0.304   20.027
  185.840   53.856    0.364    0.309   20.849
  186.660   47.587    0.360    0.309   23.332
  187.480   43.433    0.356    0.294   30.274
  188.301   45.223    0.354    0.286   26.199
  189.121   48.243    0.352    0.266   23.960
  189.941   52.994    0.358    0.254  115.138
  190.761   60.304    0.359    0.232  190.056
  191.581   62.478    0.324    0.149   39.015
  192.402   69.788    0.258    0.079   24.690
  193.222   69.423    0.351    0.025   53.682
  194.042   60.173    0.386    0.107   69.703
  194.862   56.865    0.384    0.179   51.110
  195.682   58.232    0.351    0.285   90.752
  196.503   63.387    0.349    0.286   84.539
  197.323   68.139    0.358    0.293   70.467
  198.143   70.352    0.352    0.274   48.894
  198.963   69.583    0.348    0.263   37.861
  199.783   67.526    0.371    0.274   77.949
  200.604   71.412    0.361    0.300   73.962
  201.424   82.107    0.360    0.287   47.642
  202.244   78.799    0.390    0.282   30.710
  203.064   75.896    0.398    0.290   49.734
  203.885   70.049    0.379    0.290   49.869
  204.705   66.338    0.356    0.282   39.361
  205.525   64.262    0.353    0.290   50.176
  206.345   56.300    0.351    0.288   49.362
  207.165   60.609    0.358    0.290  103.514
  207.986   72.996    0.372    0.301  167.638
  208.806   77.305    0.373    0.306   91.495
  209.626   87.597    0.366    0.316  100.591
  210.446   89.347    0.369    0.302   60.195
  211.266   92.387    0.360    0.290   35.389
  212.087   96.312    0.341    0.282   22.780
  212.907   92.985    0.346    0.263   54.342
  213.727   88.812    0.362    0.248   43.689
  214.547   82.120    0.382    0.254   65.730
  215.367   76.677    0.376    0.280   79.233
  216.188   80.602    0.377    0.313   90.439
  217.008   83.622    0.372    0.325   54.120
  217.828   83.700    0.380    0.321   65.238
  218.648   78.277    0.397    0.329   70.511
  219.469   72.411    0.427    0.324   76.055
  220.289   71.220    0.404    0.321   95.118
  221.109   75.125    0.406    0.330   76.471
  221.929   77.318    0.408    0.323   73.908
  222.749   82.936    0.399    0.324   78.371
  223.570   86.822    0.393    0.328   87.764
  224.390   91.150    0.384    0.324   61.984
  225.210   91.632    0.379    0.309   51.702
  226.030   90.017    0.384    0.299   53.824
  226.850   91.403    0.377    0.293   38.014
  227.671   92.307    0.370    0.286   43.361
  228.491   89.000    0.369    0.287   39.683
  229.311   85.250    0.374    0.276   47.802
  230.131   82.385    0.375    0.266   77.414
  230.951   83.713    0.372    0.293   32.673
  231.772   86.349    0.360    0.315   36.565
  232.592   86.850    0.360    0.314   39.466
  233.412   85.658    0.373    0.304   44.226
  234.232   84.466    0.375    0.311   57.386
  235.052   81.582    0.385    0.308   81.698
  235.873   82.506    0.373    0.299   30.833
  236.693   87.258    0.353    0.297   28.198
  237.513   89.028    0.361    0.280   43.212
  238.333   85.721    0.363    0.288   43.360
  239.154   88.337    0.370    0.285   34.200
  239.974   93.935    0.394    0.279   30.728
  240.794   97.841    0.381    0.282   45.386
  241.614   95.399    0.379    0.270   51.735
  242.434   93.745    0.366    0.276   73.653
  243.255   90.438    0.350    0.278   79.498
  244.075   87.554    0.343    0.267   48.490
  244.895   83.823    0.342    0.263   40.446
  245.715   83.901    0.332    0.275   45.293
  246.535   81.863    0.328    0.277   37.754
  247.356   78.556    0.338    0.251   35.193
  248.176   72.690    0.353    0.250   34.622
  248.996   65.555    0.370    0.256   32.851
  249.816   57.170    0.400    0.290   79.822
  250.636   57.248    0.392    0.312   84.643
  251.457   58.595    0.382    0.319  103.928
  252.277   60.788    0.370    0.311   69.456
  253.097   74.022    0.365    0.295   49.087
  253.917   77.908    0.385    0.268   40.197
  254.738   78.890    0.386    0.260   43.388
  255.558   78.525    0.385    0.269   51.347
  256.378   80.699    0.384    0.291   58.609
  257.198   80.797    0.376    0.277   54.596
  258.018   85.952    0.370    0.246   37.165
  258.839   89.838    0.363    0.223   30.435
  259.659   94.590    0.367    0.214   27.326
  260.479   98.495    0.368    0.259   25.008
  261.299  102.381    0.364    0.257   22.438
  262.119   99.920    0.362    0.252   20.133
  262.940  100.017    0.376    0.251   22.980
  263.760  101.345    0.391    0.259   21.016
  264.580  102.731    0.413    0.256   17.210
  265.400  100.269    0.426    0.255   15.442
  266.220   97.789    0.421    0.257   20.050
  267.041   94.885    0.394    0.266   30.165
  267.861   89.885    0.389    0.277   32.559
  268.681   90.809    0.384    0.291   32.648
  269.501   91.753    0.386    0.296   44.799
  270.322   88.849    0.386    0.290   48.355
  271.142   89.773    0.381    0.293   40.361
  271.962   89.870    0.383    0.303   67.768
  272.782   89.968    0.381    0.310   91.294
  273.602   90.872    0.374    0.306   54.632
  274.423   90.989    0.368    0.303   47.278
  275.243   88.931    0.371    0.303   59.128
  276.063   86.874    0.372    0.305   70.118
  276.883   83.567    0.373    0.313   70.214
  277.703   79.817    0.374    0.307   77.247
  278.524   78.625    0.378    0.308   86.564
  279.344   80.434    0.379    0.304   80.582
  280.164   81.339    0.374    0.298   76.460
  280.984   81.416    0.388    0.300   67.398
  281.804   76.416    0.403    0.307   65.139
  282.625   70.551    0.404    0.313   80.034
  283.445   63.416    0.394    0.329   71.810
  284.265   57.147    0.380    0.330  129.878
  285.085   59.763    0.374    0.317   90.177
  285.906   61.130    0.380    0.301  106.719
  286.726   61.630    0.382    0.298  163.430
  287.546   62.554    0.377    0.304  236.990
  288.366   60.093    0.371    0.306   78.626
  289.186   61.037    0.364    0.311   69.308
  290.007   71.289    0.351    0.312   70.788
  290.827   79.830    0.325    0.312   18.149
  291.647   82.889    0.314    0.251   19.245
  292.467   88.044    0.300    0.225   18.946
  293.287   98.758    0.333    0.215   12.653
  294.108  100.509    0.341    0.221   12.229
  294.928  104.434    0.352    0.223   14.482
  295.748  101.934    0.361    0.207   13.235
  296.568   95.665    0.344    0.196   12.329
  297.388   85.145    0.342    0.194   14.073
  298.209   76.317    0.360    0.199   20.407
  299.029   65.797    0.371    0.265   26.972
  299.849   81.570    0.359    0.274   28.060
  300.669   93.111    0.335    0.217   25.211
  301.490   97.420    0.325    0.214   11.438
  302.310  100.883    0.341    0.221   13.056
  303.130  103.942    0.344    0.228   14.092
  303.950  105.289    0.342    0.223   13.873
  304.770  105.386    0.349    0.213   12.932
  305.591  105.464    0.351    0.202   12.958
  306.411  108.100    0.342    0.193   13.002
  307.231  109.004    0.331    0.196   13.038
  308.051   98.061    0.339    0.196   12.844
  308.871   95.620    0.350    0.191   12.635
  309.692   96.947    0.355    0.193   11.989
  310.512   98.737    0.365    0.212   11.587
  311.332   99.238    0.374    0.205   12.993
  312.152   98.912    0.389    0.207   13.499
  312.972   98.143    0.361    0.202   12.817
  313.793   99.933    0.340    0.208   13.082
  314.613  100.818    0.341    0.195   13.362
