~Version : LASO    vs 4.00
VERS.                2.00:   CWLS Log ASCII Standard -VERSION 2.0
WRAP.                  NO:
~Well Information Block
#MNEM.UNIT       Data                        Description of Mnemonic
#----.----      -------------------------- : -----------------------------
COMP.                                     : COMPANY
FLD .    WILDCAT                          : FIELD NAME
LOC .    02-32-090-08W4                   : WELL LOCATION
UWI .    AA/02-32-090-08W400              : UNIQUE WELL ID
STRT.M             0.0000:
STOP.M           201.3750:
STEP.M             0.1250:
NULL.           -999.2500:
COMP.  :COMPANY
WELL.  MOBIL CLARKE OV 2-32:WELL
FLD.   :FIELD
LOC.   :LOCATION
CTRY.  :COUNTRY
PROV.  ALBERTA:PROVINCE
SRVC.  DRESSER ATLAS:SERVICE COMPANY
DATE.  17-FEB-81:LOG DATE
UWI.   :UNIQUE WELL ID
~Parameter Information Block
#MNEM.UNIT       Data                        Description of Mnemonic
#----.----      -------------------------- : -----------------------------
RUN .                   1                 : Run Number
GL  .M           431.8000                 : Ground Level Elevation
DREF.                  KB                 : Depth Reference
EREF.M           431.8000                 : Elevation of Depth Reference
TDL .M           202.0000                 : Total Depth Logger
TDD .M           201.6000                 : Total Depth Driller
BHT .DEGC         20.0000                 : Bottom Hole Temperature
BS  .MM          159.0000                 : Bit Size
DFD .             10.3000                 : Mud Weight (Density)
DFV .             85.0000                 : Mud Viscosity
DFPH.             10.0000                 : Mud pH
RM  .OHMM          4.9000                 : Mud Resistivity
RMT .DEGC         20.0000                 : Mud Resistivity Temperature
RMF .OHMM          4.7000                 : Mud Filtrate Resistivity
RMFT.DEGC         10.0000                 : RMF Temperature
RMC .OHMM          9.5000                 : Mud Cake Resistivity
RMCT.DEGC         10.0000                 : RMC Temperature
~Curve Information Block
#MNEM.UNIT        API CODE    Curve Description
#---------    ------------    -------------------------------------------
DEPT.M                    :   DEPTH
CALI.MM       42 280  1  1:   3 DENSITY CALIPER
DPHI.V/V                  :   DPHI
DT  .US/M     60 520 42  1:   2 SONIC INTERVAL TRANSIT TIME (COMPENSATED)
GR  .GAPI     42 310  1  1:   4 GAMMA RAY
IL  .OHMM      5 120 45  1:   7 INDUCTION
NPHI.V/V      42 890  3  1:   5 NEUTRON POROSITY (SANDSTONE)
RHOB.K/M3     42 350  1  1:   6 BULK DENSITY
SFL .OHMM      5 220  6  1:   8 FOCUSSED RESISTIVITY
SP  .MV        5  10  1  1:   9 SPONTANEOUS POTENTIAL
~A  Depth           CALI        DPHI          DT          GR          IL        NPHI        RHOB         SFL          SP
# ...
33.5000         168.2000      0.3031    518.2800     61.0350     46.1400      0.3047   2134.3999     64.8000    -92.3400
33.6250         170.0750      0.2959    568.8000     60.0000     47.2400      0.2975   2154.7000     63.3500    -92.8400
33.7500         170.9000      0.2856    600.2400     57.4950     47.8550      0.2959   2174.8999     67.4500    -92.9700
33.8750         171.2750      0.2736    615.4000     55.9200     48.2250      0.2939   2195.2000     71.9000    -91.2200
34.0000         171.6500      0.2665    566.6000     55.6500     47.4250      0.2931   2219.8000     71.8000    -91.6000
34.1250         170.6250      0.2564    522.4400     57.3750     46.3200      0.2956   2245.5000     65.3500    -92.3400
34.2500         169.8500      0.2441    525.4000     56.7000     48.4700      0.2941   2271.3000     61.3000    -92.3400
34.3750         169.8500      0.2343    523.1600     55.4550     50.6500      0.2921   2297.0000     61.1000    -91.1000
34.5000         171.1500      0.2268    521.2000     53.6100     50.8000      0.3004   2278.8999     65.5000    -91.1000
34.6250         173.8000      0.2205    553.8400     52.0500     50.9000      0.3140   2247.6001     71.0500    -90.8500
34.7500         174.5000      0.2432    599.0000     54.4200     54.1000      0.3178   2216.3000     72.0500    -90.4800
34.8750         175.0000      0.2775    581.0800     55.2900     59.9999      0.3180   2186.8999     63.9000    -90.1000
35.0000         172.9250      0.3172    600.2400     54.9300     55.3000      0.3122   2159.3000     53.9999    -90.1000
35.1250         169.8750      0.3421    574.7200     56.4450     50.3100      0.3092   2131.7000     51.5500    -90.1000
35.2500         165.7500      0.3553    590.4000     53.4750     52.1500      0.3172   2104.2000     62.8000    -89.7300
35.3750         163.6750      0.3662    600.2400     52.9200     51.6500      0.3204   2076.6001     77.4000    -88.7300
35.5000         160.7500      0.3726    562.9200     54.1350     49.2650      0.3166   2049.0000     81.6500    -88.3600
35.6250         161.9000      0.3583    496.2000     55.3350     47.9150      0.3116   2021.4000     69.7000    -88.6100
35.7500         164.1750      0.3398    467.2400     54.4200     52.0500      0.2810   2143.1001     62.3000    -88.3600
35.8750         159.7000      0.3231    416.4400     53.6850     55.5000      0.2568   2276.7000     59.3000    -86.6100
36.0000         165.9500      0.3045    470.1600     55.7400     50.1250      0.2583   2340.6001     58.7000    -86.6100
36.1250         167.9750      0.2816    476.5600     54.9600     48.9600      0.2708   2332.3000     59.4500    -87.4900
36.2500         169.7250      0.2713    482.6800     51.8400     49.6350      0.2789   2342.0000     59.7000    -86.9900
36.3750         170.4000      0.2641    565.6400     52.5000     49.6350      0.2762   2330.0000     59.8500    -85.7400
36.5000         170.5750      0.2081    558.2800     54.1800     49.5100      0.2724   2317.8999     59.5500    -85.9900
36.6250         169.8000      0.2039    529.8000     52.9350     49.8200      0.2738   2305.8999     57.9500    -86.3700
36.7500         167.9750      0.2053    506.7200     51.5400     51.1000      0.2772   2300.7000     57.5500    -86.1200
36.8750         167.9750      0.2085    525.8800     50.0250     50.0650      0.2816   2296.1001     60.7500    -85.1200
37.0000         169.3000      0.2160    531.2800     51.8250     47.6700      0.2925   2292.1001     68.3500    -84.9900
37.1250         172.2000      0.2214    538.6400     54.6150     45.8950      0.2974   2278.7000     74.9500    -84.3700
37.2500         172.4750      0.2264    544.0400     55.0200     44.2350      0.3036   2275.3000     72.8000    -83.6200
37.3750         171.6500      0.2323    573.4800     53.1450     42.2750      0.3059   2253.8000     58.9999    -82.8800
37.5000         172.3000      0.2384    580.3600     51.1050     40.0650      0.3067   2241.0000     46.4150    -82.6300
37.6250         173.3750      0.2435    568.5600     48.9900     36.8150      0.3055   2227.2000     37.3450    -82.3800
37.7500         171.9500      0.2494    538.6400     49.7700     33.4400      0.3160   2222.1001     36.5500    -82.2500
37.8750         170.4000      0.2565    548.2000     52.9800     30.1250      0.3361   2219.8999     38.9400    -82.5000
38.0000         170.4000      0.2650    545.7600     57.7350     27.6100      0.3498   2198.0000     41.9450    -82.6300
38.1250         170.3750      0.2704    558.2800     63.0750     25.4650      0.3597   2181.1001     40.1050    -82.2500
38.2500         170.7500      0.2829    558.7600     65.4750     23.3150      0.3616   2164.1001     34.6500    -81.2600
38.3750         171.2250      0.2889    544.0400     67.6650     21.9050      0.3601   2147.2000     29.8100    -79.8900
38.5000         170.4750      0.2950    534.7200     66.3300     20.8600      0.3766   2142.8999     26.8700    -79.1400
38.6250         172.3250      0.2985    535.9200     68.0550     20.0050      0.3797   2146.8000     25.5850    -78.3900
38.7500         172.3000      0.3015    554.0800     71.6400     19.3300      0.3729   2145.6001     24.9700    -78.0200
38.8750         172.2750      0.3040    562.4400     73.5750     18.5300      0.3729   2122.7000     25.1550    -77.9000
39.0000         172.0250      0.3064    562.4400     75.9750     18.1000      0.3748   2119.3000     26.0100    -78.0200
39.1250         171.2500      0.3151    563.1600     80.6400     17.6100      0.3865   2110.3999     27.1750    -77.9000
39.2500         171.2500      0.3184    565.1200     83.6850     17.2400      0.3873   2111.3000     27.8500    -77.9000
39.3750         171.2250      0.3179    567.1200     85.4400     16.8750      0.3867   2116.3000     29.4450    -78.0200
39.5000         172.5500      0.3198    569.0800     85.0950     16.8150      0.3942   2107.5000     32.0800    -78.0200
39.6250         175.8750      0.3211    572.5200     87.3750     16.9950      0.3880   2102.7000     33.4850    -77.5200
39.7500         179.8750      0.3199    576.9200     88.6800     17.2400      0.3826   2101.0000     29.9350    -77.0200
39.8750         178.3500      0.3173    580.1200     85.1400     17.5500      0.3906   2112.8000     24.4200    -77.1500
40.0000         175.4250      0.3139    580.3600     86.9100     17.6700      0.3844   2116.2000     22.5200    -77.1500
40.1250         175.5750      0.3119    577.8800     86.7450     17.6100      0.3749   2118.6001     24.4200    -77.0200
40.2500         177.0500      0.3107    572.0000     84.3000     17.4900      0.3847   2125.1001     28.4000    -76.6500
40.3750         180.0250      0.3112    563.4400     83.4150     17.6100      0.3945   2128.3999     33.1800    -76.0300
40.5000         182.0500      0.3149    562.4400     85.2150     18.3450      0.4016   2122.6001     36.3650    -75.6500
40.6250         182.0250      0.3203    561.9600     84.7800     19.5750      0.3886   2115.8000     34.3450    -75.2800
40.7500         181.9000      0.3236    563.6800     82.6650     21.1700      0.3815   2102.8000     28.7100    -75.1500
40.8750         178.4250      0.3262    573.7200     80.1600     23.0100      0.3757   2098.2000     26.9300    -75.4000
41.0000         175.0250      0.3278    586.4800     76.6500     24.9750      0.3792   2093.6001     31.9550    -75.7800
41.1250         176.6000      0.3291    599.0000     73.9350     27.3050      0.3797   2098.3999     42.3100    -76.6500
41.2500         179.3000      0.3320    600.2400     70.0350     29.8800      0.3809   2097.1001     49.7850    -77.5200
41.3750         178.7500      0.3389    602.2800     71.0700     33.3750      0.3828   2072.5000     49.9100    -78.1400
41.5000         177.7250      0.3426    600.2400     72.3450     37.4250      0.3809   2061.6001     50.8000    -78.1400
41.6250         176.9250      0.3446    605.6000     72.9900     41.2900      0.3659   2066.1001     53.7500    -78.2700
41.7500         176.1250      0.3469    594.3600     64.4700     43.9900      0.3592   2054.7000     57.7500    -78.2700
