~VERSION INFORMATION
 VERS.                 2.0:   CWLS LOG ASCII STANDARD -VERSION 2.0
 WRAP.                  NO:   ONE LINE PER DEPTH STEP
~WELL INFORMATION BLOCK
#MNEM.UNIT           DATA                    DESCRIPTION OF MNEMONIC
#---------    -------------------            -------------------------------
# Generated from Intellog Unique Number	CC_80_83/WELL/2483
WELL.         PEX PCEJ HANGST                : Well_name    - WELL
LOC .         AA/09-31-083-11W4/0            : Location     - LOCATION
UWI .         AA/09-31-083-11W400            : Uwi          - UNIQUE WELL ID
ENTR.         DW                             : Entered      - ENTERED BY
SRVC.         SCHLUMBERGER                   : Scn          - SERVICE COMPANY
STRT.M        150                            : top_depth    - START DEPTH
STOP.M        379.75                         : bot_depth    - STOP DEPTH
STEP.M        0.25                           : increment    - STEP LENGTH
 NULL. -999.2500:NULL Value
~CURVE INFORMATION BLOCK
#MNEM UNIT       ERCB CURVE CODE    CURVE DESCRIPTION
#-----------   ------------------   ----------------------------------
DEPT.M        00 001 00 00         : DEPTH        - DEPTH
DPHI.V/V      00 890 00 00         : PHID         - DENSITY POROSITY (SANDSTONE)
GR  .API      00 310 00 00         : GR           - GAMMA RAY
ILD .OHMM     00 120 00 00         : RESD         - DEEP RESISTIVITY (DIL)
NPHI.V/V      00 330 00 00         : PHIN         - NEUTRON POROSITY (SANDSTONE)
~PARAMETER INFORMATION
#MNEM.UNIT           DATA             DESCRIPTION OF MNEMONIC
#---------         -----------     ------------------------------
GL  .M        615.5                : gl           - GROUND LEVEL ELEVATION
EREF.M        619.15               : kb           - ELEVATION OF DEPTH REFERENCE
DATM.M        619.15               : datum        - DATUM ELEVATION
TDD .M        382                  : tdd          - TOTAL DEPTH DRILLER
RUN .         ONE                  : Run          - RUN NUMBER
ENG .         BILL                 : Engineer     - RECORDING ENGINEER
WIT .         JIM                  : Witness      - WITNESSED BY
MUD .         GEL                  : Mud_type     - MUD TYPE
MATR.         SANDSTONE            : Logunit      - NEUTRON MATRIX
TMAX.C        16                   : BHT          - MAXIMUM RECORDED TEMPERATURE
BHTD.M        382                  : BHTDEP       - MAXIMUM RECORDED TEMPERATURE
MATR.         1                    : LOGUNIT      - NEUTRON MATRIX
RMT .C        25                   : MDTP         - TEMPERATURE OF MUD
NEUT.         1                    : NEUTRON      - NEUTRON TYPE
RESI.         0                    : RESIST       - RESISTIVITY TYPE
RMC .OHMM     0.25                 : RMC          - RESISTIVITY OF MUD CAKE
RMF .OHMM     0.25                 : RMF          - RESISTIVITY OF MUD FILTRATE
SUFT.C        15                   : SUFT         - SURFACE TEMPERATURE
~A  DEPTH     PHID       GR     RESD     PHIN
# ...
  280.500    0.144   65.713    9.817    0.309
  280.750    0.215   67.986   10.163    0.352
  281.000    0.235   87.081   10.245    0.365
  281.250    0.230   95.182   10.001    0.341
  281.500    0.234   87.856    9.777    0.334
  281.750    0.227   81.409    9.824    0.347
  282.000    0.215   79.971    9.816    0.342
  282.250    0.209   83.752    9.812    0.335
  282.500    0.208   79.150    9.832    0.349
  282.750    0.206   79.388    9.736    0.358
  283.000    0.200   84.493    9.572    0.362
  283.250    0.193   85.895    9.415    0.359
  283.500    0.189   88.052    9.103    0.337
  283.750    0.187   87.754    8.548    0.349
  284.000    0.208   82.427    8.116    0.357
  284.250    0.224   95.546    7.765    0.358
  284.500    0.229  100.184    7.390    0.354
  284.750    0.237   85.776    7.076    0.353
  285.000    0.243   93.040    6.993    0.369
  285.250    0.233   96.567    7.138    0.376
  285.500    0.208   87.038    6.786    0.383
  285.750    0.187   84.108    5.960    0.386
  286.000    0.191   89.482    5.238    0.384
  286.250    0.212   95.219    4.807    0.388
  286.500    0.222  103.593    4.451    0.399
  286.750    0.224  106.018    4.366    0.406
  287.000    0.224  100.592    4.372    0.413
  287.250    0.224   95.754    4.366    0.421
  287.500    0.221   93.250    4.601    0.404
  287.750    0.218   89.995    5.375    0.373
  288.000    0.208   88.185    6.608    0.369
  288.250    0.171   90.937    7.714    0.354
  288.500    0.180   96.910    7.817    0.334
  288.750    0.194  106.976    7.510    0.355
  289.000    0.192  105.946    7.346    0.383
  289.250    0.192   97.162    7.232    0.384
  289.500    0.187  101.825    7.123    0.391
  289.750    0.186   99.135    7.213    0.393
  290.000    0.190  100.604    7.561    0.372
  290.250    0.186   99.117    8.422    0.356
  290.500    0.190   94.184    9.957    0.345
  290.750    0.199   95.256   11.383    0.331
  291.000    0.184  101.870   11.839    0.331
  291.250    0.184  107.537   12.226    0.324
  291.500    0.181  107.928   12.463    0.319
  291.750    0.174  107.256   12.638    0.319
  292.000    0.164  105.907   12.847    0.318
  292.250    0.168  101.452   13.043    0.312
  292.500    0.198   96.354   13.252    0.311
  292.750    0.193   94.823   13.486    0.325
  293.000    0.181   98.482   13.396    0.326
  293.250    0.173  106.118   12.944    0.325
  293.500    0.172  106.235   12.189    0.329
  293.750    0.176   97.309   11.534    0.330
  294.000    0.185   94.544   11.186    0.334
  294.250    0.197   97.961   10.208    0.348
  294.500    0.186   97.135    9.304    0.344
  294.750    0.177  102.162    8.972    0.350
  295.000    0.182  107.830    9.310    0.365
  295.250    0.179  105.964   10.202    0.362
  295.500    0.165  103.842   11.187    0.354
  295.750    0.159   96.904   11.874    0.350
  296.000    0.170   89.546   13.077    0.340
  296.250    0.189   91.963   13.771    0.340
  296.500    0.203   90.581   13.699    0.344
  296.750    0.207   85.244   13.419    0.341
  297.000    0.204   93.415   12.754    0.341
  297.250    0.201   91.742   11.617    0.348
  297.500    0.209   95.687   10.709    0.352
  297.750    0.221  102.164   10.630    0.345
  298.000    0.223   88.512   10.774    0.328
  298.250    0.218   72.403   10.819    0.315
  298.500    0.217   87.944   11.182    0.319
  298.750    0.210   93.607   11.181    0.341
  299.000    0.204   91.974   11.315    0.351
  299.250    0.221   89.507   11.438    0.355
  299.500    0.218   88.299   11.321    0.355
  299.750    0.180   86.595   11.162    0.345
  300.000    0.171   82.353   11.180    0.334
  300.250    0.187   83.464   11.199    0.323
  300.500    0.192   93.525   11.024    0.312
  300.750    0.193   99.673   10.982    0.317
  301.000    0.188  104.323   10.874    0.334
  301.250    0.197  109.923   10.487    0.352
  301.500    0.241  105.869   10.173    0.361
  301.750    0.257  100.225    9.985    0.355
  302.000    0.282   99.569   10.106    0.351
  302.250    0.269   93.502   10.227    0.340
  302.500    0.213   85.916   10.589    0.328
  302.750    0.186   82.863   11.319    0.328
  303.000    0.214   78.740   11.827    0.336
  303.250    0.224   80.654   12.025    0.347
  303.500    0.220   88.088   12.114    0.352
  303.750    0.216   91.804   11.736    0.356
  304.000    0.214   91.851   10.676    0.365
  304.250    0.216   89.403    9.365    0.372
  304.500    0.220   83.105    8.424    0.367
  304.750    0.209   84.262    7.900    0.362
  305.000    0.207   87.255    7.402    0.362
  305.250    0.210   86.727    6.527    0.377
  305.500    0.210   91.908    5.502    0.390
  305.750    0.206  105.577    4.757    0.391
  306.000    0.199  111.583    4.359    0.390
  306.250    0.190  104.504    4.373    0.364
  306.500    0.189  106.121    4.953    0.352
  306.750    0.190  115.304    5.725    0.348
  307.000    0.183  111.488    6.653    0.340
  307.250    0.179   96.291    7.964    0.328
  307.500    0.192   91.232    9.437    0.316
  307.750    0.199   89.031   10.579    0.317
  308.000    0.195   88.936   11.371    0.316
  308.250    0.186   92.578   11.862    0.304
  308.500    0.155   89.269   12.139    0.291
  308.750    0.123   81.523   12.297    0.282
  309.000    0.140   86.997   12.272    0.284
  309.250    0.176   94.688   11.903    0.320
  309.500    0.187   96.865   11.516    0.350
  309.750    0.185   97.222   11.179    0.373
  310.000    0.184   97.263   10.800    0.392
  310.250    0.177   95.009   10.531    0.396
  310.500    0.164   92.566   10.556    0.385
  310.750    0.153   94.073   10.557    0.366
  311.000    0.144   94.586   10.558    0.348
  311.250    0.102   91.812   10.513    0.334
  311.500    0.092   89.957   10.156    0.325
  311.750    0.140   95.986    9.454    0.331
  312.000    0.158  105.602    8.741    0.358
  312.250    0.161  101.524    8.099    0.366
  312.500    0.175  101.126    7.256    0.347
  312.750    0.191  101.291    6.145    0.369
  313.000    0.239   96.445    4.786    0.412
  313.250    0.282   89.238    3.780    0.415
  313.500    0.246   81.502    4.122    0.387
  313.750    0.223   76.745    5.737    0.354
  314.000    0.221   82.982    7.550    0.357
  314.250    0.215   76.635    8.688    0.355
  314.500    0.214   70.020    9.314    0.339
  314.750    0.227   75.943    9.607    0.335
  315.000    0.230   76.655    9.072    0.344
  315.250    0.225   86.166    7.691    0.344
  315.500    0.219   89.745    6.199    0.368
  315.750    0.218   90.254    5.428    0.387
  316.000    0.216   92.418    5.134    0.384
  316.250    0.209   97.322    4.675    0.373
  316.500    0.200  100.756    4.791    0.360
  316.750    0.187   87.589    6.777    0.344
  317.000    0.179   83.385    7.556    0.323
  317.250    0.113   86.838    7.498    0.310
  317.500    0.114   89.231    7.518    0.293
  317.750    0.212   91.584    7.293    0.303
  318.000    0.221   95.276    6.461    0.372
  318.250    0.226   98.534    5.088    0.384
  318.500    0.230  106.097    4.437    0.377
  318.750    0.218  112.907    4.232    0.384
  319.000    0.201  106.504    4.055    0.393
  319.250    0.195   95.775    4.067    0.400
  319.500    0.194  101.527    4.356    0.417
  319.750    0.191  107.729    4.724    0.429
  320.000    0.187  102.993    4.980    0.424
  320.250    0.178  101.209    5.189    0.404
  320.500    0.169  105.930    5.240    0.388
  320.750    0.166  105.390    5.148    0.380
  321.000    0.156   94.630    5.060    0.368
  321.250    0.130   87.775    4.677    0.375
  321.500    0.172  110.616    4.423    0.387
  321.750    0.206  121.626    4.222    0.383
  322.000    0.207  112.931    4.084    0.379
  322.250    0.208  106.473    4.136    0.388
  322.500    0.204  102.818    4.356    0.385
  322.750    0.201  106.749    4.850    0.360
  323.000    0.197  109.482    5.462    0.345
  323.250    0.202   98.709    5.929    0.333
  323.500    0.204   89.654    6.836    0.335
  323.750    0.195   91.056    8.448    0.350
