~VERSION INFORMATION
 VERS.                 2.0:   CWLS LOG ASCII STANDARD -VERSION 2.0
 WRAP.                  NO:   ONE LINE PER DEPTH STEP
~WELL INFORMATION BLOCK
#MNEM.UNIT           DATA                    DESCRIPTION OF MNEMONIC
#---------    -------------------            -------------------------------
# Generated from Intellog Unique Number	CN_91_93/WELL/3090
WELL.         01-05-092-12W4                 : Well_name    - WELL
LOC .         AA/01-05-092-12W4/0            : Location     - LOCATION
UWI .         AA/01-05-092-12W400            : Uwi          - UNIQUE WELL ID
ENTR.         JOETTE                         : Entered      - ENTERED BY
SRVC.         WESTERN ATLAS                  : Scn          - SERVICE COMPANY
DATE.         04/10/92                       : Date         - LOG DATE
STRT.M        45                             : top_depth    - START DEPTH
STOP.M        200                            : bot_depth    - STOP DEPTH
STEP.M        0.25                           : increment    - STEP LENGTH
 NULL. -999.2500:NULL Value
~CURVE INFORMATION BLOCK
#MNEM UNIT       ERCB CURVE CODE    CURVE DESCRIPTION
#-----------   ------------------   ----------------------------------
DEPT.M        00 001 00 00         : DEPTH        - DEPTH
CALI.MM       00 280 01 00         : CAL          - CALIPER
GR  .API      00 310 00 00         : GR           - GAMMA RAY
NPHI.V/V      00 330 00 00         : PHIN         - NEUTRON POROSITY (SANDSTONE)
DPHI.V/V      00 890 00 00         : PHID         - DENSITY POROSITY (SANDSTONE)
ILD .OHMM     00 120 00 00         : RESD         - DEEP RESISTIVITY (DIL)
~PARAMETER INFORMATION
#MNEM.UNIT           DATA             DESCRIPTION OF MNEMONIC
#---------         -----------     ------------------------------
GL  .M        390.2                : gl           - GROUND LEVEL ELEVATION
EREF.M        395.3                : kb           - ELEVATION OF DEPTH REFERENCE
DATM.M        395.3                : datum        - DATUM ELEVATION
TDD .M        203.3                : tdd          - TOTAL DEPTH DRILLER
RUN .         ONE                  : Run          - RUN NUMBER
ENG .         BILL                 : Engineer     - RECORDING ENGINEER
WIT .         JIM                  : Witness      - WITNESSED BY
MUD .         GEL                  : Mud_type     - MUD TYPE
MATR.         SANDSTONE            : Logunit      - NEUTRON MATRIX
TMAX.C        19                   : BHT          - MAXIMUM RECORDED TEMPERATURE
BHTD.M        203.3                : BHTDEP       - MAXIMUM RECORDED TEMPERATURE
RMT .C        20                   : MDTP         - TEMPERATURE OF MUD
MUDD.KG/M     1100                 : MWT          - MUD DENSITY
NEUT.         1                    : NEUTRON      - NEUTRON TYPE
RESI.         0                    : RESIST       - RESISTIVITY TYPE
RM  .OHMM     2.5                  : RM           - RESISTIVITY OF MUD
RMC .OHMM     2.5                  : RMC          - RESISTIVITY OF MUD CAKE
RMF .OHMM     2.5                  : RMF          - RESISTIVITY OF MUD FILTRATE
SUFT.C        4                    : SUFT         - SURFACE TEMPERATURE
~A  DEPTH      CAL       GR     PHIN     PHID     RESD
   45.000  170.391   36.011    0.285    0.033   27.325
   45.250  187.066   39.358    0.234    0.085   52.767
   45.500  186.598   43.611    0.411    0.159   38.516
   45.750  187.125   48.775    0.408    0.271   18.529
   46.000  187.158   51.816    0.411    0.280   12.793
   46.250  187.187   52.139    0.420    0.257   11.033
   46.500  184.190   52.154    0.405    0.251   10.536
   46.750  179.173   53.079    0.400    0.243   11.244
   47.000  181.220   57.335    0.416    0.244   11.671
   47.250  186.796   57.658    0.415    0.304    9.346
   47.500  184.812   60.396    0.416    0.308    9.176
   47.750  177.778   59.811    0.427    0.279    9.094
   48.000  171.759   55.288    0.435    0.278   11.466
   48.250  172.296   50.464    0.430    0.280   12.124
   48.500  171.821   51.087    0.431    0.276   11.904
   48.750  173.356   59.274    0.444    0.288   11.159
   49.000  183.475   53.240    0.457    0.280   10.558
   49.250  181.488   52.653    0.449    0.272    9.989
   49.500  176.982   58.724    0.455    0.255    9.538
   49.750  172.473   56.319    0.449    0.253   11.483
   50.000  174.015   57.549    0.415    0.270   12.031
   50.250  175.053   59.685    0.396    0.289   11.703
   50.500  173.069   55.466    0.391    0.267   11.490
   50.750  172.590   50.342    0.358    0.217   12.037
   51.000  172.619   48.844    0.337    0.223   15.606
   51.250  174.666   52.796    0.424    0.257   12.731
   51.500  178.222   57.050    0.433    0.258   10.678
   51.750  179.768   59.187    0.438    0.279   11.291
   52.000  180.809   59.510    0.422    0.283   11.294
   52.250  179.322   58.010    0.422    0.268   11.192
   52.500  181.372   55.004    0.400    0.254   11.298
   52.750  183.920   54.419    0.392    0.268   12.398
   53.000  186.474   53.224    0.410    0.296   12.400
   53.250  186.003   58.690    0.406    0.294   11.732
   53.500  184.519   61.128    0.404    0.262   11.203
   53.750  183.032   60.541    0.398    0.253   11.416
   54.000  184.066   59.953    0.396    0.257   11.312
   54.250  186.621   61.482    0.435    0.178   10.410
   54.500  182.616   66.341    0.428    0.212    9.758
   54.750  186.683   66.358    0.472    0.258    9.232
   55.000  190.246   66.073    0.484    0.276    8.981
   55.250  189.764   73.357    0.468    0.277    8.656
   55.500  188.785   73.070    0.476    0.250    8.421
   55.750  188.818   66.128    0.461    0.255    7.894
   56.000  188.844   68.871    0.435    0.265    7.679
   56.250  188.877   72.820    0.447    0.283    7.824
   56.500  188.902   72.838    0.437    0.279    7.267
   56.750  189.440   68.922    0.435    0.258    7.201
   57.000  189.973   64.401    0.442    0.250    7.975
   57.250  186.977   60.182    0.444    0.215    8.833
   57.500  184.993   57.779    0.439    0.210    9.515
   57.750  184.518   54.771    0.438    0.189   10.344
   58.000  186.056   59.932    0.427    0.199   10.251
   58.250  186.590   61.160    0.427    0.213    9.521
   58.500  183.093   67.534    0.412    0.203    8.842
   58.750  182.614   73.003    0.421    0.188    8.682
   59.000  182.644   68.780    0.406    0.204    9.438
   59.250  183.177   66.377    0.418    0.220   10.649
   59.500  183.711   68.815    0.403    0.237   10.652
   59.750  184.749   63.689    0.400    0.235   10.266
   60.000  186.799   61.589    0.434    0.223   10.079
   60.250  196.410   61.003    0.440    0.235    9.805
   60.500  195.431   60.716    0.438    0.262    9.363
   60.750  196.469   64.062    0.429    0.222    9.809
   61.000  182.882   67.110    0.383    0.143   11.274
   61.250  179.385   64.705    0.358    0.115   11.811
   61.500  183.445   68.353    0.416    0.158   11.490
   61.750  188.013   71.701    0.429    0.243   10.379
   62.000  190.564   73.230    0.446    0.257    9.375
   62.250  193.623   78.089    0.452    0.246    8.237
   62.500  199.200   79.014    0.452    0.241    7.792
   62.750  199.233   71.467    0.462    0.253    7.940
   63.000  196.233   72.697    0.496    0.278    7.306
   63.250  197.778   67.871    0.490    0.296    6.723
   63.500  201.842   68.797    0.500    0.292    6.073
   63.750  199.854   71.842    0.479    0.311    5.335
   64.000  200.892   72.165    0.494    0.313    4.731
   64.250  199.913   72.182    0.496    0.305    4.435
   64.500  197.925   68.567    0.495    0.301    4.314
   64.750  203.498   68.889    0.497    0.315    4.236
   65.000  202.015   70.115    0.469    0.278    4.236
   65.250  200.531   67.714    0.452    0.249    6.082
   65.500  196.526   64.403    0.444    0.243    6.431
   65.750  186.473   68.957    0.448    0.260    6.432
   66.000  189.528   75.329    0.425    0.264    6.434
   66.250  190.570   72.321    0.450    0.270    6.435
   66.500  189.587   73.551    0.453    0.299    6.088
   66.750  186.090   78.108    0.444    0.290    6.261
   67.000  185.107   75.402    0.433    0.294    7.331
   67.250  183.123   69.671    0.431    0.267    8.195
   67.500  183.660   68.780    0.425    0.239    8.273
   67.750  186.712   70.008    0.419    0.278    8.273
   68.000  190.267   73.354    0.406    0.303    8.050
   68.250  192.314   69.741    0.411    0.292    7.903
   68.500  192.347   74.297    0.403    0.272    7.905
   68.750  191.364   73.712    0.402    0.258    8.594
   69.000  190.893   75.240    0.408    0.249    9.343
   69.250  192.439   80.101    0.401    0.257    9.432
   69.500  192.464   78.909    0.408    0.249    9.091
   69.750  189.468   78.019    0.417    0.252    8.763
   70.000  184.959   72.892    0.412    0.297    8.764
   70.250  180.954   66.253    0.389    0.257    9.528
   70.500  181.999   62.339    0.390    0.177   10.075
   70.750  186.055   65.990    0.425    0.245    9.533
   71.000  189.619   69.637    0.445    0.221    8.936
   71.250  190.152   70.257    0.466    0.223    8.223
   71.500  189.674   75.116    0.450    0.222    7.636
   71.750  189.199   74.528    0.440    0.208    7.092
   72.000  189.235   80.297    0.436    0.207    6.964
   72.250  188.757   75.474    0.408    0.208    7.571
   72.500  185.768   67.624    0.414    0.175    8.385
   72.750  184.277   74.904    0.429    0.181   10.379
   73.000  194.396   71.898    0.438    0.201   10.003
   73.250  190.891   73.729    0.431    0.199    9.377
   73.500  195.463   68.300    0.444    0.208    8.790
   73.750  195.489   69.225    0.441    0.235    8.317
   74.000  200.561   74.086    0.437    0.269    8.090
   74.250  197.060   69.563    0.416    0.257    8.090
   74.500  195.073   69.583    0.409    0.217    7.945
   74.750  186.532   70.506    0.404    0.203    7.946
   75.000  187.574   72.039    0.397    0.216    7.948
   75.250  189.113   66.910    0.420    0.275    7.950
   75.500  189.146   63.902    0.447    0.335    8.176
   75.750  186.654   67.248    0.435    0.387    8.725
   76.000  182.645   66.058    0.408    0.307    9.399
   76.250  179.151   65.777    0.396    0.205    9.058
   76.500  180.182   68.816    0.432    0.223    8.259
   76.750  181.220   75.188    0.461    0.240    7.323
   77.000  186.797   70.364    0.453    0.243    5.974
   77.250  195.907   63.422    0.475    0.254    5.200
   77.500  194.928   61.624    0.474    0.279    4.654
   77.750  198.491   65.273    0.497    0.307    4.204
   78.000  200.534   65.293    0.471    0.335    4.051
   78.250  202.584   65.308    0.462    0.389    4.487
   78.500  193.028   75.316    0.451    0.301    5.110
   78.750  177.424   79.567    0.428    0.235    5.607
   79.000  181.996   82.308    0.427    0.222    6.565
   79.250  180.004   72.643    0.415    0.229    8.051
   79.500  177.520   70.543    0.416    0.210    9.253
   79.750  176.533   71.165    0.417    0.185    9.516
   80.000  176.058   63.316    0.386    0.115    9.343
   80.250  173.570   58.795    0.422    0.194    8.678
   80.500  172.590   62.143    0.444    0.248    6.218
   80.750  178.668   62.158    0.481    0.313    4.666
   81.000  196.351   53.704    0.508    0.346    3.771
   81.250  214.535   46.459    0.537    0.431    2.779
