~VERSION INFORMATION
 VERS.                 2.0:   CWLS LOG ASCII STANDARD -VERSION 2.0
 WRAP.                  NO:   ONE LINE PER DEPTH STEP
~WELL INFORMATION BLOCK
#MNEM.UNIT           DATA                    DESCRIPTION OF MNEMONIC
#---------    -------------------            -------------------------------
# Generated from Intellog Unique Number	CN_94_101/WELL/1064
WELL.         CHEVRON CANADA RESOURCES       : Well_name    - WELL
LOC .         AA/04-23-094-07W4/0            : Location     - LOCATION
UWI .         AA/04-23-094-07W400            : Uwi          - UNIQUE WELL ID
ENTR.         JOETTE                         : Entered      - ENTERED BY
SRVC.         SCHLUMBERGER                   : Scn          - SERVICE COMPANY
DATE.         04/12/92                       : Date         - LOG DATE
STRT.M        100                            : top_depth    - START DEPTH
STOP.M        270                            : bot_depth    - STOP DEPTH
STEP.M        0.25                           : increment    - STEP LENGTH
 NULL. -999.2500:NULL Value
~CURVE INFORMATION BLOCK
#MNEM UNIT       ERCB CURVE CODE    CURVE DESCRIPTION
#-----------   ------------------   ----------------------------------
DEPT.M        00 001 00 00         : DEPTH        - DEPTH
GR  .API      00 310 00 00         : GR           - GAMMA RAY
ILD .OHMM     00 120 00 00         : RESD         - DEEP RESISTIVITY (DIL)
NPHI.V/V      00 330 00 00         : PHIN         - NEUTRON POROSITY (SANDSTONE)
DPHI.V/V      00 890 00 00         : PHID         - DENSITY POROSITY (SANDSTONE)
~PARAMETER INFORMATION
#MNEM.UNIT           DATA             DESCRIPTION OF MNEMONIC
#---------         -----------     ------------------------------
GL  .M        529.3                : gl           - GROUND LEVEL ELEVATION
EREF.M        529.3                : kb           - ELEVATION OF DEPTH REFERENCE
DATM.M        529.3                : datum        - DATUM ELEVATION
TDD .M        261.6                : tdd          - TOTAL DEPTH DRILLER
RUN .         ONE                  : Run          - RUN NUMBER
ENG .         JO                   : Engineer     - RECORDING ENGINEER
WIT .         TIM                  : Witness      - WITNESSED BY
MUD .         GEL                  : Mud_type     - MUD TYPE
MATR.         SANDSTONE            : Logunit      - NEUTRON MATRIX
TMAX.C        112                  : BHT          - MAXIMUM RECORDED TEMPERATURE
BHTD.M        261.6                : BHTDEP       - MAXIMUM RECORDED TEMPERATURE
RMT .C        10                   : MDTP         - TEMPERATURE OF MUD
MUDD.KG/M     1010                 : MWT          - MUD DENSITY
NEUT.         1                    : NEUTRON      - NEUTRON TYPE
RESI.         0                    : RESIST       - RESISTIVITY TYPE
RM  .OHMM     4.5                  : RM           - RESISTIVITY OF MUD
RMC .OHMM     4                    : RMC          - RESISTIVITY OF MUD CAKE
RMF .OHMM     3.59                 : RMF          - RESISTIVITY OF MUD FILTRATE
SUFT.C        4                    : SUFT         - SURFACE TEMPERATURE
~A  DEPTH       GR     RESD     PHIN     PHID
# ...
  230.500   28.674  443.986    0.369    0.331
  230.750   25.714  632.313    0.370    0.327
  231.000   25.120  496.299    0.360    0.325
  231.250   23.344  554.867    0.349    0.330
  231.500   20.977  597.670    0.366    0.337
  231.750   18.018  575.730    0.381    0.352
  232.000   19.198  733.272    0.407    0.364
  232.250   25.698 1146.190    0.391    0.360
  232.500   30.424 1572.710    0.376    0.349
  232.750   33.968 1211.640    0.364    0.340
  233.000   38.103 1514.730    0.364    0.335
  233.250   38.691 1280.820    0.358    0.333
  233.500   39.279 1211.000    0.365    0.334
  233.750   42.824 1188.460    0.384    0.331
  234.000   52.870 1082.690    0.371    0.297
  234.250   65.872  434.730    0.359    0.270
  234.500   68.824  113.752    0.359    0.247
  234.750   64.093   51.073    0.403    0.304
  235.000   48.130  334.814    0.431    0.337
  235.250   35.122  513.701    0.443    0.335
  235.500   30.391  773.625    0.385    0.317
  235.750   32.161  931.792    0.359    0.302
  236.000   35.705  202.395    0.344    0.283
  236.250   29.791  880.886    0.343    0.292
  236.500   26.833  914.157    0.353    0.307
  236.750   22.101  513.198    0.370    0.323
  237.000   19.142  334.363    0.372    0.331
  237.250   21.504  584.446    0.365    0.331
  237.500   28.004  573.572    0.361    0.341
  237.750   37.459  417.884    0.378    0.338
  238.000   42.776  226.020    0.394    0.324
  238.250   33.907   97.767    0.388    0.306
  238.500   26.810  187.563    0.398    0.332
  238.750   29.763  277.256    0.428    0.358
  239.000   38.036  201.982    0.428    0.356
  239.250   59.905   81.105    0.382    0.319
  239.500   81.774   35.742    0.350    0.276
  239.750   84.135   39.960    0.343    0.218
  240.000   81.767   39.216    0.354    0.218
  240.250   81.764   37.080    0.343    0.217
  240.500   79.398   35.718    0.332    0.205
  240.750   72.892   37.068    0.326    0.210
  241.000   64.022   40.679    0.333    0.233
  241.250   52.788   48.092    0.351    0.245
  241.500   42.736   63.576    0.351    0.246
  241.750   33.275   65.977    0.348    0.251
  242.000   28.544   72.402    0.343    0.267
  242.250   32.088   88.844    0.347    0.283
  242.500   34.449  149.611    0.360    0.287
  242.750   42.131  217.075    0.361    0.270
  243.000   55.133  103.063    0.350    0.254
  243.250   58.677   64.697    0.347    0.241
  243.500   53.945   44.575    0.357    0.234
  243.750   23.795   50.772    0.374    0.258
  244.000   16.108  161.020    0.392    0.305
  244.250   19.651  448.268    0.390    0.333
  244.500   32.062  662.632    0.380    0.330
  244.750   50.976  271.066    0.368    0.303
  245.000   49.199  143.907    0.349    0.276
  245.250   29.689  141.229    0.330    0.287
  245.500   23.184  141.200    0.324    0.312
  245.750   19.635  138.579    0.356    0.331
  246.000   16.085  423.432    0.377    0.335
  246.250   14.309  482.278    0.380    0.332
  246.500   14.897  539.212    0.391    0.332
  246.750   18.441  439.282    0.376    0.333
  247.000   19.030  308.346    0.373    0.334
  247.250   18.436  255.922    0.369    0.330
  247.500   18.433  874.402    0.362    0.326
  247.750   19.612  796.545    0.355    0.320
  248.000   23.156  430.827    0.345    0.318
  248.250   28.474  216.297    0.349    0.321
  248.500   36.155  149.026    0.363    0.325
  248.750   33.197  149.001    0.361    0.318
  249.000   33.194  163.512    0.345    0.307
  249.250   40.876  125.972    0.334    0.282
  249.500   56.242   70.719    0.322    0.253
  249.750   51.511   60.923    0.340    0.244
  250.000   50.915   60.913    0.351    0.265
  250.250   48.549   70.685    0.354    0.304
  250.500   44.408   68.087    0.357    0.318
  250.750   46.179   79.013    0.368    0.326
  251.000   53.269  108.415    0.368    0.332
  251.250   63.907  118.973    0.372    0.322
  251.500   53.855  102.492    0.379    0.315
  251.750   38.483  106.363    0.386    0.325
  252.000   37.298   96.889    0.385    0.331
  252.250   39.659   98.693    0.369    0.335
  252.500   40.248  114.522    0.359    0.334
  252.750   43.200  110.322    0.361    0.320
  253.000   48.517   91.565    0.367    0.302
  253.250   50.879   60.781    0.356    0.289
  253.500   50.875   61.913    0.356    0.295
  253.750   50.874   69.217    0.367    0.315
  254.000   49.689   77.388    0.374    0.326
  254.250   46.139   75.948    0.381    0.328
  254.500   47.909   66.657    0.376    0.327
  254.750   49.681   57.423    0.367    0.327
  255.000   46.131   56.355    0.362    0.322
  255.250   45.537   53.285    0.358    0.313
  255.500   45.534   52.293    0.358    0.309
  255.750   34.891   73.100    0.369    0.326
  256.000   36.662  219.241    0.365    0.322
  256.250   37.250  199.720    0.351    0.287
  256.500   27.789  420.521    0.341    0.291
  256.750   20.693  566.337    0.355    0.316
  257.000   20.099  545.569    0.365    0.338
  257.250   20.096  329.957    0.353    0.334
  257.500   20.684  127.645    0.338    0.309
  257.750   24.820   80.128    0.320    0.293
  258.000   30.728   70.322    0.316    0.285
  258.250   46.686   70.311    0.348    0.276
  258.500  108.160   65.257    0.366    0.257
  258.750  126.482   31.565    0.402    0.203
  259.000  134.164   13.911    0.453    0.095
  259.250  130.023   14.170    0.467    0.088
  259.500  125.882   14.704    0.454    0.099
  259.750  119.377   15.546    0.460    0.149
  260.000  114.645   16.437    0.448    0.170
  260.250  108.731   17.058    0.437    0.178
  260.500  101.634   17.056    0.429    0.183
  260.750   88.627   18.371    0.425    0.202
  261.000   97.491   19.788    0.419    0.203
  261.250   98.670   22.963    0.368    0.196
  261.500   89.801   25.198    0.352    0.176
  261.750   90.389   26.150    0.335    0.138
  262.000   97.480   26.637    0.346    0.126
  262.250  102.796   26.634    0.353    0.127
  262.500  102.202   25.656    0.351    0.123
  262.750  102.791   23.371    0.338    0.105
  263.000  107.517   22.936    0.324    0.118
  263.250  113.426   20.508    0.348    0.115
  263.500  112.241   22.090    0.382    0.112
  263.750  109.874   21.679    0.365    0.106
  264.000   98.639   22.083    0.341    0.078
  264.250   70.263   27.607    0.310    0.054
  264.500   75.580   49.162    0.287    0.061
  264.750   90.946   39.312    0.280    0.089
  265.000  107.495   25.613    0.334    0.107
  265.250  116.358   25.137    0.342    0.105
  265.500  118.130   25.604    0.342    0.102
  265.750  121.083   27.070    0.327    0.106
  266.000  116.942   27.066    0.334    0.111
  266.250  111.619   26.072    0.348    0.106
  266.500  108.069   26.068    0.357    0.083
  266.750   99.791   26.064    0.298    0.045
  267.000   83.828   29.141    0.274    0.025
  267.250   76.731   55.903    0.243    0.051
  267.500   84.413   54.863    0.259    0.083
  267.750   98.597   36.418    0.298    0.103
  268.000  103.324   32.562    0.322    0.104
  268.250   98.592   28.053    0.337    0.097
  268.500   89.722   26.524    0.342    0.079
  268.750   86.764   36.394    0.303    0.071
  269.000   92.081   43.027    0.299    0.074
  269.250   99.172   28.560    0.317    0.085
  269.500   96.213   29.640    0.322    0.078
  269.750   79.066   24.601    0.307    0.067
  270.000   82.020   39.913    0.286    0.052
