~VERSION INFORMATION
 VERS.                 2.0:   CWLS LOG ASCII STANDARD -VERSION 2.0
 WRAP.                  NO:   ONE LINE PER DEPTH STEP
~WELL INFORMATION BLOCK
#MNEM.UNIT           DATA                    DESCRIPTION OF MNEMONIC
#---------    -------------------            -------------------------------
# Generated from Intellog Unique Number	CC_80_83/WELL/2325
NULL.         -999.25                        : NULL_VALUE
WELL.         ARCO ACI McMURRAY              : Well_name    - WELL              
LOC .         09-29-083-12W4                 : Location     - LOCATION          
UWI .         AA/09-29-083-12W400            : Uwi          - UNIQUE WELL ID    
ENTR.         RJA                            : Entered      - ENTERED BY        
SRVC.         SCHLUMBERGER                   : Scn          - SERVICE COMPANY   
DATE.         15 FEB 74                      : Date         - LOG DATE
STRT.M        85.344                         : top_depth    - START DEPTH       
STOP.M        329.184                        : bot_depth    - STOP DEPTH        
STEP.M        0.3048                         : increment    - STEP LENGTH       
~CURVE INFORMATION BLOCK
#MNEM UNIT       ERCB CURVE CODE    CURVE DESCRIPTION
#-----------   ------------------   ----------------------------------
DEPT.M        00 001 00 00         : DEPTH        - DEPTH                       
DPHI.V/V      00 890 00 00         : PHID         - DENSITY POROSITY (LIMESTONE)
GR  .API      00 310 00 00         : GR           - GAMMA RAY                   
NPHI.V/V      00 330 00 00         : PHIN         - NEUTRON POROSITY (LIMESTONE)
ILD .OHMM     00 120 00 00         : RESD         - DEEP RESISTIVITY (DIL)      
~PARAMETER INFORMATION       
#MNEM.UNIT           DATA             DESCRIPTION OF MNEMONIC
#---------         -----------     ------------------------------
GL  .M        566.227              : gl           - GROUND LEVEL ELEVATION      
EREF.M        567.903              : kb           - ELEVATION OF DEPTH REFERENCE
DATM.M        567.903              : datum        - DATUM ELEVATION             
TDD .M        332.232              : tdd          - TOTAL DEPTH DRILLER         
RUN .         ONE                  : Run          - RUN NUMBER                  
ENG .         BILL                 : Engineer     - RECORDING ENGINEER          
WIT .         JIM                  : Witness      - WITNESSED BY                
MUD .         GEL                  : Mud_type     - MUD TYPE                    
MATR.         LIMESTONE            : Logunit      - NEUTRON MATRIX              
TMAX.C        18.3333              : BHT          - MAXIMUM RECORDED TEMPERATURE
BHTD.M        332.232              : BHTDEP       - MAXIMUM RECORDED TEMPERATURE
MATR.         1                    : LOGUNIT      - NEUTRON MATRIX              
RMT .C        25                   : MDTP         - TEMPERATURE OF MUD          
NEUT.         1                    : NEUTRON      - NEUTRON TYPE                
RESI.         0                    : RESIST       - RESISTIVITY TYPE            
RMC .OHMM     0.25                 : RMC          - RESISTIVITY OF MUD CAKE     
RMF .OHMM     0.25                 : RMF          - RESISTIVITY OF MUD FILTRATE 
SUFT.C        4                    : SUFT         - SURFACE TEMPERATURE         
~A  DEPTH     PHID       GR     PHIN     RESD
# ...
  191.413    0.266   61.564    0.433   12.970
  191.718    0.255   67.600    0.398   13.463
  192.023    0.276   71.823    0.375   13.462
  192.328    0.297   75.431    0.375    9.797
  192.633    0.276   80.254    0.404    7.829
  192.937    0.274   85.083    0.434    6.742
  193.242    0.295   74.724    0.449    5.805
  193.547    0.310   66.796    0.439    5.697
  193.852    0.315   67.366    0.442    6.139
  194.157    0.306   64.289    0.416    6.615
  194.461    0.311   60.615    0.421    7.680
  194.766    0.320   65.420    0.403    8.122
  195.071    0.306   66.619    0.390    8.275
  195.376    0.323   72.052    0.436    8.274
  195.681    0.328   73.835    0.426    8.120
  195.985    0.334   71.978    0.419    7.677
  196.290    0.363   75.598    0.460    6.862
  196.595    0.356   84.060    0.460    5.909
  196.900    0.384   85.245    0.467    4.994
  197.205    0.395   83.386    0.527    4.381
  197.509    0.400   88.206    0.575    3.567
  197.814    0.419   83.922    0.577    3.310
  198.119    0.410   79.641    0.575    2.959
  198.424    0.437   81.424    0.575    2.850
  198.729    0.427   83.218    0.575    2.850
  199.033    0.374   78.929    0.556    3.071
  199.338    0.377   78.282    0.508    3.187
  199.643    0.342   80.687    0.498    3.632
  199.948    0.365   84.296    0.483    4.217
  200.253    0.390   82.438    0.500    4.378
  200.557    0.426   78.156    0.572    3.631
  200.862    0.403   73.262    0.571    3.307
  201.167    0.421   67.749    0.569    3.012
  201.472    0.409   68.335    0.549    3.126
  201.776    0.397   73.760    0.494    3.497
  202.081    0.373   77.985    0.510    4.215
  202.386    0.356   82.196    0.516    5.080
  202.691    0.317   82.162    0.486    5.682
  202.996    0.302   77.263    0.450    6.597
  203.300    0.268   76.634    0.422    6.977
  203.605    0.276   80.836    0.411    7.108
  203.910    0.292   82.620    0.418    6.596
  204.215    0.307   83.210    0.450    5.471
  204.520    0.292   83.176    0.479    5.077
  204.824    0.311   80.100    0.442    4.890
  205.129    0.336   71.558    0.442    4.710
  205.434    0.342   64.241    0.441    4.889
  205.739    0.340   56.318    0.409    5.075
  206.044    0.312   48.993    0.386    6.003
  206.348    0.225   45.927    0.341    6.591
  206.653    0.100   45.888    0.184    7.797
  206.958    0.176   51.923    0.132    9.755
  207.263    0.255   57.965    0.216   13.911
  207.568    0.346   61.574    0.309   17.083
  207.872    0.383   59.721    0.369   17.082
  208.177    0.373   56.041    0.429   14.437
  208.482    0.367   59.050    0.435   11.537
  208.787    0.372   63.860    0.425    9.048
  209.092    0.366   62.615    0.408    8.088
  209.396    0.370   60.769    0.427    7.791
  209.701    0.362   60.120    0.436    7.646
  210.006    0.364   58.874    0.435    7.789
  210.311    0.326   53.978    0.394    7.935
  210.616    0.201   46.046    0.342    8.392
  210.920    0.160   50.868    0.256    9.564
  211.225    0.255   55.088    0.175   10.899
  211.530    0.308   55.672    0.329   11.965
  211.835    0.344   53.812    0.407   13.383
  212.139    0.361   56.206    0.388   11.101
  212.444    0.362   60.409    0.385    9.209
  212.749    0.357   60.389    0.421    8.387
  213.054    0.362   56.106    0.429    8.078
  213.359    0.351   56.679    0.416    7.928
  213.663    0.348   59.677    0.410    7.781
  213.968    0.358   59.037    0.422    7.780
  214.273    0.343   56.574    0.441    7.926
  214.578    0.338   55.325    0.438    7.925
  214.883    0.344   57.114    0.417    8.074
  215.187    0.352   60.115    0.390    8.073
  215.492    0.365   60.078    0.404    8.225
  215.797    0.363   58.833    0.434    8.224
  216.102    0.359   61.829    0.448    8.223
  216.407    0.359   62.409    0.433    8.378
  216.711    0.356   61.156    0.423    8.377
  217.016    0.347   58.090    0.405    8.376
  217.321    0.340   58.057    0.395    8.220
  217.626    0.348   61.664    0.409    8.067
  217.931    0.367   61.628    0.425    8.067
  218.235    0.363   60.384    0.411    7.770
  218.540    0.355   62.156    0.414    7.770
  218.845    0.360   60.923    0.425    7.625
  219.150    0.364   60.882    0.417    7.483
  219.455    0.364   61.455    0.430    7.483
  219.759    0.355   59.607    0.437    7.343
  220.064    0.355   56.531    0.428    7.343
  220.369    0.368   53.444    0.434    7.342
  220.674    0.371   52.811    0.417    7.342
  220.979    0.348   52.788    0.403    7.620
  221.283    0.348   57.614    0.424    7.620
  221.588    0.356   55.747    0.432    7.619
  221.893    0.357   57.530    0.405    7.477
  222.198    0.369   60.541    0.405    7.617
  222.503    0.367   60.505    0.404    7.617
  222.807    0.355   57.433    0.391    7.616
  223.112    0.346   56.791    0.398    7.759
  223.417    0.360   57.364    0.414    7.904
  223.722    0.357   59.148    0.432    7.904
  224.026    0.353   60.324    0.437    7.903
  224.331    0.362   59.697    0.433    7.756
  224.636    0.361   60.264    0.444    7.612
  224.941    0.355   62.057    0.436    7.611
  225.246    0.365   61.403    0.401    7.470
  225.550    0.370   60.778    0.387    7.469
  225.855    0.362   57.699    0.415    7.469
  226.160    0.362   59.495    0.425    7.609
  226.465    0.352   71.593    0.455    7.608
  226.770    0.336   73.392    0.474    7.607
  227.074    0.317   69.714    0.412    6.928
  227.379    0.296   70.892    0.414    6.674
  227.684    0.309   76.925    0.407    6.192
  227.989    0.297   78.716    0.404    5.965
  228.294    0.283   79.291    0.401    5.964
  228.598    0.292   79.260    0.389    6.191
  228.903    0.289   82.855    0.429    6.670
  229.208    0.271   81.001    0.421    6.796
  229.513    0.263   77.933    0.408    6.795
  229.818    0.262   81.544    0.397    6.669
  230.122    0.268   83.944    0.400    6.304
  230.427    0.299   82.685    0.417    6.073
  230.732    0.315   82.658    0.431    6.072
  231.037    0.304   80.808    0.446    6.186
  231.342    0.294   82.585    0.491    5.959
  231.646    0.320   81.347    0.540    5.529
  231.951    0.333   77.057    0.519    4.942
  232.256    0.324   75.802    0.493    4.673
  232.561    0.306   75.171    0.453    4.418
  232.866    0.283   71.477    0.412    4.849
  233.170    0.289   70.246    0.408    5.225
  233.475    0.277   67.775    0.399    5.526
  233.780    0.282   66.528    0.394    6.181
  234.085    0.238   59.208    0.389    6.914
  234.389    0.238   50.668    0.386    7.312
  234.694    0.198   64.606    0.324    7.733
  234.999    0.248   76.112    0.306    8.026
  235.304    0.321   82.143    0.389    8.176
  235.609    0.326   81.501    0.439    8.176
  235.913    0.314   73.578    0.435    8.024
  236.218    0.309   69.293    0.428    7.586
  236.523    0.319   69.262    0.427    7.172
  236.828    0.312   66.791    0.427    6.908
  237.133    0.305   64.329    0.416    6.907
  237.437    0.310   65.514    0.417    6.907
  237.742    0.298   69.117    0.426    7.169
  238.047    0.301   72.733    0.401    7.168
  238.352    0.283   79.371    0.405    7.168
  238.657    0.249   83.593    0.376    7.167
  238.961    0.254   86.593    0.385    7.166
  239.266    0.276   90.195    0.410    7.301
  239.571    0.297   93.797    0.421    7.721
  239.876    0.281   93.777    0.418    7.300
  240.181    0.279   83.424    0.435    7.032
  240.485    0.298   74.275    0.457    6.901
  240.790    0.302   71.212    0.450    7.030
  241.095    0.281   79.064    0.428    7.029
  241.400    0.251   83.273    0.431    6.771
  241.705    0.269   84.468    0.444    6.283
  242.009    0.295   84.432    0.465    5.410
  242.314    0.282   87.418    0.468    4.928
  242.619    0.282   88.009    0.457    4.164
  242.924    0.274   80.077    0.442    3.937
  243.229    0.268   76.404    0.427    4.164
  243.533    0.262   86.081    0.436    4.745
  243.838    0.265   90.296    0.449    5.827
  244.143    0.287   92.689    0.455    6.893
