~VERSION INFORMATION
 VERS.                 2.0:   CWLS LOG ASCII STANDARD -VERSION 2.0
 WRAP.                  NO:   ONE LINE PER DEPTH STEP
~WELL INFORMATION BLOCK
#MNEM.UNIT           DATA                    DESCRIPTION OF MNEMONIC
#---------    -------------------            -------------------------------
# Generated from Intellog Unique Number	CN_94_101/WELL/3192
WELL.         04-04-097-08W4                 : Well_name    - WELL
LOC .         AA/04-04-097-08W4/0            : Location     - LOCATION
UWI .         AA/04-04-097-08W400            : Uwi          - UNIQUE WELL ID
ENTR.         T                              : Entered      - ENTERED BY
SRVC.         SCHLUMBERGER                   : Scn          - SERVICE COMPANY
DATE.         08/11/92                       : Date         - LOG DATE
STRT.M        0                              : top_depth    - START DEPTH
STOP.M        65                             : bot_depth    - STOP DEPTH
STEP.M        0.25                           : increment    - STEP LENGTH
 NULL. -999.2500:NULL Value
~CURVE INFORMATION BLOCK
#MNEM UNIT       ERCB CURVE CODE    CURVE DESCRIPTION
#-----------   ------------------   ----------------------------------
DEPT.M        00 001 00 00         : DEPTH        - DEPTH
DPHI.V/V      00 890 00 00         : PHID         - DENSITY POROSITY (SANDSTONE)
ILD .OHMM     00 120 00 00         : RESD         - DEEP RESISTIVITY (DIL)
NPHI.V/V      00 330 00 00         : PHIN         - NEUTRON POROSITY (SANDSTONE)
RHOB.KG/M3    00 350 00 00         : DENS         - BULK DENSITY
GR  .API      00 310 00 00         : GR           - GAMMA RAY
~PARAMETER INFORMATION
#MNEM.UNIT           DATA             DESCRIPTION OF MNEMONIC
#---------         -----------     ------------------------------
GL  .M        294.57               : gl           - GROUND LEVEL ELEVATION
EREF.M        294.57               : kb           - ELEVATION OF DEPTH REFERENCE
DATM.M        294.57               : datum        - DATUM ELEVATION
TDD .M        68                   : tdd          - TOTAL DEPTH DRILLER
RUN .         ONE                  : Run          - RUN NUMBER
ENG .         JO                   : Engineer     - RECORDING ENGINEER
WIT .         TIM                  : Witness      - WITNESSED BY
MUD .         GEL                  : Mud_type     - MUD TYPE
MATR.         SANDSTONE            : Logunit      - NEUTRON MATRIX
TMAX.C        5                    : BHT          - MAXIMUM RECORDED TEMPERATURE
BHTD.M        68                   : BHTDEP       - MAXIMUM RECORDED TEMPERATURE
RMT .C        5                    : MDTP         - TEMPERATURE OF MUD
MUDD.KG/M     1000                 : MWT          - MUD DENSITY
NEUT.         1                    : NEUTRON      - NEUTRON TYPE
RESI.         0                    : RESIST       - RESISTIVITY TYPE
RM  .OHMM     5.8                  : RM           - RESISTIVITY OF MUD
RMC .OHMM     5.8                  : RMC          - RESISTIVITY OF MUD CAKE
RMF .OHMM     5.8                  : RMF          - RESISTIVITY OF MUD FILTRATE
SUFT.C        4                    : SUFT         - SURFACE TEMPERATURE
~A  DEPTH     PHID     RESD     PHIN     DENS       GR
    0.000   -0.157    0.509    0.421 2908.500   29.598
    0.250   -0.158    0.501    0.435 2910.900   30.238
    0.500   -0.161    0.513    0.445 2915.330   31.905
    0.750   -0.162    0.545    0.453 2917.770   41.055
    1.000   -0.128    0.557    0.465 2860.910   43.810
    1.250   -0.065    0.540    0.481 2757.160   49.237
    1.500   -0.127    0.522    0.493 2859.580   47.725
    1.750   -0.140    0.496    0.490 2880.470   43.577
    2.000   -0.142    0.508    0.483 2884.820   45.256
    2.250   -0.128    0.529    0.479 2860.650   54.406
    2.500   -0.073    0.551    0.474 2771.220   55.034
    2.750   -0.082    0.533    0.472 2785.860   47.163
    3.000   -0.112    0.525    0.468 2835.230   44.611
    3.250   -0.042    0.518    0.458 2719.240   48.417
    3.500   -0.158    0.520    0.455 2911.490   49.577
    3.750   -0.125    0.513    0.453 2856.710   49.141
    4.000   -0.147    0.515    0.457 2891.750   42.853
    4.250   -0.136    0.508    0.460 2873.740   43.469
    4.500   -0.093    0.439    0.472 2802.680   44.628
    4.750   -0.049    0.417    0.488 2731.570   45.255
    5.000   -0.088    0.427    0.498 2795.320   45.895
    5.250   -0.102    0.489    0.503 2818.030   44.927
    5.500   -0.102    0.549    0.504 2818.390   41.311
    5.750   -0.107    0.605    0.496 2826.900   40.330
    6.000   -0.117    0.619    0.495 2843.670   40.426
    6.250   -0.104    0.577    0.490 2821.540   43.725
    6.500   -0.119    0.548    0.489 2846.470   41.161
    6.750   -0.112    0.663    0.493 2834.540   42.852
    7.000   -0.103    0.642    0.499 2820.570   45.063
    7.250    0.146    0.609    0.501 2408.520   48.894
    7.500    0.306    0.624    0.488 2145.570   49.522
    7.750    0.309    0.740    0.469 2139.800   52.289
    8.000    0.292   19.103    0.447 2168.730   52.904
    8.250    0.295   39.713    0.441 2163.050   56.723
    8.500    0.275   71.194    0.438 2196.010   64.822
    8.750    0.261   62.682    0.438 2218.810   63.865
    9.000    0.285   59.555    0.436 2180.400   59.694
    9.250    0.299   73.381    0.435 2156.220   52.330
    9.500    0.311  111.114    0.432 2136.220   49.766
    9.750    0.303  153.276    0.432 2150.860   47.202
   10.000    0.286  142.863    0.433 2177.740   53.681
   10.250    0.286  114.648    0.439 2178.180   55.384
   10.500    0.299   85.439    0.440 2156.000   53.352
   10.750    0.295   94.183    0.441 2162.480   53.447
   11.000    0.293  120.648    0.443 2166.920   51.935
   11.250    0.295  104.316    0.444 2163.240   56.830
   11.500    0.308   85.289    0.445 2141.100   51.063
   11.750    0.327   99.478    0.448 2110.850   42.648
   12.000    0.346  368.789    0.452 2078.610   48.062
   12.250    0.315  636.268    0.456 2129.930   51.893
   12.500    0.324  604.523    0.455 2116.000   49.329
   12.750    0.325  704.723    0.454 2114.360   48.893
   13.000    0.306  885.138    0.451 2145.320   52.180
   13.250    0.316 1112.330    0.450 2129.360   53.339
   13.500    0.328 1203.510    0.450 2109.310   53.967
   13.750    0.325 1142.870    0.449 2113.790   48.223
   14.000    0.328 1084.700    0.449 2108.020   48.307
   14.250    0.337 1415.640    0.448 2094.100   47.882
   14.500    0.332 1179.210    0.446 2102.610   49.574
   14.750    0.318  483.430    0.446 2125.370   50.745
   15.000    0.288  234.516    0.445 2174.740   52.956
   15.250    0.267  115.968    0.435 2209.790   52.000
   15.500    0.280   65.305    0.433 2187.700   49.956
   15.750    0.292   43.494    0.436 2167.650   58.030
   16.000    0.303   36.951    0.430 2149.640   52.818
   16.250    0.292   37.107    0.425 2168.360   53.446
   16.500    0.295   32.084    0.424 2162.640   47.690
   16.750    0.300   31.625    0.426 2154.790   44.050
   17.000    0.300   28.962    0.428 2155.140   45.742
   17.250    0.255   29.601    0.426 2229.000   53.828
   17.500    0.273   35.175    0.426 2198.750   53.923
   17.750    0.289   44.180    0.428 2172.620   55.095
   18.000    0.264   29.456    0.429 2213.740   55.202
   18.250    0.249   21.523    0.429 2238.630   55.274
   18.500    0.259   13.312    0.427 2222.660   58.561
   18.750    0.227    8.541    0.432 2276.070   68.775
   19.000    0.242    6.132    0.436 2249.900   56.093
   19.250    0.277    9.819    0.422 2193.080   47.146
   19.500    0.259   12.565    0.418 2222.040   53.636
   19.750    0.275   14.648    0.425 2195.870   47.337
   20.000    0.294   44.235    0.427 2165.580   41.581
   20.250    0.271   27.858    0.428 2202.800   48.072
   20.500    0.282   13.020    0.428 2184.700   56.678
   20.750    0.266    8.516    0.428 2211.580   65.828
   21.000    0.249    6.346    0.429 2238.510   56.869
   21.250    0.288   10.157    0.428 2175.560   42.083
   21.500    0.286   14.824    0.421 2177.960   43.242
   21.750    0.288   16.953    0.411 2174.240   41.198
   22.000    0.304   18.014    0.403 2148.110   41.826
   22.250    0.297   19.491    0.401 2160.710   39.806
   22.500    0.281   18.509    0.398 2185.590   38.305
   22.750    0.282   15.434    0.399 2183.910   43.176
   23.000    0.287   13.091    0.400 2176.100   41.688
   23.250    0.291   10.322    0.400 2170.290   38.592
   23.500    0.308   11.163    0.397 2142.080   31.761
   23.750    0.280   12.786    0.400 2187.370   32.412
   24.000    0.268   13.827    0.393 2208.090   32.484
   24.250    0.274   14.961    0.384 2198.290   35.251
   24.500    0.285   15.032    0.384 2180.230   34.814
   24.750    0.304   15.095    0.391 2147.940   35.442
   25.000    0.300   12.114    0.401 2154.420   38.197
   25.250    0.311    9.732    0.409 2136.460   39.888
   25.500    0.309   10.535    0.411 2140.890   37.336
   25.750    0.307   13.225    0.404 2143.330   33.176
   26.000    0.307   15.716    0.399 2143.600   37.515
   26.250    0.276   14.648    0.400 2195.010   43.474
   26.500    0.253   15.849    0.401 2232.100   44.113
   26.750    0.249   14.224    0.401 2238.620   41.029
   27.000    0.260   16.284    0.398 2220.660   39.505
   27.250    0.266   19.705    0.398 2210.760   41.197
   27.500    0.260   18.366    0.398 2221.320   43.420
   27.750    0.256   18.791    0.397 2227.890   42.995
   28.000    0.268   22.738    0.397 2207.750   39.379
   28.250    0.288   29.127    0.398 2175.460   38.919
   28.500    0.273   20.125    0.400 2200.300   47.017
   28.750    0.249   13.411    0.403 2239.430   44.973
   29.000    0.280   15.353    0.404 2188.770   37.646
   29.250    0.310   17.897    0.406 2138.070   37.730
   29.500    0.315   20.864    0.406 2130.260   46.856
   29.750    0.309   23.873    0.407 2140.870   49.611
   30.000    0.279   28.384    0.414 2190.190   43.335
   30.250    0.272   25.939    0.415 2200.750   45.559
   30.500    0.284    8.044    0.406 2180.700   48.325
   30.750    0.293    4.127    0.409 2166.770   60.643
   31.000    0.372    2.239    0.427 2036.490   75.112
   31.250    0.463    2.292    0.464 1885.770   53.919
   31.500    0.286    3.280    0.381 2178.090   31.663
   31.750    0.228    5.060    0.353 2274.390   30.162
   32.000    0.168    7.662    0.277 2372.730   33.461
   32.250    0.178   11.813    0.283 2356.810   29.834
   32.500    0.205   12.782    0.301 2312.190   31.525
   32.750    0.235   10.653    0.319 2261.530   40.131
   33.000    0.276    7.099    0.349 2194.550   53.536
   33.250    0.229    5.287    0.421 2272.450   70.133
   33.500    0.226    3.590    0.478 2276.880  100.560
   33.750    0.498    1.616    0.509 1828.160  101.187
   34.000    0.533    1.425    0.521 1771.330   94.900
   34.250    0.196    1.457    0.516 2326.970   95.527
   34.500    0.260    1.333    0.527 2221.170   92.963
   34.750    0.367    1.092    0.543 2043.920   94.654
   35.000    0.634    1.075    0.551 1603.350   82.516
   35.250    0.801    1.627    0.519 1328.160   88.475
   35.500    0.798    1.489    0.452 1332.590   73.665
   35.750    0.275    1.173    0.394 2196.430   47.684
   36.000    0.171    1.743    0.365 2368.270   42.993
   36.250    0.188    2.496    0.380 2340.060   75.547
