~VERSION INFORMATION
 VERS.                 2.0:   CWLS LOG ASCII STANDARD -VERSION 2.0
 WRAP.                  NO:   ONE LINE PER DEPTH STEP
~WELL INFORMATION BLOCK
#MNEM.UNIT           DATA                    DESCRIPTION OF MNEMONIC
#---------    -------------------            -------------------------------
# Generated from Intellog Unique Number	CS_73_76/WELL/3227
WELL.         09-28-076-06W4                 : Well_name    - WELL
LOC .         AA/09-28-076-06W4/0            : Location     - LOCATION
UWI .         AA/09-28-076-06W4/0            : Uwi          - UNIQUE WELL ID
ENTR.         SP                             : Entered      - ENTERED BY
SRVC.         SCHLUMBERGER                   : Scn          - SERVICE COMPANY
STRT.M        145                            : top_depth    - START DEPTH
STOP.M        365                            : bot_depth    - STOP DEPTH
STEP.M        0.25                           : increment    - STEP LENGTH
 NULL. -999.2500:NULL Value
~CURVE INFORMATION BLOCK
#MNEM UNIT       ERCB CURVE CODE    CURVE DESCRIPTION
#-----------   ------------------   ----------------------------------
DEPT.M        00 001 00 00         : DEPTH        - DEPTH
ILD .OHMM     00 120 00 00         : RESD         - DEEP RESISTIVITY (DIL)
GR  .API      00 310 00 00         : GR           - GAMMA RAY
DPHI.V/V      00 890 00 00         : PHID         - DENSITY POROSITY (LIMESTONE)
NPHI.V/V      00 330 00 00         : PHIN         - NEUTRON POROSITY (LIMESTONE)
~PARAMETER INFORMATION
#MNEM.UNIT           DATA             DESCRIPTION OF MNEMONIC
#---------         -----------     ------------------------------
GL  .M        555.14               : gl           - GROUND LEVEL ELEVATION
EREF.M        558.14               : kb           - ELEVATION OF DEPTH REFERENCE
DATM.M        555.14               : datum        - DATUM ELEVATION
TDD .M        366                  : tdd          - TOTAL DEPTH DRILLER
RUN .         ONE                  : Run          - RUN NUMBER
ENG .         BILL                 : Engineer     - RECORDING ENGINEER
WIT .         JIM                  : Witness      - WITNESSED BY
MUD .         GEL                  : Mud_type     - MUD TYPE
MATR.         LIMESTONE            : Logunit      - NEUTRON MATRIX
TMAX.C        22                   : BHT          - MAXIMUM RECORDED TEMPERATURE
BHTD.M        366                  : BHTDEP       - MAXIMUM RECORDED TEMPERATURE
MATR.         1                    : LOGUNIT      - NEUTRON MATRIX
RMT .C        25                   : MDTP         - TEMPERATURE OF MUD
NEUT.         1                    : NEUTRON      - NEUTRON TYPE
RESI.         0                    : RESIST       - RESISTIVITY TYPE
RMC .OHMM     0.25                 : RMC          - RESISTIVITY OF MUD CAKE
RMF .OHMM     0.25                 : RMF          - RESISTIVITY OF MUD FILTRATE
SUFT.C        15                   : SUFT         - SURFACE TEMPERATURE
~A  DEPTH     RESD       GR     PHID     PHIN
  145.000    4.996  114.345    1.058    0.444
  145.250    5.813  111.266    0.265    0.478
  145.500    7.158   97.736    0.278    0.473
  145.750   10.256   94.655    0.291    0.440
  146.000   12.393   99.566    0.278    0.415
  146.250   13.884  108.168    0.279    0.400
  146.500   14.420  116.768    0.279    0.380
  146.750   14.976  117.991    0.269    0.354
  147.000   14.696  114.912    0.262    0.358
  147.250   14.696  114.289    0.258    0.354
  147.500   14.151  116.128    0.259    0.383
  147.750   13.626  118.581    0.247    0.396
  148.000   12.632  122.262    0.231    0.373
  148.250   12.163  127.173    0.217    0.346
  148.500   11.936  130.242    0.208    0.345
  148.750   11.712  132.696    0.199    0.355
  149.000   11.936  135.149    0.205    0.371
  149.250   12.397  135.142    0.214    0.335
  149.500   13.372  127.144    0.224    0.339
  149.750   13.888  120.375    0.225    0.346
  150.000   14.981  111.763    0.225    0.352
  150.250   15.559  104.993    0.235    0.358
  150.500   15.857  103.143    0.244    0.351
  150.750   16.160  104.980    0.246    0.347
  151.000   16.160  106.203    0.246    0.319
  151.250   16.160  108.656    0.241    0.304
  151.500   15.858  110.493    0.241    0.329
  151.750   15.858  109.257    0.244    0.347
  152.000   15.561  108.638    0.249    0.362
  152.250   15.562  113.547    0.249    0.376
  152.500   15.562  114.772    0.245    0.360
  152.750   15.271  115.381    0.238    0.376
  153.000   15.562  112.916    0.235    0.357
  153.250   15.563  109.836    0.234    0.347
  153.500   15.861  109.214    0.240    0.349
  153.750   15.861  109.209    0.247    0.368
  154.000   16.788  103.669    0.256    0.380
  154.250   18.108   93.212    0.277    0.398
  154.500   20.674   82.755    0.296    0.376
  154.750   23.603   67.994    0.312    0.380
  155.000   24.983   56.922    0.323    0.355
  155.250   25.460   51.382    0.315    0.366
  155.500   24.515   51.377    0.314    0.336
  155.750   24.516   53.828    0.327    0.334
  156.000   23.606   59.354    0.335    0.309
  156.250   22.729   63.652    0.348    0.350
  156.500   21.073   67.951    0.360    0.359
  156.750   20.290   75.320    0.345    0.375
  157.000   18.459   82.692    0.333    0.338
  157.250   16.478   93.136    0.323    0.329
  157.500   14.434  102.351    0.304    0.312
  157.750   12.884  110.953    0.284    0.293
  158.000   11.286  127.546    0.258    0.292
  158.250    9.340  134.917    0.213    0.316
  158.500    7.032  138.599    0.202    0.335
  158.750    6.044  138.591    0.187    0.327
  159.000    5.499  136.127    0.133    0.342
  159.250    5.195  137.964    0.142    0.354
  159.500    4.909  140.417    0.171    0.363
  159.750    4.817  141.025    0.200    0.396
  160.000    4.726  141.018    0.215    0.373
  160.250    4.466  140.397    0.211    0.358
  160.500    4.300  137.933    0.203    0.359
  160.750    4.219  133.010    0.190    0.370
  161.000    4.300  128.700    0.190    0.400
  161.250    4.727  120.087    0.200    0.436
  161.500    5.821  105.325    0.216    0.402
  161.750    6.773   94.253    0.243    0.348
  162.000    9.522   81.951    0.260    0.322
  162.250   14.996   71.493    0.283    0.354
  162.500   15.873   66.569    0.291    0.376
  162.750   16.486   69.637    0.296    0.369
  163.000   16.177   75.779    0.294    0.342
  163.250   15.576   86.837    0.285    0.302
  163.500   15.285   91.136    0.283    0.317
  163.750   14.998   92.358    0.281    0.317
  164.000   14.717   90.507    0.274    0.322
  164.250   13.905   93.575    0.267    0.330
  164.500   13.389  100.947    0.259    0.341
  164.750   12.413  108.933    0.251    0.332
  165.000   11.953  137.821    0.241    0.344
  165.250   11.509  152.569    0.230    0.358
  165.500   11.729  174.079    0.186    0.370
  165.750   12.414  190.058    0.136    0.372
  166.000   13.908  115.663    0.169    0.372
  166.250   16.491   95.985    0.282    0.362
  166.500   21.904   89.831    0.332    0.358
  166.750   28.015  100.276    0.337    0.359
  167.000   31.384  137.156    0.332    0.372
  167.250   31.985  156.207    0.324    0.377
  167.500   31.985  169.112    0.315    0.368
  167.750   31.387  179.556    0.316    0.343
  168.000   31.987  173.402    0.321    0.362
  168.250   31.988  150.035    0.326    0.358
  168.500   31.988  113.756    0.329    0.336
  168.750   30.801  103.913    0.330    0.321
  169.000   28.556  106.367    0.326    0.351
  169.250   26.980   97.754    0.315    0.358
  169.500   24.085   90.369    0.304    0.377
  169.750   21.911   87.289    0.298    0.348
  170.000   21.097   90.356    0.289    0.345
  170.250   19.560   95.269    0.282    0.347
  170.500   19.193  102.640    0.274    0.365
  170.750   18.134  110.626    0.269    0.368
  171.000   18.135  116.765    0.272    0.355
  171.250   18.135  116.761    0.279    0.353
  171.500   17.796  110.606    0.284    0.335
  171.750   18.136  104.454    0.278    0.347
  172.000   18.836   83.545    0.265    0.340
  172.250   20.317   71.857    0.262    0.323
  172.500   21.505   66.317    0.263    0.325
  172.750   23.197   61.393    0.276    0.329
  173.000   24.092   58.314    0.271    0.357
  173.250   25.022   57.077    0.284    0.362
  173.500   25.500   58.914    0.296    0.360
  173.750   25.023   61.982    0.309    0.360
  174.000   24.554   66.895    0.320    0.368
  174.250   23.643   70.577    0.304    0.377
  174.500   23.200   73.644    0.302    0.338
  174.750   21.920   75.483    0.301    0.340
  175.000   19.941   79.163    0.292    0.343
  175.250   18.488   81.004    0.283    0.339
  175.500   17.468   86.529    0.260    0.332
  175.750   15.891   93.285    0.246    0.334
  176.000   15.593  101.272    0.236    0.336
  176.250   15.015  106.185    0.239    0.344
  176.500   14.457  100.029    0.244    0.329
  176.750   14.186   96.950    0.245    0.320
  177.000   13.660   98.788    0.251    0.327
  177.250   12.906  104.315    0.230    0.308
  177.500   11.965  102.462    0.223    0.311
  177.750   11.305  104.303    0.230    0.360
  178.000   10.481  111.058    0.237    0.377
  178.250   10.092  116.585    0.222    0.393
  178.500    9.535  122.727    0.207    0.381
  178.750    9.181  125.794    0.211    0.360
  179.000    9.009  126.401    0.216    0.366
  179.250    9.182  123.936    0.226    0.356
  179.500    9.718  116.553    0.231    0.281
  179.750   10.093  111.014    0.234    0.280
  180.000   10.094  111.005    0.239    0.295
  180.250    9.905  112.229    0.238    0.315
  180.500    9.358  114.069    0.226    0.345
  180.750    9.011  118.982    0.213    0.354
  181.000    8.676  128.812    0.207    0.339
  181.250    8.198  133.108    0.213    0.336
  181.500    8.044  130.643    0.221    0.344
  181.750    7.893  124.489    0.231    0.328
  182.000    8.198  121.409    0.229    0.323
  182.250    8.355  122.632    0.223    0.359
  182.500    8.515  123.240    0.229    0.397
  182.750    9.184  121.390    0.243    0.395
  183.000    9.907  118.308    0.247    0.378
  183.250   10.486  118.918    0.242    0.405
  183.500   11.099  115.837    0.249    0.407
  183.750   11.972  115.217    0.254    0.399
  184.000   12.434  111.522    0.255    0.389
  184.250   12.672  111.516    0.262    0.380
  184.500   12.672  113.969    0.264    0.372
  184.750   12.435  120.110    0.260    0.363
  185.000   12.202  119.489    0.240    0.346
  185.250   11.973  120.710    0.232    0.319
  185.500   11.974  122.550    0.223    0.316
  185.750   11.974  123.158    0.224    0.332
  186.000   11.974  120.077    0.224    0.394
  186.250   11.974  116.998    0.227    0.427
  186.500   12.203  109.615    0.246    0.458
  186.750   12.674  105.305    0.264    0.456
  187.000   14.470  101.610    0.280    0.437
  187.250   17.157   96.687    0.293    0.409
  187.500   19.963   88.688    0.290    0.371
  187.750   20.733   86.838    0.273    0.348
  188.000   20.345   73.921    0.268    0.331
  188.250   19.964   65.922    0.282    0.362
