~VERSION INFORMATION
 VERS.                 2.0:   CWLS LOG ASCII STANDARD -VERSION 2.0
 WRAP.                  NO:   ONE LINE PER DEPTH STEP
~WELL INFORMATION BLOCK
#MNEM.UNIT           DATA                    DESCRIPTION OF MNEMONIC
#---------    -------------------            -------------------------------
# Generated from Intellog Unique Number	CN_94_101/WELL/3216
WELL.         01-01-096-07W4                 : Well_name    - WELL
LOC .         AA/01-01-096-07W4/0            : Location     - LOCATION
UWI .         AA/01-01-096-07W400            : Uwi          - UNIQUE WELL ID
ENTR.         JOETTE                         : Entered      - ENTERED BY
SRVC.         SCHLUMBERGER                   : Scn          - SERVICE COMPANY
DATE.         07/20/92                       : Date         - LOG DATE
STRT.M        25                             : top_depth    - START DEPTH
STOP.M        205                            : bot_depth    - STOP DEPTH
STEP.M        0.25                           : increment    - STEP LENGTH
 NULL. -999.2500:NULL Value
~CURVE INFORMATION BLOCK
#MNEM UNIT       ERCB CURVE CODE    CURVE DESCRIPTION
#-----------   ------------------   ----------------------------------
DEPT.M        00 001 00 00         : DEPTH        - DEPTH
ILD .OHMM     00 120 00 00         : RESD         - DEEP RESISTIVITY (DIL)
GR  .API      00 310 00 00         : GR           - GAMMA RAY
NPHI.V/V      00 330 00 00         : PHIN         - NEUTRON POROSITY (SANDSTONE)
DPHI.V/V      00 890 00 00         : PHID         - DENSITY POROSITY (SANDSTONE)
~PARAMETER INFORMATION
#MNEM.UNIT           DATA             DESCRIPTION OF MNEMONIC
#---------         -----------     ------------------------------
GL  .M        488.01               : gl           - GROUND LEVEL ELEVATION
EREF.M        490.01               : kb           - ELEVATION OF DEPTH REFERENCE
DATM.M        490.01               : datum        - DATUM ELEVATION
TDD .M        205                  : tdd          - TOTAL DEPTH DRILLER
RUN .         ONE                  : Run          - RUN NUMBER
ENG .         JO                   : Engineer     - RECORDING ENGINEER
WIT .         TIM                  : Witness      - WITNESSED BY
MUD .         GEL                  : Mud_type     - MUD TYPE
MATR.         SANDSTONE            : Logunit      - NEUTRON MATRIX
TMAX.C        13                   : BHT          - MAXIMUM RECORDED TEMPERATURE
BHTD.M        205                  : BHTDEP       - MAXIMUM RECORDED TEMPERATURE
RMT .C        13                   : MDTP         - TEMPERATURE OF MUD
MUDD.KG/M     1110                 : MWT          - MUD DENSITY
NEUT.         1                    : NEUTRON      - NEUTRON TYPE
RESI.         0                    : RESIST       - RESISTIVITY TYPE
RM  .OHMM     4.23                 : RM           - RESISTIVITY OF MUD
RMC .OHMM     4.23                 : RMC          - RESISTIVITY OF MUD CAKE
RMF .OHMM     4.23                 : RMF          - RESISTIVITY OF MUD FILTRATE
SUFT.C        4                    : SUFT         - SURFACE TEMPERATURE
~A  DEPTH     RESD       GR     PHIN     PHID
# ...
  112.000   80.765   63.874    0.373    0.319
  112.250   82.501   66.994    0.362    0.314
  112.500   82.760   72.622    0.353    0.312
  112.750   76.971   72.688    0.353    0.313
  113.000   68.908   69.110    0.355    0.291
  113.250   58.352   64.921    0.355    0.294
  113.500   55.298   61.955    0.350    0.308
  113.750   55.437   60.209    0.349    0.311
  114.000   55.541   60.886    0.364    0.308
  114.250   57.809   62.216    0.376    0.310
  114.500   60.169   64.136    0.369    0.315
  114.750   60.320   66.056    0.364    0.303
  115.000   57.199   66.754    0.362    0.296
  115.250   56.277   67.452    0.362    0.297
  115.500   56.348   68.761    0.362    0.308
  115.750   56.489   70.092    0.362    0.326
  116.000   56.666   70.790    0.357    0.325
  116.250   56.773   73.931    0.348    0.310
  116.500   58.029   79.516    0.329    0.299
  116.750   58.139   91.230    0.305    0.268
  117.000   58.321   94.372    0.309    0.231
  117.250   57.381   94.481    0.318    0.175
  117.500   53.334   93.957    0.324    0.189
  117.750   46.890   93.434    0.318    0.197
  118.000   43.583   91.056    0.308    0.198
  118.250   37.605   89.943    0.306    0.187
  118.500   28.994   91.230    0.309    0.185
  118.750   24.081   92.561    0.315    0.175
  119.000   22.410   93.259    0.321    0.165
  119.250   23.311   91.492    0.323    0.201
  119.500   24.262   88.547    0.317    0.202
  119.750   22.565   89.223    0.308    0.196
  120.000   23.946   89.943    0.300    0.209
  120.250   25.396   90.031    0.299    0.227
  120.500   24.987   91.950    0.305    0.187
  120.750   25.049   98.757    0.335    0.181
  121.000   26.072  103.774    0.361    0.201
  121.250   26.632  103.250    0.384    0.218
  121.500   26.682  100.894    0.403    0.257
  121.750   25.302  100.327    0.359    0.278
  122.000   23.978  100.436    0.331    0.225
  122.250   23.562  101.767    0.321    0.214
  122.500   23.182  102.465    0.337    0.196
  122.750   23.255  104.974    0.358    0.207
  123.000   23.754  103.229    0.359    0.242
  123.250   23.799  100.284    0.359    0.279
  123.500   24.771  105.236    0.379    0.290
  123.750   24.833  104.101    0.389    0.309
  124.000   23.548  101.134    0.361    0.279
  124.250   22.329   99.389    0.335    0.250
  124.500   22.358   99.476    0.325    0.235
  124.750   22.414   99.564    0.309    0.225
  125.000   23.785   97.840    0.300    0.210
  125.250   25.225   96.095    0.303    0.181
  125.500   25.767   93.761    0.308    0.191
  125.750   24.419   93.805    0.306    0.184
  126.000   24.480   94.503    0.295    0.199
  126.250   24.990   98.277    0.290    0.193
  126.500   25.069  100.196    0.286    0.176
  126.750   24.634   99.673    0.286    0.176
  127.000   24.267   98.517    0.293    0.175
  127.250   23.846  101.091    0.304    0.169
  127.500   23.462  104.232    0.317    0.164
  127.750   22.655  107.352    0.350    0.164
  128.000   21.876  111.715    0.417    0.181
  128.250   21.944  119.764    0.438    0.232
  128.500   21.986  122.906    0.459    0.268
  128.750   21.631  121.161    0.481    0.280
  129.000   20.887  117.583    0.470    0.270
  129.250   20.181  106.675    0.420    0.269
  129.500   19.463  104.908    0.390    0.263
  129.750   17.765  104.385    0.358    0.246
  130.000   15.053  105.105    0.366    0.231
  130.250   13.485  105.825    0.409    0.216
  130.500   12.771  105.279    0.411    0.200
  130.750   12.565  107.810    0.412    0.193
  131.000   12.827  111.562    0.423    0.188
  131.250   13.604  115.947    0.444    0.164
  131.500   13.384  120.310    0.494    0.194
  131.750   12.448  125.305    0.550    0.255
  132.000   13.975  125.371    0.617    0.316
  132.250   14.820  121.204    0.618    0.330
  132.500   15.139  123.124    0.614    0.365
  132.750   16.045  125.044    0.605    0.341
  133.000   11.694  123.298    0.590    0.335
  133.250    9.903  120.921    0.573    0.338
  133.500    9.033  119.808    0.559    0.327
  133.750    7.368  121.095    0.552    0.296
  134.000    4.706  118.739    0.551    0.296
  134.250    4.219  116.994    0.515    0.309
  134.500    4.229  120.157    0.513    0.291
  134.750    4.320  123.909    0.519    0.294
  135.000    4.499  124.629    0.530    0.300
  135.250    4.508  121.640    0.538    0.297
  135.500    4.599  120.506    0.486    0.301
  135.750    5.067  123.058    0.477    0.274
  136.000    6.021  127.421    0.476    0.268
  136.250    5.917  131.763    0.485    0.268
  136.500    5.821  132.483    0.497    0.274
  136.750    6.414  130.759    0.503    0.289
  137.000    7.057  130.214    0.513    0.293
  137.250    7.218  130.912    0.511    0.293
  137.500    6.709  132.221    0.520    0.296
  137.750    6.236  134.162    0.533    0.293
  138.000    6.131  136.715    0.539    0.298
  138.250    8.460  138.613    0.527    0.303
  138.500    9.492  141.143    0.533    0.304
  138.750    7.598  140.009    0.540    0.291
  139.000    6.680  138.874    0.529    0.288
  139.250    6.326  138.351    0.516    0.304
  139.500    7.232  140.271    0.525    0.309
  139.750    7.120  142.190    0.538    0.299
  140.000    6.747  142.888    0.543    0.290
  140.250    6.044  141.754    0.538    0.289
  140.500    5.618  137.565    0.538    0.279
  140.750    5.962  137.653    0.530    0.281
  141.000    5.650  136.518    0.519    0.273
  141.250    5.455  134.184    0.510    0.274
  141.500    5.261  133.050    0.525    0.262
  141.750    4.896  127.596    0.524    0.270
  142.000    4.554  110.580    0.463    0.259
  142.250    4.565  102.094    0.454    0.236
  142.500    4.577   94.874    0.427    0.214
  142.750    4.675   92.517    0.427    0.232
  143.000    4.684   89.529    0.434    0.267
  143.250    4.875   85.929    0.429    0.289
  143.500    5.469   82.984    0.419    0.299
  143.750    6.136   85.515    0.413    0.300
  144.000    6.391   87.435    0.421    0.302
  144.250    6.167   90.598    0.419    0.306
  144.500    5.736   91.274    0.409    0.281
  144.750    6.198   89.551    0.399    0.263
  145.000    7.219   90.227    0.388    0.238
  145.250   19.581   94.590    0.387    0.223
  145.500   16.895   94.699    0.380    0.252
  145.750   15.703   95.397    0.381    0.280
  146.000   16.980   99.782    0.392    0.290
  146.250   20.923  101.702    0.402    0.290
  146.500   27.273  105.432    0.400    0.292
  146.750   27.860  107.984    0.404    0.284
  147.000   23.168  105.628    0.421    0.278
  147.250   27.497  103.272    0.423    0.276
  147.500   30.257  103.970    0.413    0.290
  147.750   35.910  106.501    0.403    0.285
  148.000   41.102  110.886    0.405    0.285
  148.250   41.959  111.584    0.414    0.282
  148.500   43.672  111.060    0.413    0.274
  148.750   48.086  111.147    0.397    0.258
  149.000   53.949  112.456    0.405    0.249
  149.250   52.093  114.376    0.403    0.260
  149.500   46.666  116.907    0.387    0.271
  149.750   42.569  118.826    0.379    0.277
  150.000   39.616  120.157    0.379    0.270
  150.250   40.493  117.801    0.376    0.258
  150.500   42.093  116.056    0.375    0.246
  150.750   47.225  119.175    0.369    0.247
  151.000   49.153  121.706    0.364    0.235
  151.250   48.391  123.015    0.370    0.226
  151.500   43.322  123.102    0.379    0.222
  151.750   38.112  124.411    0.393    0.226
  152.000   38.183  125.764    0.385    0.228
  152.250   40.495  123.997    0.383    0.231
  152.500   45.460  124.084    0.389    0.231
  152.750   44.727  126.614    0.396    0.235
  153.000   41.573  126.091    0.392    0.224
  153.250   38.641  122.513    0.384    0.226
  153.500   35.270  122.644    0.383    0.242
  153.750   34.702  123.320    0.386    0.247
  154.000   34.185  124.040    0.386    0.258
  154.250   34.228  124.084    0.385    0.262
  154.500   34.336  120.528    0.386    0.266
  154.750   34.422  116.318    0.390    0.268
  155.000   35.140  113.329    0.397    0.257
  155.250   35.228  111.584    0.389    0.244
