~VERSION INFORMATION
 VERS.                 2.0:   CWLS LOG ASCII STANDARD -VERSION 2.0
 WRAP.                  NO:   ONE LINE PER DEPTH STEP
~WELL INFORMATION BLOCK
#MNEM.UNIT           DATA                    DESCRIPTION OF MNEMONIC
#---------    -------------------            -------------------------------
# Generated from Intellog Unique Number	CC_84_87/WELL/1166
NULL.         -999.25                        : NULL_VALUE
WELL.         TEXCAN HORSE RIVER             : Well_name    - WELL
LOC .         07-24-085-12W4                 : Location     - LOCATION          
UWI .         AA/07-24-085-12W400            : Uwi          - UNIQUE WELL ID    
ENTR.         DW                             : Entered      - ENTERED BY        
SRVC.         DRESSER ATLAS                  : Scn          - SERVICE COMPANY   
DATE.         13 MAR 76                      : Date         - LOG DATE
STRT.M        97.536                         : top_depth    - START DEPTH       
STOP.M        262.126                        : bot_depth    - STOP DEPTH        
STEP.M        0.3048                         : increment    - STEP LENGTH       
~CURVE INFORMATION BLOCK
#MNEM UNIT       ERCB CURVE CODE    CURVE DESCRIPTION
#-----------   ------------------   ----------------------------------
DEPT.M        00 001 00 00         : DEPTH        - DEPTH                       
NPHI.V/V      00 330 00 00         : PHIN         - NEUTRON POROSITY (LIMESTONE)
GR  .API      00 310 00 00         : GR           - GAMMA RAY                   
ILD .OHMM     00 120 00 00         : RESD         - DEEP RESISTIVITY (DIL)      
DPHI.V/V      00 890 00 00         : PHID         - DENSITY POROSITY (LIMESTONE)
~PARAMETER INFORMATION       
#MNEM.UNIT           DATA             DESCRIPTION OF MNEMONIC
#---------         -----------     ------------------------------
GL  .M        528.523              : gl           - GROUND LEVEL ELEVATION      
EREF.M        531.876              : kb           - ELEVATION OF DEPTH REFERENCE
DATM.M        531.876              : datum        - DATUM ELEVATION             
TDD .M        262.738              : tdd          - TOTAL DEPTH DRILLER         
RUN .         ONE                  : Run          - RUN NUMBER                  
ENG .         BILL                 : Engineer     - RECORDING ENGINEER          
WIT .         JIM                  : Witness      - WITNESSED BY                
MUD .         GEL                  : Mud_type     - MUD TYPE                    
MATR.         LIMESTONE            : Logunit      - NEUTRON MATRIX              
TMAX.C        16.6667              : BHT          - MAXIMUM RECORDED TEMPERATURE
BHTD.M        263.347              : BHTDEP       - MAXIMUM RECORDED TEMPERATURE
MATR.         1                    : LOGUNIT      - NEUTRON MATRIX              
RMT .C        25                   : MDTP         - TEMPERATURE OF MUD          
NEUT.         1                    : NEUTRON      - NEUTRON TYPE                
RESI.         0                    : RESIST       - RESISTIVITY TYPE            
RMC .OHMM     0.25                 : RMC          - RESISTIVITY OF MUD CAKE     
RMF .OHMM     0.25                 : RMF          - RESISTIVITY OF MUD FILTRATE 
SUFT.C        15                   : SUFT         - SURFACE TEMPERATURE         
~A  DEPTH     PHIN       GR     RESD     PHID
   97.536    0.354   86.403   14.051    0.352
   97.841    0.382   78.609   12.569    0.383
   98.146    0.421   94.818   11.035    0.397
   98.450    0.446  104.427    8.828    0.360
   98.755    0.495  118.837    7.897    0.320
   99.060    0.487  119.446    7.899    0.326
   99.365    0.377   99.050   10.251    0.328
   99.670    0.362   94.857   13.809    0.329
   99.974    0.373   92.465   15.443    0.333
  100.279    0.397   92.472   16.333    0.312
  100.584    0.405   98.481   15.740    0.281
  100.889    0.401  108.689   15.451    0.275
  101.194    0.383  106.298   14.346    0.269
  101.498    0.386   97.905   13.824    0.266
  101.803    0.397   97.912   12.835    0.302
  102.108    0.406   97.919   12.368    0.269
  102.413    0.396   91.926   12.370    0.280
  102.718    0.380   73.933   12.372    0.296
  103.022    0.377   76.340   11.275    0.270
  103.327    0.390   84.149   10.275    0.265
  103.632    0.412   90.158    9.021    0.329
  103.937    0.423   96.168    7.084    0.405
  104.242    0.430   94.974    5.993    0.430
  104.546    0.425   93.181    5.668    0.429
  104.851    0.407  102.191    5.884    0.298
  105.156    0.391  108.799    6.959    0.247
  105.461    0.387   87.804    8.229    0.203
  105.766    0.391   79.411    9.375    0.236
  106.070    0.386   77.619   10.101    0.282
  106.375    0.385   80.626   10.104    0.323
  106.680    0.406   83.034   10.106    0.444
  106.985    0.441   85.444   10.107    0.455
  107.290    0.464   89.650    9.739    0.333
  107.594    0.497   86.658    9.042    0.240
  107.899    0.493   91.467    7.940    0.333
  108.204    0.462  101.075    6.971    0.382
  108.509    0.424  111.885    6.120    0.506
  108.814    0.425  116.092    6.237    0.339
  109.118    0.430  118.500    6.846    0.319
  109.423    0.434  122.110    9.052    0.327
  109.728    0.404  123.318   12.656    0.327
  110.033    0.387  118.523   15.534    0.316
  110.338    0.387  100.531   17.052    0.310
  110.642    0.392  100.536   17.055    0.306
  110.947    0.398   93.344   16.436    0.307
  111.252    0.407   90.351   15.839    0.307
  111.557    0.407   90.358   15.549    0.307
  111.862    0.399   93.367   14.708    0.300
  112.166    0.390   99.975   14.172    0.290
  112.471    0.385   96.982   13.656    0.275
  112.776    0.382   99.991   13.659    0.294
  113.081    0.381   92.798   13.662    0.311
  113.386    0.382  100.007   13.412    0.316
  113.691    0.390   98.818   12.925    0.316
  113.995    0.392   97.024   12.224    0.306
  114.300    0.398   97.029   11.350    0.286
  114.605    0.409   98.837   11.142    0.278
  114.910    0.408  105.445   11.145    0.268
  115.215    0.403   97.054   11.570    0.284
  115.519    0.397   97.060   11.788    0.344
  115.824    0.388  103.069   12.013    0.425
  116.129    0.382  104.876   12.240    0.390
  116.434    0.399  103.685   12.706    0.354
  116.739    0.391   98.292   14.477    0.338
  117.043    0.366   82.697   15.891    0.339
  117.348    0.374   69.503   17.122    0.338
  117.653    0.383   64.112   18.109    0.335
  117.958    0.383   68.919   18.800    0.332
  118.263    0.380   71.928   18.456    0.327
  118.567    0.377   73.736   18.118    0.321
  118.872    0.375   73.142   17.461    0.316
  119.177    0.370   63.550   17.463    0.311
  119.482    0.364   67.159   16.519    0.311
  119.787    0.381   70.766   16.216    0.315
  120.091    0.383   73.174   15.056    0.317
  120.396    0.382   70.781   15.057    0.330
  120.701    0.376   67.188   15.925    0.335
  121.006    0.367   59.395   17.482    0.298
  121.311    0.356   51.004   20.673    0.196
  121.615    0.338   49.810   24.446    0.105
  121.920    0.268   49.818   26.339    0.262
  122.225    0.217   53.426   26.346    0.335
  122.530    0.225   54.035   24.460    0.330
  122.835    0.338   53.441   22.290    0.310
  123.139    0.344   54.048   20.313    0.299
  123.444    0.334   55.856   19.213    0.332
  123.749    0.326   51.664   18.862    0.328
  124.054    0.324   48.672   18.519    0.325
  124.359    0.342   48.080   18.521    0.321
  124.663    0.352   51.087   18.183    0.307
  124.968    0.360   54.095   16.882    0.302
  125.273    0.376   57.703   15.968    0.296
  125.578    0.391   61.913   15.104    0.337
  125.883    0.398   64.320   14.828    0.354
  126.187    0.411   69.728   15.109    0.327
  126.492    0.434   79.937   15.979    0.305
  126.797    0.404   66.143   16.588    0.312
  127.102    0.369   55.951   16.903    0.293
  127.407    0.356   58.358   16.906    0.289
  127.711    0.357   62.566   16.291    0.290
  128.016    0.360   61.973   14.846    0.296
  128.321    0.384   63.182   13.035    0.323
  128.626    0.385   83.591   11.027    0.327
  128.931    0.386   92.000   10.430    0.340
  129.235    0.396   80.610    9.684    0.349
  129.540    0.400   80.014    9.506    0.328
  129.845    0.434   84.225    8.992    0.334
  130.150    0.449   89.031    8.194    0.250
  130.455    0.453   96.240    7.468    0.266
  130.759    0.455   98.048    7.063    0.281
  131.064    0.452  102.256    6.935    0.272
  131.369    0.447  112.465    6.936    0.263
  131.674    0.442  111.272    7.067    0.246
  131.979    0.425  119.681    7.201    0.207
  132.283    0.407  120.889    7.338    0.205
  132.588    0.414  104.095    7.204    0.218
  132.893    0.431  112.504    6.942    0.227
  133.198    0.442  127.514    6.689    0.215
  133.502    0.439  116.720    6.446    0.209
  133.807    0.435  113.728    6.328    0.214
  134.112    0.452  109.535    6.213    0.221
  134.417    0.462  120.344    6.100    0.243
  134.722    0.457  119.751    6.215    0.252
  135.026    0.451  116.159    6.452    0.257
  135.331    0.448  117.967    6.453    0.263
  135.636    0.456  118.575    6.575    0.259
  135.941    0.463  116.183    6.577    0.240
  136.246    0.457  110.189    6.578    0.198
  136.550    0.448  117.397    6.458    0.167
  136.855    0.459  111.404    6.340    0.147
  137.160    0.487  112.612    6.109    0.140
  137.465    0.486  120.422    5.779    0.186
  137.770    0.473  119.829    5.365    0.195
  138.074    0.468  122.836    5.074    0.240
  138.379    0.475  128.245    4.890    0.283
  138.684    0.491  119.251    4.540    0.296
  138.989    0.501  116.260    4.457    0.284
  139.294    0.503  110.867    4.375    0.285
  139.598    0.507  109.673    4.459    0.329
  139.903    0.505  114.483    4.543    0.372
  140.208    0.505  112.690    4.544    0.322
  140.513    0.510  110.899    4.379    0.307
  140.818    0.509  111.506    4.299    0.306
  141.122    0.505  114.516    4.143    0.313
  141.427    0.504  113.922    4.143    0.317
  141.732    0.511  109.728    4.222    0.319
  142.037    0.513  110.336    4.302    0.327
  142.342    0.503  105.543    4.550    0.378
  142.646    0.482  108.553    4.723    0.385
  142.951    0.467  105.559    5.089    0.366
  143.256    0.475   97.765    5.483    0.329
  143.561    0.475   92.372    5.799    0.316
  143.865    0.467   91.780    6.133    0.310
  144.170    0.463   94.188    6.367    0.300
  144.475    0.452   83.395    6.989    0.298
  144.780    0.439   89.404    7.672    0.291
  145.085    0.421   86.410    8.741    0.280
  145.389    0.406   81.617    9.775    0.276
  145.694    0.412   85.229    9.777    0.314
  145.999    0.404   87.635    8.910    0.349
  146.304    0.403   78.640    6.868    0.345
  146.609    0.443   79.248    6.496    0.311
  146.913    0.453   87.656    6.497    0.302
  147.218    0.442   94.265    6.498    0.310
  147.523    0.417   87.673    6.621    0.309
  147.828    0.389   85.880    7.134    0.287
  148.133    0.387   91.890    8.281    0.256
  148.437    0.388   79.895    9.793    0.251
  148.742    0.378   84.704   10.551    0.304
  149.047    0.382   85.312   10.752    0.318
  149.352    0.392   85.321   10.556    0.306
  149.657    0.385   86.528   10.557    0.287
  149.961    0.372   87.134   10.758    0.244
  150.266    0.362   80.542   10.961    0.212
