~VERSION INFORMATION
 VERS.                 2.0:   CWLS LOG ASCII STANDARD -VERSION 2.0
 WRAP.                  NO:   ONE LINE PER DEPTH STEP
~WELL INFORMATION BLOCK
#MNEM.UNIT           DATA                    DESCRIPTION OF MNEMONIC
#---------    -------------------            -------------------------------
# Generated from Intellog Unique Number	CN_94_101/WELL/3271
WELL.         CDC OIL & GAS LTD.             : Well_name    - WELL
LOC .         AA/01-01-095-07W4/0            : Location     - LOCATION
UWI .         AA/01-01-095-07W400            : Uwi          - UNIQUE WELL ID
ENTR.         TIM                            : Entered      - ENTERED BY
SRVC.         SCHLUMBERGER                   : Scn          - SERVICE COMPANY
DATE.         07/22/92                       : Date         - LOG DATE
STRT.M        90                             : top_depth    - START DEPTH
STOP.M        300                            : bot_depth    - STOP DEPTH
STEP.M        0.25                           : increment    - STEP LENGTH
 NULL. -999.2500:NULL Value
~CURVE INFORMATION BLOCK
#MNEM UNIT       ERCB CURVE CODE    CURVE DESCRIPTION
#-----------   ------------------   ----------------------------------
DEPT.M        00 001 00 00         : DEPTH        - DEPTH
GR  .API      00 310 00 00         : GR           - GAMMA RAY
ILD .OHMM     00 120 00 00         : RESD         - DEEP RESISTIVITY (DIL)
NPHI.V/V      00 330 00 00         : PHIN         - NEUTRON POROSITY (SANDSTONE)
DPHI.V/V      00 890 00 00         : PHID         - DENSITY POROSITY (SANDSTONE)
~PARAMETER INFORMATION
#MNEM.UNIT           DATA             DESCRIPTION OF MNEMONIC
#---------         -----------     ------------------------------
GL  .M        530.35               : gl           - GROUND LEVEL ELEVATION
EREF.M        531.35               : kb           - ELEVATION OF DEPTH REFERENCE
DATM.M        531.35               : datum        - DATUM ELEVATION
TDD .M        298                  : tdd          - TOTAL DEPTH DRILLER
RUN .         0.000000             : Run          - RUN NUMBER
MUD .         GEL                  : Mud_type     - MUD TYPE
MATR.         SANDSTONE            : Logunit      - NEUTRON MATRIX
TMAX.C        18                   : BHT          - MAXIMUM RECORDED TEMPERATURE
BHTD.M        298.5                : BHTDEP       - MAXIMUM RECORDED TEMPERATURE
RMT .C        18                   : MDTP         - TEMPERATURE OF MUD
MUDD.KG/M     1140                 : MWT          - MUD DENSITY
NEUT.         1                    : NEUTRON      - NEUTRON TYPE
RESI.         0                    : RESIST       - RESISTIVITY TYPE
RM  .OHMM     5.88                 : RM           - RESISTIVITY OF MUD
RMC .OHMM     5.88                 : RMC          - RESISTIVITY OF MUD CAKE
RMF .OHMM     6.6                  : RMF          - RESISTIVITY OF MUD FILTRATE
SUFT.C        4                    : SUFT         - SURFACE TEMPERATURE
BTZC.MM       0                    : BITZC        - BIT SIZE CONSTANT
MDW .KG/M     1120                 : MDW          - MUD WEIGHT
~A  DEPTH       GR     RESD     PHIN     PHID
# ...
  177.000   74.125   10.663    0.431    0.226
  177.250   77.794    9.734    0.459    0.268
  177.500   82.688    8.883    0.478    0.284
  177.750   86.363    8.410    0.488    0.286
  178.000   86.951    7.818    0.491    0.262
  178.250   86.929    7.683    0.500    0.272
  178.500   86.297    7.687    0.509    0.285
  178.750   85.039    7.838    0.498    0.280
  179.000   82.557    7.988    0.479    0.288
  179.250   79.454    8.143    0.476    0.295
  179.500   76.356    8.300    0.476    0.292
  179.750   75.730    8.308    0.477    0.295
  180.000   73.863    8.313    0.465    0.297
  180.250   74.445    8.170    0.454    0.292
  180.500   76.884    8.175    0.460    0.281
  180.750   78.713    8.030    0.465    0.265
  181.000   81.157    8.038    0.467    0.273
  181.250   76.829    7.897    0.467    0.276
  181.500   76.807    8.050    0.471    0.275
  181.750   82.937    8.206    0.474    0.271
  182.000   81.070    8.521    0.477    0.260
  182.250   78.576    8.686    0.480    0.232
  182.500   77.945    8.225    0.476    0.211
  182.750   77.308    7.506    0.479    0.190
  183.000   78.516    6.727    0.482    0.245
  183.250   81.570    6.028    0.448    0.273
  183.500   85.234    5.813    0.489    0.282
  183.750   87.678    5.505    0.526    0.282
  184.000   86.420    5.409    0.529    0.282
  184.250   86.404    5.413    0.501    0.279
  184.500   86.376    5.415    0.491    0.279
  184.750   86.975    5.419    0.500    0.292
  185.000   88.793    5.423    0.525    0.297
  185.250   90.007    5.045    0.547    0.291
  185.500   91.825    4.863    0.551    0.286
  185.750   93.039    4.439    0.573    0.288
  186.000   94.242    3.833    0.584    0.303
  186.250   95.450    3.499    0.599    0.304
  186.500   96.049    3.252    0.611    0.299
  186.750   97.247    3.080    0.617    0.301
  187.000   97.845    3.025    0.619    0.308
  187.250   98.439    3.084    0.627    0.311
  187.500   99.032    3.512    0.633    0.303
  187.750   99.010    4.633    0.637    0.300
  188.000   94.072    4.900    0.603    0.296
  188.250   90.360    5.897    0.564    0.291
  188.500   89.723    6.966    0.534    0.282
  188.750   89.080    7.505    0.519    0.275
  189.000   87.828    7.239    0.521    0.282
  189.250   87.196    6.982    0.525    0.287
  189.500   85.329    6.860    0.531    0.291
  189.750   85.922    6.994    0.535    0.288
  190.000   88.965    7.261    0.531    0.283
  190.250   88.943    7.969    0.523    0.278
  190.500   87.686    8.745    0.508    0.267
  190.750   86.439    9.249    0.480    0.248
  191.000   85.192    9.784    0.466    0.232
  191.250   83.325    9.788    0.452    0.215
  191.500   83.298    9.797    0.447    0.220
  191.750   85.116    9.111    0.453    0.229
  192.000   85.715    8.947    0.455    0.255
  192.250   86.313    8.472    0.464    0.260
  192.500   86.291    7.733    0.470    0.277
  192.750   85.654    7.458    0.478    0.278
  193.000   84.391    7.064    0.484    0.277
  193.250   84.380    6.938    0.494    0.273
  193.500   85.589    6.816    0.501    0.265
  193.750   87.412    6.458    0.509    0.251
  194.000   88.006    6.344    0.515    0.247
  194.250   87.984    6.232    0.524    0.267
  194.500   87.962    6.009    0.530    0.277
  194.750   91.005    5.797    0.527    0.273
  195.000   92.224    5.697    0.524    0.264
  195.250   94.663    5.700    0.515    0.250
  195.500   94.641    5.499    0.505    0.245
  195.750   93.999    5.304    0.497    0.255
  196.000   94.597    5.210    0.515    0.264
  196.250   96.410    4.934    0.529    0.275
  196.500   97.014    4.759    0.537    0.279
  196.750   97.607    4.345    0.547    0.279
  197.000   98.201    4.268    0.555    0.280
  197.250   98.778    4.115    0.562    0.283
  197.500   98.766    3.897    0.561    0.284
  197.750   97.514    3.829    0.540    0.288
  198.000   95.032    3.832    0.529    0.289
  198.250   92.549    3.835    0.532    0.289
  198.500   91.297    3.837    0.536    0.290
  198.750   91.275    3.842    0.543    0.289
  199.000   92.478    3.845    0.553    0.284
  199.250   93.687    3.918    0.561    0.268
  199.500   94.285    3.994    0.566    0.262
  199.750   93.643    4.072    0.563    0.264
  200.000   92.391    4.075    0.538    0.263
  200.250   91.754    4.077    0.534    0.261
  200.500   91.111    4.157    0.518    0.262
  200.750   91.716    4.160    0.510    0.268
  201.000   92.918    4.241    0.496    0.267
  201.250   95.352    4.403    0.499    0.239
  201.500   95.956    5.014    0.501    0.229
  201.750   96.549    5.401    0.494    0.214
  202.000   94.067    6.038    0.480    0.207
  202.250   90.969    6.748    0.471    0.198
  202.500   87.861    7.405    0.461    0.183
  202.750   86.608    7.978    0.452    0.176
  203.000   86.587    8.132    0.447    0.207
  203.250   87.180    8.138    0.450    0.253
  203.500   87.158    8.146    0.452    0.254
  203.750   86.521    7.859    0.456    0.248
  204.000   86.504    7.862    0.461    0.237
  204.250   86.477    7.868    0.465    0.224
  204.500   85.840    8.171    0.461    0.218
  204.750   84.588    8.484    0.452    0.206
  205.000   82.106    8.807    0.440    0.185
  205.250   79.008    8.980    0.422    0.133
  205.500   80.216    8.660    0.397    0.092
  205.750   82.655    6.335    0.389    0.199
  206.000   82.633    4.634    0.446    0.236
  206.250   80.766    3.718    0.480    0.280
  206.500   78.898    3.095    0.530    0.301
  206.750   78.261    2.877    0.597    0.306
  207.000   78.855    2.827    0.620    0.296
  207.250   79.443    2.935    0.597    0.284
  207.500   80.047    3.047    0.604    0.287
  207.750   81.865    3.344    0.566    0.293
  208.000   83.683    3.472    0.542    0.289
  208.250   85.512    3.881    0.510    0.273
  208.500   86.720    4.259    0.512    0.260
  208.750   87.314    4.505    0.505    0.256
  209.000   87.901    4.765    0.485    0.250
  209.250   87.885    4.858    0.472    0.246
  209.500   87.852    4.953    0.468    0.241
  209.750   87.836    5.047    0.475    0.252
  210.000   87.199    5.145    0.490    0.244
  210.250   87.182    5.246    0.484    0.223
  210.500   85.315    5.347    0.473    0.218
  210.750   83.442    5.350    0.464    0.211
  211.000   82.190    5.256    0.460    0.208
  211.250   85.865    5.164    0.466    0.222
  211.500   88.918    5.074    0.476    0.245
  211.750   90.127    4.894    0.495    0.272
  212.000   90.105    4.809    0.513    0.277
  212.250   89.468    4.725    0.529    0.269
  212.500   88.210    4.641    0.536    0.263
  212.750   88.189    4.478    0.529    0.271
  213.000   86.936    4.480    0.517    0.269
  213.250   89.370    4.167    0.501    0.271
  213.500   90.589    4.093    0.505    0.275
  213.750   93.028    3.946    0.528    0.279
  214.000   94.851    3.878    0.554    0.262
  214.250   96.060    3.809    0.549    0.263
  214.500   96.653    3.884    0.546    0.268
  214.750   95.401    3.959    0.550    0.269
  215.000   92.913    4.111    0.548    0.267
  215.250   91.046    4.348    0.544    0.267
  215.500   89.793    4.432    0.539    0.262
  215.750   88.541    4.956    0.532    0.246
  216.000   87.899    5.144    0.521    0.235
  216.250   87.877    5.343    0.511    0.227
  216.500   87.855    5.447    0.503    0.219
  216.750   87.838    5.449    0.497    0.207
  217.000   82.890    5.555    0.481    0.203
  217.250   78.567    5.875    0.458    0.210
  217.500   71.779    6.567    0.445    0.235
  217.750   63.760    7.615    0.430    0.244
  218.000   55.121   14.270    0.405    0.267
  218.250   47.717   15.653    0.356    0.280
  218.500   40.929   20.277    0.341    0.301
  218.750   35.365   33.377    0.344    0.288
  219.000   37.809   28.302    0.349    0.275
  219.250   45.784   23.990    0.386    0.262
  219.500   52.523   16.918    0.400    0.271
  219.750   55.583   15.437    0.408    0.244
  220.000   57.406   13.831    0.414    0.235
  220.250   56.758   15.748    0.398    0.222
