~Version : LASO    vs 4.00 
VERS.                2.00:   CWLS Log ASCII Standard -VERSION 2.0
WRAP.                  NO:
~Well Information Block
#MNEM.UNIT       Data                        Description of Mnemonic
#----.----      -------------------------- : -----------------------------
STRT.M            15.0000:
STOP.M           207.0000:
STEP.M             0.2000:
NULL.           -999.2500:
COMP.  MOBIL OIL CANADA                   :COMPANY
WELL.  MOBIL CLARKE OV 1-2                :WELL
FLD.                                      :FIELD
LOC.   01-02-090-08W4                     :LOCATION
CTRY.  CANADA                             :COUNTRY
PROV.  ALBERTA                            :PROVINCE
SRVC.  SCHLUMBERGER                       :SERVICE COMPANY
DATE.  05-MAR-81                          :LOG DATE
UWI.   AA/01-02-090-08W400                :UNIQUE WELL ID
~Parameter Information Block
#MNEM.UNIT       Data                        Description of Mnemonic
#----.----      -------------------------- : -----------------------------
RUN .                   1                 : Run Number
GL  .M           444.4000                 : Ground Level Elevation
DREF.                  KB                 : Depth Reference
EREF.M           444.4000                 : Elevation of Depth Reference
TDL .M           207.0000                 : Total Depth Logger
TDD .M           206.0000                 : Total Depth Driller
CSGL.M            27.0000                 : Casing Bottom Logger
CSGD.M            26.4000                 : Casing Bottom Driller
CSGS.MM          219.0000                 : Casing Size
CSGW.KG/M          0.0000                 : Casing Weight
BS  .MM          159.0000                 : Bit Size
DFD .           9999.0000                 : Mud Weight (Density)
~Curve Information Block
#MNEM.UNIT        API CODE    Curve Description
#---------    ------------    -------------------------------------------
DEPT.M                    :   DEPTH
CALI.MM       42 280  1  1:   3 DENSITY CALIPER
DPHI.V/V                  :   DPHI
DT  .US/M     60 520  0  1:   2 SONIC INTERVAL TRANSIT TIME (COMPENSATED)
GR  .GAPI     42 310  1  1:   4 GAMMA RAY
ILD .OHMM      5 120 46  1:   7 DEEP INDUCTION
ILM .OHMM      5 120 44  1:   8 MEDIUM INDUCTION
NPHI.V/V      42 890  3  1:   5 NEUTRON POROSITY (SANDSTONE)
RHOB.K/M3     42 350  1  1:   6 BULK DENSITY
SFLU.OHMM      5 220  1  1:   9 FOCUSSED RESISTIVITY
SP  .MV        5  10  1  1:   10 SPONTANEOUS POTENTIAL
~A  Depth           CALI        DPHI          DT          GR         ILD         ILM        NPHI        RHOB        SFLU          SP
# ...
173.6000        156.8500      0.2780    367.0400     29.6700     41.6706     78.6738      0.3824   2183.0000    188.7252     62.1450
173.8000        156.8500      0.2763    368.1600     32.1750     33.7155     62.4928      0.3820   2191.0000    208.8478     66.4050
174.0000        158.1250      0.2713    373.9200     40.6800     23.5413     29.3921      0.3742   2208.0000     66.0435     71.4600
174.2000        159.4000      0.2732    378.0000     46.3800     20.8848     22.5025      0.3720   2201.0000     30.7489     74.0550
174.4000        159.4000      0.2637    387.5200     50.0850     18.5281     18.7167      0.3502   2192.0000     17.5319     72.5100
174.6000        153.0500      0.2410    391.1200     47.5800     15.6975     15.4252      0.3504   2209.0000     11.7986     88.4100
174.8000        149.2500      0.2084    387.5200     42.2850     15.2697     15.0048      0.3588   2265.0000     12.4690     93.8550
175.0000        151.7750      0.1916    380.6400     36.5700     14.9910     14.8672      0.4000   2337.0000     21.0780     89.2500
175.2000        161.9250      0.2233    383.7600     32.7750     14.9910     15.2838      0.4276   2331.0000     28.0434     77.2500
175.4000        154.3250      0.2639    401.1600     31.2750     15.2697     15.5679      0.4336   2266.0000     25.3414     71.7000
175.6000        150.5000      0.2868    406.5600     29.7750     15.6975     15.2838      0.4316   2163.0000     24.4247     73.9500
175.8000        147.9750      0.3040    407.2000     27.8700     16.1373     15.4252      0.4412   2126.0000     23.3254     72.5550
176.0000        147.9750      0.3107    412.1200     27.1800     16.4373     16.4524      0.4444   2140.0000     28.8290     54.7050
176.2000        147.9750      0.3042    413.6000     26.5800     16.7429     16.6047      0.4366   2146.0000     30.7489     60.1500
176.4000        150.5000      0.3020    415.7200     25.8750     17.6942     16.9134      0.4200   2145.0000     30.4670     67.2600
176.6000        151.7750      0.2957    415.4000     24.7800     21.6686     18.8899      0.4112   2176.8999     30.7489     64.9500
176.8000        151.7750      0.2855    413.7600     25.1700     24.4247     20.3343      0.4024   2182.0000     31.0334     66.8100
177.0000        151.7750      0.2793    412.2800     25.6800     27.5315     23.3469      0.3960   2187.0000     29.9109     66.3600
177.2000        150.5000      0.2844    414.7600     25.9800     34.9808     33.7466      0.3986   2158.0000     67.2713     61.9500
177.4000        151.7750      0.2945    411.3200     26.2800     42.0562     39.0688      0.4062   2138.0000     96.3452     58.9050
177.6000        151.7750      0.2984    404.7600     26.3700     51.0305     44.8570      0.4192   2145.0000     87.8678     55.3950
177.8000        154.3250      0.2925    386.7200     27.7800     75.8281     80.8779      0.4128   2153.0000     92.8603     63.9450
178.0000        154.3250      0.2905    386.7200     27.4800     83.9131    110.6190      0.3940   2174.0000    154.1097     69.1050
178.2000        151.7750      0.2812    383.1200     27.2700     86.2641    137.9844      0.3818   2161.0000    288.2902     71.8500
178.4000        156.8500      0.2732    381.1200     29.5800     80.8779    145.8243      0.3776   2196.0000    420.5619     71.5500
178.6000        156.8500      0.2706    381.2800     32.4750     60.2324     81.6263      0.3674   2210.0000    346.6011     81.0000
178.8000        160.6750      0.2658    379.1600     36.6750     51.5027     56.4716      0.3576   2209.0000    144.4874     80.1600
179.0000        160.6750      0.2542    376.0400     40.0800     43.2345     44.8570      0.3478   2210.0000     63.0710     77.7600
179.2000        159.4000      0.2417    376.7200     38.1750     35.3045     32.8269      0.3432   2244.0000     40.5350     76.2000
179.4000        153.0500      0.2302    376.5600     34.2750     34.9808     30.2155      0.3396   2250.0000     39.4303     79.4550
179.6000        151.7750      0.2319    375.8800     31.3800     36.2936     30.2155      0.3536   2255.0000     36.9683     76.2000
179.8000        150.5000      0.2457    377.3600     26.7750     41.6706     38.0041      0.3626   2282.0000     54.9326     60.1050
180.0000        150.5000      0.2579    376.3600     23.4750     46.1137     45.2720      0.3726   2258.0000    104.6719     52.0050
180.2000        149.2500      0.2697    377.2000     22.2750     54.4289     53.4355      0.3952   2260.0000    181.8988     46.6050
180.4000        151.7750      0.2803    380.6400     22.7700     80.8779     81.6263      0.3978   2218.0000    228.9971     37.6500
180.6000        151.7750      0.2891    386.5600     22.2750     99.9608     99.9608      0.4022   2192.0000    224.8174     31.2450
180.8000        151.7750      0.3013    396.4000     22.1700    115.8324    117.9859      0.4090   2185.0000    226.8976     33.0450
181.0000        153.0500      0.3131    407.0400     23.3700    112.6756    140.5497      0.4112   2132.0000    242.0081     33.7950
181.2000        153.0500      0.3226    409.0000     25.2750     94.5867    135.4659      0.4110   2109.0000    242.0081     33.6000
181.4000        153.0500      0.3199    407.7200     27.1800     74.4440    104.6719      0.4152   2106.0000    224.8174     38.5950
181.6000        158.1250      0.3185    405.5600     31.9800     55.4409     68.5220      0.4140   2114.0000    192.2339     40.2000
181.8000        159.4000      0.3136    404.6000     35.7750     36.2936     29.6640      0.4134   2117.0000     60.2324     50.5950
182.0000        159.4000      0.3037    407.2000     40.7850     30.1877     23.7810      0.4146   2142.0000     29.9109     59.1450
182.2000        163.2000      0.3036    413.4400     47.7750     24.8788     20.5225      0.4028   2146.0000     20.8848     70.4550
182.4000        155.5750      0.2973    430.8400     63.0900     18.1899     15.7119      0.3830   2137.0000     13.4224     87.1500
182.6000        151.7750      0.2635    432.4800     67.3950     16.5894     14.3295      0.3598   2149.0000     10.1819     96.6600
182.8000        151.7750      0.2325    430.3200     68.2950     15.5536     13.5591      0.3534   2187.8999      9.4587    104.1600
183.0000        153.0500      0.2137    412.8000     66.4950     14.3163     12.7125      0.3690   2289.0000     11.5832    108.7050
183.2000        159.4000      0.1822    404.9200     63.6900     14.0550     12.3660      0.3842   2332.0000     11.7986    109.1100
183.4000        161.9250      0.1613    400.1600     60.2850     13.9261     12.2526      0.3962   2395.0000     10.9605    108.5550
183.6000        160.6750      0.1644    395.4000     51.5850     13.6719     12.4804      0.3922   2402.0000     10.1819     98.7150
183.8000        163.2000      0.1669    398.2000     47.7750     13.6719     12.8301      0.3938   2382.0000     11.0619     95.4600
184.0000        160.6750      0.1731    401.8000     45.0750     13.5466     12.8301      0.4016   2372.0000     14.4487     86.7000
184.2000        155.5750      0.1732    406.0800     42.9750     13.6719     12.4804      0.3878   2364.8999     16.7429     80.1600
184.4000        154.3250      0.1853    400.6400     41.8800     14.1850     12.3660      0.3778   2379.0000     15.6975     71.9100
184.6000        153.0500      0.2004    391.3200     38.7750     14.9910     12.4804      0.3808   2356.0000     13.9261     70.1550
184.8000        150.5000      0.2080    387.6800     30.5700     16.1373     13.3116      0.3894   2310.0000     12.5843     68.5050
185.0000        149.2500      0.2232    394.7600     29.1750     20.6933     18.2066      0.4046   2280.0000     18.3582     72.6600
185.2000        153.0500      0.2516    401.3200     28.3800     24.4247     23.5630      0.4066   2249.0000     32.7967     68.6550
185.4000        151.7750      0.2731    408.2000     27.7800     30.1877     31.6395      0.3808   2219.0000     77.2378     63.9000
185.6000        151.7750      0.2909    405.2400     27.5700     57.5215     58.0537      0.3758   2130.0000    242.0081     62.5050
