~VERSION INFORMATION
 VERS.                 2.0:   CWLS LOG ASCII STANDARD -VERSION 2.0
 WRAP.                  NO:   ONE LINE PER DEPTH STEP
~WELL INFORMATION BLOCK
#MNEM.UNIT           DATA                    DESCRIPTION OF MNEMONIC
#---------    -------------------            -------------------------------
# Generated from Intellog Unique Number	CW_82_90/WELL/3419
WELL.         UNION MINK OV                  : Well_name    - WELL
LOC .         AA/06-11-089-20W4/0            : Location     - LOCATION
UWI .         AA/06-11-089-20W4/0            : Uwi          - UNIQUE WELL ID
ENTR.         MAX                            : Entered      - ENTERED BY
SRVC.         SCHLUMBERGER                   : Scn          - SERVICE COMPANY
STRT.M        120                            : top_depth    - START DEPTH
STOP.M        245                            : bot_depth    - STOP DEPTH
STEP.M        0.25                           : increment    - STEP LENGTH
 NULL. -999.2500:NULL Value
~CURVE INFORMATION BLOCK
#MNEM UNIT       ERCB CURVE CODE    CURVE DESCRIPTION
#-----------   ------------------   ----------------------------------
DEPT.M        00 001 00 00         : DEPTH        - DEPTH
GR  .API      00 310 00 00         : GR           - GAMMA RAY
CALI.MM       00 280 01 00         : CAL          - CALIPER
DPHI.V/V      00 890 00 00         : PHID         - DENSITY POROSITY (SANDSTONE)
NPHI.V/V      00 330 00 00         : PHIN         - NEUTRON POROSITY (SANDSTONE)
ILD .OHMM     00 120 00 00         : RESD         - DEEP RESISTIVITY (DIL)
~PARAMETER INFORMATION
#MNEM.UNIT           DATA             DESCRIPTION OF MNEMONIC
#---------         -----------     ------------------------------
GL  .M        512.6                : gl           - GROUND LEVEL ELEVATION
EREF.M        516.91               : kb           - ELEVATION OF DEPTH REFERENCE
DATM.M        512.6                : datum        - DATUM ELEVATION
TDD .M        275                  : tdd          - TOTAL DEPTH DRILLER
RUN .         ONE                  : Run          - RUN NUMBER
ENG .         BILL                 : Engineer     - RECORDING ENGINEER
WIT .         JIM                  : Witness      - WITNESSED BY
MUD .         GEL                  : Mud_type     - MUD TYPE
MATR.         SANDSTONE            : Logunit      - NEUTRON MATRIX
TMAX.C        18                   : BHT          - MAXIMUM RECORDED TEMPERATURE
BHTD.M        275                  : BHTDEP       - MAXIMUM RECORDED TEMPERATURE
MATR.         1                    : LOGUNIT      - NEUTRON MATRIX
RMT .C        17                   : MDTP         - TEMPERATURE OF MUD
NEUT.         1                    : NEUTRON      - NEUTRON TYPE
RESI.         0                    : RESIST       - RESISTIVITY TYPE
RMC .OHMM     3.8                  : RMC          - RESISTIVITY OF MUD CAKE
RMF .OHMM     3.8                  : RMF          - RESISTIVITY OF MUD FILTRATE
SUFT.C        -15                  : SUFT         - SURFACE TEMPERATURE
~A  DEPTH       GR      CAL     PHID     PHIN     RESD
  120.000   64.895  373.879    0.399    0.515    7.494
  120.250   66.677  362.818    0.394    0.502    6.072
  120.500   70.254  356.263    0.303    0.497    4.964
  120.750   74.139  370.248    0.423    0.524    4.696
  121.000   78.320  380.722    0.420    0.545    4.483
  121.250   79.195  376.676    0.397    0.556    4.359
  121.500   78.572  375.629    0.382    0.551    4.316
  121.750   77.647  377.086    0.381    0.548    4.596
  122.000   76.715  377.556    0.398    0.555    4.805
  122.250   76.093  375.012    0.413    0.559    4.846
  122.500   78.773  371.467    0.427    0.546    4.754
  122.750   79.650  369.418    0.441    0.541    4.622
  123.000   78.120  369.884    0.457    0.557    4.493
  123.250   76.296  372.838    0.481    0.583    4.329
  123.500   74.166  375.306    0.498    0.589    4.287
  123.750   73.845  377.764    0.507    0.568    4.604
  124.000   75.923  376.221    0.535    0.551    4.358
  124.250   77.401  374.183    0.478    0.549    4.354
  124.500   75.274  373.136    0.455    0.552    4.390
  124.750   74.048  374.102    0.483    0.540    4.387
  125.000   73.119  374.052    0.505    0.543    4.383
  125.250   72.795  372.519    0.519    0.539    4.380
  125.500   73.672  370.471    0.507    0.538    4.376
  125.750   74.549  368.928    0.502    0.536    4.372
  126.000   72.421  373.890    0.516    0.533    4.368
  126.250   68.789  372.352    0.504    0.527    4.364
  126.500   65.163  366.298    0.497    0.528    4.361
  126.750   64.838  357.746    0.507    0.544    4.645
  127.000   62.705  364.720    0.525    0.529    5.037
  127.250   60.581  369.677    0.536    0.550    5.033
  127.500   57.549  369.647    0.511    0.527    5.029
  127.750   56.320  370.102    0.500    0.511    5.024
  128.000   56.296  370.562    0.522    0.524    5.021
  128.250   57.176  370.522    0.539    0.538    5.202
  128.500   55.045  369.485    0.547    0.559    5.343
  128.750   51.723  368.443    0.556    0.580    5.587
  129.000   44.485  367.897    0.547    0.572    5.950
  129.250   39.954  369.358    0.532    0.545    6.452
  129.500   36.325  371.326    0.539    0.537    6.872
  129.750   35.697  371.275    0.564    0.564    7.453
  130.000   37.175  367.725    0.566    0.590    7.180
  130.250   38.953  367.189    0.549    0.586    6.731
  130.500   41.633  370.653    0.545    0.577    6.543
  130.750   45.517  371.114    0.549    0.572    6.719
  131.000   50.300  369.576    0.554    0.574    7.220
  131.250   55.983  354.014    0.532    0.578    7.085
  131.500   60.766  361.985    0.515    0.567    6.764
  131.750   66.146  344.910    0.495    0.530    6.517
  132.000   70.331  356.897    0.487    0.505    5.998
  132.250   75.114  329.307    0.425    0.515    5.572
  132.500   77.793  359.309    0.405    0.487    5.271
  132.750   80.773  351.262    0.342    0.494    5.031
  133.000   84.351  364.741    0.354    0.493    4.760
  133.250   87.334  357.190    0.333    0.493    4.503
  133.500   83.104  351.642    0.345    0.502    4.299
  133.750   75.569  350.094    0.383    0.530    4.030
  134.000   70.131  362.577    0.457    0.542    3.777
  134.250   68.307  368.039    0.529    0.553    3.509
  134.500   66.180  369.005    0.547    0.562    3.350
  134.750   64.954  364.458    0.560    0.567    3.198
  135.000   64.629  351.895    0.542    0.543    3.109
  135.250   63.704  361.869    0.539    0.552    2.968
  135.500   61.877  366.335    0.554    0.570    2.912
  135.750   58.247  349.270    0.534    0.580    2.857
  136.000   57.923  317.685    0.486    0.568    2.855
  136.250   61.804  330.162    0.504    0.555    2.878
  136.500   65.085  344.642    0.542    0.553    3.010
  136.750   68.966  358.121    0.548    0.556    3.235
  137.000   72.544  348.066    0.520    0.540    3.541
  137.250   75.827  340.515    0.459    0.524    4.056
  137.500   74.298  330.456    0.385    0.505    4.521
  137.750   70.368  337.926    0.421    0.511    5.179
  138.000   64.335  357.919    0.457    0.528    5.617
  138.250   64.311  354.373    0.489    0.542    5.982
  138.500   63.986  336.803    0.480    0.494    6.487
  138.750   61.859  345.270    0.504    0.532    6.973
  139.000   57.328  340.227    0.521    0.530    7.772
  139.250   50.989  353.706    0.513    0.533    9.066
  139.500   48.564  357.171    0.528    0.548    9.745
  139.750   45.229  361.631    0.543    0.564    9.561
  140.000   43.108  364.100    0.559    0.571    8.642
  140.250   38.878  363.558    0.571    0.581    7.530
  140.500   35.846  360.013    0.584    0.596    7.124
  140.750   35.522  354.966    0.569    0.596    6.739
  141.000   39.403  351.420    0.534    0.593    6.492
  141.250   44.185  351.875    0.507    0.560    6.312
  141.500   49.572  356.341    0.501    0.522    6.137
  141.750   48.646  349.291    0.510    0.562    6.187
  142.000   45.311  341.239    0.563    0.588    6.711
  142.250   43.785  334.684    0.459    0.524    7.549
  142.500   44.662  341.659    0.428    0.453    8.262
  142.750   44.337  365.648    0.439    0.450    8.640
  143.000   43.111  344.582    0.471    0.484    8.554
  143.250   41.885  340.030    0.500    0.573    8.242
  143.500   42.164  347.005    0.570    0.599    7.939
  143.750   42.140  355.977    0.542    0.600    7.932
  144.000   43.318  361.440    0.507    0.600    8.682
  144.250   46.598  352.392    0.441    0.571    9.856
  144.500   50.780  338.326    0.425    0.527   10.213
  144.750   50.455  334.776    0.440    0.494   10.020
  145.000   47.120  349.261    0.472    0.528    9.478
  145.250   45.290  370.751    0.573    0.566    8.725
  145.500   46.774  355.189    0.597    0.602    7.886
  145.750   51.857  341.123    0.596    0.602    7.259
  146.000   56.036  357.111    0.558    0.569    7.123
  146.250   59.617  360.570    0.499    0.515    7.448
  146.500   61.696  348.017    0.420    0.481    8.151
  146.750   62.272  341.467    0.370    0.455    7.711
  147.000   61.950  327.897    0.342    0.441    7.033
  147.250   60.721  317.838    0.313    0.446    6.474
  147.500   59.492  339.834    0.350    0.471    5.906
  147.750   59.474  368.344    0.373    0.498    5.338
  148.000   60.351  367.302    0.541    0.552    4.869
  148.250   60.023  361.248    0.552    0.567    4.523
  148.500   58.197  355.700    0.553    0.586    4.397
  148.750   58.773  362.174    0.539    0.578    4.556
  149.000   58.452  364.632    0.496    0.571    5.315
  149.250   57.827  356.074    0.456    0.558    6.490
  149.500   60.203  353.535    0.437    0.521    9.003
  149.750   62.281  358.997    0.403    0.446   10.219
  150.000   62.257  364.470    0.407    0.431    9.579
  150.250   60.430  365.927    0.438    0.471    8.578
  150.500   57.402  365.881    0.478    0.586    7.969
  150.750   50.167  364.344    0.511    0.601    7.748
  151.000   46.231  361.805    0.568    0.604    8.102
  151.250   46.814  358.755    0.569    0.601    9.115
  151.500   47.391  352.711    0.507    0.571   11.128
  151.750   48.565  333.638    0.458    0.503   13.588
  152.000   49.142  327.084    0.423    0.434   16.744
  152.250   49.114  325.536    0.340    0.388   19.357
  152.500   49.090  323.993    0.269    0.347   19.165
  152.750   49.970  323.457    0.221    0.305   16.103
  153.000   51.448  323.913    0.233    0.320   13.167
  153.250   53.223  326.876    0.264    0.359   10.766
  153.500   55.599  332.349    0.320    0.381    8.643
  153.750   56.783  341.326    0.365    0.407    6.939
  154.000   58.561  348.797    0.432    0.454    6.565
  154.250   61.541  339.738    0.514    0.598    6.499
  154.500   59.411  331.186    0.452    0.540    7.245
  154.750   55.481  334.650    0.396    0.469    9.008
  155.000   53.657  326.098    0.354    0.437   11.100
  155.250   53.330  317.545    0.340    0.433   11.608
  155.500   52.705  308.988    0.370    0.424    9.235
  155.750   55.985  307.440    0.368    0.409    7.214
  156.000   60.170  313.413    0.366    0.425    6.403
  156.250   62.849  323.888    0.406    0.465    5.893
