~Version : LASO    vs 4.00
VERS.                2.00:   CWLS Log ASCII Standard -VERSION 2.0
WRAP.                  NO:
~Well Information Block
#MNEM.UNIT       Data                        Description of Mnemonic
#----.----      -------------------------- : -----------------------------
COMP.                                     : COMPANY
FLD .    WILDCAT                          : FIELD NAME
LOC .    02-32-090-08W4                   : WELL LOCATION
UWI .    AA/02-32-090-08W400              : UNIQUE WELL ID
STRT.M             0.0000:
STOP.M           201.3750:
STEP.M             0.1250:
NULL.           -999.2500:
COMP.  :COMPANY
WELL.  MOBIL CLARKE OV 2-32:WELL
FLD.   :FIELD
LOC.   :LOCATION
CTRY.  :COUNTRY
PROV.  ALBERTA:PROVINCE
SRVC.  DRESSER ATLAS:SERVICE COMPANY
DATE.  17-FEB-81:LOG DATE
UWI.   :UNIQUE WELL ID
~Parameter Information Block
#MNEM.UNIT       Data                        Description of Mnemonic
#----.----      -------------------------- : -----------------------------
RUN .                   1                 : Run Number
GL  .M           431.8000                 : Ground Level Elevation
DREF.                  KB                 : Depth Reference
EREF.M           431.8000                 : Elevation of Depth Reference
TDL .M           202.0000                 : Total Depth Logger
TDD .M           201.6000                 : Total Depth Driller
BHT .DEGC         20.0000                 : Bottom Hole Temperature
BS  .MM          159.0000                 : Bit Size
DFD .             10.3000                 : Mud Weight (Density)
DFV .             85.0000                 : Mud Viscosity
DFPH.             10.0000                 : Mud pH
RM  .OHMM          4.9000                 : Mud Resistivity
RMT .DEGC         20.0000                 : Mud Resistivity Temperature
RMF .OHMM          4.7000                 : Mud Filtrate Resistivity
RMFT.DEGC         10.0000                 : RMF Temperature
RMC .OHMM          9.5000                 : Mud Cake Resistivity
RMCT.DEGC         10.0000                 : RMC Temperature
~Curve Information Block
#MNEM.UNIT        API CODE    Curve Description
#---------    ------------    -------------------------------------------
DEPT.M                    :   DEPTH
CALI.MM       42 280  1  1:   3 DENSITY CALIPER
DPHI.V/V                  :   DPHI
DT  .US/M     60 520 42  1:   2 SONIC INTERVAL TRANSIT TIME (COMPENSATED)
GR  .GAPI     42 310  1  1:   4 GAMMA RAY
IL  .OHMM      5 120 45  1:   7 INDUCTION
NPHI.V/V      42 890  3  1:   5 NEUTRON POROSITY (SANDSTONE)
RHOB.K/M3     42 350  1  1:   6 BULK DENSITY
SFL .OHMM      5 220  6  1:   8 FOCUSSED RESISTIVITY
SP  .MV        5  10  1  1:   9 SPONTANEOUS POTENTIAL
~A  Depth           CALI        DPHI          DT          GR          IL        NPHI        RHOB         SFL          SP
# ...
134.0000        157.3500      0.2491    414.7200     91.0350     10.8000      0.3386   2235.3999     19.2100    -49.3700
134.1250        157.9500      0.2523    414.4800     89.8350     10.7400      0.3365   2217.1001     19.7600    -49.6200
134.2500        158.3250      0.2558    417.8800     87.5100     10.7400      0.3422   2204.7000     18.7800    -49.8700
134.3750        158.3250      0.2554    440.4800     87.6900     10.6800      0.3461   2210.3000     18.0450    -49.2500
134.5000        158.3250      0.2543    458.4000     87.2700     10.6800      0.3396   2216.2000     17.9250    -49.0000
134.6250        159.3000      0.2522    440.7200     88.1850     10.7400      0.3347   2218.7000     18.7800    -49.5000
134.7500        159.2500      0.2499    440.9600     87.6150     10.7400      0.3407   2221.1001     18.0450    -49.1200
134.8750        158.5750      0.2466    427.7200     88.1250     10.8000      0.3449   2230.2000     16.5150    -48.1300
135.0000        158.2750      0.2439    429.6800     89.3550     10.8000      0.3376   2233.3000     15.2900    -46.6300
135.1250        158.2750      0.2415    429.6800     90.7650     10.8600      0.3355   2235.2000     16.7600    -46.7600
135.2500        157.6000      0.2391    423.0400     87.1950     10.8600      0.3342   2249.7000     18.3500    -47.5000
135.3750        156.4500      0.2375    420.1200     82.9200     10.9250      0.3331   2253.0000     19.0250    -47.7500
135.5000        157.2500      0.2370    423.8000     83.6850     10.9850      0.3424   2239.1001     18.7200    -47.1300
135.6250        157.7500      0.2379    425.5200     86.6850     11.1100      0.3475   2226.5000     18.6600    -47.1300
135.7500        158.7500      0.2415    429.2000     88.0800     11.2300      0.3508   2223.2000     18.2900    -47.0000
135.8750        159.2250      0.2404    443.4400     88.8900     11.3550      0.3493   2227.8000     18.0450    -46.8800
136.0000        158.3750      0.2380    471.6400     85.3650     11.2900      0.3575   2233.8999     17.6150    -47.1300
136.1250        157.4750      0.2378    492.0000     82.9200     11.2900      0.3620   2238.7000     17.3700    -46.7600
136.2500        159.8500      0.2400    451.5200     81.7200     11.2300      0.3610   2242.1001     17.5550    -45.5100
136.3750        159.1750      0.2424    435.0800     83.4300     11.1700      0.3567   2245.1001     17.6800    -45.1400
136.5000        159.1750      0.2426    437.2800     87.1050     11.1100      0.3534   2231.7000     17.7400    -45.3900
136.6250        158.5250      0.2404    436.3200     87.6300     11.1100      0.3534   2222.5000     18.1050    -45.6300
136.7500        159.1500      0.2381    438.0400     85.7700     11.1100      0.3539   2221.3000     18.2300    -45.8800
136.8750        160.1750      0.2357    451.5200     85.3500     11.1100      0.3410   2223.0000     16.4550    -45.1400
137.0000        160.8500      0.2333    475.5600     83.6400     11.1700      0.3466   2240.0000     15.2900    -44.0200
137.1250        161.1250      0.2319    488.0800     85.0950     11.2900      0.3543   2246.0000     16.3300    -43.5200
137.2500        161.1250      0.2306    440.4800     87.8250     11.4150      0.3580   2248.3000     17.8600    -44.5100
137.3750        161.1250      0.2285    403.9200     90.5850     11.6000      0.3548   2257.3999     17.6800    -45.2600
137.5000        161.1000      0.2288    418.4000     87.7350     11.7200      0.3641   2260.7000     16.5150    -44.7600
137.6250        161.1000      0.2309    420.3600     83.7450     11.9650      0.3618   2262.5000     16.8800    -44.5100
137.7500        160.8750      0.2330    419.1200     81.0750     12.1500      0.3558   2265.0000     18.2300    -45.7600
137.8750        160.0750      0.2363    382.5600     81.7350     12.3350      0.3521   2263.3999     20.0700    -47.1300
138.0000        160.0750      0.2416    395.3200     80.8050     12.5200      0.3461   2255.6001     21.2300    -48.5000
138.1250        160.0500      0.2475    428.9600     78.6900     12.6400      0.3422   2213.7000     20.9850    -49.7400
138.2500        159.8250      0.2527    431.1600     77.6400     12.8250      0.3373   2206.7000     20.0050    -50.3700
138.3750        159.1500      0.2549    435.3200     78.8550     12.9500      0.3430   2203.3999     19.7000    -49.9900
138.5000        158.1500      0.2547    439.4800     80.5050     13.0700      0.3444   2205.8000     19.4550    -49.6200
138.6250        157.1250      0.2563    449.0800     81.9000     13.1300      0.3424   2209.0000     18.2900    -49.5000
138.7500        157.0250      0.2567    447.3600     81.1350     13.1950      0.3458   2212.8999     18.1050    -49.2500
138.8750        157.0000      0.2568    429.9200     79.0200     13.1300      0.3455   2211.8999     19.0900    -49.2500
139.0000        157.0000      0.2577    425.2800     78.9900     13.1300      0.3461   2216.7000     19.9450    -49.6200
139.1250        158.0000      0.2596    422.8000     78.4200     13.1300      0.3500   2212.0000     19.6400    -50.2400
139.2500        157.4250      0.2602    429.2000     80.5500     13.1300      0.3440   2202.2000     19.7600    -50.6200
139.3750        156.9750      0.2581    466.4800     82.6650     13.1950      0.3356   2204.7000     20.3150    -50.1200
139.5000        156.5750      0.2568    502.0400     82.7850     13.1950      0.3349   2210.0000     20.2500    -50.1200
139.6250        155.9500      0.2560    457.6400     80.1000     13.2550      0.3438   2213.2000     18.7200    -49.5000
139.7500        155.9500      0.2544    441.4400     79.7550     13.3150      0.3443   2216.5000     17.3700    -47.8800
139.8750        155.9250      0.2510    438.7600     83.3700     13.3750      0.3372   2219.7000     17.2500    -47.3800
140.0000        156.7750      0.2485    432.1200     84.0000     13.3750      0.3334   2222.8999     18.1050    -47.6300
140.1250        157.9250      0.2441    427.4800     84.8850     13.3150      0.3329   2234.0000     19.2100    -47.6300
140.2500        157.9000      0.2413    426.7200     84.7950     13.3150      0.3341   2243.0000     19.9450    -47.2500
140.3750        157.9000      0.2379    425.2800     85.2750     13.3750      0.3368   2244.6001     20.7400    -46.7600
140.5000        157.9000      0.2372    425.2800     87.6900     13.4400      0.3400   2238.5000     20.6200    -46.8800
140.6250        158.7250      0.2379    425.2800     87.7200     13.4400      0.3426   2236.7000     20.0700    -47.5000
140.7500        158.8750      0.2399    426.0000     89.3850     13.5600      0.3514   2244.0000     20.0050    -47.7500
140.8750        158.8750      0.2404    429.9200     91.9650     13.5600      0.3452   2255.3999     20.1300    -48.0000
141.0000        158.5750      0.2405    433.8400     90.5550     13.5600      0.3437   2259.5000     20.5600    -48.1300
141.1250        157.8750      0.2423    453.7200     90.2250     13.4400      0.3490   2257.3000     19.8250    -48.0000
141.2500        157.8500      0.2454    491.0400     92.5650     13.3150      0.3556   2251.2000     18.7200    -47.8800
141.3750        159.8250      0.2463    432.8800     89.1300     13.1300      0.3581   2235.3000     17.6150    -47.2500
141.5000        159.8250      0.2482    437.2800     87.6750     12.9500      0.3563   2233.3999     18.2300    -46.5100
141.6250        159.2500      0.2496    437.0400     88.9950     12.8250      0.3605   2235.0000     19.3950    -46.8800
141.7500        158.2250      0.2517    438.2800     89.2800     12.7050      0.3644   2236.2000     19.9450    -47.1300
141.8750        157.5500      0.2532    445.1200     89.7900     12.7050      0.3669   2225.8999     19.0900    -46.2600
142.0000        156.7750      0.2561    443.1600     92.7600     12.7650      0.3610   2221.7000     17.8000    -44.7600
142.1250        156.9500      0.2570    441.2000     94.0350     12.8250      0.3610   2216.6001     16.2700    -43.5200
142.2500        157.7750      0.2590    440.2400     92.8500     12.8850      0.3565   2217.0000     16.2100    -43.2700
