~VERSION INFORMATION
 VERS.                 2.0:   CWLS LOG ASCII STANDARD -VERSION 2.0
 WRAP.                  NO:   ONE LINE PER DEPTH STEP
~WELL INFORMATION BLOCK
#MNEM.UNIT           DATA                    DESCRIPTION OF MNEMONIC
#---------    -------------------            -------------------------------
# Generated from Intellog Unique Number	CC_88_90/WELL/2373
WELL.         TRIAD OIL CO.                  : Well_name    - WELL
LOC .         AA/02-02-089-12W4/0            : Location     - LOCATION
UWI .         AA/02-02-089-12W400            : Uwi          - UNIQUE WELL ID
ENTR.         JOETTE                         : Entered      - ENTERED BY
SRVC.         SCHLUMBERGER                   : Scn          - SERVICE COMPANY
DATE.         03/11/92                       : Date         - LOG DATE
STRT.M        60.960                         : top_depth    - START DEPTH
STOP.M        161.960                        : bot_depth    - STOP DEPTH
STEP.M        0.25                           : increment    - STEP LENGTH
 NULL. -999.2500:NULL Value
~CURVE INFORMATION BLOCK
#MNEM UNIT       ERCB CURVE CODE    CURVE DESCRIPTION
#-----------   ------------------   ----------------------------------
DEPT.M        00 001 00 00         : DEPTH        - DEPTH
GR  .API      00 310 00 00         : GR           - GAMMA RAY
NPHI.V/V      00 330 00 00         : PHIN         - NEUTRON POROSITY (SANDSTONE)
ILD .OHMM     00 120 00 00         : RESD         - DEEP RESISTIVITY (DIL)
~PARAMETER INFORMATION
#MNEM.UNIT           DATA             DESCRIPTION OF MNEMONIC
#---------         -----------     ------------------------------
GL  .M        463.357              : gl           - GROUND LEVEL ELEVATION
EREF.M        465.094              : kb           - ELEVATION OF DEPTH REFERENCE
DATM.M        465.094              : datum        - DATUM ELEVATION
TDD .M        189.281              : tdd          - TOTAL DEPTH DRILLER
RUN .         ONE                  : Run          - RUN NUMBER
ENG .         JO                   : Engineer     - RECORDING ENGINEER
WIT .         TIM                  : Witness      - WITNESSED BY
MUD .         GEL                  : Mud_type     - MUD TYPE
MATR.         SANDSTONE            : Logunit      - NEUTRON MATRIX
TMAX.C        17.7778              : BHT          - MAXIMUM RECORDED TEMPERATURE
BHTD.M        189.281              : BHTDEP       - MAXIMUM RECORDED TEMPERATURE
RMT .C        17.7778              : MDTP         - TEMPERATURE OF MUD
MUDD.KG/M     1090                 : MWT          - MUD DENSITY
NEUT.         1                    : NEUTRON      - NEUTRON TYPE
RESI.         0                    : RESIST       - RESISTIVITY TYPE
RM  .OHMM     8.56                 : RM           - RESISTIVITY OF MUD
RMC .OHMM     8.56                 : RMC          - RESISTIVITY OF MUD CAKE
RMF .OHMM     8.56                 : RMF          - RESISTIVITY OF MUD FILTRATE
SUFT.C        4                    : SUFT         - SURFACE TEMPERATURE
~A  DEPTH       GR     PHIN     RESD
   60.960   85.425    0.440   11.322
   61.210   84.199    0.450    8.563
   61.460   87.275    0.459    6.275
   61.710   96.496    0.451    6.110
   61.960  112.478    0.439    5.474
   62.210  106.336    0.431    5.151
   62.460  105.725    0.440    5.694
   62.710  119.863    0.454    6.471
   62.960  127.241    0.466    6.701
   63.210  113.723    0.447    6.694
   63.460  111.268    0.455    6.687
   63.710  124.792    0.449    6.522
   63.960  121.108    0.443    7.694
   64.210  110.048    0.446    8.313
   64.460  109.437    0.458    7.836
   64.710  105.138    0.451    7.120
   64.960  102.683    0.449    6.406
   65.210  103.916    0.449    6.634
   65.460  112.523    0.450    6.784
   65.710  105.765    0.466    6.461
   65.960   93.477    0.474    6.141
   66.210  100.855    0.480    6.130
   66.460   95.942    0.457    6.203
   66.710  108.237    0.446    6.194
   66.960  115.614    0.440    6.267
   67.210  119.920    0.445    6.732
   67.460  127.297    0.469    7.117
   67.710  112.551    0.475    6.560
   67.960  104.565    0.460    6.787
   68.210  107.641    0.457    6.939
   68.460  118.706    0.464    6.379
   68.710  121.168    0.468    6.294
   68.960  121.171    0.459    6.522
   69.210  109.497    0.437    7.065
   69.460   90.449    0.444    7.686
   69.710   89.838    0.452    7.835
   69.960   93.528    0.442    7.513
   70.210   94.760    0.439    7.272
   70.460  108.899    0.446    6.707
   70.710  120.578    0.440    6.545
   70.960  126.727    0.451    6.461
   71.210  125.501    0.462    6.294
   71.460  106.453    0.474    6.291
   71.710   84.331    0.472    6.203
   71.960   97.856    0.458    6.196
   72.210   89.255    0.441    6.030
   72.460   91.102    0.447    5.867
   72.710   99.094    0.463    5.624
   72.960   99.712    0.474    6.165
   73.210  102.173    0.470    6.396
   73.460   96.030    0.463    6.546
   73.710  102.794    0.434    6.538
   73.960  124.307    0.436    6.292
   74.210  135.987    0.446    6.127
   74.460  129.230    0.454    6.043
   74.710  116.941    0.464    6.036
   74.960  102.195    0.464    6.182
   75.210  112.646    0.469    6.336
   75.460  114.493    0.464    6.482
   75.710  118.183    0.461    6.479
   75.960  121.874    0.460    6.311
   76.210  118.189    0.460    6.305
   76.460  115.734    0.457    6.218
   76.710  118.196    0.456    6.287
   76.960  120.043    0.464    6.126
   77.210  108.984    0.472    5.883
   77.460  100.998    0.471    5.717
   77.710  102.229    0.473    5.788
   77.960  113.295    0.472    6.094
   78.210  102.850    0.488    6.010
   78.460  101.625    0.489    5.767
   78.710  104.701    0.489    5.052
   78.960  110.849    0.486    4.727
   79.210  112.082    0.484    4.486
   79.460  105.325    0.476    4.086
   79.710  109.630    0.483    4.393
   79.960  109.633    0.498    4.777
   80.210  107.792    0.503    4.691
   80.460  108.410    0.495    4.998
   80.710   99.809    0.486    5.227
   80.960   99.812    0.469    4.669
   81.210   97.972    0.461    4.582
   81.460   83.225    0.466    4.574
   81.710   88.145    0.470    4.565
   81.960   94.909    0.473    4.562
   82.210   89.380    0.478    4.631
   82.460   91.842    0.470    5.255
   82.710  101.678    0.493    6.269
   82.960  102.296    0.471    7.284
   83.210   93.081    0.440    7.119
   83.460  105.375    0.438    6.560
   83.710  120.742    0.450    6.631
   83.960  120.131    0.444    7.174
   84.210  117.061    0.421    7.087
   84.460  120.137    0.392    6.924
   84.710  109.079    0.410    7.545
   84.960   99.249    0.411    6.752
   85.210   94.949    0.416    7.610
   85.460   98.640    0.433    9.096
   85.710   99.258    0.427    8.617
   85.960  100.490    0.404    8.374
   86.210   98.650    0.403    8.524
   86.460   91.892    0.441    7.257
   86.710   96.197    0.456    6.857
   86.960  108.492    0.464    6.928
   87.210   94.975    0.447    7.000
   87.460   95.593    0.426    6.675
   87.710  102.356    0.411    6.196
   87.960   92.526    0.406    5.483
   88.210  101.747    0.430    5.004
   88.460  100.522    0.454    5.624
   88.710   89.463    0.443    6.010
   88.960   88.852    0.447    6.394
   89.210   94.386    0.464    6.703
   89.460   98.691    0.472    6.381
   89.710   95.621    0.447    5.902
   89.960   88.864    0.430    5.345
   90.210   91.325    0.447    5.652
   90.460  118.369    0.465    6.195
   90.710  104.852    0.455    6.345
   90.960   93.178    0.455    5.941
   91.210   90.723    0.447    5.464
   91.460   89.498    0.446    5.221
   91.710  112.239    0.445    6.157
   91.960  123.919    0.430    7.250
   92.210  113.475    0.410    8.186
   92.460  114.708    0.389    8.336
   92.710  114.710    0.384    6.517
   92.960  104.266    0.396    6.510
   93.210   98.738    0.416    5.169
   93.460   97.512    0.432    6.576
   93.710  109.806    0.444    8.378
   93.960  120.258    0.452    7.660
   94.210  110.427    0.436    7.576
   94.460  107.357    0.417    7.644
   94.710  109.819    0.393    7.326
   94.960  108.593    0.401    6.295
   95.210  108.597    0.387    4.559
   95.460  116.589    0.365    3.371
   95.710  112.290    0.415    3.128
   95.960   93.241    0.456    3.278
   96.210   87.099    0.483    3.976
   96.460   82.800    0.496    4.678
   96.710   80.960    0.482    5.693
   96.960   72.974    0.464    6.471
   97.210   64.987    0.446    7.093
   97.460   74.823    0.424    7.871
   97.710   83.430    0.408    7.548
   97.960   88.350    0.398    7.228
   98.210   96.957    0.431    6.985
   98.460  116.012    0.463    6.662
   98.710  106.797    0.479    6.181
   98.960  117.862    0.478    5.938
   99.210  127.084    0.458    5.852
   99.460  120.327    0.439    6.161
   99.710  116.642    0.429    6.862
   99.960  120.948    0.438    8.033
  100.210  124.024    0.425    7.319
  100.460  128.329    0.414    6.209
  100.710  116.655    0.428    5.652
  100.960  110.512    0.430    5.566
  101.210   95.766    0.448    6.030
  101.460   90.239    0.444    6.650
  101.710   97.002    0.442    6.407
  101.960  102.536    0.454    6.319
  102.210  110.528    0.461    6.312
  102.460  106.844    0.449    5.989
  102.710  111.764    0.428    5.828
  102.960  106.850    0.433    6.214
  103.210  108.697    0.444    7.385
  103.460  105.627    0.437    8.478
  103.710   93.954    0.423    7.762
  103.960   93.957    0.409    8.148
  104.210  104.408    0.403    7.749
  104.460  102.567    0.409    7.271
  104.710  110.560    0.409    6.633
  104.960  116.708    0.407    6.152
  105.210  103.806    0.411    6.067
  105.460   81.685    0.422    6.768
  105.710   82.302    0.422    8.176
  105.960  101.972    0.400    9.899
  106.210  102.590    0.378   11.778
  106.460   88.457    0.358    8.469
  106.710   79.857    0.361    8.147
  106.960   83.548    0.379    8.688
  107.210   81.093    0.414    8.445
  107.460   77.408    0.406    8.438
  107.710   94.619    0.393    9.452
  107.960  107.528    0.371    9.366
  108.210  105.073    0.373    8.495
  108.460   96.472    0.365    8.095
  108.710  105.079    0.370    8.166
  108.960  108.770    0.410    8.473
  109.210   95.867    0.407    7.835
  109.460   91.568    0.409    7.042
  109.710   87.884    0.430    6.563
  109.960   89.116    0.444    6.397
  110.210   77.443    0.430    7.335
  110.460   80.519    0.373   10.393
  110.710  111.865    0.317   23.674
  110.960  114.941    0.299    6.683
  111.210  114.329    0.333    6.125
  111.460  111.260    0.410    6.275
  111.710   84.836    0.424    6.582
  111.960   81.767    0.452    7.047
  112.210   84.843    0.455    7.431
  112.460   89.148    0.419    6.871
  112.710  103.900    0.416    6.471
  112.960  130.330    0.413    6.309
  113.210  124.188    0.413    6.066
  113.460  111.899    0.428    5.896
  113.710  104.529    0.461    5.892
  113.960  105.146    0.444    6.121
  114.210   91.013    0.455    6.428
  114.460   85.486    0.442    6.735
  114.710   83.031    0.410    7.197
  114.960   82.420    0.406    7.192
